     2.11           OBSERVATION DATA    G                   RINEX VERSION / TYPE
SPIDER V4,0,0,3554                      2015 03 15 00:41    PGM / RUN BY / DATE 
CKHR                                                        MARKER NAME         
CKHR                                                        MARKER NUMBER       
                                                            OBSERVER / AGENCY   
496547              LEICA GRX1200+GNSS  8.10/4.007          REC # / TYPE / VERS 
10301042            LEIAR25         NONE                    ANT # / TYPE        
  5141838.0877   498328.5776  3730203.3049                  APPROX POSITION XYZ 
        0.0720        0.0000        0.0000                  ANTENNA: DELTA H/E/N
     1     1                                                WAVELENGTH FACT L1/2
     4    C1    L1    P2    L2                              # / TYPES OF OBSERV 
    30.000                                                  INTERVAL            
  2015    02    22    06    42    0.0000000     GPS         TIME OF FIRST OBS   
  2015    02    22    23    59   30.0000000     GPS         TIME OF LAST OBS    
    16                                                      LEAP SECONDS        
    29                                                      # OF SATELLITES     
   G 1   218   218   218   218                              PRN / # OF OBS      
   G 2   936   936   936   936                              PRN / # OF OBS      
   G 3   367   367   367   367                              PRN / # OF OBS      
   G 4    87    87    87    87                              PRN / # OF OBS      
   G 5   630   630   630   630                              PRN / # OF OBS      
   G 6   760   760   759   759                              PRN / # OF OBS      
   G 7   655   655   655   655                              PRN / # OF OBS      
   G 9   642   642   642   642                              PRN / # OF OBS      
   G10   724   724   724   724                              PRN / # OF OBS      
   G11   119   119   119   119                              PRN / # OF OBS      
   G12   817   817   817   817                              PRN / # OF OBS      
   G13   795   795   795   795                              PRN / # OF OBS      
   G14   490   490   490   490                              PRN / # OF OBS      
   G15   691   691   691   691                              PRN / # OF OBS      
   G16   138   138   138   138                              PRN / # OF OBS      
   G17   681   681   681   681                              PRN / # OF OBS      
   G18   432   432   432   432                              PRN / # OF OBS      
   G19    13    13    13    13                              PRN / # OF OBS      
   G20   684   684   684   684                              PRN / # OF OBS      
   G21   370   370   370   370                              PRN / # OF OBS      
   G23   468   468   468   468                              PRN / # OF OBS      
   G24   815   815   815   815                              PRN / # OF OBS      
   G25   820   820   820   820                              PRN / # OF OBS      
   G27    82    82    82    82                              PRN / # OF OBS      
   G28   602   602   601   601                              PRN / # OF OBS      
   G29   670   670   670   670                              PRN / # OF OBS      
   G30   704   704   704   704                              PRN / # OF OBS      
   G31   549   549   549   549                              PRN / # OF OBS      
   G32   108   108   107   107                              PRN / # OF OBS      
BIT 2 OF LLI FLAGS DATA COLLECTED UNDER A/S CONDITION       COMMENT             
SNR is mapped to RINEX snr flag value [2-9]                 COMMENT             
Lx:     = 25dBHz -> 1; 26-27dBHz -> 2; 28-31dBHz -> 3       COMMENT             
       32-35dBHz -> 4; 36-38dBHz -> 5; 39-41dBHz -> 6       COMMENT             
       42-44dBHz -> 7; 45-48dBHz -> 8; >=49dBHz -> 9        COMMENT             
                                                            END OF HEADER       
 15 02 22 06 42  0.0000000  0 11G01G03G04G11G14G17G19G23G28G31G32
  20404718.540   107227519.00009  20404719.080    83553913.13849
  20608615.560   108299005.72309  20608615.280    84388833.93949
  21108930.540   110928177.76609  21108928.720    86437533.72648
  20465635.560   107547640.01909  20465632.400    83803343.00148
  24821295.240   130436788.28106  24821295.780   101639054.75144
  23374934.200   122836107.67409  23374931.440    95716436.40247
  24028401.000   126270099.99408  24028397.820    98392272.48546
  22526269.540   118376345.03709  22526265.480    92241290.11747
  24497726.540   128736424.22107  24497726.500   100314089.41345
  24272006.220   127550253.12808  24272006.780    99389809.79046
  21290191.060   111880709.35809  21290189.260    87179765.93448
 15 02 22 06 42 30.0000000  0 11G01G03G04G11G14G17G19G23G28G31G32
  20403684.980   107222087.74209  20403685.560    83549680.98349
  20605434.560   108282289.32109  20605434.280    84375808.16849
  21118578.160   110978876.31209  21118576.420    86477039.06548
  20473721.660   107590132.43309  20473718.440    83836453.95948
  24839136.300   130530544.33306  24839136.860   101712111.19244
  23359409.580   122754524.86409  23359406.700    95652865.34747
  24049028.220   126378497.30308  24049025.360    98476737.80447
  22508958.620   118285376.33209  22508954.740    92170405.42847
  24506746.320   128783823.56908  24506745.340   100351023.96844
  24264166.000   127509052.07008  24264166.400    99357705.15246
  21302203.940   111943837.36109  21302202.100    87228956.55748
 15 02 22 06 43  0.0000000  0 11G01G03G04G11G14G17G19G23G28G31G32
  20402715.820   107216994.85609  20402716.440    83545712.48249
  20602311.420   108265876.73409  20602311.140    84363019.12849
  21128288.440   111029903.96309  21128286.760    86516800.83848
  20481896.540   107633091.26809  20481893.260    83869928.35348
  24857019.160   130624518.77107  24857019.500   101785337.90044
  23343952.660   122673297.74109  23343949.700    95589571.45247
  24069677.200   126487008.82508  24069674.700    98561292.11047
  22491699.440   118194679.94309  22491695.800    92099732.92547
  24515819.340   128831504.00908  24515818.900   100388177.44444
  24256400.600   127468244.52608  24256400.840    99325907.18445
  21314254.580   112007163.86409  21314252.700    87278301.84948
 15 02 22 06 43 30.0000000  0 10G01G03G04G11G17G19G23G28G31G32
  20401808.360   107212226.23709  20401809.020    83541996.65349
  20599243.060   108249752.12809  20599242.740    84350454.48449
  21138058.480   111081245.51509  21138056.700    86556807.19548
  20490157.280   107676501.11109  20490153.900    83903754.17048
  23328561.000   122592413.63909  23328558.040    95526544.85247
  24090344.700   126595617.08408  24090342.500    98645921.77647
  22474489.600   118104242.86109  22474486.200    92029262.47647
  24524942.720   128879447.55008  24524941.700   100425536.02145
  24248707.760   127427818.01908  24248707.900    99294406.08846
  21326339.840   112070672.05909  21326337.900    87327788.70348
 15 02 22 06 44  0.0000000  0 10G01G03G04G11G17G19G23G28G31G32
  20400963.620   107207787.20109  20400964.280    83538537.63149
  20596230.120   108233919.11409  20596229.840    84338117.05649
  21147889.000   111132905.13809  21147887.240    86597061.39248
  20498504.560   107720365.64409  20498501.060    83937934.28248
  23313235.900   122511879.63709  23313233.020    95463791.04347
  24111031.040   126704324.19008  24111029.140    98730628.45146
  22457330.440   118014071.40709  22457327.080    91958998.99347
  24534116.840   128927656.05808  24534115.420   100463101.07044
  24241088.540   127387778.98708  24241088.560    99263206.97946
  21338460.200   112134364.57609  21338458.140    87377419.17848
 15 02 22 06 44 30.0000000  0 10G01G03G04G11G17G19G23G28G31G32
  20400181.420   107203676.32809  20400182.020    83535334.33349
  20593271.960   108218374.52709  20593271.800    84326004.37049
  21157779.400   111184880.11109  21157777.780    86637561.32048
  20506937.800   107764682.01209  20506934.260    83972466.47648
  23297977.360   122431695.59109  23297974.560    95401309.94647
  24131735.340   126813125.23208  24131733.600    98815408.33046
  22440222.040   117924165.74109  22440218.560    91888942.63447
  24543340.400   128976124.71608  24543338.540   100500868.80844
  24233543.160   127348127.47708  24233542.820    99232309.78246
  21350614.800   112198237.09909  21350612.660    87427189.92848
 15 02 22 06 45  0.0000000  0 10G01G03G04G11G17G19G23G28G31G32
  20399462.560   107199898.38609  20399463.100    83532390.44949
  20590369.260   108203121.41309  20590369.220    84314118.79749
  21167730.480   111237173.97509  21167729.020    86678309.71648
  20515457.600   107809453.37709  20515454.080    84007353.21348
  23282786.560   122351867.76409  23282783.860    95339106.42647
  24152457.800   126922021.49408  24152455.980    98900262.39646
  22423165.380   117834531.39709  22423161.680    91819097.67847
  24552613.460   129024854.42108  24552611.540   100538839.90644
  24226072.760   127308869.66808  24226072.260    99201719.25646
  21362804.060   112262291.73509  21362801.900    87477102.58148
 15 02 22 06 45 30.0000000  0 10G01G03G04G11G17G19G23G28G31G32
  20398806.880   107196452.82009  20398807.400    83529705.55849
  20587521.600   108188157.47709  20587521.680    84302458.56149
  21177741.880   111289784.95709  21177740.580    86719305.22548
  20524063.520   107854677.57409  20524060.040    84042592.80048
  23267663.720   122272396.91109  23267661.040    95277181.03547
  24173197.600   127031009.04008  24173195.860    98985187.59547
  22406160.400   117745168.95109  22406156.580    91749464.59647
  24561935.540   129073840.92607  24561933.640   100577011.14644
  24218677.160   127270006.32708  24218677.000    99171436.23546
  21375027.300   112326525.20009  21375025.260    87527154.57448
 15 02 22 06 46  0.0000000  0 10G01G03G04G11G17G19G23G28G31G32
  20398213.860   107193336.63909  20398214.360    83527277.33249
  20584728.100   108173478.05509  20584728.280    84291020.02349
  21187812.880   111342709.07909  21187811.720    86760544.73348
  20532754.620   107900349.87509  20532751.280    84078181.56048
  23252608.540   122193281.63709  23252605.900    95215532.73747
  24193953.580   127140081.39008  24193951.680    99070178.87146
  22389206.740   117656076.79009  22389202.920    91680042.13347
  24571305.260   129123077.56608  24571302.920   100615377.29944
  24211356.580   127231536.03608  24211356.320    99141459.39146
  21387283.440   112390931.77709  21387281.560    87577341.44948
 15 02 22 06 46 30.0000000  0 10G01G03G04G11G17G19G23G28G31G32
  20397684.780   107190556.19709  20397685.240    83525110.72749
  20581989.680   108159087.70309  20581989.860    84279806.73449
  21197944.560   111395951.47209  21197943.360    86802032.25248
  20541531.920   107946475.16909  20541528.700    84114123.29748
  23237622.580   122114529.84609  23237620.000    95154167.67847
  24214726.360   127249241.84808  24214724.300    99155238.80846
  22372305.920   117567262.28509  22372302.120    91610836.02248
  24580723.020   129172567.03308  24580720.460   100653940.46744
  24204112.180   127193466.18308  24204111.700    99111794.55646
  21399573.200   112455514.98309  21399571.460    87627665.96848
 15 02 22 06 47  0.0000000  0 10G01G03G04G11G17G19G23G28G31G32
  20397219.600   107188111.70409  20397220.100    83523205.88949
  20579306.080   108144984.95909  20579306.140    84268817.54649
  21208136.700   111449510.87509  21208135.360    86843766.78648
  20550395.180   107993052.10409  20550392.000    84150416.95648
  23222706.160   122036143.29109  23222703.560    95093087.19347
  24235515.200   127358486.97808  24235513.140    99240364.67946
  22355458.180   117478726.54809  22355454.420    91541847.11847
  24590188.220   129222306.12008  24590185.240   100692698.15044
  24196944.360   127155798.22108  24196943.640    99082442.88546
  21411896.140   112520272.51709  21411894.460    87678126.32148
 15 02 22 06 47 30.0000000  0 10G01G03G04G11G17G19G23G28G31G32
  20396818.100   107186002.02809  20396818.680    83521561.96149
  20576676.720   108131166.95809  20576676.640    84258050.25149
  21218388.820   111503385.29409  21218387.360    86885746.80248
  20559343.820   108040077.76109  20559340.660    84187060.27248
  23207859.360   121958122.17409  23207856.660    95032291.47247
  24256319.340   127467812.42008  24256317.140    99325553.17846
  22338663.380   117390469.72009  22338659.760    91473075.57047
  24599700.140   129272289.90707  24599696.700   100731646.56044
  24189852.960   127118532.48308  24189852.020    99053404.62346
  21424251.600   112585200.53709  21424249.860    87728719.52848
 15 02 22 06 48  0.0000000  0 11G01G03G04G09G11G17G19G23G28G31G32
  20396481.360   107184232.71009  20396482.020    83520183.23749
  20574102.320   108117637.54909  20574102.060    84247507.81749
  21228701.660   111557578.90909  21228700.160    86927975.52348
  24725094.720   129931248.81408  24725095.920   101245125.42245
  20568378.500   108087555.82609  20568375.420    84224056.10348
  23193083.400   121880473.58009  23193080.580    94971786.01947
  24277139.120   127577220.37708  24277136.660    99410805.93146
  22321922.940   117302498.55509  22321919.400    91404526.59647
  24609258.700   129322520.28208  24609256.220   100770786.94044
  24182839.140   127081675.86408  24182838.000    99024685.12045
  21436640.040   112650301.84809  21436638.180    87779447.75948
 15 02 22 07 22 30.0000000  0  9G01G03G04G09G11G17G23G31G32
  20538422.680   107930140.18809  20538423.360    84101408.90549
  20520081.380   107833755.22809  20520081.640    84026303.13149
  22082235.200   116042927.52509  22082234.440    90423057.73547
  23288362.280   122381169.74208  23288363.660    95361956.65447
  21389210.280   112401057.86509  21389208.240    87585230.87848
  22368782.540   117548745.89709  22368780.600    91596416.40848
  21318291.460   112028377.51809  21318287.740    87294824.05048
  23907452.360   125634509.56608  23907451.940    97897019.54846
  22353435.660   117468098.00009  22353434.900    91533578.19547
 15 02 22 07 23  0.0000000  0  9G01G03G04G09G11G17G23G31G32
  20543001.400   107954201.66109  20543002.140    84120158.06649
  20520980.600   107838480.53209  20520980.820    84029985.18949
  22096592.600   116118375.76709  22096591.780    90481848.48947
  23268572.880   122277176.73108  23268574.320    95280923.26247
  21403797.380   112477712.99909  21403795.300    87644962.10248
  22360003.860   117502613.97109  22360002.140    91560469.44148
  21306226.180   111964974.21709  21306222.480    87245418.88848
  23906747.700   125630806.78908  23906747.340    97894134.27846
  22367409.580   117541531.17709  22367408.760    91590798.79947
 15 02 22 07 23 30.0000000  0  9G01G03G04G09G11G17G23G31G32
  20547655.780   107978660.66609  20547656.540    84139216.98249
  20521925.420   107843445.59209  20521925.640    84033854.05249
  22111004.820   116194111.86109  22111003.880    90540863.55548
  23248823.680   122173394.93308  23248825.200    95200054.41447
  21418456.200   112554744.69609  21418453.960    87704986.73548
  22351324.940   117457006.34609  22351323.420    91524930.99948
  21294239.520   111901984.28209  21294235.900    87196335.81248
  23906143.500   125627631.40508  23906143.200    97891659.93246
  22381398.320   117615042.63109  22381397.260    91648080.39647
 15 02 22 07 24  0.0000000  0 10G01G03G04G09G11G17G20G23G31G32
  20552384.440   108003509.85309  20552385.140    84158579.93549
  20522914.260   107848641.96109  20522914.500    84037903.15249
  22125470.120   116270127.00009  22125469.120    90600096.06247
  23229113.780   122069818.72809  23229115.180    95119345.75247
  21433184.880   112632143.71109  21433182.480    87765297.59748
  22342744.480   117411916.25309  22342743.120    91489795.82548
  24528127.060   128896173.60308  24528128.520   100438579.96245
  21282330.260   111839401.29009  21282326.660    87147569.85448
  23905638.420   125624976.50308  23905637.960    97889591.16146
  22395400.260   117688623.54809  22395399.300    91705416.10447
 15 02 22 07 48  0.0000000  0 11G01G03G04G06G09G11G17G20G23G31G32
  20868754.900   109666046.99509  20868756.120    85454067.24349
  20620665.260   108362327.03809  20620665.840    84438178.79249
  22879964.140   120235022.16409  22879965.380    93689632.39247
  24590673.560   129224861.51508  24590676.020   100694706.37145
  22337648.820   117385136.56009  22337649.860    91468941.18548
  22217020.840   116751231.60609  22217019.500    90974979.96347
  22052523.480   115886792.34709  22052522.380    90301392.73448
  23793446.980   125035406.79808  23793447.320    97430189.53645
  20806943.260   109341224.69509  20806938.680    85200935.05248
  24000822.780   126125174.41408  24000822.760    98279357.25346
  23080381.480   121288222.73309  23080381.040    94510302.07947
 15 02 22 07 48 30.0000000  0 11G01G03G04G06G09G11G17G20G23G31G32
  20877198.100   109710416.70209  20877199.380    85488641.00249
  20623680.460   108378171.93109  20623681.080    84450525.45449
  22896838.780   120323698.29108  22896839.760    93758730.62447
  24571646.640   129124872.41008  24571649.480   100616792.72946
  22320345.580   117294207.56809  22320346.620    91398087.45948
  22234791.780   116844617.70109  22234790.420    91047748.27147
  22049069.300   115868639.76209  22049068.020    90287247.83248
  23778492.100   124956816.84709  23778491.640    97368950.56744
  20799095.320   109299982.75109  20799090.620    85168798.47048
  24005289.800   126148650.11308  24005290.200    98297649.97346
  23094831.940   121364158.50508  23094831.180    94569472.73746
 15 02 22 08 03  0.0000000  0 11G01G03G04G06G09G11G17G20G23G31G32
  21155978.680   111175416.79909  21155980.280    86630202.55548
  20728609.740   108929579.81309  20728610.300    84880193.98949
  23405567.780   122997086.56308  23405569.580    95841894.73246
  24021772.920   126235265.17608  24021776.080    98365153.71246
  21846226.360   114802691.92509  21846227.360    89456648.57648
  22772822.360   119671988.99809  22772821.000    93250895.11147
  21997368.820   115596952.50509  21997367.260    90075541.70248
  23352538.460   122718416.26508  23352538.520    95624729.93745
  20610558.200   108309214.03409  20610554.180    84396773.65948
  24179662.640   127064986.03708  24179663.020    99011677.63046
  23516813.420   123581689.87008  23516814.100    96297422.33246
 15 02 22 08 03 30.0000000  0 11G01G03G04G06G09G11G17G20G23G31G32
  21166728.900   111231909.17409  21166730.440    86674222.51648
  20732795.620   108951577.14709  20732796.320    84897334.72149
  23423718.600   123092469.37909  23423720.480    95916218.79846
  24002906.080   126136118.86308  24002908.920    98287896.80246
  21830857.540   114721927.30309  21830858.320    89393715.12948
  22792074.120   119773158.13109  22792072.860    93329728.05447
  21997237.420   115596261.37909  21997235.800    90075003.10548
  23338099.360   122642538.16608  23338099.280    95565604.19546
  20605389.560   108282052.66609  20605385.540    84375608.92548
  24187177.840   127104477.24508  24187178.120    99042449.90346
  23531426.360   123658483.17008  23531427.440    96357261.10146
 15 02 22 08 04  0.0000000  0 11G01G03G04G06G09G11G17G20G23G31G32
  21177554.480   111288797.29709  21177555.900    86718550.85448
  20737018.960   108973771.30309  20737019.800    84914628.81849
  23441908.120   123188054.06309  23441909.780    95990700.20246
  23984049.460   126037026.19608  23984052.180    98210681.73146
  21815557.500   114641523.98109  21815557.980    89331063.20448
  22811368.800   119874552.74009  22811367.780    93408736.70347
  21997216.220   115596149.47009  21997214.640    90074915.85048
  23323677.620   122566751.51908  23323677.360    95506549.63845
  20600310.440   108255361.62409  20600306.380    84354810.68048
  24194792.060   127144487.77408  24194792.120    99073626.84746
  23546043.160   123735295.17208  23546044.540    96417114.44346
 15 02 22 08 04 30.0000000  0 11G01G03G04G06G09G11G17G20G23G31G32
  21188455.160   111346080.27109  21188456.540    86763186.86048
  20741279.680   108996161.62709  20741280.580    84932075.79148
  23460135.640   123283838.69509  23460137.080    96065337.37546
  23965203.220   125937988.68708  23965205.760    98133509.62246
  21800326.360   114561483.09609  21800326.640    89268693.71248
  22830705.960   119976170.19409  22830705.160    93487918.98947
  21997305.080   115596616.09909  21997303.540    90075279.41248
  23309273.180   122491055.93308  23309272.740    95447566.03446
  20595320.800   108229140.81509  20595316.660    84334378.85048
  24202504.720   127185016.19708  24202504.580    99105207.32646
  23560663.560   123812125.28808  23560664.840    96476981.91146
 15 02 22 08 05  0.0000000  0 11G01G03G04G06G09G11G17G20G23G31G32
  21199429.400   111403750.14709  21199430.800    86808124.34848
  20745576.340   109018740.42109  20745577.200    84949669.60749
  23478399.580   123379814.86809  23478400.960    96140123.80346
  23946366.340   125839000.84708  23946368.840    98056376.24546
  21785162.960   114481798.77009  21785163.200    89206602.03848
  22850083.900   120078001.40909  22850083.180    93567267.83747
  21997502.560   115597653.81109  21997501.080    90076087.95348
  23294884.680   122415444.14708  23294884.040    95388647.83146
  20590419.300   108203382.88809  20590415.040    84314307.70849
  24210314.100   127226053.75108  24210313.820    99137184.52446
  23575285.840   123888965.63808  23575286.920    96536857.33746
 15 02 22 08 05 30.0000000  0 11G01G03G04G06G09G11G17G20G23G31G32
  21210478.400   111461813.52509  21210479.940    86853368.45748
  20749910.140   109041514.49609  20749911.000    84967415.59149
  23496700.900   123475988.10008  23496702.080    96215063.81146
  23927540.600   125740071.77208  23927543.040    97979288.64046
  21770069.020   114402479.55109  21770069.220    89144794.87248
  22869503.520   120180051.32609  22869502.900    93646787.10547
  21997809.880   115599269.02509  21997808.460    90077346.50848
  23280513.460   122339923.02609  23280512.640    95329800.19445
  20585607.220   108178094.81409  20585602.840    84294602.68049
  24218221.420   127267606.94308  24218221.200    99169563.50846
  23589911.340   123965823.05708  23589912.140    96596746.10146
 15 02 22 08 06  0.0000000  0 11G01G03G04G06G09G11G17G20G23G31G32
  21221600.640   111520262.24009  21221602.400    86898912.82148
  20754279.620   109064475.93809  20754280.480    84985307.57649
  23515037.980   123572349.72008  23515039.040    96290150.58546
  23908725.020   125641195.78108  23908727.620    97902242.39746
  21755043.420   114323519.28809  21755043.600    89083267.40348
  22888962.980   120282310.40209  22888962.380    93726469.37047
  21998225.560   115601453.84009  21998224.200    90079048.90048
  23266158.280   122264485.64708  23266157.380    95271017.84346
  20580883.080   108153269.01009  20580878.700    84275257.87149
  24226225.080   127309666.88108  24226225.040    99202337.37946
  23604538.760   124042689.50908  23604539.460    96656641.88046
 15 02 22 08 06 30.0000000  0 11G01G03G04G06G09G11G17G20G23G31G32
  21232797.680   111579103.61309  21232799.620    86944763.16448
  20758686.220   109087632.32209  20758687.040    85003351.47149
  23533412.100   123668906.32708  23533413.220    96365389.33246
  23889921.400   125542382.69008  23889924.160    97825245.20046
  21740087.860   114244927.34709  21740088.040    89022026.95048
  22908463.180   120384783.96109  22908462.580    93806318.73447
  21998751.100   115604215.81309  21998749.780    90081201.03848
  23251820.580   122189140.26708  23251819.720    95212307.23946
  20576248.340   108128913.31809  20576243.980    84256279.38549
  24234326.520   127352240.19108  24234326.600    99235511.28846
  23619169.360   124119572.44608  23619169.960    96716550.51546
 15 02 22 08 07  0.0000000  0 11G01G03G04G06G09G11G17G20G23G31G32
  21244069.120   111638335.50109  21244071.160    86990917.81048
  20763129.580   109110981.83509  20763130.300    85021545.84348
  23551822.720   123765654.82508  23551823.900    96440777.59446
  23871129.980   125443632.94408  23871132.580    97748297.33746
  21725202.380   114166703.63809  21725202.540    88961073.41848
  22928003.460   120487468.58909  22928002.780    93886332.58047
  21999386.160   115607553.13109  21999384.860    90083801.48848
  23237499.960   122113885.11108  23237499.140    95153666.87046
  20571702.780   108105026.25209  20571698.400    84237666.05649
  24242525.040   127395324.18208  24242525.300    99269083.12746
  23633802.620   124196470.03708  23633803.220    96776470.54446
 15 02 22 08 07 30.0000000  0 11G01G03G04G06G09G11G17G20G23G31G32
  21255414.820   111697957.04709  21255416.820    87037376.08448
  20767609.560   109134523.93409  20767610.160    85039890.28748
  23570269.600   123862593.73708  23570271.120    96516314.21746
  23852350.920   125344948.21708  23852353.500    97671400.10947
  21710387.120   114088849.28409  21710387.340    88900407.69648
  22947583.480   120590362.17809  22947582.740    93966509.24746
  22000130.640   115611464.85009  22000129.340    90086849.51848
  23223196.580   122038720.64908  23223195.780    95095097.25046
  20567246.340   108081607.49909  20567241.960    84219417.65349
  24250820.600   127438917.56608  24250820.960    99303051.88746
  23648438.640   124273381.64608  23648439.200    96836401.50846
 15 02 22 08 08  0.0000000  0 11G01G03G04G06G09G11G17G20G23G31G32
  21266833.940   111757964.21809  21266835.840    87084134.85448
  20772125.420   109158254.88609  20772125.980    85058381.89748
  23588751.860   123959718.27708  23588753.500    96591995.49546
  23833583.860   125246327.04008  23833586.600    97594552.44047
  21695641.700   114011362.27709  21695641.980    88840028.21948
  22967202.320   120693459.24509  22967201.420    94046844.47247
  22000983.800   115615947.14909  22000982.340    90090342.17548
  23208909.780   121963643.55809  23208908.980    95036595.61645
  20562878.340   108058653.49909  20562874.000    84201531.41148
  24259212.260   127483015.56608  24259212.680    99337413.87346
  23663076.580   124350303.51808  23663077.160    96896340.47746
 15 02 22 08 08 30.0000000  0 11G01G03G04G06G09G11G17G20G23G31G32
  21278327.200   111818361.62009  21278329.160    87131197.69548
  20776678.060   109182179.60909  20776678.700    85077024.50148
  23607270.240   124057032.17708  23607271.920    96667824.28146
  23814830.300   125147776.66708  23814833.020    97517759.91746
  21680967.320   113934249.25409  21680967.760    88779940.15548
  22986860.480   120796762.56209  22986859.420    94127340.40346
  22001946.320   115621004.72109  22001944.720    90094283.09348
  23194640.520   121888659.08908  23194639.860    94978166.16846
  20558599.780   108036169.39409  20558595.440    84184011.31449
  24267700.840   127527622.41708  24267701.160    99372172.38047
  23677717.260   124427240.54308  23677717.980    96956291.22346
 15 02 22 08 09  0.0000000  0 11G01G03G04G06G09G11G17G20G23G31G32
  21289893.080   111879141.06609  21289895.180    87178558.22648
  20781266.020   109206290.34309  20781266.900    85095812.03048
  23625823.200   124154526.79608  23625824.520    96743793.93646
  23796089.120   125049291.48508  23796092.000    97441018.21546
  21666362.900   113857504.05609  21666363.520    88720138.69048
  23006556.100   120900262.42709  23006554.940    94207989.49846
  22003016.720   115626629.53509  22003015.040    90098666.01848
  23180387.620   121813760.04608  23180386.920    94919803.30246
  20554409.180   108014147.67909  20554404.860    84166851.51449
  24276284.620   127572729.38208  24276284.740    99407320.59347
  23692359.540   124504184.86408  23692360.000    97016247.72746
 15 02 22 08 09 30.0000000  0 11G01G03G04G06G09G11G17G20G23G31G32
  21301532.800   111940308.64909  21301535.020    87226221.20848
  20785890.520   109230593.48709  20785891.680    85114749.50249
  23644411.540   124252207.39008  23644412.580    96819908.49046
  23777362.080   124950880.23608  23777364.760    97364334.09446
  21651829.980   113781134.77809  21651830.900    88660630.17548
  23026289.980   121003963.60209  23026288.820    94288795.47947
  22004196.120   115632827.53909  22004194.520    90103495.59948
  23166152.260   121738952.97108  23166151.440    94861512.06846
  20550307.860   107992594.97609  20550303.520    84150057.19049
  24284964.620   127618342.23108  24284964.620    99442863.03647
  23707004.300   124581142.71208  23707004.680    97076214.76446
 15 02 22 08 10  0.0000000  0 11G01G03G04G06G09G11G17G20G23G31G32
  21313246.400   112001864.34809  21313248.720    87274186.60448
  20790551.820   109255089.46709  20790553.160    85133837.21748
  23663035.060   124350073.14809  23663036.020    96896167.33146
  23758649.620   124852545.61308  23758652.260    97287709.70246
  21637368.960   113705143.44409  21637370.280    88601416.14548
  23046061.820   121107864.70009  23046060.840    94369757.19746
  22005484.680   115639599.13909  22005483.180    90108772.12148
  23151934.780   121664239.51008  23151933.800    94803293.75046
  20546295.900   107971511.67909  20546291.500    84133628.63049
  24293740.600   127664459.88308  24293740.640    99478798.81446
  23721651.640   124658114.65108  23721652.340    97136192.74546
 15 02 22 08 10 30.0000000  0 11G01G03G04G06G09G11G17G20G23G31G32
  21325033.500   112063805.92109  21325035.800    87322452.68748
  20795249.620   109279776.41509  20795250.960    85153073.75548
  23681693.100   124448121.15509  23681693.980    96972568.18845
  23739951.820   124754288.05108  23739954.480    97211145.33946
  21622979.760   113629529.79009  21622981.560    88542496.42548
  23065870.900   121211962.08109  23065870.140    94450871.87846
  22006882.000   115646942.21809  22006880.660    90114493.96248
  23137734.780   121589617.82708  23137733.780    94745147.06646
  20542372.920   107950895.97309  20542368.400    84117564.42549
  24302612.040   127711079.62608  24302612.300    99515125.82246
  23736301.160   124735098.73408  23736302.280    97196180.18546
 15 02 22 08 11  0.0000000  0 11G01G03G04G06G09G11G17G20G23G31G32
  21336893.940   112126132.43909  21336896.180    87371018.72948
  20799983.820   109304653.89209  20799985.040    85172458.74948
  23700385.440   124546349.87808  23700386.620    97049109.85246
  23721269.120   124656109.37908  23721271.840    97134642.45446
  21608662.760   113554294.96309  21608664.920    88483871.88448
  23085716.860   121316253.20009  23085716.300    94532137.54646
  22008387.880   115654855.64709  22008386.580    90120660.22548
  23123552.300   121515088.28709  23123551.160    94687072.05745
  20538538.880   107930747.85409  20538534.320    84101864.57649
  24311578.540   127758199.84208  24311579.200    99551842.78446
  23750952.920   124812094.30008  23750954.180    97256176.62946
 15 02 22 08 11 30.0000000  0 11G01G03G04G06G09G11G17G20G23G31G32
  21348827.680   112188843.97209  21348829.840    87419884.78148
  20804754.400   109329722.43909  20804755.480    85191992.62749
  23719112.000   124644758.66508  23719113.560    97125791.82046
  23702602.020   124558012.38408  23702604.760    97058203.22446
  21594418.340   113479441.08709  21594420.760    88425544.19548
  23105599.480   121420737.00709  23105599.100    94613553.35247
  22010002.360   115663339.37609  22010001.020    90127270.88448
  23109387.540   121440651.68408  23109386.320    94629069.44646
  20534793.820   107911067.55209  20534789.240    84086529.25749
  24320640.240   127805820.13808  24320641.060    99588949.41146
  23765606.900   124889101.83108  23765608.320    97316182.35546
 15 02 22 08 12  0.0000000  0 11G01G03G04G06G09G11G17G20G23G31G32
  21360834.100   112251937.63609  21360836.140    87469048.59748
  20809560.920   109354979.54809  20809561.820    85211673.43248
  23737872.280   124743344.12408  23737874.060    97202611.45646
  23683950.380   124459996.87608  23683953.020    96981827.49846
  21580246.280   113404967.23109  21580248.960    88367512.62548
  23125518.040   121525409.12409  23125517.620    94695115.86046
  22011724.840   115672390.72509  22011723.360    90134323.83048
  23095240.100   121366306.25408  23095238.980    94571137.94245
  20531137.320   107891852.74809  20531132.780    84071556.66349
  24329796.540   127853937.11808  24329797.180    99626443.07145
  23780262.580   124966118.94608  23780264.180    97376195.52445
 15 02 22 08 12 30.0000000  0 11G01G03G04G06G09G11G17G20G23G31G32
  21372912.860   112315411.35209  21372914.800    87518508.56448
  20814402.960   109380423.70209  20814403.700    85231499.99448
  23756665.660   124842103.12709  23756667.560    97279566.33146
  23665314.320   124362063.65108  23665316.800    96905515.85346
  21566146.680   113330873.38009  21566149.460    88309777.17348
  23145471.860   121630266.15509  23145471.280    94776822.47246
  22013555.020   115682008.00309  22013553.460    90141817.77048
  23081109.680   121292050.82108  23081108.600    94513276.55146
  20527569.040   107873101.56809  20527564.560    84056945.32649
  24339046.840   127902547.67608  24339047.080    99664321.33945
  23794920.040   125043143.90308  23794921.360    97436214.86745
 15 02 22 08 13  0.0000000  0 11G01G03G04G06G09G11G17G20G23G31G32
  21385064.640   112379268.73209  21385066.600    87568267.49648
  20819281.260   109406058.96309  20819281.940    85251475.47548
  23775492.660   124941038.91008  23775494.640    97356658.95245
  23646695.040   124264219.05808  23646697.620    96829273.34047
  21552120.580   113257165.17809  21552123.340    88252342.22948
  23165461.200   121735309.90709  23165460.540    94858674.61346
  22015493.480   115692194.49509  22015491.900    90149755.24948
  23066997.340   121217890.31808  23066996.400    94455489.15046
  20524089.920   107854818.72409  20524085.460    84042698.94649
  24348391.580   127951655.05508  24348391.620    99702586.76645
  23809579.940   125120180.85208  23809581.100    97496243.53446
 15 02 22 08 13 30.0000000  0 11G01G03G04G06G09G11G17G20G23G31G32
  21397288.820   112443506.73309  21397290.800    87618323.00348
  20824195.380   109431882.85609  20824196.040    85271597.94248
  23794352.500   125040147.73108  23794354.560    97433886.37546
  23628092.560   124166462.93408  23628095.240    96753099.75246
  21538167.780   113183841.57609  21538170.260    88195206.97548
  23185485.220   121840536.12509  23185484.640    94940668.91547
  22017539.640   115702947.10709  22017538.040    90158133.86048
  23052902.660   121143822.17209  23052901.800    94397773.74746
  20520699.360   107837001.27909  20520694.880    84028815.20349
  24357830.220   128001255.73708  24357830.540    99741236.58245
  23824241.560   125197227.15508  23824242.660    97556279.47546
 15 02 22 08 14  0.0000000  0 11G01G03G04G06G09G11G17G20G23G31G32
  21409585.640   112508126.37709  21409587.600    87668675.90948
  20829145.660   109457896.89509  20829146.340    85291868.57749
  23813245.280   125139429.82109  23813247.260    97511248.85046
  23609507.700   124068799.15008  23609510.500    96676998.09346
  21524288.860   113110905.64609  21524290.940    88138373.80048
  23205543.880   121945944.63308  23205543.320    95022805.25746
  22019693.800   115714267.14709  22019692.200    90166954.62448
  23038826.000   121069848.94308  23038825.180    94340132.21446
  20517397.640   107819651.06209  20517393.260    84015295.52949
  24367362.960   128051349.76508  24367363.500    99780270.79745
  23838905.440   125274284.39709  23838906.220    97616323.95846
 15 02 22 08 14 30.0000000  0 11G01G03G04G06G09G11G17G20G23G31G32
  21421954.120   112573122.82109  21421956.020    87719322.41548
  20834131.240   109484096.84409  20834132.040    85312284.06848
  23832170.060   125238879.91908  23832172.320    97588742.20846
  23590940.020   123971225.64308  23590942.780    96600966.80146
  21510483.120   113038354.51109  21510484.880    88081840.47848
  23225635.880   122051529.00009  23225635.460    95105078.61446
  22021954.880   115726149.41009  22021953.380    90176213.48548
  23024766.520   120995966.25008  23024765.780    94282561.36247
  20514183.920   107802763.55909  20514179.700    84002136.41349
  24376988.660   128101931.81408  24376989.100    99819685.26945
  23853570.400   125351348.08908  23853571.020    97676373.48446
 15 02 22 08 15  0.0000000  0 11G01G03G04G06G09G11G17G20G23G31G32
  21434394.640   112638498.20509  21434396.580    87770264.20648
  20839152.700   109510485.38609  20839153.660    85332846.51748
  23851127.080   125338499.32708  23851129.280    97666367.52645
  23572390.500   123873747.54708  23572393.400    96525009.86547
  21496751.360   112966192.38009  21496752.820    88025610.27748
  23245761.580   122157290.30609  23245761.340    95187489.85646
  22024323.340   115738595.94009  22024321.940    90185912.03148
  23010724.960   120922177.79308  23010724.360    94225063.86946
  20511058.820   107786341.48709  20511054.640    83989339.97449
  24386707.420   128153003.31809  24386707.480    99859481.14145
  23868237.000   125428421.07708  23868237.920    97736430.20246
 15 02 22 08 15 30.0000000  0 11G01G03G04G06G09G11G17G20G23G31G32
  21446907.680   112704254.48309  21446909.660    87821502.78748
  20844210.560   109537065.06409  20844211.640    85353557.90548
  23870116.600   125438289.63708  23870119.020    97744125.95945
  23553860.100   123776369.67408  23553862.840    96449131.02047
  21483094.220   112894423.21009  21483095.500    87969686.27348
  23265921.160   122263229.14709  23265920.940    95270039.45846
  22026799.580   115751608.63509  22026798.200    90196051.74448
  22996701.920   120848486.47008  22996701.260    94167642.15446
  20508022.860   107770387.38009  20508018.680    83976908.18549
  24396519.620   128204565.59709  24396519.280    99899659.43645
  23882905.800   125505505.67608  23882907.020    97796495.97046
 15 02 22 08 16  0.0000000  0 11G01G03G04G06G09G11G17G20G23G31G32
  21459491.520   112770382.96609  21459493.580    87873031.40448
  20849303.320   109563827.81609  20849304.480    85374411.94548
  23889136.940   125538241.21508  23889139.300    97822010.12246
  23535347.660   123679086.25108  23535350.340    96373325.78547
  21469510.620   112823040.36609  21469511.760    87914063.29848
  23286112.800   122369335.85909  23286112.520    95352719.83946
  22029382.060   115765179.42809  22029380.620    90206626.33548
  22982696.020   120774884.75108  22982695.160    94110290.17746
  20505074.420   107754892.85009  20505070.180    83964834.50449
  24406423.440   128256609.18009  24406423.120    99940212.77746
  23897575.180   125582593.95408  23897576.760    97856564.58846
 15 02 22 08 16 30.0000000  0 11G01G03G04G06G09G11G17G20G23G31G32
  21472147.700   112836891.52509  21472149.860    87924856.19248
  20854432.580   109590782.14909  20854433.780    85395415.26848
  23908189.480   125638361.64608  23908191.960    97900025.80045
  23516855.260   123581908.11408  23516857.900    96297602.60547
  21456002.400   112752053.68609  21456003.340    87858749.03348
  23306337.480   122475616.37109  23306337.260    95435535.65546
  22032072.120   115779315.25309  22032070.640    90217641.22448
  22968708.860   120701381.63709  22968707.960    94053015.13646
  20502214.960   107739866.30809  20502210.700    83953125.49449
  24416420.260   128309141.48308  24416420.100    99981146.93746
  23912246.680   125659694.26008  23912248.640    97916642.56946
 15 02 22 08 17  0.0000000  0 11G01G03G04G06G09G11G17G20G23G31G32
  21484875.180   112903774.97609  21484877.360    87976973.10148
  20859597.540   109617923.53009  20859598.680    85416564.33648
  23927272.980   125738644.85408  23927275.480    97978168.35746
  23498382.460   123484833.08208  23498385.140    96221959.74947
  21442568.920   112681460.09409  21442569.660    87803741.05948
  23326593.960   122582064.18509  23326593.580    95518481.85646
  22034868.680   115794011.12209  22034867.200    90229092.48648
  22954739.640   120627973.07408  22954738.700    93995813.66047
  20499443.700   107725303.20709  20499439.460    83941777.60049
  24426508.780   128362156.67508  24426508.900   100022457.33746
  23926919.940   125736802.04708  23926921.680    97976726.45646
 15 02 22 08 17 30.0000000  0 11G01G03G04G06G09G11G17G20G23G31G32
  21497674.040   112971033.38209  21497676.220    88029382.18748
  20864798.160   109645252.64909  20864799.220    85437859.70548
  23946387.440   125839090.67408  23946389.980    98056437.58245
  23479929.860   123387864.28008  23479932.620    96146399.65647
  21429210.580   112611261.59009  21429211.160    87749040.94748
  23346882.040   122688678.39709  23346881.640    95601557.71046
  22037771.820   115809267.14709  22037770.360    90240980.25648
  22940788.680   120554660.24209  22940787.680    93938686.85046
  20496760.720   107711203.79909  20496756.460    83930791.04149
  24436688.800   128415654.08708  24436689.140   100064143.49146
  23941594.940   125813917.90108  23941596.300    98036816.62346
 15 02 22 08 18  0.0000000  0 11G01G03G04G06G09G11G17G20G23G31G32
  21510544.000   113038665.35709  21510546.220    88082082.34248
  20870034.320   109672768.78509  20870035.320    85459300.79248
  23965532.320   125939696.81208  23965535.120    98134831.74446
  23461497.740   123291003.05308  23461500.560    96070923.36647
  21415927.520   112541458.80209  21415927.980    87694649.17648
  23367201.180   122795456.08309  23367200.860    95684760.92546
  22040781.180   115825081.56109  22040779.800    90253303.11748
  22926855.800   120481442.58008  22926854.700    93881634.16146
  20494165.800   107697567.20609  20494161.480    83920165.10749
  24446960.200   128469631.62008  24446960.840   100106203.76946
  23956271.080   125891041.32408  23956272.360    98096912.69345
 15 02 22 08 18 30.0000000  0 11G01G03G04G06G09G11G17G20G23G31G32
  21523485.220   113106671.62009  21523487.460    88135074.16148
  20875306.300   109700473.40309  20875307.320    85480888.75348
  23984707.700   126040463.67008  23984710.640    98213351.10745
  23443086.920   123194253.38608  23443089.700    95995534.03147
  21402720.280   112472054.50809  21402720.640    87640567.92548
  23387551.360   122902397.13009  23387551.220    95768091.45746
  22043896.940   115841455.38809  22043895.740    90266061.89148
  22912941.400   120408322.62108  22912940.320    93824657.57146
  20491659.140   107684394.53409  20491654.820    83909900.67049
  24457323.140   128524089.17108  24457323.880   100148638.14145
  23970948.580   125968173.49208  23970950.080    98157015.50945
 15 02 22 08 19  0.0000000  0 11G01G03G04G06G09G11G17G20G23G31G32
  21536497.200   113175049.39809  21536499.400    88188355.48348
  20880613.740   109728364.43009  20880614.860    85502621.96148
  24003913.040   126141387.56208  24003916.040    98291992.88846
  23424697.320   123097615.53308  23424700.080    95920231.82847
  21389588.640   112403047.97609  21389589.060    87586796.60948
  23407931.880   123009497.27509  23407931.820    95851545.94846
  22047118.500   115858385.42809  22047117.460    90279254.08348
  22899045.180   120335298.02008  22899044.220    93767755.32846
  20489240.340   107671683.79909  20489236.060    83899996.17849
  24467776.740   128579023.44407  24467777.520   100191443.96146
  23985627.700   126045312.33608  23985629.280    98217123.58046
 15 02 22 08 19 30.0000000  0 11G01G03G04G06G09G11G17G20G23G31G32
  21549579.260   113243795.46909  21549581.420    88241923.76648
  20885956.180   109756439.34609  20885957.380    85524498.46848
  24023147.600   126242464.94008  24023150.280    98370754.27645
  23406328.920   123001089.26808  23406331.740    95845016.59447
  21376532.340   112334437.93609  21376533.000    87533334.24648
  23428341.960   123116752.38809  23428341.980    95935121.20346
  22050445.340   115875868.21309  22050444.340    90292876.98848
  22885166.900   120262367.32709  22885165.960    93710926.17146
  20486908.880   107659432.12509  20486904.660    83890449.38749
  24478320.140   128634430.45207  24478321.160   100234618.11546
  24000307.800   126122455.24808  24000309.340    98277234.81946
 15 02 22 08 20  0.0000000  0 12G01G03G04G06G09G10G11G17G20G23G31G32
  21562731.900   113312912.37309  21562734.020    88295781.00848
  20891334.300   109784701.45009  20891335.540    85546520.83248
  24042411.780   126343697.94308  24042414.160    98449636.89245
  23387982.880   122904680.31408  23387985.700    95769892.75447
  21363552.320   112266228.98109  21363553.280    87480184.41348
  24395112.720   128197168.73008  24395112.760    99893901.29145
  23448781.720   123224163.07009  23448781.840    96018817.67046
  22053877.900   115893906.13309  22053876.800    90306932.45348
  22871307.220   120189534.12209  22871306.180    93654173.00246
  20484665.420   107647642.52709  20484661.200    83881262.66249
  24488953.940   128690311.98708  24488955.220   100278162.04446
  24014988.960   126199605.55908  24014990.620    98337351.78345
 15 02 22 08 20 30.0000000  0 12G01G03G04G06G09G10G11G17G20G23G31G32
  21575954.420   113382397.06709  21575956.580    88349924.84548
  20896747.680   109813148.44909  20896748.820    85568687.26548
  24061704.780   126445082.67508  24061707.060    98528637.73245
  23369659.140   122808388.74408  23369662.020    95694860.36847
  21350648.440   112198420.07109  21350649.620    87427346.31448
  24378879.540   128111862.62808  24378880.420    99827428.91945
  23469250.400   123331725.46109  23469250.460    96102632.35146
  22057415.460   115912495.87609  22057414.320    90321417.92248
  22857465.660   120116796.53008  22857464.660    93597494.34946
  20482509.480   107636312.49409  20482505.180    83872434.03749
  24499677.680   128746664.43308  24499678.820   100322072.99046
  24029671.020   126276760.93308  24029672.520    98397472.71445
 15 02 22 08 21  0.0000000  0 12G01G03G04G06G09G10G11G17G20G23G31G32
  21589247.360   113452252.28709  21589249.600    88404357.42148
  20902196.940   109841783.92309  20902198.020    85591000.56848
  24081027.160   126546621.52408  24081029.680    98607758.66745
  23351358.900   122712220.38608  23351361.720    95619924.01646
  21337821.640   112131015.95709  21337823.020    87374823.63448
  24362659.220   128026625.44008  24362659.880    99761010.34044
  23489748.240   123439440.98909  23489748.220    96186566.35946
  22061058.500   115931640.24609  22061057.420    90336335.57048
  22843643.160   120044158.95009  22843642.280    93540893.52846
  20480441.560   107625445.07809  20480437.220    83863965.90449
  24510491.500   128803489.64108  24510492.380   100366352.36046
  24044354.940   126353924.87008  24044356.420    98457600.33545
 15 02 22 08 21 30.0000000  0 12G01G03G04G06G09G10G11G17G20G23G31G32
  21602609.380   113522470.58409  21602611.700    88459072.90348
  20907680.840   109870601.21909  20907681.880    85613455.54448
  24100377.400   126648306.37108  24100380.080    98686993.34945
  23333081.300   122616170.98408  23333084.080    95545080.34647
  21325070.960   112064011.20909  21325072.420    87322612.14848
  24346451.080   127941450.96908  24346451.260    99694640.55244
  23510273.520   123547300.96308  23510273.380    96270612.91546
  22064805.680   115951331.73409  22064804.620    90351679.52948
  22829838.460   119971614.65408  22829837.740    93484365.52246
  20478460.300   107615033.35009  20478455.960    83855852.84249
  24521393.660   128860779.45408  24521394.280   100410993.76545
  24059039.340   126431090.71708  24059041.040    98517729.40746
 15 02 22 08 22  0.0000000  0 12G01G03G04G06G09G10G11G17G20G23G31G32
  21616042.300   113593060.74509  21616044.540    88514078.14648
  20913201.120   109899609.88209  20913202.140    85636059.64249
  24119756.920   126750145.52408  24119759.580    98766348.28246
  23314828.620   122520252.50608  23314831.240    95470338.68347
  21312398.480   111997416.62209  21312399.880    87270720.27348
  24330256.540   127856348.94308  24330256.540    99628327.35745
  23530827.660   123655313.17208  23530827.600    96354778.09146
  22068658.640   115971578.77309  22068657.520    90367456.40248
  22816053.460   119899173.98708  22816052.780    93427918.25647
  20476567.460   107605086.57409  20476563.120    83848102.07949
  24532385.640   128918541.95008  24532386.080   100456003.48846
  24073725.960   126508267.95208  24073727.840    98577867.34446
 15 02 22 08 22 30.0000000  0 12G01G03G04G06G09G10G11G17G20G23G31G32
  21629544.420   113664014.36509  21629546.640    88569366.60148
  20918756.340   109928802.37109  20918757.280    85658806.98748
  24139164.120   126852130.27308  24139167.080    98845816.63545
  23296599.760   122424459.70708  23296602.380    95395694.96847
  21299802.860   111931225.74309  21299804.220    87219142.97949
  24314074.540   127771312.67908  24314075.080    99562065.30445
  23551408.900   123763468.14508  23551408.900    96439054.50746
  22072615.640   115992372.52309  22072614.500    90383659.26648
  22802287.000   119826830.03708  22802286.140    93371546.28146
  20474761.580   107595596.88109  20474757.280    83840707.48549
  24543465.740   128976768.06908  24543466.180   100501374.47746
  24088413.340   126585449.06308  24088415.300    98638008.29346
 15 02 22 08 23  0.0000000  0 12G01G03G04G06G09G10G11G17G20G23G31G32
  21643115.460   113735330.41209  21643117.740    88624937.46348
  20924346.420   109958178.46109  20924347.420    85681697.39148
  24158598.780   126954259.01608  24158601.900    98925397.21145
  23278395.260   122328794.82108  23278397.900    95321150.93447
  21287284.380   111865439.59409  21287285.620    87167881.05648
  24297905.000   127686341.84807  24297905.820    99495854.26545
  23572016.760   123871763.32708  23572016.920    96523440.18146
  22076676.460   116013711.81409  22076675.340    90400287.22848
  22788538.960   119754582.90309  22788537.940    93315249.87246
  20473042.580   107586563.47509  20473038.300    83833668.44049
  24554633.740   129035455.96908  24554634.120   100547105.32946
  24103101.360   126662633.65208  24103103.220    98698151.95346
 15 02 22 08 23 30.0000000  0 12G01G03G04G06G09G10G11G17G20G23G31G32
  21656756.060   113807011.76009  21656758.340    88680792.99548
  20929972.180   109987741.95309  20929973.240    85704733.84248
  24178061.280   127056533.86908  24178064.700    99005091.64045
  23260216.380   122233263.97008  23260218.940    95246711.34947
  21274843.940   111800063.05609  21274844.860    87116938.32048
  24281748.820   127601440.79408  24281749.820    99429697.66344
  23592651.720   123980200.59508  23592651.980    96607936.57746
  22080841.620   116035599.28109  22080840.400    90417342.33948
  22774810.000   119682436.71808  22774808.880    93259032.03946
  20471411.120   107577989.98509  20471406.820    83826987.77649
  24565890.060   129094607.77309  24565890.200   100593197.64346
  24117790.700   126739825.64108  24117792.200    98758301.42745
 15 02 22 08 24  0.0000000  0 12G01G03G04G06G09G10G11G17G20G23G31G32
  21670465.420   113879054.42809  21670467.700    88736930.04748
  20935633.000   110017489.72309  20935634.140    85727913.85948
  24197550.760   127158950.62208  24197554.220    99084896.61745
  23242062.860   122137866.34708  23242065.380    95172375.55747
  21262481.060   111735094.15109  21262481.680    87066313.19948
  24265605.520   127516606.99308  24265606.600    99363593.36244
  23613312.780   124088774.67308  23613313.160    96692539.57446
  22085110.320   116058030.77309  22085108.980    90434821.36148
  22761099.740   119610389.02009  22761098.580    93202891.04346
  20469866.500   107569872.62109  20469862.180    83820662.53149
  24577233.660   129154218.54908  24577233.600   100639647.58245
  24132480.740   126817021.84608  24132481.520    98818454.22345
 15 02 22 08 24 30.0000000  0 12G01G03G04G06G09G10G11G17G20G23G31G32
  21684243.780   113951460.06509  21684246.080    88793349.95248
  20941329.400   110047424.32609  20941330.580    85751239.47248
  24217067.340   127261510.33508  24217070.680    99164813.01545
  23223935.580   122042606.97708  23223938.160    95098147.50947
  21250196.440   111670536.51609  21250196.800    87016008.57148
  24249475.560   127431843.42108  24249476.380    99297543.77845
  23634000.080   124197486.24808  23634000.700    96777249.69446
  22089482.760   116081007.66109  22089481.380    90452725.39148
  22747408.820   119538442.99709  22747407.600    93146829.27546
  20468409.080   107562213.43809  20468404.720    83814694.31849
  24588664.700   129214289.57408  24588664.780   100686456.15745
  24147171.880   126894224.76508  24147172.800    98878612.18645
 15 02 22 08 25  0.0000000  0 12G01G03G04G06G09G10G11G17G20G23G31G32
  21698090.300   114024224.02409  21698092.680    88850049.04748
  20947060.680   110077542.02709  20947061.800    85774707.75648
  24236610.360   127364207.78308  24236613.080    99244836.78345
  23205834.300   121947484.43208  23205836.860    95024026.07647
  21237989.500   111606387.47609  21237989.700    86966022.31049
  24233358.280   127347146.49008  24233359.060    99231546.19045
  23654712.460   124306329.65408  23654713.300    96862062.54146
  22093957.960   116104524.99309  22093956.760    90471050.54048
  22733736.560   119466595.12708  22733735.360    93090843.93447
  20467038.040   107555008.30909  20467033.640    83809079.91949
  24600182.120   129274815.19907  24600182.580   100733618.92446
  24161863.600   126971430.59008  24161865.100    98938772.36245
 15 02 22 08 25 30.0000000  0 12G01G03G04G06G09G10G11G17G20G23G31G32
  21712005.220   114097347.61709  21712007.720    88907028.38648
  20952827.280   110107845.01109  20952828.360    85798320.42748
  24256179.600   127467044.04208  24256182.620    99324968.59545
  23187759.960   121852503.31208  23187762.580    94950014.84347
  21225860.700   111542650.30909  21225860.940    86916357.01648
  24217253.980   127262519.04207  24217254.980    99165602.71945
  23675449.940   124415304.94608  23675450.900    96946978.15946
  22098536.180   116128583.76809  22098535.120    90489797.59148
  22720083.480   119394847.98409  22720082.380    93034937.16146
  20465753.720   107548258.97009  20465749.260    83803820.69649
  24611786.080   129335796.07507  24611787.000   100781136.39445
  24176556.340   127048641.49408  24176558.080    98998936.54545
 15 02 22 08 26  0.0000000  0 12G01G03G04G06G09G10G11G17G20G23G31G32
  21725988.540   114170830.39909  21725991.120    88964287.61448
  20958629.200   110138333.88009  20958630.260    85822077.93748
  24275775.140   127570017.97308  24275778.400    99405207.72945
  23169713.120   121757666.55208  23169715.760    94876116.08547
  21213810.340   111479326.62209  21213810.760    86867013.90248
  24201163.020   127177962.06008  24201164.360    99099714.23045
  23696212.260   124524410.89408  23696213.160    97031995.62346
  22103217.200   116153182.70709  22103216.180    90508965.55548
  22706449.800   119323202.84008  22706448.720    92979109.81146
  20464556.080   107541965.21609  20464551.620    83798916.46849
  24623476.500   129397230.83207  24623477.860   100829007.53746
  24191250.180   127125858.05008  24191252.020    99059105.10645
 15 02 22 08 26 30.0000000  0 12G01G03G04G06G09G10G11G17G20G23G31G32
  21740039.440   114244667.79609  21740042.000    89021823.17948
  20964465.740   110169004.96109  20964466.880    85845977.43349
  24295395.960   127673124.74008  24295399.180    99485550.34345
  23151693.520   121662972.98308  23151696.160    94802328.89147
  21201838.040   111416413.82609  21201838.740    86817990.95249
  24185085.260   127093472.37308  24185086.620    99033878.08745
  23716998.380   124633641.45708  23716999.240    97117110.14846
  22108000.240   116178317.60209  22107999.200    90528551.13848
  22692834.820   119251656.27008  22692833.780    92923359.28246
  20463444.360   107536123.25109  20463439.900    83794364.27649
  24635252.440   129459114.28007  24635254.080   100877228.28846
  24205944.560   127203076.58208  24205946.260    99119275.24145
 15 02 22 08 27  0.0000000  0 12G01G03G04G06G09G10G11G17G20G23G31G32
  21754158.020   114318860.48909  21754160.400    89079635.59348
  20970337.220   110199859.94609  20970338.420    85870020.22948
  24315042.060   127776364.56608  24315045.260    99565996.67846
  23133701.920   121568426.55508  23133704.580    94728656.37047
  21189944.500   111353914.53309  21189945.480    86769290.20648
  24169020.660   127009051.62808  24169021.840    98968095.68144
  23737808.120   124742996.17808  23737808.840    97202321.43346
  22112885.340   116203988.98109  22112884.320    90548554.75748
  22679238.920   119180210.43208  22679238.020    92867687.22147
  20462418.820   107530734.00209  20462414.320    83790164.85949
  24647113.880   129521446.33908  24647115.640   100925798.65345
  24220639.880   127280298.65508  24220641.460    99179448.14846
 15 02 22 08 27 30.0000000  0 12G01G03G04G06G09G10G11G17G20G23G31G32
  21768344.460   114393410.06109  21768346.680    89137726.07148
  20976244.140   110230901.38309  20976245.400    85894208.30948
  24334713.780   127879738.67808  24334717.000    99646547.63945
  23115739.280   121474032.31308  23115742.000    94655102.41747
  21178130.380   111291832.34809  21178131.500    86720914.48048
  24152969.500   126924703.05707  24152970.960    98902369.56845
  23758641.520   124852475.71908  23758642.120    97287629.97046
  22117872.620   116230197.67409  22117871.720    90568977.05048
  22665662.960   119108868.54608  22665662.160    92812096.16847
  20461479.820   107525799.62109  20461475.340    83786319.87849
  24659061.020   129584227.98808  24659062.380   100974719.27446
  24235336.240   127357526.84808  24235337.840    99239625.77846
 15 02 22 08 28  0.0000000  0 12G01G03G04G06G09G10G11G17G20G23G31G32
  21782597.400   114468309.75909  21782599.640    89196089.39048
  20982185.540   110262123.57409  20982186.800    85918537.23448
  24354409.700   127983239.66208  24354412.940    99727197.48545
  23097805.000   121379786.93309  23097807.680    94581664.47747
  21166394.800   111230162.48609  21166395.980    86672860.03648
  24136931.280   126840421.19808  24136932.760    98836695.37845
  23779497.060   124962072.43908  23779497.720    97373029.80546
  22122960.840   116256936.51609  22122960.100    90589812.45848
  22652105.840   119037625.20309  22652104.900    92756581.87846
  20460626.160   107521313.87309  20460621.740    83782824.48049
  24671092.340   129647451.33208  24671093.140   101023984.12645
  24250032.420   127434755.50108  24250034.360    99299803.73046
 15 02 22 08 28 30.0000000  0 11G01G03G04G06G09G10G11G17G20G23G32
  21796917.900   114543564.77309  21796920.260    89254729.57848
  20988162.520   110293532.71409  20988163.780    85943011.83348
  24374130.620   128086872.36708  24374133.740    99807949.91044
  23079900.620   121285698.97608  23079903.200    94508349.17747
  21154739.260   111168912.13409  21154740.380    86625132.48748
  24120906.900   126756212.58608  24120908.480    98771078.30544
  23800375.620   125071790.31208  23800376.320    97458524.05946
  22128150.840   116284210.14309  22128150.160    90611064.57948
  22638568.780   118966486.97308  22638567.700    92701149.49647
  20459858.860   107517281.93709  20459854.500    83779682.69749
  24264729.740   127511990.66308  24264731.900    99359986.79746
 15 02 22 08 29  0.0000000  0 11G01G03G04G06G09G10G11G17G20G23G32
  21811305.260   114619171.16709  21811307.860    89313643.55648
  20994174.540   110325125.89809  20994175.820    85967629.84948
  24393875.820   128190632.46208  24393879.160    99888801.59645
  23062026.140   121191767.98108  23062028.680    94435156.19247
