     2.11           OBSERVATION DATA    G                   RINEX VERSION / TYPE
SPIDER V4,0,0,3554                      2015 03 18 01:56    PGM / RUN BY / DATE 
CKTS                                                        MARKER NAME         
CKTS                                                        MARKER NUMBER       
                                                            OBSERVER / AGENCY   
496659              LEICA GRX1200+GNSS  8.10/4.007          REC # / TYPE / VERS 
10321004            LEIAR25         NONE                    ANT # / TYPE        
  5190783.6897   517202.7561  3658836.0979                  APPROX POSITION XYZ 
        0.0720        0.0000        0.0000                  ANTENNA: DELTA H/E/N
     1     1                                                WAVELENGTH FACT L1/2
     4    C1    L1    P2    L2                              # / TYPES OF OBSERV 
    30.000                                                  INTERVAL            
  2015    02    22    00    00    0.0000000     GPS         TIME OF FIRST OBS   
  2015    02    22    23    59   30.0000000     GPS         TIME OF LAST OBS    
    16                                                      LEAP SECONDS        
    30                                                      # OF SATELLITES     
   G 1   819   819   819   819                              PRN / # OF OBS      
   G 2   780   780   779   779                              PRN / # OF OBS      
   G 3   852   852   852   852                              PRN / # OF OBS      
   G 4   841   841   841   841                              PRN / # OF OBS      
   G 5   519   518   518   518                              PRN / # OF OBS      
   G 6   651   650   649   649                              PRN / # OF OBS      
   G 7   667   667   667   667                              PRN / # OF OBS      
   G 9   805   805   805   805                              PRN / # OF OBS      
   G10   660   660   660   660                              PRN / # OF OBS      
   G11   780   780   780   780                              PRN / # OF OBS      
   G12   830   830   830   830                              PRN / # OF OBS      
   G13   799   799   799   799                              PRN / # OF OBS      
   G14   774   774   774   774                              PRN / # OF OBS      
   G15   580   579   579   579                              PRN / # OF OBS      
   G16   554   554   554   554                              PRN / # OF OBS      
   G17   775   774   773   773                              PRN / # OF OBS      
   G18   725   725   724   724                              PRN / # OF OBS      
   G19   663   663   663   663                              PRN / # OF OBS      
   G20   775   775   775   775                              PRN / # OF OBS      
   G21   733   733   733   733                              PRN / # OF OBS      
   G22   651   651   651   651                              PRN / # OF OBS      
   G23   750   750   750   750                              PRN / # OF OBS      
   G24   830   830   830   830                              PRN / # OF OBS      
   G25   861   861   861   861                              PRN / # OF OBS      
   G27   814   814   814   814                              PRN / # OF OBS      
   G28   624   624   621   621                              PRN / # OF OBS      
   G29   761   760   760   760                              PRN / # OF OBS      
   G30   713   713   713   713                              PRN / # OF OBS      
   G31   692   691   690   690                              PRN / # OF OBS      
   G32   765   765   765   765                              PRN / # OF OBS      
BIT 2 OF LLI FLAGS DATA COLLECTED UNDER A/S CONDITION       COMMENT             
SNR is mapped to RINEX snr flag value [2-9]                 COMMENT             
Lx:     = 25dBHz -> 1; 26-27dBHz -> 2; 28-31dBHz -> 3       COMMENT             
       32-35dBHz -> 4; 36-38dBHz -> 5; 39-41dBHz -> 6       COMMENT             
       42-44dBHz -> 7; 45-48dBHz -> 8; >=49dBHz -> 9        COMMENT             
                                                            END OF HEADER       
 15 02 22 00 00  0.0000000  0  7G16G18G21G25G27G29G31
  22448972.860   117970152.37209  22448969.600    91924777.03447
  23107525.620   121430908.53608  23107522.920    94621500.90946
  21001747.500   110364932.70708  21001743.760    85998634.89548
  24045513.860   126360013.20208  24045514.360    98462345.00146
  23592445.000   123979138.99408  23592444.800    96607126.36146
  23197350.720   121902896.71708  23197349.340    94989257.38147
  22186777.120   116592288.20009  22186773.460    90851117.67848
 15 02 22 00 00 30.0000000  0  7G16G18G21G25G27G29G31
  22433400.360   117888318.20409  22433397.120    91861010.14748
  23093885.680   121359230.08608  23093882.880    94565647.60045
  21005655.580   110385469.83308  21005651.840    86014637.85248
  24063524.500   126454660.06908  24063524.960    98536095.76445
  23579208.720   123909582.22008  23579208.420    96552926.31646
  23210873.300   121973959.72608  23210872.080    95044631.15447
  22201613.400   116670253.74009  22201609.900    90911870.00048
 15 02 22 00 01  0.0000000  0  7G16G18G21G25G27G29G31
  22417859.520   117806650.27309  22417856.180    91797372.79748
  23080280.500   121287734.53708  23080277.680    94509936.84045
  21009639.140   110406403.57908  21009635.320    86030949.86848
  24081571.240   126549497.01408  24081571.780    98609994.65345
  23565990.540   123840121.39708  23565990.380    96498801.00846
  23224402.940   122045058.49808  23224401.920    95100032.72746
  22216510.380   116748537.86109  22216507.200    90972870.57748
 15 02 22 00 01 30.0000000  0  7G16G18G21G25G27G29G31
  22402349.660   117725145.22709  22402346.240    91733862.39448
  23066709.780   121216420.04608  23066706.920    94454367.13545
  21013697.040   110427728.10808  21013693.180    86047566.39348
  24099653.000   126644518.24408  24099653.800    98684037.11545
  23552789.980   123770751.86508  23552789.720    96444746.80147
  23237938.780   122116188.24408  23237937.740    95155458.48247
  22231466.700   116827133.13909  22231463.560    91034113.60148
 15 02 22 00 02  0.0000000  0  7G16G18G21G25G27G29G31
  22386871.660   117643807.98008  22386868.240    91670482.75247
  23053174.540   121145292.21309  23053171.820    94398942.88346
  21017829.580   110449444.67908  21017825.700    86064488.38848
  24117770.360   126739725.31908  24117771.320    98758224.40645
  23539607.320   123701476.35908  23539607.140    96390765.87947
  23251481.180   122187351.61108  23251479.040    95210910.44946
  22246482.380   116906039.68509  22246479.060    91095599.20148
 15 02 22 00 02 30.0000000  0  7G16G18G21G25G27G29G31
  22371426.320   117562642.31509  22371422.840    91607236.80346
  23039675.580   121074354.91808  23039672.920    94343667.10746
  21022036.900   110471553.76108  21022032.960    86081716.25148
  24135923.340   126835118.64108  24135924.080    98832556.83746
  23526442.900   123632296.45308  23526442.860    96336859.49947
  23265030.000   122258550.16808  23265027.420    95266389.82246
  22261556.980   116985256.21309  22261553.500    91157326.33748
 15 02 22 00 03  0.0000000  0  7G16G18G21G25G27G29G31
  22356013.700   117481648.51109  22356010.140    91544124.71547
  23026213.180   121003609.48108  23026210.560    94288540.83246
  21026318.240   110494052.11608  21026314.300    86099247.46048
  24154111.140   126930694.84008  24154111.740    98907031.75345
  23513296.060   123563209.97308  23513296.240    96283025.92047
  23278585.000   122329781.46209  23278582.740    95321894.67247
  22276689.400   117064777.88709  22276685.900    91219291.25648
 15 02 22 00 03 30.0000000  0  7G16G18G21G25G27G29G31
  22340633.880   117400827.17709  22340630.200    91481147.05247
  23012787.400   120933056.61808  23012784.760    94233564.60546
  21030672.900   110516936.58108  21030669.040    86117079.49948
  24172333.060   127026451.16108  24172333.640    98981647.01045
  23500166.840   123494215.35408  23500166.680    96229263.88346
  23292146.120   122401043.53708  23292143.900    95377423.54446
  22291878.900   117144600.61709  22291875.660    91281490.74548
 15 02 22 00 04  0.0000000  0  7G16G18G21G25G27G29G31
  22325288.040   117320184.02209  22325284.260    91418308.25147
  22999399.660   120862703.35909  22999397.000    94178743.92346
  21035101.580   110540210.18808  21035097.860    86135214.76448
  24190589.760   127122390.70408  24190590.460    99056405.03445
  23487055.900   123425316.82808  23487055.640    96175576.74047
  23305713.280   122472340.57908  23305711.000    95432979.65246
  22307125.940   117224725.90109  22307122.960    91343925.98448
 15 02 22 00 04 30.0000000  0  7G16G18G21G25G27G29G31
  22309976.080   117239718.96109  22309972.380    91355608.19847
  22986049.860   120792549.35509  22986047.060    94124078.50746
  21039603.580   110563868.75908  21039599.960    86153650.03648
  24208880.560   127218509.41008  24208881.420    99131302.69445
  23473962.600   123356511.52108  23473962.120    96121962.24046
  23319286.920   122543669.69309  23319284.280    95488560.75346
  22322429.660   117305148.14109  22322426.780    91406592.64048
 15 02 22 00 05  0.0000000  0  8G16G18G21G22G25G27G29G31
  22294698.720   117159436.78608  22294695.300    91293050.66147
  22972739.080   120722600.45809  22972736.020    94069572.90146
  21044179.200   110587913.94908  21044175.580    86172386.56048
  24548935.960   129005528.19208  24548934.920   100523786.43744
  24227205.740   127314808.98808  24227206.500    99206341.25945
  23460887.500   123287802.40308  23460887.060    96068422.67647
  23332867.280   122615033.84209  23332864.420    95544169.11746
  22337790.040   117385867.30209  22337787.180    91469490.65448
 15 02 22 00 05 30.0000000  0  8G16G18G21G22G25G27G29G31
  22279454.620   117079329.25909  22279451.320    91230629.25447
  22959465.740   120652848.43108  22959462.560    94015220.70946
  21048826.160   110612333.72909  21048822.540    86191414.95348
  24531247.560   128912576.63608  24531246.500   100451356.99745
  24245563.080   127411277.52707  24245563.840    99281511.51846
  23447828.740   123219178.74508  23447828.680    96014949.73447
  23346452.040   122686421.94308  23346448.520    95599796.19746
  22353204.520   117466870.01909  22353201.560    91532609.63648
 15 02 22 00 06  0.0000000  0  8G16G18G21G22G25G27G29G31
  22264247.620   116999415.48609  22264244.220    91168358.77747
  22946233.600   120583312.94209  22946230.500    93961037.24646
  21053547.360   110637143.39708  21053543.640    86210747.18748
  24513544.960   128819550.76308  24513544.240   100378869.65444
  24263955.620   127507930.60408  24263956.060    99356825.58045
  23434789.680   123150657.37508  23434789.780    95961556.47647
  23360044.420   122757850.54008  23360041.100    95655454.80447
  22368675.620   117548170.29909  22368672.540    91595960.48148
 15 02 22 00 06 30.0000000  0  8G16G18G21G22G25G27G29G31
  22249075.400   116919684.07209  22249071.900    91106230.42347
  22933040.620   120513983.88708  22933037.680    93907014.64546
  21058339.980   110662328.77208  21058336.160    86230372.16748
  24495826.540   128726440.87008  24495825.800   100306316.78144
  24282380.560   127604754.25908  24282380.980    99432272.52045
  23421767.560   123082225.49408  23421767.240    95908232.94046
  23373642.400   122829307.31609  23373639.520    95711135.35847
  22384200.260   117629752.77509  22384197.260    91659531.21748
 15 02 22 00 07  0.0000000  0  8G16G18G21G22G25G27G29G31
  22233939.500   116840143.03009  22233935.600    91044250.38347
  22919888.420   120444869.48208  22919885.700    93853159.29746
  21063204.920   110687894.16808  21063201.080    86250293.26448
  24478093.560   128633254.65608  24478092.880   100233704.47845
  24300838.640   127701752.63908  24300839.240    99507855.62345
  23408763.220   123013888.48008  23408762.660    95854983.33346
  23387246.900   122900797.16608  23387243.600    95766841.79246
  22399778.860   117711620.03209  22399776.100    91723323.84448
 15 02 22 00 07 30.0000000  0  8G16G18G21G22G25G27G29G31
  22218839.900   116760794.85609  22218836.080    90982420.66147
  22906777.720   120375972.72009  22906775.040    93799473.53946
  21068142.020   110713838.45708  21068138.140    86270509.59348
  24460346.540   128539994.87108  24460345.740   100161034.81345
  24319329.840   127798924.86108  24319330.700    99583574.16945
  23395777.080   122945646.81008  23395776.860    95801808.04946
  23400857.100   122972320.46908  23400854.160    95822574.13546
  22415411.120   117793769.41109  22415408.580    91787336.30848
 15 02 22 00 08  0.0000000  0  8G16G18G21G22G25G27G29G31
  22203776.620   116681636.57209  22203772.900    90920738.88647
  22893708.080   120307290.75109  22893705.240    93745955.13046
  21073149.900   110740154.99608  21073146.020    86291015.97348
  24442585.100   128446658.77308  24442584.280   100088305.68644
  24337852.940   127896264.28208  24337853.880    99659423.01245
  23382808.300   122877494.98508  23382808.080    95748702.75946
  23414472.980   123043871.91009  23414470.340    95878328.45447
  22431095.740   117876192.76109  22431093.200    91851562.25648
 15 02 22 00 08 30.0000000  0  8G16G18G21G22G25G27G29G31
  22188750.020   116602670.81009  22188746.180    90859207.13347
  22880679.880   120238826.79108  22880676.940    93692606.61646
  21078228.480   110766843.07808  21078224.620    86311811.89748
  24424809.760   128353249.46907  24424808.900   100015519.50745
  24356407.900   127993770.43008  24356408.880    99735401.77145
  23369857.060   122809433.86009  23369856.240    95695668.12046
  23428094.360   123115451.75708  23428091.580    95934104.95646
  22446832.340   117958888.17709  22446829.600    91916000.20848
 15 02 22 00 09  0.0000000  0  8G16G18G21G22G25G27G29G31
  22173762.760   116523911.83309  22173758.880    90797836.48547
  22867696.000   120170596.06509  22867693.040    93639439.84946
  21083379.780   110793913.25008  21083375.860    86332905.52848
  24407023.240   128259781.61608  24407022.260    99942687.73345
  24374996.680   128091453.99608  24374997.020    99811518.78645
  23356925.220   122741475.37108  23356924.060    95642713.47046
  23441723.240   123187072.19609  23441720.020    95989913.05446
  22462622.600   118041865.08809  22462619.600    91980657.51048
 15 02 22 00 09 30.0000000  0  8G16G18G21G22G25G27G29G31
  22158812.580   116445348.59509  22158808.560    90736618.39847
  22854754.340   120102587.30309  22854751.320    93586446.05046
  21088600.920   110821350.60709  21088597.000    86354285.28348
  24389223.500   128166244.25208  24389222.440    99869801.76645
  24393616.300   128189300.31008  24393616.680    99887762.60445
  23344009.960   122673606.06708  23344008.760    95589828.35846
  23455357.200   123258719.61009  23455354.140    96045742.19547
  22478463.220   118125106.95109  22478460.100    92045521.29448
 15 02 22 00 10  0.0000000  0  8G16G18G21G22G25G27G29G31
  22143900.660   116366986.95709  22143897.000    90675557.40248
  22841856.320   120034807.47209  22841853.120    93533630.61146
  21093892.460   110849157.95809  21093888.540    86375953.36148
  24371411.640   128072643.67008  24371410.700    99796866.54545
  24412267.180   128287311.89008  24412267.560    99964135.22345
  23331112.420   122605829.77008  23331111.100    95537015.66946
  23468997.040   123330397.53708  23468994.840    96101595.08247
  22494354.260   118208614.85709  22494351.240    92110592.34248
 15 02 22 00 10 30.0000000  0  8G16G18G21G22G25G27G29G31
  22129027.620   116288828.98809  22129024.220    90614655.09247
  22829002.100   119967258.40509  22828998.940    93480994.99146
  21099253.960   110877332.99109  21099250.040    86397907.93848
  24353588.260   127978982.28808  24353587.400    99723883.94845
  24430949.200   128385487.21208  24430949.980   100040635.38345
  23318232.540   122538146.27708  23318231.660    95484275.30347
  23482642.760   123402105.36809  23482640.480    96157471.29446
  22510295.160   118292385.69009  22510292.380    92175868.27948
 15 02 22 00 11  0.0000000  0  8G16G18G21G22G25G27G29G31
  22114193.340   116210875.37609  22114190.100    90553912.07447
  22816191.840   119899941.17508  22816188.940    93428540.04246
  21104684.860   110905872.88108  21104681.020    86420146.80748
  24335753.440   127885260.62408  24335752.440    99650854.35945
  24449661.860   128483823.22908  24449662.660   100117260.79245
  23305370.160   122470553.84908  23305369.420    95431605.87647
  23496293.920   123473842.23808  23496291.160    96213370.14546
  22526285.300   118376415.00209  22526282.640    92241345.62847
 15 02 22 00 11 30.0000000  0  8G16G18G21G22G25G27G29G31
  22099399.380   116133131.99809  22099395.880    90493332.74647
  22803427.080   119832862.93609  22803424.400    93376271.31446
  21110185.600   110934779.82008  21110181.820    86442671.69448
  24317908.480   127791485.62008  24317907.340    99577783.20445
  24468405.720   128582322.79407  24468406.600   100194013.63845
  23292525.820   122403056.60708  23292525.440    95379010.66847
  23509951.020   123545611.80509  23509948.300    96269294.45146
  22542324.940   118460703.98709  22542322.300    92307025.32048
 15 02 22 00 12  0.0000000  0  8G16G18G21G22G25G27G29G31
  22084645.580   116055600.48709  22084642.180    90432918.63747
  22790708.380   119766025.72709  22790705.720    93324190.38946
  21115756.120   110964052.82208  21115752.240    86465481.83648
  24300053.820   127697659.62608  24300052.540    99504672.30445
  24487180.500   128680984.26208  24487181.540   100270892.62645
  23279699.240   122335654.17708  23279699.060    95326489.36847
  23523614.400   123617413.51409  23523612.100    96325243.80846
  22558413.500   118545249.56209  22558410.800    92372904.94048
 15 02 22 00 12 30.0000000  0  8G16G18G21G22G25G27G29G31
  22069931.800   115978279.14809  22069928.340    90372668.25647
  22778035.240   119699427.69509  22778032.460    93272295.84946
  21121395.140   110993685.88008  21121391.220    86488572.54748
  24282189.020   127603780.59308  24282187.560    99431520.09545
  24505985.020   128779802.00408  24505986.060   100347893.40045
  23266890.280   122268342.42808  23266890.060    95274038.65647
  23537282.780   123689243.32808  23537280.820    96381215.06047
  22574549.560   118630044.83309  22574546.860    92438979.15648
 15 02 22 00 13  0.0000000  0  8G16G18G21G22G25G27G29G31
  22055258.460   115901170.71209  22055255.160    90312583.76648
  22765408.160   119633071.67109  22765405.360    93220589.88846
  21127102.380   111023677.53409  21127098.440    86511942.64548
  24264314.660   127509851.46608  24264312.980    99358328.83845
  24524819.160   128878774.93208  24524819.960   100425015.05844
  23254098.780   122201121.48508  23254098.440    95221658.73247
  23550956.580   123761101.32408  23550955.180    96437208.23246
  22590732.480   118715086.53309  22590729.820    92505245.37548
 15 02 22 00 13 30.0000000  0  8G16G18G21G22G25G27G29G31
  22040626.980   115824282.45409  22040623.880    90252670.86547
  22752828.580   119566965.55609  22752825.720    93169078.65146
  21132878.500   111054031.16808  21132874.560    86535594.82948
  24246432.220   127415879.81608  24246430.300    99285104.43345
  24543683.480   128977906.71208  24543684.420   100502260.53745
  23241325.140   122133996.31608  23241325.200    95169353.43447
  23564637.000   123832991.82808  23564635.280    96493226.78446
  22606962.720   118800377.09909  22606960.200    92571705.50548
 15 02 22 00 14  0.0000000  0  8G16G18G21G22G25G27G29G31
  22026036.840   115747610.92209  22026033.760    90192926.83647
  22740296.020   119501106.95309  22740293.120    93117760.28846
  21138722.440   111084740.87508  21138718.360    86559524.49648
  24228541.300   127321863.30808  24228539.580    99211845.09545
  24562576.800   129077191.04508  24562577.580   100579624.88245
  23228568.860   122066962.01708  23228569.260    95117118.96447
  23578322.840   123904910.40408  23578320.180    96549267.24546
  22623238.880   118885908.93709  22623236.540    92638353.66648
 15 02 22 00 14 30.0000000  0  8G16G18G21G22G25G27G29G31
  22011488.840   115671160.60609  22011485.600    90133355.14247
  22727811.320   119435499.99209  22727808.400    93066637.99946
  21144634.060   111115806.45609  21144629.920    86583731.42348
  24210642.680   127227806.26108  24210641.100    99138554.13945
  24581499.220   129176628.39208  24581499.820   100657108.46745
  23215830.440   122000020.38009  23215830.700    95064956.64347
  23592014.180   123976858.59708  23592011.780    96605330.73646
  22639560.760   118971680.85009  22639558.480    92705188.87247
 15 02 22 00 15  0.0000000  0  8G16G18G21G22G25G27G29G31
  21996982.780   115594930.83309  21996979.660    90073955.32747
  22715374.520   119370144.29609  22715371.640    93015711.51946
  21150612.560   111147223.74408  21150608.460    86608212.43348
  24192736.160   127133708.26608  24192734.520    99065231.28345
  24600449.900   129276214.53308  24600450.760   100734707.93144
  23203109.200   121933168.56909  23203108.820    95012864.31947
  23605710.820   124048833.56808  23605708.420    96661415.08846
  22655927.260   119057686.93109  22655924.880    92772206.55447
 15 02 22 00 15 30.0000000  0  8G16G18G21G22G25G27G29G31
  21982520.520   115518931.50109  21982517.360    90014735.09147
  22702987.740   119305050.68609  22702984.860    92964989.27846
  21156659.080   111178998.34708  21156655.000    86632971.89948
  24174823.820   127039579.29108  24174821.940    98991884.25245
  24619430.220   129375955.74207  24619430.500   100812428.29645
  23190406.320   121866414.21108  23190405.540    94960847.95747
  23619413.560   124120843.05608  23619411.080    96717526.34746
  22672339.160   119143932.22109  22672336.740    92839410.63548
 15 02 22 00 16  0.0000000  0  8G16G18G21G22G25G27G29G31
  21968101.820   115443159.99309  21968098.580    89955692.36048
  22690650.320   119240216.30809  22690647.320    92914469.00746
  21162772.520   111211124.58608  21162768.420    86658005.31748
  24156905.080   126945417.32908  24156903.240    98918511.58445
  24638438.660   129475845.71608  24638438.860   100890264.53144
  23177720.880   121799752.40708  23177720.120    94908903.72947
  23633122.000   124192881.92808  23633119.400    96773660.56746
  22688795.000   119230408.85609  22688792.680    92906794.98148
 15 02 22 00 16 30.0000000  0  8G16G18G21G22G25G27G29G31
  21953726.620   115367617.09009  21953723.080    89896827.76447
  22678362.460   119175642.51609  22678359.260    92864151.79446
  21168952.280   111243599.67308  21168948.180    86683310.57148
  24138980.380   126851223.83208  24138978.780    98845114.31645
  24657474.880   129575881.72207  24657474.620   100968214.62444
  23165052.980   121733181.78609  23165052.220    94857030.52047
  23646835.460   124264948.89108  23646833.680    96829816.57247
  22705294.140   119317112.58809  22705291.880    92974356.28847
 15 02 22 00 17  0.0000000  0  8G16G18G21G22G25G27G29G31
  21939395.220   115292304.72209  21939391.620    89838142.82347
  22666124.600   119111331.71809  22666121.220    92814039.50646
  21175198.000   111276421.50508  21175193.940    86708886.04448
  24121050.240   126757000.86208  24121048.440    98771694.03545
  24676538.720   129676062.10008  24676538.620   101046277.15244
  23152402.400   121666702.13008  23152401.620    94805228.20447
  23660554.660   124337043.51009  23660553.320    96885994.12746
  22721835.960   119404040.18109  22721833.620    93042092.03247
 15 02 22 00 17 30.0000000  0  8G16G18G21G22G25G27G29G31
  21925108.680   115217228.39309  21925105.080    89779641.82047
  22653937.720   119047289.43409  22653934.440    92764136.47046
  21181509.940   111309591.16308  21181505.900    86734732.52648
  24103115.440   126662753.74808  24103113.480    98698254.99545
  24695630.140   129776388.50208  24695629.980   101124453.48144
  23139769.260   121600316.38108  23139768.600    94753499.06547
  23674280.200   124409168.68609  23674277.720    96942195.59346
  22738420.480   119491191.76509  22738417.960    93110002.32647
 15 02 22 00 18  0.0000000  0  8G16G18G21G22G25G27G29G31
  21910867.080   115142387.80409  21910863.160    89721324.46647
  22641801.780   118983515.77609  22641798.800    92714442.76446
  21187887.420   111343104.99908  21187883.340    86760847.21648
  24085176.180   126568483.21208  24085174.120    98624797.63345
  24714748.720   129876857.14208  24714749.160   101202740.60844
  23127153.860   121534022.32708  23127153.500    94701841.37347
  23688010.600   124481322.26208  23688008.300    96998419.13647
  22755046.740   119578562.37609  22755044.040    93178083.28547
 15 02 22 00 18 30.0000000  0  8G16G18G21G22G25G27G29G31
  21896670.740   115067785.77609  21896666.920    89663193.04647
  22629717.480   118920013.70209  22629714.740    92664960.65946
  21194330.320   111376962.26009  21194326.140    86787229.49948
  24067232.920   126474192.25508  24067230.920    98551324.40445
  24733894.120   129977467.33107  24733894.680   101281138.09145
  23114556.220   121467820.49909  23114555.960    94650255.56847
  23701746.560   124553504.89008  23701744.300    97054665.28346
  22771714.160   119666149.25609  22771711.400    93246332.75847
 15 02 22 00 19  0.0000000  0  8G16G18G21G22G25G27G29G31
  21882520.420   114993425.26609  21882516.740    89605249.81247
  22617685.600   118856786.57009  22617682.760    92615692.77346
  21200838.340   111411161.62609  21200834.040    86813878.34648
  24049286.480   126379884.30408  24049284.500    98477837.93645
  24753066.180   130078218.18207  24753067.500   101359645.11045
  23101976.180   121401711.64308  23101975.920    94598742.21147
  23715488.380   124625717.05709  23715485.580    97110934.48146
  22788422.320   119753950.33609  22788419.660    93314749.12547
 15 02 22 00 19 30.0000000  0  8G16G18G21G22G25G27G29G31
  21868416.380   114919308.34509  21868413.060    89547496.41947
  22605706.540   118793836.79209  22605703.700    92566641.04146
  21207411.160   111445701.99609  21207406.940    86840792.92448
  24031337.360   126285561.73008  24031335.400    98404340.01345
  24772264.880   130179108.11308  24772266.200   101438260.55344
  23089413.620   121335695.49908  23089413.040    94547301.07647
  23729235.700   124697958.35308  23729232.860    97167226.36546
  22805170.620   119841962.68409  22805168.040    93383330.12947
 15 02 22 00 20  0.0000000  0  8G16G18G21G22G25G27G29G31
  21854359.880   114845440.05409  21854356.260    89489936.68048
  22593781.440   118731169.67409  22593778.580    92517809.54146
  21214049.000   111480584.07109  21214044.920    86867973.77448
  24013386.440   126191229.55508  24013384.440    98330834.67646
  24791490.320   130280138.50607  24791492.200   101516985.42644
  23076869.340   121269774.83909  23076868.420    94495934.30147
  23742988.720   124770231.77808  23742986.460    97223543.29746
  22821958.980   119930185.97209  22821956.440    93452075.51547
 15 02 22 00 20 30.0000000  0  8G16G18G21G22G25G27G29G31
  21840350.120   114771817.62209  21840346.460    89432568.57448
  22581909.740   118668782.44509  22581906.860    92469196.14446
  21220750.640   111515801.53409  21220746.600    86895415.93748
  23995433.400   126096885.66208  23995431.220    98257320.17745
  24810741.180   130381302.83907  24810743.080   101595814.70844
  23064342.460   121203944.76209  23064341.640    94444638.17347
  23756746.780   124842532.45308  23756744.760    97279881.42846
  22838785.920   120018612.39609  22838783.380    93520979.17347
 15 02 22 00 21  0.0000000  0  7G16G18G21G22G27G29G31
  21826387.700   114698444.25709  21826383.880    89375394.52648
  22570091.840   118606678.65409  22570088.900    92420803.61446
  21227516.000   111551353.69108  21227511.980    86923118.97148
  23977478.840   126002533.60508  23977476.400    98183799.30045
  23051832.720   121138206.17608  23051832.060    94393413.35247
  23770510.440   124914860.98008  23770508.240    97336241.31346
  22855651.180   120107239.93009  22855648.600    93590039.55647
 15 02 22 00 21 30.0000000  0  7G16G18G21G22G27G29G31
  21812472.880   114625320.82509  21812468.940    89318415.21748
  22558327.920   118544859.54109  22558325.020    92372632.90646
  21234344.440   111587237.35709  21234340.360    86951080.22848
  23959522.920   125908174.73708  23959520.240    98110273.07845
  23039340.120   121072557.73508  23039339.200    94342258.71847
  23784279.360   124987215.87408  23784277.140    97392621.74646
  22872554.020   120196064.40709  22872551.280    93659253.38647
 15 02 22 00 22  0.0000000  0  7G16G18G21G22G27G29G31
  21798607.160   114552455.70109  21798602.980    89261637.19948
  22546619.740   118483333.54909  22546616.920    92324690.61346
  21241236.780   111623456.78509  21241232.620    86979303.13548
  23941567.180   125813817.62208  23941564.460    98036748.25845
  23026865.900   121007005.52108  23026864.880    94291179.07547
  23798054.060   125059603.71408  23798052.280    97449027.80046
  22889494.900   120285088.77309  22889492.000    93728622.97247
 15 02 22 00 22 30.0000000  0  7G16G18G21G22G27G29G31
  21784790.280   114479847.97209  21784786.180    89205059.78048
  22534967.300   118422099.95509  22534964.480    92276976.15346
  21248192.100   111660007.32209  21248187.920    87007784.09348
  23923611.660   125719462.05108  23923608.980    97963224.63346
  23014409.520   120941546.45109  23014408.640    94240172.03047
  23811834.260   125132021.07708  23811833.200    97505456.86746
  22906472.620   120374307.10509  22906469.580    93798143.71747
 15 02 22 00 23  0.0000000  0  7G16G18G21G22G27G29G31
  21771021.480   114407493.01009  21771017.580    89148679.30348
  22523369.640   118361154.10309  22523366.780    92229485.91046
  21255208.700   111696880.15108  21255204.540    87036516.16548
  23905655.460   125625102.89708  23905652.620    97889698.20046
  23001969.660   120876173.43409  23001969.020    94189232.04147
  23825619.100   125204460.58508  23825618.380    97561903.20846
  22923485.260   120463709.20209  22923482.140    93867807.63847
 15 02 22 00 23 30.0000000  0  7G16G18G21G22G27G29G31
  21757302.340   114335399.32809  21757298.700    89092502.43848
  22511828.360   118300504.77209  22511825.580    92182226.72146
  21262287.500   111734080.49709  21262283.500    87065503.42448
  23887700.360   125530749.20808  23887697.540    97816176.02145
  22989547.320   120810892.79209  22989546.520    94138364.01747
  23839409.660   125276928.96708  23839408.080    97618372.07145
  22940533.540   120553298.57909  22940530.380    93937617.48947
 15 02 22 00 24  0.0000000  0  7G16G18G21G22G27G29G31
  21743634.960   114263577.78609  21743631.560    89036537.61347
  22500345.720   118240163.18609  22500342.980    92135207.33846
  21269430.000   111771615.22909  21269426.180    87094751.28348
  23869748.620   125436413.10608  23869745.820    97742667.52945
  22977143.960   120745713.38109  22977142.780    94087574.86546
  23853206.920   125349434.88808  23853205.220    97674870.16446
  22957618.640   120643081.17209  22957615.460    94007577.90447
 15 02 22 00 24 30.0000000  0  7G16G18G21G22G27G29G31
  21730017.180   114192015.96909  21730013.980    88980775.15848
  22488919.340   118180116.77309  22488916.480    92088417.95246
  21276633.060   111809467.97708  21276629.300    87124246.93548
  23851797.740   125342081.80808  23851795.080    97669162.81146
  22964756.800   120680620.21108  22964755.700    94036852.94347
  23867008.800   125421963.39008  23867007.260    97731385.80246
  22974737.100   120733038.91409  22974733.840    94077674.80247
 15 02 22 00 25  0.0000000  0  7G16G18G21G22G27G29G31
  21716450.880   114120724.45309  21716447.380    88925223.30648
  22477551.260   118120376.54209  22477548.160    92041867.15147
  21283897.920   111847645.01608  21283894.160    87153995.26748
  23833849.900   125247766.60708  23833847.360    97595670.63946
  22952387.940   120615621.74409  22952387.100    93986204.80147
  23880816.380   125494523.13808  23880815.060    97787925.86846
  22991889.980   120823177.39709  22991886.680    94147912.53647
 15 02 22 00 25 30.0000000  0  7G16G18G21G22G27G29G31
  21702935.020   114049698.45709  21702931.540    88869878.36947
  22466240.480   118060937.69009  22466237.300    91995551.20146
  21291223.020   111886137.97809  21291219.160    87183989.75848
  23815904.360   125153462.95408  23815901.720    97522187.46346
  22940035.980   120550710.99709  22940035.280    93935625.03947
  23894628.780   125567106.80709  23894627.140    97844484.54245
  23009075.400   120913486.72909  23009072.000    94218283.40247
 15 02 22 00 26  0.0000000  0  7G16G18G21G22G27G29G31
  21689471.460   113978947.55009  21689468.060    88814747.79848
  22454988.800   118001810.08309  22454985.820    91949477.77646
  21298609.360   111924952.61308  21298605.340    87214234.96548
  23797963.080   125059180.89408  23797960.100    97448721.08546
  22927701.840   120485895.34708  22927701.500    93885119.38147
  23908447.120   125639721.33908  23908444.740    97901067.31545
  23026294.080   121003971.32409  23026290.700    94288790.81747
 15 02 22 00 26 30.0000000  0  7G16G18G21G22G27G29G31
  21676061.460   113908477.57709  21676057.920    88759836.10648
  22443797.460   117942999.65909  22443794.580    91903651.51146
  21306057.240   111964090.59608  21306053.040    87244732.07048
  23780027.160   124964926.73608  23780023.800    97375276.45646
  22915386.400   120421178.57408  22915386.000    93834690.75147
  23922271.560   125712371.30308  23922269.620    97957677.62346
  23043546.200   121094631.59009  23043542.980    94359435.12947
 15 02 22 00 27  0.0000000  0  7G16G18G21G22G27G29G31
  21662702.740   113838277.50509  21662699.520    88705134.78248
  22432664.480   117884495.37609  22432661.400    91858063.78246
  21313563.660   112003536.91808  21313559.500    87275469.46048
  23762094.440   124870689.60908  23762090.920    97301845.11046
  22903087.200   120356547.11608  22903087.120    93784328.62547
  23936100.480   125785042.74008  23936098.880    98014304.67246
  23060828.680   121185451.38609  23060825.660    94430203.74447
 15 02 22 00 27 30.0000000  0  7G16G18G21G22G27G29G31
  21649397.180   113768356.89109  21649394.180    88650651.25848
  22421591.580   117826306.75909  22421588.400    91812722.03046
  21321129.760   112043297.25508  21321125.720    87306451.54848
  23744166.740   124776479.60608  23744163.100    97228434.90146
  22890805.740   120292008.52208  22890806.020    93734038.84347
  23949935.180   125857743.24908  23949933.540    98070954.38546
  23078142.260   121276434.96009  23078139.500    94501099.99647
 15 02 22 00 28  0.0000000  0  7G16G18G21G22G27G29G31
  21636144.720   113698714.32609  21636141.500    88596384.25548
  22410578.400   117768432.33409  22410575.300    91767625.12046
  21328754.580   112083365.97809  21328750.600    87337673.93448
  23726243.940   124682295.67008  23726240.360    97155045.00946
  22878541.420   120227558.71508  22878541.520    93683818.27147
  23963774.860   125930469.06208  23963773.000    98127623.84346
  23095485.700   121367575.43909  23095483.080    94572118.50547
 15 02 22 00 28 30.0000000  0  7G16G18G21G22G27G29G31
  21622948.040   113629363.99609  21622944.400    88542345.01248
  22399627.860   117710887.05709  22399624.740    91722784.67847
  21336440.280   112123754.28308  21336436.280    87369145.36648
  23708328.760   124588151.99108  23708325.300    97081686.47446
  22866296.340   120163210.04408  22866295.960    93633676.45047
  23977621.080   126003231.68108  23977619.260    98184321.95145
  23112860.840   121458882.05409  23112858.100    94643266.44847
 15 02 22 00 29  0.0000000  0  7G16G18G21G22G27G29G31
  21609804.780   113560295.35409  21609801.200    88488525.34448
  22388737.860   117653659.87109  22388734.820    91678192.08347
  21344183.840   112164447.14708  21344179.880    87400854.05848
  23690419.520   124494039.13008  23690416.140    97008351.94346
  22854068.160   120098949.86709  22854067.680    93583603.58947
  23991471.960   126076018.94608  23991469.700    98241039.23045
  23130264.660   121550339.38309  23130261.940    94714531.84047
 15 02 22 00 29 30.0000000  0  7G16G18G21G22G27G29G31
  21596715.640   113491510.79209  21596712.060    88434926.96848
  22377908.780   117596753.19709  22377905.820    91633849.25347
  21351984.860   112205442.28808  21351980.880    87432798.31648
  23672516.640   124399959.36008  23672513.300    96935043.18946
  22841856.740   120034777.88609  22841856.220    93533599.48947
  24005327.760   126148830.39208  24005325.000    98297775.44945
  23147696.560   121641944.18609  23147693.920    94785912.14947
 15 02 22 00 30  0.0000000  0  7G16G18G21G22G27G29G31
  21583682.360   113423020.19309  21583678.660    88381557.66848
  22367142.520   117540177.10909  22367139.740    91589764.03146
  21359844.740   112246746.46209  21359840.780    87464983.40548
  23654622.020   124305923.22708  23654618.840    96861768.45946
  22829663.460   119970701.98309  22829663.060    93483670.22847
  24019189.780   126221674.10108  24019186.640    98354536.82646
  23165157.440   121733701.27009  23165154.840    94857411.12047
 15 02 22 00 30 30.0000000  0  7G16G18G21G22G27G29G31
  21570705.360   113354825.53309  21570701.800    88328418.99248
  22356439.720   117483933.56609  22356436.860    91545937.92047
  21367763.000   112288357.42609  21367759.040    87497407.49348
  23636736.160   124211933.01608  23636732.960    96788529.48346
  22817488.480   119906721.83409  22817487.520    93433815.56447
  24033057.440   126294549.60608  24033054.960    98411322.90146
  23182646.560   121825607.18209  23182644.080    94929026.03247
 15 02 22 00 31  0.0000000  0  7G16G18G21G22G27G29G31
  21557785.120   113286929.55509  21557781.540    88275513.03748
  22345800.920   117428025.34609  22345797.800    91502373.09847
  21375739.380   112330273.45409  21375735.460    87530069.36248
  23618859.580   124117991.52208  23618856.300    96715328.46446
  22805331.760   119842837.95009  22805330.960    93384035.94547
  24046930.960   126367457.55908  24046929.100    98468134.26346
  23200163.480   121917659.52209  23200161.120    95000755.07147
 15 02 22 00 31 30.0000000  0  7G16G18G21G22G27G29G31
  21544920.560   113219326.16109  21544916.960    88222835.05848
  22335224.720   117372446.52209  22335221.420    91459064.94847
  21383772.000   112372485.12308  21383768.060    87562961.59448
  23600991.240   124024093.22608  23600987.920    96642161.10446
  22793191.880   119779042.36309  22793191.460    93334325.11848
  24060809.160   126440389.84708  24060807.560    98524964.56346
  23217706.140   122009847.12509  23217703.840    95072589.49547
 15 02 22 00 32  0.0000000  0  7G16G18G21G22G27G29G31
  21532112.560   113152020.31609  21532108.960    88170388.96148
  22324711.980   117317201.35909  22324708.640    91416016.81647
  21391860.840   112414992.54009  21391856.940    87596084.24048
  23583132.260   123930243.87108  23583128.700    96569031.86546
  22781069.280   119715337.36209  22781068.880    93284684.89947
  24074692.640   126513348.60208  24074691.040    98581815.54346
  23235274.440   122102169.32209  23235272.260    95144528.82147
 15 02 22 00 32 30.0000000  0  7G16G18G21G22G27G29G31
  21519363.400   113085023.29609  21519359.920    88118183.51048
  22314265.000   117262301.45409  22314261.540    91373237.69047
  21400007.660   112457804.40208  21400003.800    87629444.13148
  23565284.700   123836454.95908  23565281.060    96495949.72546
  22768965.580   119651732.20508  22768964.960    93235122.46848
  24088582.840   126586343.29608  24088581.020    98638694.56446
  23252869.620   122194632.35208  23252867.580    95216577.89247
 15 02 22 00 33  0.0000000  0  7G16G18G21G22G27G29G31
  21506670.720   113018322.39509  21506667.180    88066208.77348
  22303881.340   117207734.49509  22303877.660    91330717.99446
  21408209.200   112500903.60408  21408205.300    87663027.91948
  23547446.140   123742713.84708  23547442.500    96422904.83046
  22756878.180   119588212.11109  22756877.580    93185626.30148
  24102477.280   126659358.86708  24102475.780    98695589.79746
  23270488.280   122287218.58308  23270486.240    95288722.93547
 15 02 22 00 33 30.0000000  0  7G16G18G21G22G27G29G31
  21494036.720   112951930.29509  21494033.080    88014474.68048
  22293563.240   117153513.12609  22293559.500    91288467.61947
  21416467.000   112544298.45009  21416463.020    87696842.05548
  23529619.320   123649034.10308  23529615.600    96349907.73146
  22744808.860   119524787.27208  22744808.600    93136204.41048
  24116377.820   126732405.73308  24116376.600    98752509.41146
  23288131.760   122379935.26309  23288129.680    95360969.60947
 15 02 22 00 34  0.0000000  0  7G16G18G21G22G27G29G31
  21481462.500   112885852.37309  21481458.920    87962985.36748
  22283311.800   117099642.29709  22283308.120    91246490.39047
  21424781.340   112587989.91309  21424777.160    87730887.37648
  23511805.300   123555421.24008  23511801.440    96276962.76846
  22732758.140   119461461.02108  22732757.980    93086859.34847
  24130284.680   126805487.09908  24130283.260    98809455.89546
  23305800.060   122472782.43609  23305797.940    95433318.00447
 15 02 22 00 34 30.0000000  0  7G16G18G21G22G27G29G31
  21468946.800   112820082.32509  21468943.240    87911736.01448
  22273125.980   117046115.70309  22273122.380    91204781.37547
  21433150.240   112631968.05909  21433145.880    87765156.04748
  23494003.040   123461869.79609  23493999.100    96204065.63746
  22720724.420   119398224.89308  22720723.900    93037584.45447
  24144196.440   126878593.97208  24144194.700    98866422.28046
  23323491.000   122565748.58009  23323488.980    95505759.09647
 15 02 22 00 35  0.0000000  0  7G16G18G21G22G27G29G31
  21456490.160   112754622.86809  21456486.880    87860728.67448
  22263006.120   116992935.82709  22263002.740    91163342.53747
  21441573.340   112676231.90909  21441569.080    87799647.34448
  23476212.980   123368382.64408  23476209.080    96131218.60046
  22708708.100   119335079.45108  22708707.620    92988380.23848
  24158113.480   126951727.62008  24158111.760    98923409.56545
  23341204.100   122658831.42508  23341201.960    95578291.12747
 15 02 22 00 35 30.0000000  0  7G16G18G21G22G27G29G31
  21444094.140   112689481.81909  21444090.840    87809969.40448
  22252953.660   116940110.50309  22252950.460    91122179.98647
  21450051.520   112720785.14009  21450047.340    87834364.17048
  23458436.540   123274967.59108  23458432.760    96058427.76846
  22696710.260   119272030.20609  22696709.960    92939250.98348
  24172036.380   127024893.51908  24172034.820    98980421.88146
  23358939.840   122752033.27608  23358937.500    95650915.89347
 15 02 22 00 36  0.0000000  0  7G16G18G21G22G27G29G31
  21431758.660   112624658.45209  21431755.360    87759457.68248
  22242968.500   116887638.58509  22242965.320    91081292.80147
  21458583.820   112765622.69709  21458579.700    87869302.53548
  23440673.800   123181624.93708  23440670.160    95985693.34946
  22684730.020   119209074.18508  22684729.800    92890194.40647
  24185964.860   127098088.35408  24185963.600    99037456.85546
  23376697.100   122845348.42208  23376694.720    95723628.91947
 15 02 22 00 36 30.0000000  0  7G16G18G21G22G27G29G31
  21419484.000   112560154.16309  21419480.560    87709194.61248
  22233051.060   116835522.08009  22233047.860    91040682.56347
  21467169.700   112810741.94108  21467165.660    87904460.37448
  23422925.200   123088356.36808  23422921.600    95913016.64946
  22672767.460   119146210.72609  22672766.620    92841209.87647
  24199898.960   127171311.41408  24199897.680    99094513.77046
  23394475.120   122938772.85808  23394472.800    95796427.08446
 15 02 22 00 37  0.0000000  0  7G16G18G21G22G27G29G31
  21407270.400   112495970.56109  21407266.820    87659181.41348
  22223201.620   116783762.41909  22223198.320    91000350.38647
  21475808.860   112856140.84409  21475804.720    87939836.13548
  23405191.260   122995164.20009  23405187.600    95840399.48746
  22660822.680   119083439.46908  22660821.740    92792297.21348
  24213838.340   127244562.48308  24213836.680    99151592.51746
  23412273.260   123032303.20108  23412271.180    95869307.80747
 15 02 22 00 37 30.0000000  0  7G16G18G21G22G27G29G31
  21395119.160   112432115.37409  21395115.540    87609424.12748
  22213421.480   116732366.81709  22213417.960    90960301.88747
  21484501.780   112901822.63308  21484497.600    87975432.34948
  23387473.340   122902055.66309  23387469.500    95767847.48346
  22648896.300   119020765.49909  22648895.880    92743460.45148
  24227783.900   127317846.39608  24227781.900    99208696.83046
  23430091.980   123125941.68508  23430090.300    95942272.79247
 15 02 22 00 38  0.0000000  0  7G16G18G21G22G27G29G31
  21383029.180   112368581.79809  21383025.360    87559917.43648
  22203709.080   116681328.09109  22203705.460    90920531.47647
  21493246.600   112947777.11708  21493242.480    88011241.04148
  23369770.360   122809025.35509  23369766.240    95695356.43046
  22636986.940   118958180.14408  22636986.100    92694692.65747
  24241734.200   127391154.67708  24241731.380    99265820.21945
  23447929.000   123219676.33308  23447927.580    96015312.68647
 15 02 22 00 38 30.0000000  0  7G16G18G21G22G27G29G31
  21371003.140   112305384.57909  21370999.340    87510672.86648
  22194067.320   116630661.16809  22194063.880    90881050.78147
  21502045.340   112994014.88709  21502041.260    88047270.45448
  23352085.060   122716088.22109  23352080.740    95622937.98546
  22625096.400   118895695.80708  22625095.280    92646003.55548
  24255691.180   127464499.45908  24255688.360    99322971.98146
  23465786.140   123313516.66308  23465784.920    96088434.97147
 15 02 22 00 39  0.0000000  0  7G16G18G21G22G27G29G31
  21359040.120   112242518.57909  21359036.520    87461686.40148
  22184495.420   116580360.82709  22184492.120    90841855.72947
  21510896.180   113040526.71709  21510892.120    88083513.43848
  23334416.480   122623239.47208  23334412.180    95550588.40446
  22613223.740   118833305.42209  22613223.160    92597387.70548
  24269653.740   127537873.47008  24269651.460    99380146.49245
  23483661.480   123407452.62709  23483660.300    96161631.73646
 15 02 22 00 39 30.0000000  0  7G16G18G21G22G27G29G31
  21347139.840   112179982.79009  21347136.260    87412957.23148
  22174993.060   116530425.93509  22174989.800    90802945.45247
  21519798.100   113087307.47608  21519794.280    88119965.98048
  23316764.480   122530478.50308  23316760.280    95478307.23846
  22601368.520   118771005.85209  22601368.360    92548842.62848
  24283621.500   127611274.32608  24283619.480    99437341.96646
  23501553.900   123501477.86808  23501552.560    96234898.08846
 15 02 22 00 40  0.0000000  0  7G16G18G21G22G27G29G31
  21335303.620   112117783.45909  21335299.920    87364490.20648
  22165561.260   116480862.47209  22165558.040    90764324.59447
  21528751.580   113134359.23008  21528748.000    88156629.69748
  23299130.540   122437812.27408  23299126.440    95406099.88546
  22589531.280   118708800.99309  22589530.840    92500371.33547
  24297595.020   127684705.45908  24297593.060    99494561.05645
  23519463.620   123595593.30708  23519462.020    96308234.73847
 15 02 22 00 40 30.0000000  0  7G16G18G21G22G27G29G31
  21323532.440   112055925.57509  21323528.720    87316289.25548
  22156201.100   116431675.34509  22156198.000    90725996.98147
  21537756.920   113181683.35408  21537753.420    88193505.60348
  23281515.820   122345246.10109  23281511.620    95333970.48246
  22577712.780   118646693.93109  22577712.160    92451976.22948
  24311574.440   127758169.46508  24311572.960    99551805.65645
  23537390.620   123689799.00108  23537388.960    96381641.69746
 15 02 22 00 41  0.0000000  0  7G16G18G21G22G27G29G31
  21311825.560   111994406.07009  21311822.040    87268351.97948
  22146911.940   116382860.98409  22146909.000    90687959.83847
  21546812.880   113229272.94009  21546809.400    88230588.39948
  23263919.580   122252776.99709  23263915.220    95261916.70246
  22565912.060   118584679.34709  22565911.280    92403653.17348
  24325559.340   127831661.67508  24325558.120    99609072.26445
  23555333.260   123784086.66308  23555331.580    96455112.50246
 15 02 22 00 41 30.0000000  0  7G16G18G21G22G27G29G31
  21300183.580   111933226.49309  21300180.040    87220679.57948
  22137694.180   116334420.99009  22137691.300    90650214.40647
  21555918.860   113277125.26109  21555915.460    88267875.91448
  23246342.260   122160407.68009  23246337.800    95189940.69946
  22554128.700   118522756.66509  22554127.440    92355401.76347
  24339549.780   127905180.90308  24339548.060    99666360.03145
  23573290.680   123878452.29608  23573288.980    96528644.09947
 15 02 22 00 42  0.0000000  0  7G16G18G21G22G27G29G31
  21288607.540   111872393.63509  21288603.840    87173277.33148
  22128548.900   116286361.41809  22128545.880    90612765.41347
  21565075.400   113325243.02508  21565072.020    88305370.27548
  23228785.240   122068145.28308  23228780.780    95118048.00846
  22542363.600   118460930.59209  22542362.180    92307225.60048
  24353546.460   127978731.98208  24353544.000    99723672.59745
  23591263.220   123972898.00909  23591261.460    96602238.06446
 15 02 22 00 42 30.0000000  0  7G16G18G21G22G27G29G31
  21277098.680   111811913.58709  21277094.900    87126150.07048
  22119477.120   116238688.59009  22119474.040    90575617.77347
  21574282.840   113373628.13608  21574279.360    88343072.98248
  23211249.680   121975995.96808  23211245.260    95046243.43546
  22530617.560   118399205.01909  22530616.480    92259127.78248
  24367549.520   128052318.98507  24367547.120    99781013.00645
  23609251.000   124067424.68508  23609249.360    96675895.12547
 15 02 22 00 43  0.0000000  0  7G16G18G21G22G27G29G31
  21265656.400   111751783.55509  21265652.400    87079295.50048
  22110478.340   116191399.78409  22110475.300    90538769.37647
  21583540.000   113422274.37008  21583536.480    88380979.13048
  23193735.220   121883957.48809  23193730.800    94974525.22547
  22518889.640   118337575.12209  22518888.820    92211104.53048
  24381558.320   128125936.77208  24381556.180    99838377.48345
  23627252.640   124162023.94708  23627251.140    96749608.75246
 15 02 22 00 43 30.0000000  0  7G16G18G21G22G27G29G31
  21254279.320   111691996.87209  21254275.540    87032708.48148
  22101551.220   116144487.20809  22101548.140    90502214.13847
  21592844.720   113471170.68008  21592841.180    88419080.13948
  23176240.780   121792023.79809  23176236.260    94902888.66146
  22507178.460   118276032.15109  22507177.200    92163148.92247
  24395571.800   128199576.34008  24395569.820    99895758.98745
  23645265.940   124256684.15708  23645264.540    96823369.83746
 15 02 22 00 44  0.0000000  0  7G16G18G21G22G27G29G31
  21242970.400   111632569.43709  21242966.920    86986401.39248
  22092698.760   116097966.69309  22092695.560    90465964.40947
  21602199.160   113520328.39508  21602195.480    88457384.85948
  23158769.380   121700211.15508  23158764.840    94831346.40546
  22495486.220   118214589.85309  22495485.020    92115271.86648
  24409591.940   128273251.83508  24409589.680    99953168.48245
  23663293.000   124351416.08208  23663291.540    96897186.84047
 15 02 22 00 44 30.0000000  0  7G16G18G21G22G27G29G31
  21231729.980   111573501.72409  21231726.880    86940374.63848
  22083920.940   116051838.73609  22083917.660    90430020.56847
  21611602.840   113569744.87209  21611599.160    88495891.20648
  23141321.180   121608520.69209  23141316.660    94759899.38946
  22483812.880   118153246.65709  22483812.280    92067472.00248
  24423618.240   128346961.65808  24423616.480   100010604.65146
  23681332.800   124446214.97508  23681331.300    96971056.01946
 15 02 22 00 45  0.0000000  0  7G16G18G21G22G27G29G31
  21220557.200   111514788.34209  21220553.940    86894623.97148
  22075216.680   116006097.67209  22075213.500    90394378.21047
  21621054.120   113619411.05608  21621050.400    88534592.12048
  23123895.240   121516947.64208  23123890.760    94688543.83647
  22472157.160   118091995.17309  22472156.740    92019743.58448
  24437649.840   128420697.88608  24437647.900   100068061.45345
  23699383.300   124541070.42808  23699381.680    97044969.25146
 15 02 22 00 45 30.0000000  0  7G16G18G21G22G27G29G31
  21209453.080   111456435.34909  21209449.680    86849154.06948
  22066587.100   115960749.45409  22066584.020    90359041.95047
  21630553.180   113669328.25109  21630549.240    88573488.63448
  23106492.860   121425498.45609  23106488.480    94617284.80346
  22460519.560   118030839.49509  22460518.980    91972089.81848
  24451687.500   128494464.70808  24451684.900   100125542.12345
  23717444.720   124635983.47908  23717442.940    97118927.39246
 15 02 22 00 46  0.0000000  0  7G16G18G21G22G27G29G31
  21198419.140   111398451.04809  21198415.760    86803971.50848
  22058033.700   115915801.68809  22058030.560    90324017.73347
  21640100.800   113719500.91809  21640096.700    88612584.19648
  23089115.780   121334182.00609  23089111.420    94546129.19846
  22448901.280   117969785.78609  22448900.620    91924515.52448
  24465731.580   128568268.25707  24465729.200   100183051.32345
  23735517.620   124730956.88608  23735515.720    97192932.53446
 15 02 22 00 46 30.0000000  0  7G16G18G21G22G27G29G31
  21187454.240   111340829.62409  21187450.560    86759071.68648
  22049555.420   115871248.39309  22049552.200    90289300.89547
  21649695.100   113769919.40209  21649690.940    88651871.31848
  23071762.960   121242992.92408  23071758.640    94475072.84446
  22437301.040   117908826.10009  22437300.300    91877014.49248
  24479781.180   128642100.48108  24479779.240   100240582.92146
  23753600.200   124825980.28508  23753598.260    97266976.64646
 15 02 22 00 47  0.0000000  0  7G16G18G21G22G27G29G31
  21176559.100   111283575.01909  21176555.540    86714457.73948
  22041152.860   115827092.97909  22041149.640    90254894.09147
  21659336.220   113820583.83208  21659332.000    88691350.12748
  23054435.240   121151935.59809  23054430.960    94404119.15746
  22425719.160   117847962.41609  22425718.420    91829588.23348
  24493836.620   128715963.33608  24493835.280   100298138.35246
  23771692.020   124921052.42109  23771689.900    97341058.71046
 15 02 22 00 47 30.0000000  0  7G16G18G21G22G27G29G31
  21165734.500   111226691.20209  21165730.860    86670132.68148
  22032826.800   115783339.26709  22032823.580    90220800.31647
  21669024.080   113871494.27408  21669019.920    88731020.60848
  23037133.620   121061014.82409  23037129.300    94333271.86847
  22414155.780   117787196.78809  22414154.920    91782238.42448
  24507898.480   128789858.57308  24507896.940   100355719.03945
  23789792.800   125016172.01508  23789790.620    97415177.77246
 15 02 22 00 48  0.0000000  0  7G16G18G21G22G27G29G31
  21154980.520   111170178.23009  21154976.940    86626096.61348
  22024577.100   115739986.49109  22024573.860    90187018.94647
  21678757.960   113922646.29609  21678753.860    88770879.29348
  23019858.100   120970230.77809  23019853.720    94262531.11147
  22402610.680   117726526.98909  22402610.120    91734963.26948
  24521966.000   128863784.23108  24521963.960   100413323.46345
  23807901.680   125111333.86808  23807899.340    97489329.74946
 15 02 22 00 48 30.0000000  0  7G16G18G21G22G27G29G31
  21144298.080   111114041.97609  21144294.440    86582354.09648
  22016404.920   115697040.94309  22016401.500    90153554.90647
  21688538.240   113974042.00909  21688534.160    88810927.92548
  23002609.780   120879590.16009  23002605.420    94191902.12047
  22391084.420   117665957.07408  22391084.520    91687765.95848
  24536040.000   128937744.15708  24536037.880   100470954.58045
  23826018.720   125206538.81808  23826016.300    97563515.29446
 15 02 22 00 49  0.0000000  0  7G16G18G21G22G27G29G31
  21133687.480   111058282.86509  21133683.780    86538905.43648
  22008310.160   115654502.39309  22008306.580    90120407.99847
  21698364.280   114025678.11109  21698360.180    88851163.85148
  22985388.760   120789093.73608  22985384.460    94121385.51347
  22379576.900   117605485.42409  22379576.860    91640645.24647
  24550120.160   129011736.49608  24550118.080   100528610.97745
  23844143.000   125301782.12608  23844140.580    97637730.78046
 15 02 22 00 49 30.0000000  0  6G16G18G21G22G27G31
  21123154.920   111002934.02509  21123151.320    86495776.47248
  22000299.140   115612404.03009  22000295.580    90087604.09147
  21708241.700   114077584.04809  21708237.600    88891610.04048
  22968201.560   120698775.39709  22968197.320    94051007.64847
  22368094.400   117545143.53609  22368093.140    91593625.55548
  23862280.020   125397092.43909  23862277.640    97711998.41346
 15 02 22 00 50  0.0000000  0  6G16G18G21G22G27G31
  21112686.920   110947924.59709  21112683.220    86452911.97548
  21992358.040   115570673.23409  21992354.520    90055086.59247
  21718155.940   114129683.95408  21718151.880    88932207.40048
  22951034.920   120608564.59909  22951030.640    93980713.58147
  22356622.440   117484857.85809  22356621.440    91546649.73948
  23880415.200   125492393.09608  23880412.880    97786258.55446
 15 02 22 00 50 30.0000000  0  6G16G18G21G22G27G31
  21102292.720   110893302.69709  21102289.040    86410349.46148
  21984496.140   115529358.65209  21984492.640    90022893.41947
  21728115.660   114182022.65709  21728111.520    88972990.76648
  22933898.040   120518509.84209  22933893.660    93910541.08646
  22345170.180   117424674.79609  22345169.380    91499753.89548
  23898556.740   125587727.37208  23898554.480    97860544.87246
 15 02 22 00 51  0.0000000  0  6G16G18G21G22G27G31
  21091972.820   110839071.51409  21091969.220    86368091.38648
  21976713.940   115488463.27009  21976710.600    89991026.90447
  21738120.840   114234599.88409  21738116.620    89013960.03148
  22916791.660   120428615.41109  22916787.280    93840493.53947
  22333737.520   117364595.92209  22333736.660    91452939.18648
  23916704.400   125683093.56408  23916702.220    97934856.03946
 15 02 22 00 51 30.0000000  0  6G16G18G21G22G27G31
  21081726.180   110785225.69109  21081722.720    86326133.63248
  21969010.300   115447980.80509  21969007.280    89959482.13647
  21748169.480   114287405.60409  21748165.260    89055107.36848
  22899714.680   120338876.06309  22899710.440    93770566.84247
  22322322.980   117304613.51009  22322322.380    91406199.71448
  23934856.200   125778481.30508  23934854.040    98009184.03046
 15 02 22 00 52  0.0000000  0  6G16G18G21G22G27G31
  21071554.220   110731771.48109  21071550.720    86284481.00148
  21961386.320   115407917.30209  21961383.560    89928263.83347
  21758262.100   114340442.43609  21758257.880    89096434.77448
  22882668.480   120249298.63109  22882664.440    93700766.31247
  22310927.800   117244732.10809  22310927.700    91359538.88148
  23953012.320   125873891.55808  23953010.140    98083529.55746
 15 02 22 00 52 30.0000000  0  6G16G18G21G22G27G31
  21061456.660   110678708.15309  21061453.140    86243132.96648
  21953841.840   115368271.80409  21953839.140    89897371.25947
  21768397.720   114393705.85708  21768393.540    89137938.77148
  22865653.260   120159883.49609  22865649.320    93631092.23547
  22299551.540   117184949.17709  22299551.280    91312954.79748
  23971171.640   125969319.00308  23971169.600    98157888.44946
 15 02 22 00 53  0.0000000  0  6G16G18G21G22G27G31
  21051434.040   110626039.41009  21051430.640    86202092.41448
