     2.11           OBSERVATION DATA    G                   RINEX VERSION / TYPE
SPIDER V4,0,0,3554                      2015 03 24 07:34    PGM / RUN BY / DATE 
CNAJ                                                        MARKER NAME         
CNAJ                                                        MARKER NUMBER       
                                                            OBSERVER / AGENCY   
496642              LEICA GRX1200+GNSS  8.10/4.007          REC # / TYPE / VERS 
10321018            LEIAR25         NONE                    ANT # / TYPE        
  5206098.7325   612081.0247  3621806.3029                  APPROX POSITION XYZ 
        0.0720        0.0000        0.0000                  ANTENNA: DELTA H/E/N
     1     1                                                WAVELENGTH FACT L1/2
     4    C1    L1    P2    L2                              # / TYPES OF OBSERV 
    30.000                                                  INTERVAL            
  2015    02    22    00    00    0.0000000     GPS         TIME OF FIRST OBS   
  2015    02    22    23    59   30.0000000     GPS         TIME OF LAST OBS    
    16                                                      LEAP SECONDS        
    30                                                      # OF SATELLITES     
   G 1   473   473   473   473                              PRN / # OF OBS      
   G 2   931   930   929   928                              PRN / # OF OBS      
   G 3   510   510   510   510                              PRN / # OF OBS      
   G 4   500   500   499   499                              PRN / # OF OBS      
   G 5   617   617   617   617                              PRN / # OF OBS      
   G 6   683   683   675   675                              PRN / # OF OBS      
   G 7   655   655   654   654                              PRN / # OF OBS      
   G 9   578   578   576   576                              PRN / # OF OBS      
   G10   694   694   694   694                              PRN / # OF OBS      
   G11   439   438   438   438                              PRN / # OF OBS      
   G12   830   830   828   828                              PRN / # OF OBS      
   G13   790   790   790   790                              PRN / # OF OBS      
   G14   839   836   837   835                              PRN / # OF OBS      
   G15   680   678   677   677                              PRN / # OF OBS      
   G16   669   669   669   669                              PRN / # OF OBS      
   G17   612   612   611   611                              PRN / # OF OBS      
   G18   902   900   900   900                              PRN / # OF OBS      
   G19   598   598   598   598                              PRN / # OF OBS      
   G20   620   619   619   619                              PRN / # OF OBS      
   G21   740   739   736   736                              PRN / # OF OBS      
   G22   657   657   656   656                              PRN / # OF OBS      
   G23   404   404   400   400                              PRN / # OF OBS      
   G24   828   828   828   828                              PRN / # OF OBS      
   G25   864   864   861   861                              PRN / # OF OBS      
   G27   781   781   781   781                              PRN / # OF OBS      
   G28   766   766   761   761                              PRN / # OF OBS      
   G29   762   761   760   760                              PRN / # OF OBS      
   G30   717   717   714   714                              PRN / # OF OBS      
   G31   613   613   613   613                              PRN / # OF OBS      
   G32   429   429   427   427                              PRN / # OF OBS      
BIT 2 OF LLI FLAGS DATA COLLECTED UNDER A/S CONDITION       COMMENT             
SNR is mapped to RINEX snr flag value [2-9]                 COMMENT             
Lx:     = 25dBHz -> 1; 26-27dBHz -> 2; 28-31dBHz -> 3       COMMENT             
       32-35dBHz -> 4; 36-38dBHz -> 5; 39-41dBHz -> 6       COMMENT             
       42-44dBHz -> 7; 45-48dBHz -> 8; >=49dBHz -> 9        COMMENT             
                                                            END OF HEADER       
 15 02 22 00 00  0.0000000  0  7G16G18G21G25G27G29G31
  22529008.080   118390740.89909  22529003.420    92252516.03845
  23024382.520   120993981.50508  23024379.940    94280970.08646
  20987336.500   110289389.44908  20987334.060    85939780.92147
  23950229.940   125859366.15406  23950231.160    98072256.15445
  23684868.660   124464806.69708  23684867.900    96985570.97746
  23137387.120   121588083.33107  23137384.000    94744114.10845
  22198695.900   116654922.09009  22198692.920    90899945.48847
 15 02 22 00 00 30.0000000  0  7G16G18G21G25G27G29G31
  22513213.360   118307738.27609  22513208.520    92187838.67145
  23010761.720   120922404.29808  23010758.960    94225195.69245
  20991283.220   110310129.50607  20991280.740    85955941.99047
  23968197.680   125953789.66106  23968199.140    98145832.83844
  23671646.460   124395323.26708  23671645.420    96931428.08646
  23150620.640   121657628.13908  23150617.700    94798304.83944
  22213339.480   116731875.95409  22213336.980    90959909.48347
 15 02 22 00 01  0.0000000  0  7G16G18G21G25G27G29G31
  22497448.260   118224891.97709  22497443.340    92123283.12445
  22997176.060   120851011.73008  22997173.080    94169565.15345
  20995303.400   110331254.95308  20995300.740    85972403.37248
  23986202.040   126048404.80107  23986203.340    98219558.86843
  23658439.740   124325921.83508  23658439.000    96877349.08146
  23163860.640   121727206.03308  23163857.680    94852521.35344
  22228042.800   116809143.18209  22228040.500    91020117.67447
 15 02 22 00 01 30.0000000  0  7G16G18G21G25G27G29G31
  22481713.560   118142206.05909  22481708.500    92058852.54245
  22983626.700   120779809.30008  22983623.380    94114082.76245
  20999397.340   110352767.28408  20999394.360    85989166.23148
  24004243.500   126143213.03008  24004244.720    98293435.40543
  23645248.980   124256604.87208  23645248.100    96823335.87745
  23177107.480   121796819.75608  23177104.120    94906765.79644
  22242805.880   116886723.67809  22242803.520    91080569.96147
 15 02 22 00 02  0.0000000  0  7G16G18G21G25G27G29G31
  22466009.780   118059683.41509  22466004.760    91994549.18445
  22970114.200   120708800.54608  22970110.660    94058751.29845
  21003564.820   110374665.62408  21003561.440    86006229.87747
  24022321.920   126238213.89708  24022323.260    98367462.05944
  23632074.460   124187373.22908  23632073.460    96769389.13744
  23190361.420   121866469.80708  23190357.340    94961038.53043
  22257628.260   116964615.51109  22257625.780    91141264.85347
 15 02 22 00 02 30.0000000  0  7G16G18G21G25G27G29G31
  22450337.220   117977324.92009  22450332.200    91930373.73745
  22956638.780   120637986.41509  22956635.100    94003571.46945
  21007805.220   110396947.54208  21007801.480    86023592.42248
  24040436.540   126333404.83108  24040438.080    98441636.77245
  23618915.860   124118225.42808  23618914.720    96715507.75444
  23203622.120   121936154.83508  23203616.960    95015338.53042
  22272509.000   117042814.40909  22272506.500    91202199.01047
 15 02 22 00 03  0.0000000  0  7G16G18G21G25G27G29G31
  22434696.920   117895136.13908  22434692.000    91866330.53145
  22943201.700   120567373.53208  22943198.020    93948548.46946
  21012118.980   110419615.09308  21012114.880    86041255.46547
  24058587.640   126428787.81907  24058589.140    98515961.12744
  23605773.880   124049164.63508  23605772.200    96661694.14944
  23216890.140   122005877.82608  23216884.000    95069668.19042
  22287448.220   117121320.90509  22287445.800    91263372.86447
 15 02 22 00 03 30.0000000  0  8G16G18G21G22G25G27G29G31
  22419088.580   117813115.43308  22419083.860    91802418.29645
  22929802.420   120496960.27408  22929799.040    93893681.04045
  21016504.920   110442662.76708  21016500.660    86059214.71047
  24547041.580   128995571.29808  24547033.420   100516005.44443
  24076774.220   126524357.69107  24076775.620    98590431.07744
  23592647.800   123980186.97108  23592645.480    96607945.35644
  23230164.520   122075634.63608  23230157.600    95124024.14042
  22302444.760   117200128.55709  22302442.440    91324781.38147
 15 02 22 00 04  0.0000000  0  8G16G18G21G22G25G27G29G31
  22403506.180   117731231.16008  22403501.660    91738612.38444
  22916435.380   120426716.26708  22916432.220    93838945.47745
  21020956.520   110466056.14808  21020952.220    86077443.32547
  24529281.680   128902242.76907  24529272.660   100443282.36341
  24094989.800   126620080.11707  24094990.640    98665019.93844
  23579531.340   123911259.19908  23579527.680    96554235.41844
  23243439.100   122145391.92308  23243434.480    95178380.51143
  22317491.760   117279201.45109  22317489.640    91386396.58447
 15 02 22 00 04 30.0000000  0  8G16G18G21G22G25G27G29G31
  22387970.540   117649592.77308  22387966.160    91674998.06845
  22903121.260   120356750.75608  22903118.440    93784426.94646
  21025493.840   110489900.67707  21025489.640    86096023.50047
  24511519.100   128808902.03307                                
  24113254.520   126716060.59707  24113254.000    98739809.86444
  23566444.800   123842488.05808  23566440.420    96500647.51444
  23256734.080   122215256.52408  23256732.620    95232820.46043
  22332608.920   117358643.58509  22332607.040    91448299.50146
 15 02 22 00 05  0.0000000  0  8G16G18G21G22G25G27G29G31
  22372454.820   117568058.58508  22372450.220    91611464.92744
  22889833.180   120286923.02208  22889830.880    93730015.79346
  21030089.420   110514051.42807  21030085.320    86114842.27147
  24493727.180   128715407.52407  24493722.140   100297679.97841
  24131540.860   126812154.24608  24131538.860    98814688.00243
  23553360.760   123773729.90508  23553356.500    96447069.74544
  23270022.180   122285084.83408  23270022.540    95287232.08243
  22347768.340   117438308.34708  22347766.640    91510375.90046
 15 02 22 00 05 30.0000000  0  8G16G18G21G22G25G27G29G31
  22356981.940   117486748.78808  22356976.900    91548106.63544
  22876594.260   120217353.19208  22876592.340    93675805.57645
  21034765.460   110538624.67807  21034761.340    86133990.25847
  24475928.980   128621880.01906  24475927.020   100224801.75943
  24149870.860   126908477.53008  24149867.920    98889745.09443
  23540301.540   123705102.40508  23540298.100    96393593.76245
  23283325.780   122354994.20208  23283327.000    95341706.89744
  22362991.980   117518310.79108  22362990.060    91572715.43245
 15 02 22 00 06  0.0000000  0  8G16G18G21G22G25G27G29G31
  22341544.700   117405625.44208  22341539.180    91484893.61844
  22863397.280   120148003.94708  22863395.760    93621767.25545
  21039513.940   110563578.73907  21039509.880    86153434.98947
  24458117.340   128528281.25507  24458117.920   100151867.97343
  24168236.660   127004988.98108  24168233.060    98964948.79643
  23527259.520   123636565.38108  23527257.020    96340188.32245
  23296636.960   122424944.26108  23296638.580    95396213.36844
  22378271.700   117598607.89608  22378269.180    91635284.57445
 15 02 22 00 06 30.0000000  0  8G16G18G21G22G25G27G29G31
  22326140.600   117324675.79008  22326134.840    91421815.96345
  22850240.140   120078863.70008  22850238.800    93567891.78146
  21044331.820   110588898.01207  21044327.840    86173164.28547
  24440290.100   128434599.99307  24440291.260   100078869.96544
  24186635.260   127101673.16007  24186631.840    99040287.05843
  23514231.840   123568104.49508  23514230.700    96286842.19546
  23309953.100   122494921.25408  23309955.100    95450740.85244
  22393604.560   117679182.80609  22393600.980    91698070.21245
 15 02 22 00 07  0.0000000  0  8G16G18G21G22G25G27G29G31
  22310771.140   117243907.83408  22310765.600    91358879.88345
  22837124.460   120009940.73908  22837123.020    93514185.61245
  21049219.840   110614586.70107  21049215.940    86193181.44147
  24422448.780   128340844.11707  24422449.780   100005813.79743
  24205067.300   127198534.22407  24205064.440    99115763.17644
  23501219.560   123499725.27708  23501219.400    96233559.71047
  23323275.220   122564930.16308  23323277.420    95505293.22444
  22408991.040   117760038.05809  22408986.720    91761074.30145
 15 02 22 00 07 30.0000000  0  8G16G18G21G22G25G27G29G31
  22295438.140   117163331.17209  22295433.020    91296092.88445
  22824051.980   119941244.87908  22824050.400    93460656.40345
  21054179.140   110640650.59507  21054175.340    86213490.97947
  24404595.140   128247023.17808  24404595.580    99932706.88943
  24223533.900   127295578.17307  24223531.700    99191381.74044
  23488224.040   123431434.97208  23488224.760    96180346.53746
  23336604.800   122634978.11508  23336606.820    95559875.96043
  22424431.840   117841178.02109  22424427.240    91824300.22945
 15 02 22 00 08  0.0000000  0  8G16G18G21G22G25G27G29G31
  22280140.180   117082938.46209  22280135.380    91233449.23645
  22811021.240   119872769.08908  22811019.780    93407298.70645
  21059207.800   110667078.96707  21059204.240    86234084.50746
  24386727.840   128153130.22208  24386728.020    99859543.87844
  24242033.320   127392794.11908  24242031.320    99267134.34343
  23475243.500   123363223.98808  23475244.880    96127195.15846
  23349940.120   122705056.04108  23349942.060    95614482.09543
  22439924.520   117922590.33409  22439919.920    91887738.36046
 15 02 22 00 08 30.0000000  0  8G16G18G21G22G25G27G29G31
  22264878.960   117002738.77009  22264874.300    91170955.98646
  22798034.360   119804522.90808  22798032.500    93354119.88645
  21064306.980   110693877.22807  21064303.740    86254966.28347
  24368848.660   128059174.77007  24368848.480    99786332.14144
  24260566.680   127490187.79408  24260564.540    99343025.50443
  23462279.440   123295099.25908  23462281.320    96074110.97647
  23363282.420   122775170.29008  23363284.180    95669116.51442
  22455469.820   118004279.32709  22455465.340    91951392.08846
 15 02 22 00 09  0.0000000  0  8G16G18G21G22G25G27G29G31
  22249654.400   116922731.80309  22249649.720    91108612.90446
  22785091.320   119736507.02108  22785088.740    93301120.49244
  21069475.960   110721041.49407  21069473.020    86276133.23447
  24350957.500   127965156.94407  24350956.940    99713071.74943
  24279133.220   127587755.43308  24279131.240    99419052.16244
  23449331.360   123227058.38608  23449333.860    96021092.13947
  23376631.340   122845318.52708  23376632.540    95723777.42043
  22471066.700   118086239.93709  22471062.440    92015257.46446
 15 02 22 00 09 30.0000000  0  8G16G18G21G22G25G27G29G31
  22234467.160   116842921.39909  22234462.240    91046422.99045
  22772192.940   119668724.96708  22772189.520    93248303.32344
  21074714.740   110748571.61907  21074712.000    86297585.28147
  24333054.920   127871080.46006  24333054.020    99639765.73643
  24297732.940   127685497.08608  24297731.400    99495214.45843
  23436399.520   123159102.59608  23436402.100    95968139.61447
  23389987.060   122915502.12108  23389986.860    95778465.79242
  22486714.840   118168470.41109  22486710.880    92079333.11347
 15 02 22 00 10  0.0000000  0  8G16G18G21G22G25G27G29G31
  22219317.100   116763306.68709  22219311.900    90984385.56745
  22759339.280   119601176.90908  22759334.740    93195668.45644
  21080022.620   110776463.63907  21080019.820    86319319.31947
  24315141.200   127776944.95805  24315140.200    99566413.75344
  24316364.980   127783408.52808  24316363.840    99571509.06844
  23423483.540   123091229.04108  23423486.140    95915251.17747
  23403349.000   122985717.81408  23403345.940    95833179.29441
  22502413.120   118250965.03809  22502409.460    92143614.59947
 15 02 22 00 10 30.0000000  0  8G16G18G21G22G25G27G29G31
  22204204.700   116683890.65408  22204199.460    90922502.95845
  22746530.680   119533865.64808  22746525.360    93143218.12844
  21085399.320   110804716.16507  21085396.100    86341334.27247
  24297217.280   127682753.86507  24297215.100    99493018.37242
  24335029.220   127881489.13007  24335028.620    99647935.44444
  23410583.460   123023438.37208  23410585.660    95862427.30546
  23416717.060   123055965.98508  23416713.020    95887918.10241
  22518161.160   118333721.69909  22518157.820    92208100.26647
 15 02 22 00 11  0.0000000  0  8G16G18G21G22G25G27G29G31
  22189131.300   116604680.30908  22189126.160    90860780.66445
  22733768.300   119466798.44208  22733762.800    93090957.98744
  21090845.420   110833332.55607  21090841.520    86363632.77047
  24279284.240   127588513.91607  24279280.480    99419584.89243
  24353725.840   127979742.13906  24353726.020    99724496.14243
  23397700.000   122955735.12708  23397701.880    95809671.55746
  23430092.280   123126252.02408  23430085.400    95942686.52441
  22533959.360   118416742.13109  22533956.340    92272791.48247
 15 02 22 00 11 30.0000000  0  8G16G18G21G22G25G27G29G31
  22174096.700   116525674.49508  22174091.920    90799217.70345
  22721052.260   119399975.46908  22721047.340    93038888.15045
  21096359.880   110862308.05107  21096355.300    86386211.06947
  24261341.840   127494225.11407  24261336.900    99346113.34342
  24372454.240   128078163.27807  24372454.960    99801187.81644
  23384832.520   122888116.39707  23384833.900    95756981.63546
  23443474.020   123196572.65908  23443466.100    95997481.83441
  22549806.540   118500020.56008  22549803.900    92337683.71446
 15 02 22 00 12  0.0000000  0  8G16G18G21G22G25G27G29G31
  22159100.700   116446871.88308  22159096.320    90737813.10545
  22708382.340   119333395.62008  22708378.140    92987007.76945
  21101941.700   110891638.55407  21101936.740    86409066.01647
  24243389.880   127399886.69108  24243383.980    99272603.11543
  24391213.960   128176747.71007  24391214.640    99878006.73444
  23371980.320   122820578.72308  23371981.820    95704354.92746
  23456861.560   123266924.34108  23456853.680    96052301.31343
  22565701.500   118583550.80908  22565699.160    92402772.17346
 15 02 22 00 12 30.0000000  0  8G16G18G21G22G25G27G29G31
  22144144.360   116368277.67808  22144140.160    90676570.90245
  22695759.660   119267064.05808  22695756.160    92935320.86445
  21107590.940   110921324.95807  21107585.960    86432198.28347
  24225429.240   127305503.62908  24225423.280    99199058.05443
  24410005.220   128275496.85707  24410006.020    99954954.02844
  23359144.060   122753124.90707  23359145.440    95651793.53446
  23470255.480   123337309.97708  23470249.240    96107147.20343
  22581644.480   118667332.97508  22581642.200    92468056.90446
 15 02 22 00 13  0.0000000  0  8G16G18G21G22G25G27G29G31
  22129228.200   116289894.16808  22129223.920    90615492.84444
  22683184.600   119200983.02208  22683181.980    92883829.17345
  21113307.360   110951365.30307  21113302.500    86455606.33647
  24207460.340   127211078.20608  24207454.680    99125480.05343
  24428827.600   128374409.01107  24428828.360   100032028.29843
  23346323.740   122685754.50307  23346325.100    95599297.15146
  23483655.680   123407729.11208  23483650.000    96162019.24642
  22597634.780   118751363.16008  22597632.380    92533534.92545
 15 02 22 00 13 30.0000000  0  8G16G18G21G22G25G27G29G31
  22114352.640   116211723.12708  22114348.000    90554580.35544
  22670657.500   119135154.87507  22670655.680    92832534.57246
  21119090.700   110981757.39107  21119085.960    86479288.49247
  24189483.620   127116612.59807  24189478.880    99051870.69944
  24447680.680   128473482.32107  24447680.800   100109228.16942
  23333519.320   122618466.98007  23333520.260    95546865.33946
  23497061.940   123478180.72208  23497056.940    96216916.56743
  22613671.780   118835638.30808  22613668.980    92599203.83545
 15 02 22 00 14  0.0000000  0  8G16G18G21G22G25G27G29G31
  22099518.240   116133767.58209  22099513.380    90493835.79044
  22658179.380   119069583.73208  22658178.120    92781440.23745
  21124940.980   111012501.85207  21124936.440    86503245.22047
  24171499.880   127022110.94107  24171496.180    98978233.31845
  24466564.520   128572716.97607  24466562.720   100186553.78542
  23320731.060   122551263.96508  23320731.740    95494499.34346
  23510474.720   123548666.84108  23510470.780    96271840.73644
  22629755.120   118920157.34508  22629751.960    92665062.79245
 15 02 22 00 14 30.0000000  0  8G16G18G21G22G25G27G29G31
  22084725.880   116056032.20709  22084720.820    90433262.75744
  22645751.340   119004273.82008  22645750.140    92730549.42145
  21130858.340   111043598.55608  21130853.960    86527476.42047
  24153510.000   126927577.57707  24153507.520    98904571.23744
  24485479.180   128672113.44707  24485475.060   100264005.61541
  23307959.200   122484147.28008  23307959.320    95442200.60946
  23523894.320   123619189.11507  23523891.080    96326793.06144
  22645884.620   119004919.12008  22645881.380    92731110.89044
 15 02 22 00 15  0.0000000  0  8G16G18G21G22G25G27G29G31
  22069975.140   115978515.21309  22069969.920    90372859.91445
  22633372.760   118939223.63608  22633371.460    92679860.99445
  21136841.740   111075042.17408  21136837.580    86551977.93447
  24135513.840   126833011.13306  24135512.240    98830883.32444
  24504423.860   128771666.36508  24504419.920   100341579.26842
  23295203.000   122417112.94708  23295202.940    95389966.10546
  23537320.120   123689743.66208  23537317.480    96381770.58443
  22662059.080   119089916.61308  22662055.960    92797342.68245
 15 02 22 00 15 30.0000000  0  8G16G18G21G22G25G27G29G31
  22055266.040   115901217.17209  22055260.740    90312627.68845
  22621043.860   118874434.55908  22621042.520    92629376.02745
  21142890.500   111106829.02208  21142886.500    86576746.91647
  24117511.340   126738412.09706  24117510.680    98757170.09044
  24523397.860   128871372.58108  24523394.560   100419272.35843
  23282462.260   122350159.24408  23282462.040    95337794.41546
  23550751.840   123760328.85208  23550749.240    96436771.96543
  22678277.680   119175145.47108  22678274.800    92863754.75045
 15 02 22 00 16  0.0000000  0  8G16G18G21G22G25G27G29G31
  22040599.480   115824143.20108  22040594.160    90252570.04245
  22608765.660   118809911.52308  22608764.080    92579098.37245
  21149004.980   111138961.09907  21149001.200    86601784.89447
  24099504.040   126643786.36507  24099504.100    98683436.01444
  24542401.280   128971233.58608  24542398.400   100497086.06143
  23269737.580   122283289.07808  23269737.320    95285687.75946
  23564190.140   123830947.40308  23564187.240    96491799.38544
  22694540.380   119260605.61409  22694537.480    92930347.05545
 15 02 22 00 16 30.0000000  0  8G16G18G21G22G25G27G29G31
  22025976.040   115747296.29008  22025970.880    90192689.33445
  22596539.000   118745658.02308  22596536.900    92529030.70945
  21155185.040   111171437.72308  21155181.500    86627091.34247
  24081492.720   126549137.47507  24081492.840    98609683.84544
  24561433.940   129071248.68808  24561431.600   100575019.84543
  23257029.000   122216503.14008  23257028.340    95233646.79145
  23577635.040   123901600.12308  23577631.140    96546853.44843
  22710846.720   119346294.91909  22710843.780    92997117.91145
 15 02 22 00 17  0.0000000  0  8G16G18G21G22G25G27G29G31
  22011395.380   115670675.17708  22011390.480    90132984.57245
  22584363.400   118681673.15208  22584361.040    92479172.40645
  21161429.600   111204253.55907  21161426.260    86652662.13248
  24063476.920   126454464.15907  24063476.580    98535912.64544
  24580494.800   129171413.03807  24580493.120   100653069.87343
  23244335.760   122149797.91108  23244334.680    95181668.74445
  23591085.860   123972283.41108  23591080.300    96601931.36843
  22727195.420   119432206.91408  22727192.320    93064062.31045
 15 02 22 00 17 30.0000000  0  8G16G18G21G22G25G27G29G31
  21996858.820   115594286.54708  21996854.400    90073460.99745
  22572240.180   118617963.63808  22572237.700    92429528.64745
  21167739.200   111237410.85108  21167735.920    86678498.97947
  24045457.900   126359773.09107  24045457.020    98462127.59845
  24599584.340   129271729.42607  24599582.780   100731238.36443
  23231658.580   122083177.61108  23231657.420    95129756.82046
  23604543.420   124043001.43808  23604536.720    96657036.31542
  22743586.600   119518342.93008  22743583.420    93131181.23845
 15 02 22 00 18  0.0000000  0  8G16G18G21G22G25G27G29G31
  21982366.720   115518132.54908  21982363.200    90014120.24645
  22560169.800   118554532.08109  22560167.220    92380101.49845
  21174113.620   111270908.42108  21174110.220    86704600.99147
  24027436.220   126265067.36008  24027434.480    98388331.14144
  24618702.380   129372196.45807  24618701.160   100809524.26942
  23218997.440   122016642.43508  23218995.860    95077911.24045
  23618007.640   124113754.48108  23618000.460    96712168.55543
  22760019.820   119604700.37108  22760016.780    93198472.71145
 15 02 22 00 18 30.0000000  0  8G16G18G21G22G25G27G29G31
  21967919.580   115442215.89207  21967917.200    89954964.45646
  22548152.920   118491381.08409  22548149.860    92330892.93845
  21180552.760   111304745.31008  21180549.020    86730967.40147
  24009412.460   126170349.81508  24009409.980    98314525.44044
  24637848.920   129472813.12207  24637847.860   100887926.74443
  23206352.380   121950192.71108  23206350.800    95026132.25745
  23631478.560   124184543.01708  23631471.680    96767328.42844
  22776494.500   119691276.33408  22776491.800    93265934.44145
 15 02 22 00 19  0.0000000  0  8G16G18G21G22G25G27G29G31
  21953517.540   115366535.54008  21953516.060    89895992.80546
  22536189.340   118428510.13209  22536185.500    92281902.57544
  21187055.540   111338916.16508  21187051.220    86757594.04547
  23991386.340   126075619.94708  23991383.320    98240710.14544
  24657023.180   129573574.63007  24657022.820   100966442.13343
  23193722.820   121883825.17608  23193720.860    94974417.32645
  23644955.500   124255363.61108  23644949.400    96822513.29144
  22793009.500   119778064.72908  22793007.320    93333561.68645
 15 02 22 00 19 30.0000000  0  8G16G18G21G22G25G27G29G31
  21939161.900   115291096.90808  21939160.840    89837209.50245
  22524279.940   118365924.81908  22524275.640    92233134.80145
  21193622.220   111373423.15308  21193617.360    86784482.61247
  23973358.740   125980883.22108  23973355.720    98166889.51845
  24676225.440   129674482.58608  24676225.940   101045071.58443
  23181109.500   121817542.81008  23181107.400    94922768.71445
  23658438.960   124326219.17508  23658433.960    96877725.38844
  22809564.980   119865065.87708  22809563.400    93401354.71745
 15 02 22 00 20  0.0000000  0  8G16G18G21G22G25G27G29G31
  21924852.380   115215898.21508  21924851.180    89778613.12045
  22512424.220   118303623.62808  22512420.180    92184588.44345
  21200251.500   111408260.24208  21200246.320    86811628.38447
  23955329.520   125886138.11908  23955326.520    98093062.37345
  24695454.620   129775531.47908  24695455.340   101123810.87343
  23168511.660   121751341.62008  23168509.900    94871183.36146
  23671928.220   124397106.00108  23671924.480    96932961.82445
  22826159.720   119952272.67108  22826158.520    93469307.99745
 15 02 22 00 20 30.0000000  0  8G16G18G21G22G25G27G29G31
  21910589.100   115140942.03108  21910587.600    89720205.68845
  22500622.700   118241609.00408  22500619.420    92136265.40645
  21206943.120   111443426.25608  21206938.100    86839030.45747
  23937299.220   125791387.55108  23937296.300    98019230.94645
  24714710.460   129876720.10308  24714711.040   101202659.08443
  23155929.300   121685221.94707  23155927.420    94819661.53846
  23685423.460   124468024.33708  23685420.680    96988222.82645
  22842793.240   120039682.50008  22842792.220    93537419.51745
 15 02 22 00 21  0.0000000  0  8G16G18G21G22G25G27G29G31
  21896373.120   115066234.58608  21896371.100    89661992.09545
  22488877.020   118179887.61208  22488874.340    92088170.84945
  21213697.660   111478923.61908  21213693.060    86866690.72947
  23919269.140   125696638.22408  23919266.380    97945400.52844
  24733993.380   129978050.98708  24733994.080   101281618.11442
  23143363.160   121619187.68108  23143361.700    94768206.31545
  23698925.360   124538977.98608  23698923.160    97043511.35945
  22859465.720   120127296.41408  22859464.600    93605690.07144
 15 02 22 00 21 30.0000000  0  8G16G18G21G22G25G27G29G31
  21882204.660   114991777.46508  21882202.300    89603973.52845
  22477187.680   118118461.28908  22477185.320    92040306.19945
  21220514.840   111514749.74708  21220510.660    86894607.17647
  23901239.580   125601892.18108  23901237.060    97871572.62544
  24753302.880   130079522.03007  24753303.820   101360686.32043
  23130813.240   121553238.18408  23130812.260    94716817.11945
  23712433.840   124609966.21108  23712431.980    97098826.81845
  22876176.400   120215110.89708  22876174.800    93674116.92744
 15 02 22 00 22  0.0000000  0  8G16G18G21G22G25G27G29G31
  21868084.340   114917573.72909  21868081.540    89546152.43345
  22465555.240   118057333.10108  22465553.040    91992673.89145
  21227394.500   111550903.44508  21227390.620    86922778.90847
  23883210.960   125507152.57307  23883208.440    97797749.78743
  24772638.560   130181132.37407  24772639.940   101439863.04344
  23118279.680   121487374.14708  23118279.080    94665494.52345
  23725949.140   124680990.04908  23725947.400    97154170.04245
  22892924.800   120303123.51408  22892922.620    93742698.18444
 15 02 22 00 22 30.0000000  0  8G16G18G21G22G25G27G29G31
  21854012.200   114843623.49109  21854009.080    89488528.85445
  22453979.780   117996503.31109  22453977.640    91945274.08046
  21234335.960   111587381.22408  21234332.300    86951203.15947
  23865183.600   125412420.32108  23865180.520    97723932.58041
  24791999.900   130282878.39007  24792001.880   101519145.48544
  23105762.000   121421593.50208  23105762.180    94614236.93345
  23739470.860   124752047.34608  23739469.060    97209539.33545
  22909709.960   120391329.35708  22909707.440    93811429.98845
 15 02 22 00 23  0.0000000  0  8G16G18G21G22G25G27G29G31
  21839988.540   114769928.01909  21839985.060    89431103.80745
  22442461.440   117935973.17509  22442459.280    91898107.78146
  21241338.500   111624180.08808  21241334.960    86979877.59747
  23847157.500   125317696.10808  23847151.260    97650121.54742
  24811386.620   130384757.32607  24811389.160   101598531.50343
  23093260.000   121355895.03508  23093260.620    94563043.33145
  23752998.720   124823136.60108  23752996.860    97264933.52345
  22926531.040   120479724.10108  22926528.580    93880308.97645
 15 02 22 00 23 30.0000000  0  7G16G18G21G22G27G29G31
  21826014.320   114696492.41108  21826010.300    89373881.21145
  22431001.120   117875747.93309  22430998.820    91851179.03746
  21248402.440   111661301.75808  21248399.060    87008803.58247
  23829134.080   125222985.48608  23829127.600    97576321.16344
  23080774.200   121290281.63208  23080774.980    94511916.04545
  23766533.220   124894261.04407  23766531.460    97320355.14345
  22943387.700   120568307.82407  22943385.860    93949335.18745
 15 02 22 00 24  0.0000000  0  7G16G18G21G22G27G29G31
  21812089.760   114623318.41008  21812085.200    89316862.50244
  22419599.040   117815829.65308  22419596.700    91804489.50245
  21255527.500   111698743.98608  21255524.260    87037979.35247
  23811113.980   125128291.51808  23811109.060    97502533.79544
  23068304.440   121224752.93707  23068305.440    94460854.77846
  23780074.060   124965420.30407  23780072.740    97375803.87845
  22960279.020   120657077.29507  22960278.340    94018506.10845
 15 02 22 00 24 30.0000000  0  7G16G18G21G22G27G29G31
  21798214.980   114550406.85508  21798210.380    89260048.27345
  22408255.400   117756219.03808  22408253.240    91758039.69046
  21262713.180   111736503.68608  21262709.900    87067402.49747
  23793097.200   125033614.70008  23793093.900    97428759.84345
  23055850.340   121159307.29307  23055851.580    94409858.23346
  23793621.220   125036612.64807  23793620.340    97431278.38245
  22977204.740   120746027.76907  22977205.140    94087818.04745
 15 02 22 00 25  0.0000000  0  7G16G18G21G22G27G29G31
  21784390.240   114477759.10908  21784386.000    89203439.66445
  22396970.540   117696917.79608  22396968.760    91711830.96546
  21269958.760   111774577.81008  21269955.280    87097070.64847
  23775084.160   124938956.99107  23775081.980    97355000.76245
  23043411.860   121093943.83807  23043413.600    94358925.73446
  23807174.580   125107837.62207  23807173.960    97486778.31345
  22994164.960   120835155.45407  22994165.880    94157268.11646
 15 02 22 00 25 30.0000000  0  7G16G18G21G22G27G29G31
  21770616.640   114405379.65508  21770613.000    89147040.10645
  22385745.300   117637930.26008  22385743.900    91665866.69646
  21277264.300   111812967.18708  21277260.580    87126984.45647
  23757075.540   124844323.04407  23757074.260    97281260.23845
  23030989.500   121028664.83107  23030991.540    94308058.99046
  23820734.640   125179096.98607  23820734.100    97542305.05545
  23011159.440   120924459.61608  23011160.020    94226855.71545
 15 02 22 00 26  0.0000000  0  7G16G18G21G22G27G29G31
  21756893.420   114333264.07808  21756890.360    89090846.17346
  22374579.200   117579252.35009  22374577.720    91620143.68846
  21284628.180   111851663.58708  21284624.300    87157137.49047
  23739070.880   124749708.93908  23739069.720    97207535.12845
  23018582.080   120963463.62208  23018584.180    94257252.90245
  23834300.000   125250383.87507  23834299.420    97597853.24244
  23028186.040   121013930.73908  23028186.040    94296573.40946
 15 02 22 00 26 30.0000000  0  7G16G18G21G22G27G29G31
  21743221.900   114261418.91008  21743218.980    89034862.96346
  22363473.440   117520890.63509  22363471.320    91574667.06245
  21292050.880   111890669.38708  21292046.820    87187531.62947
  23721071.440   124655121.70608  23721070.240    97133830.99945
  23006190.540   120898344.63608  23006192.660    94206510.89046
  23847871.760   125321703.45107  23847870.660    97653426.93744
  23045244.620   121103569.93008  23045243.880    94366422.08746
 15 02 22 00 27  0.0000000  0  7G16G18G21G22G27G29G31
  21729602.800   114189848.41709  21729599.620    88979093.75246
  22352428.800   117462849.19909  22352425.920    91529439.98345
  21299532.460   111929984.68508  21299528.240    87218166.92247
  23703078.060   124560565.64008  23703076.420    97060151.12845
  22993815.140   120833309.54108  22993817.160    94155834.24046
  23861449.980   125393057.00307  23861447.960    97709027.06544
  23062334.840   121193376.17108  23062333.460    94436400.93145
 15 02 22 00 27 30.0000000  0  7G16G18G21G22G27G29G31
  21716036.480   114118554.65409  21716032.800    88923540.18146
  22341445.540   117405130.08609  22341441.840    91484464.07045
  21307072.560   111969607.70008  21307068.300    87249041.99447
  23685091.200   124466043.33808  23685088.600    96986497.53244
  22981455.860   120768358.34108  22981457.440    94105222.92545
  23875034.580   125464444.70807  23875030.960    97764653.87444
  23079456.040   121283346.25208  23079454.080    94506507.43446
 15 02 22 00 28  0.0000000  0  7G16G18G21G22G27G29G31
  21702522.960   114047537.81309  21702518.600    88868202.38746
  22330523.640   117347733.48009  22330519.140    91439739.46445
  21314670.460   112009534.55008  21314666.200    87280153.83247
  23667110.880   124371555.46208  23667106.760    96912870.74644
  22969112.160   120703488.74808  22969113.280    94054675.20745
  23888625.260   125535864.51007  23888619.600    97820305.66844
  23096607.260   121373474.95808  23096604.860    94576737.53745
 15 02 22 00 28 30.0000000  0  7G16G18G21G22G27G29G31
  21689062.980   113976802.27109  21689058.040    88813083.78746
  22319663.980   117290664.33109  22319659.040    91395270.01445
  21322326.320   112049766.34808  21322322.140    87311503.28848
  23649137.820   124277106.19208  23649132.340    96839274.02743
  22956784.340   120638702.98208  22956784.560    94004192.82545
  23902222.260   125607317.92307  23902215.520    97875983.67543
  23113788.420   121463761.52808  23113785.760    94647090.63145
 15 02 22 00 29  0.0000000  0  7G16G18G21G22G27G29G31
  21675656.500   113906348.26309  21675651.220    88758184.55646
  22308866.400   117233922.27909  22308861.520    91351055.46846
  21330039.360   112090298.82308  21330035.280    87343087.03147
  23631172.300   124182696.78608  23631166.160    96765708.36744
  22944471.940   120573999.20408  22944471.240    93953774.33145
  23915825.340   125678803.46907  23915817.600    97931686.72243
  23130998.580   121554201.28708  23130995.560    94717563.09545
 15 02 22 00 29 30.0000000  0  7G16G18G21G22G27G29G31
  21662305.160   113836184.56909  21662299.680    88703511.55846
  22298132.620   117177516.24409  22298127.920    91307102.73546
  21337810.380   112131136.23108  21337806.400    87374908.37447
  23613216.000   124088336.10008  23613210.800    96692180.66244
  22932176.160   120509383.64308  22932174.800    93903424.54945
  23929435.660   125750327.58107  23929429.340    97987419.83643
  23148238.520   121644797.49408  23148234.900    94788157.47544
 15 02 22 00 30  0.0000000  0  7G16G18G21G22G27G29G31
  21649008.080   113766306.87009  21649002.480    88649061.40746
  22287461.840   117121441.90509  22287457.500    91263408.47346
  21345637.920   112172270.97508  21345634.100    87406961.41347
  23595268.280   123994020.32408  23595264.220    96618688.01345
  22919895.720   120444849.74208  22919893.860    93853138.40945
  23943052.100   125821883.62307  23943047.840    98043177.76644
  23165506.400   121735540.57208  23165502.060    94858866.30144
 15 02 22 00 30 30.0000000  0  7G16G18G21G22G27G29G31
  21635766.280   113696720.85209  21635760.740    88594838.55245
  22276855.240   117065704.95709  22276851.200    91219977.09946
  21353522.280   112213704.49408  21353518.720    87439247.25647
  23577330.140   123899755.40808  23577326.900    96545234.98245
  22907631.220   120380401.00108  22907629.300    93802918.64645
  23956675.440   125893475.08607  23956672.780    98098963.27744
  23182802.180   121826430.81108  23182797.540    94929689.82743
 15 02 22 00 31  0.0000000  0  7G16G18G21G22G27G29G31
  21622579.880   113627426.91409  21622574.420    88540843.28745
  22266312.920   117010305.74009  22266309.080    91176808.90746
  21361462.780   112255432.77608  21361459.380    87471762.78847
  23559401.760   123805541.84008  23559398.900    96471821.97346
  22895382.440   120316035.50408  22895380.860    93752763.73145
  23970305.400   125965100.18407  23970303.700    98154775.02745
  23200124.900   121917463.38908  23200120.100    95000624.27244
 15 02 22 00 31 30.0000000  0  7G16G18G21G22G27G29G31
  21609448.840   113558424.61908  21609443.500    88487075.26645
  22255834.660   116955243.93309  22255831.060    91133903.62546
  21369458.740   112297451.91108  21369455.360    87504504.96547
  23541483.240   123711379.74408  23541480.560    96398449.04746
  22883149.120   120251750.89408  22883148.180    93702671.84645
  23983941.420   126036756.48707  23983939.980    98210611.07044
  23217473.780   122008632.80208  23217469.340    95071665.34544
 15 02 22 00 32  0.0000000  0  7G16G18G21G22G27G29G31
  21596374.300   113489719.98308  21596369.260    88433539.21545
  22245421.560   116900524.82509  22245418.200    91091265.38846
  21377510.380   112339763.11808  21377506.880    87537474.72847
  23523575.800   123617275.87208  23523573.220    96325121.51246
  22870932.020   120187550.46708  22870931.760    93652645.57445
  23997583.920   126108447.26307  23997582.560    98266473.98845
  23234848.900   122099939.36108  23234845.360    95142813.25444
 15 02 22 00 32 30.0000000  0  7G16G18G21G22G27G29G31
  21583356.760   113421314.58808  21583352.160    88380236.34446
  22235074.080   116846150.20608  22235070.880    91048895.56546
  21385617.380   112382365.25708  21385613.720    87570671.19447
  23505679.940   123523231.99608  23505677.180    96251840.68846
  22858730.980   120123433.86908  22858731.580    93602684.60545
  24011232.780   126180172.26207  24011231.440    98322363.53245
  23252249.520   122191379.59808  23252246.820    95214065.31544
 15 02 22 00 33  0.0000000  0  7G16G18G21G22G27G29G31
  21570397.240   113353212.56009  21570392.960    88327169.85145
  22224793.000   116792124.53709  22224790.120    91006797.68046
  21393779.620   112425258.10208  21393775.900    87604094.18847
  23487796.080   123429252.25608  23487793.320    96178609.86346
  22846546.300   120059402.91908  22846547.320    93552790.40046
  24024888.520   126251933.22107  24024887.460    98378281.11144
  23269675.440   122282952.61608  23269673.140    95285420.84444
 15 02 22 00 33 30.0000000  0  7G16G18G21G22G27G29G31
  21557495.960   113285414.90109  21557491.680    88274340.51346
  22214578.620   116738448.74508  22214575.900    90964972.41046
  21401996.440   112468438.17108  21401992.640    87637740.99947
  23469924.740   123335338.45508  23469922.060    96105430.40746
  22834377.700   119995456.17908  22834378.620    93502961.82546
  24038550.980   126323728.77707  24038549.800    98434225.64344
  23287125.720   122374653.90808  23287123.580    95356876.32444
 15 02 22 00 34  0.0000000  0  7G16G18G21G22G27G29G31
  21544652.600   113217920.74409  21544648.140    88221747.67546
  22204430.740   116685121.52509  22204428.200    90923418.75346
  21410266.780   112511900.27608  21410263.040    87671607.58047
  23452065.780   123241489.91208  23452063.300    96032301.82446
  22822224.560   119931590.83208  22822225.600    93453196.66846
  24052219.700   126395556.02307  24052217.740    98490194.92644
  23304599.180   122466477.40208  23304597.040    95428427.04544
 15 02 22 00 34 30.0000000  0  7G16G18G21G22G27G29G31
  21531867.840   113150734.59509  21531863.020    88169394.83246
  22194349.980   116632147.19208  22194347.860    90882140.07846
  21418590.860   112555645.13308  21418587.080    87705694.48847
  23434220.180   123147711.85208  23434217.900    95959228.16846
  22810087.320   119867809.03708  22810088.600    93403496.60146
  24065894.960   126467416.72008  24065892.240    98546190.26844
  23322095.600   122558422.20408  23322093.600    95500072.24944
 15 02 22 00 35  0.0000000  0  7G16G18G21G22G27G29G31
  21519142.360   113083860.33609  21519137.120    88117285.03446
  22184337.000   116579529.46008  22184335.320    90841139.28546
  21426968.840   112599672.98408  21426964.940    87740001.92346
  23416388.860   123054008.38208  23416386.740    95886212.61046
  22797966.340   119804112.49509  22797967.480    93353862.97046
  24079577.040   126539313.34608  24079573.700    98602213.61144
  23339614.800   122650487.22508  23339613.040    95571811.15544
 15 02 22 00 35 30.0000000  0  7G16G18G21G22G27G29G31
  21506476.300   113017299.08409  21506470.700    88065419.11346
  22174392.100   116527269.34908  22174390.740    90800417.14546
  21435400.240   112643980.78908  21435396.180    87774527.51846
  23398571.760   122960380.52608  23398569.600    95813255.98946
  22785861.320   119740500.02508  22785862.360    93304294.83346
  24093265.540   126611244.43708  24093261.300    98658263.80943
  23357156.160   122742668.07508  23357154.500    95643640.31344
 15 02 22 00 36  0.0000000  0  7G16G18G21G22G27G29G31
  21493870.400   112951054.50109  21493864.600    88013799.96646
  22164516.040   116475370.08009  22164514.700    90759976.18346
  21443884.960   112688567.83708  21443880.720    87809270.68246
  23380770.160   122866833.02508  23380767.540    95740361.93345
  22773772.540   119676973.10708  22773773.580    93254793.34646
  24106960.640   126683211.45708  24106954.900    98714342.03941
  23374719.480   122834963.28208  23374717.480    95715558.57644
 15 02 22 00 36 30.0000000  0  7G16G18G21G22G27G29G31
  21481325.020   112885128.43709  21481319.260    87962429.00646
  22154709.220   116423833.99708  22154707.720    90719818.21446
  21452422.580   112733431.81608  21452418.040    87844229.63846
  23362984.420   122773367.84708  23362981.200    95667532.01845
  22761699.940   119613531.37608  22761700.880    93205358.26646
  24120662.240   126755213.99508  24120655.620    98770447.92844
  23392303.980   122927369.27908  23392301.540    95787563.18845
 15 02 22 00 37  0.0000000  0  7G16G18G21G22G27G29G31
  21468840.820   112819524.46609  21468835.240    87911309.02146
  22144972.200   116372664.45809  22144970.480    90679945.87146
  21461013.040   112778572.77609  21461008.300    87879404.41847
  23345215.140   122679989.30408  23345211.160    95594769.58444
  22749643.900   119550176.42208  22749644.540    93155990.77746
  24134370.700   126827253.74708  24134364.020    98826582.79343
  23409909.260   123019884.65108  23409906.720    95859653.01145
 15 02 22 00 37 30.0000000  0  7G16G18G21G22G27G29G31
  21456417.780   112754243.00209  21456412.680    87860440.37546
  22135305.000   116321861.32609  22135302.880    90640359.03446
  21469655.480   112823986.60108  21469650.480    87914791.80847
  23327462.280   122586697.32908  23327458.200    95522074.60345
  22737603.920   119486906.09208  22737604.100    93106689.23846
  24148085.580   126899328.19607  24148078.840    98882744.72843
  23427534.240   123112504.31808  23427531.960    95931824.07945
 15 02 22 00 38  0.0000000  0  7G16G18G21G22G27G29G31
  21444056.680   112689288.23909  21444052.180    87809826.30246
  22125708.140   116271428.34409  22125705.700    90601060.64546
  21478349.860   112869673.96109  21478344.760    87950392.34847
  23309726.820   122493497.40208  23309723.200    95449451.38745
  22725580.500   119423722.51208  22725580.120    93057455.30046
  24161807.340   126971439.99207  24161801.480    98938935.77744
  23445178.800   123205227.21108  23445176.960    96004075.59246
 15 02 22 00 38 30.0000000  0  7G16G18G21G22G27G29G31
  21431757.920   112624661.18508  21431753.820    87759467.57546
  22116181.800   116221366.63409  22116179.180    90562051.53546
  21487095.620   112915631.75008  21487090.380    87986203.59847
  23292009.000   122400390.74908  23292006.100    95376900.85545
  22713573.380   119360624.51309  22713572.580    93008288.03646
  24175535.820   127043587.43207  24175532.020    98995154.57445
  23462842.160   123298049.11008  23462840.800    96076404.23046
 15 02 22 00 39  0.0000000  0  7G16G18G21G22G27G29G31
  21419521.740   112560361.70009  21419517.660    87709364.07746
  22106725.860   116171675.84409  22106723.260    90523331.44746
  21495891.860   112961855.65408  21495886.680    88022222.20447
  23274309.040   122307377.50608  23274306.640    95304423.11446
  22701582.140   119297609.76908  22701581.040    92959185.64646
  24189270.740   127115768.22406  24189268.920    99051399.25746
  23480523.420   123390964.77908  23480522.500    96148805.94646
 15 02 22 00 39 30.0000000  0  7G16G18G21G22G27G29G31
  21407348.900   112496394.09309  21407344.660    87659519.19045
  22097341.260   116122360.19209  22097338.700    90484903.68747
  21504738.640   113008345.94108  21504733.700    88058448.39147
  23256627.940   122214462.44408  23256625.580    95232021.87346
  22689607.220   119234680.59609  22689606.040    92910149.95046
  24203012.640   127187985.50706  24203012.180    99107672.38845
  23498222.500   123483973.28408  23498221.860    96221280.00146
 15 02 22 00 40  0.0000000  0  7G16G18G21G22G27G29G31
  21395239.580   112432759.71809  21395235.180    87609933.98345
  22088028.300   116073420.68009  22088025.720    90446769.02446
  21513635.400   113055099.65008  21513630.820    88094879.86547
  23238965.980   122121647.52108  23238963.420    95159698.66546
  22677648.320   119171835.97608  22677647.240    92861180.13446
  24216761.420   127260237.45207  24216761.580    99163972.58345
  23515938.580   123577070.61508  23515938.100    96293823.28346
 15 02 22 00 40 30.0000000  0  7G16G18G21G22G27G29G31
  21383193.700   112369458.14409  21383189.160    87560608.07746
  22078786.820   116024856.69009  22078784.300    90408926.96746
  21522581.320   113102112.70808  21522577.320    88131513.39947
  23221323.040   122028932.58108  23221320.180    95087453.35646
  22665705.000   119109073.46408  22665704.220    92812274.29546
  24230516.820   127332521.49807  24230517.000    99220297.80344
  23533670.580   123670251.32008  23533670.140    96366431.50846
 15 02 22 00 41  0.0000000  0  7G16G18G21G22G27G29G31
  21371211.700   112306491.49709  21371206.920    87511543.16146
  22069617.060   115976669.77809  22069614.680    90371378.75046
  21531576.140   113149383.49408  21531572.820    88168347.77547
  23203699.500   121936319.78308  23203696.140    95015287.63546
  22653777.220   119046392.88208  22653776.840    92763432.30447
  24244278.880   127404838.03507  24244278.540    99276648.33744
  23551417.820   123763512.25808  23551417.540    96439102.25845
 15 02 22 00 41 30.0000000  0  7G16G18G21G22G27G29G31
  21359295.520   112243869.90109  21359290.500    87462747.09846
  22060520.880   115928870.09608  22060518.720    90334132.27146
  21540621.080   113196917.70508  21540618.500    88205387.42847
  23186097.280   121843820.51208  23186093.420    94943210.36945
  22641866.560   118983802.35208  22641866.660    92714660.48447
  24258048.620   127477194.70006  24258047.420    99333030.11944
  23569181.040   123856858.03108  23569180.960    96511839.10445
 15 02 22 00 42  0.0000000  0  7G16G18G21G22G27G29G31
  21347445.160   112181593.69709  21347440.060    87414220.17047
  22051498.280   115881457.15408  22051496.300    90297187.15246
  21549715.540   113244711.61108  21549713.520    88242629.43547
  23168516.540   121751435.26508  23168512.340    94871221.94345
  22629972.680   118921299.96308  22629973.220    92665957.34147
  24271825.160   127549589.56407  24271823.240    99389441.65044
  23586959.400   123950284.22508  23586959.520    96584638.61245
 15 02 22 00 42 30.0000000  0  7G16G18G21G22G27G29G31
  21335660.240   112119661.19109  21335655.320    87365961.06847
  22042549.040   115834429.38108  22042547.160    90260542.15746
  21558858.400   113292759.27308  21558856.740    88280069.17147
  23150957.240   121659162.45408  23150952.680    94799321.12144
  22618094.840   118858881.81409  22618095.700    92617319.84047
  24285608.120   127622018.79807  24285605.360    99445880.04343
  23604751.760   124043783.79408  23604751.860    96657495.29944
 15 02 22 00 43  0.0000000  0  7G16G18G21G22G27G29G31
  21323941.700   112058077.94309  21323937.100    87317974.11548
  22033674.300   115787792.41609  22033672.140    90224201.69546
  21568050.120   113341062.84208  21568048.560    88317708.31047
  23133420.640   121567008.17608  23133416.020    94727512.65045
  22606233.700   118796551.45209  22606234.900    92568750.75247
  24299398.320   127694485.99207  24299394.700    99502348.01343
  23622558.180   124137356.82708  23622558.100    96730409.26644
 15 02 22 00 43 30.0000000  0  7G16G18G21G22G27G29G31
  21312289.660   111996844.48309  21312285.300    87270259.73548
  22024874.080   115741545.59209  22024871.360    90188165.21746
  21577290.000   113389618.42908  21577288.320    88355543.82047
  23115907.100   121474973.53708  23115902.540    94655797.38045
  22594389.020   118734307.23309  22594390.260    92520248.76746
  24313195.300   127766989.22806  24313189.740    99558844.10643
  23640377.800   124230998.75808  23640377.380    96803376.92144
 15 02 22 00 44  0.0000000  0  7G16G18G21G22G27G29G31
  21300718.360   111936035.89009  21300714.180    87222876.42048
  22016162.440   115695763.82009  22016159.180    90152491.12147
  21586591.360   113438496.49108  21586589.400    88393630.61447
  23098430.740   121383133.85508  23098426.660    94584234.06545
  22582574.720   118672222.16809  22582575.780    92471870.81546
  24327012.380   127839601.81505  24327005.780    99615020.39542
  23658223.900   124324779.53708  23658223.020    96876452.80644
 15 02 22 00 44 30.0000000  0  7G16G18G21G22G27G29G31
  21289197.480   111875493.00709  21289193.440    87175700.15848
  22007509.020   115650287.88609  22007505.340    90117055.33746
  21595923.300   113487534.78708  21595920.880    88431842.26147
  23080961.240   121291330.68708  23080957.700    94512699.19845
  22570760.040   118610134.85909  22570760.780    92423491.10646
  24340819.180   127912162.34406  24340811.260    99671531.17742
  23676065.220   124418534.70908  23676063.960    96949508.71244
 15 02 22 00 45  0.0000000  0  7G16G18G21G22G27G29G31
  21277736.300   111815264.50509  21277732.360    87128768.85948
  21998923.000   115605166.16509  21998919.100    90081895.56547
  21605294.380   113536778.24008  21605291.340    88470213.78247
  23063507.840   121199613.24408  23063504.900    94441231.14346
  22558953.860   118548092.08709  22558954.360    92375146.09147
  24354625.500   127984717.12606  24354621.800    99728067.42643
  23693909.980   124512307.92408  23693908.780    97022578.63344
 15 02 22 00 45 30.0000000  0  7G16G18G21G22G27G29G31
  21266361.560   111755491.07509  21266357.840    87082192.17948
  21990430.960   115560539.15609  21990427.140    90047121.29847
  21614730.340   113586362.83708  21614726.720    88508851.13447
  23046097.440   121108122.60408  23046095.060    94369939.83345
  22547182.520   118486232.51109  22547182.860    92326943.84046
  24368457.340   128057405.01105  24368457.420    99784707.38743
  23711783.820   124606234.82807  23711782.880    97095768.31044
 15 02 22 00 46  0.0000000  0  7G16G18G21G22G27G29G31
  21255052.300   111696062.29609  21255048.860    87035884.05248
  21982011.760   115516295.68009  21982008.240    90012645.88347
  21624209.480   113636174.23308  21624205.240    88547665.22246
  23028709.120   121016748.85608  23028707.240    94298739.60046
  22535424.600   118424443.59909  22535424.760    92278796.64247
  24382292.500   128130113.37104  24382295.420    99841363.11943
  23729664.560   124700199.41607  23729663.920    97168987.31945
 15 02 22 00 46 30.0000000  0  7G16G18G21G22G27G29G31
  21243809.360   111636982.34509  21243806.280    86989847.75148
  21973666.240   115472439.65809  21973663.140    89978472.38447
  21633731.800   113686212.76708  21633726.940    88586656.29646
  23011344.100   120925496.65808  23011342.440    94227634.06746
  22523680.420   118362727.26109  22523680.480    92230706.00847
  24396132.540   128202844.07406  24396136.280    99898036.35344
  23747552.220   124794201.27707  23747552.200    97242235.35544
 15 02 22 00 47  0.0000000  0  7G16G18G21G22G27G29G31
  21232634.040   111578257.31509  21232631.180    86944088.00848
  21965395.420   115428976.53409  21965392.720    89944605.04347
  21643297.700   113736480.64209  21643292.320    88625826.08846
  22994003.660   120834372.40608  22994001.900    94156628.23546
  22511950.820   118301087.62909  22511950.700    92182675.16547
  24409978.440   128275601.09307  24409981.240    99954730.11645
  23765447.160   124888241.22507  23765447.880    97315513.07144
 15 02 22 00 47 30.0000000  0  7G16G18G21G22G27G29G31
  21221528.160   111519896.96209  21221525.380    86898612.43347
  21957201.260   115385915.93309  21957198.660    89911051.34247
  21652908.320   113786983.71608  21652902.500    88665179.15846
  22976689.860   120743386.68808  22976687.680    94085730.33246
  22500237.240   118239532.57909  22500237.020    92134710.21947
  24423831.000   128348392.02406  24423832.540   100011450.33246
  23783350.340   124982323.70108  23783351.380    97388824.02243
 15 02 22 00 48  0.0000000  0  6G16G18G21G22G27G31
  21210493.900   111461912.78209  21210491.100    86853429.96347
  21949085.660   115343268.42409  21949083.120    89877819.53447
  21662565.000   113837728.98508  21662558.800    88704720.95446
  22959404.720   120652551.08308  22959402.040    94014949.40046
  22488541.420   118178071.26609  22488541.060    92086818.32046
  23801263.000   125076454.93908  23801264.020    97462173.01242
 15 02 22 00 48 30.0000000  0  7G16G18G21G22G27G29G31
  21199531.440   111404305.41309  21199528.560    86808541.11047
  21941048.780   115301034.96009  21941046.320    89844910.36647
  21672267.100   113888713.29408  21672260.760    88744449.00246
  22942148.200   120561866.93808  22942145.340    93944286.51646
  22476863.100   118116702.38709  22476862.680    92038998.46146
  24451560.780   128493818.33805  24451560.100   100125047.36844
  23819184.220   125170630.43508  23819184.760    97535556.46443
 15 02 22 00 49  0.0000000  0  7G16G18G21G22G27G29G31
  21188637.060   111347054.81209  21188633.880    86763930.25447
  21933086.700   115259194.81409  21933084.200    89812307.66147
  21682010.080   113939912.85808  21682003.800    88784344.77446
  22924916.860   120471314.66008  22924913.600    93873726.35745
  22465198.240   118055404.00609  22465197.720    91991233.51546
  24465432.400   128566714.56707  24465431.660   100181849.61245
  23837109.020   125264825.09908  23837109.400    97608954.80743
 15 02 22 00 49 30.0000000  0  7G16G18G21G22G27G29G31
  21177818.000   111290198.89109  21177814.280    86719626.94447
  21925206.620   115217785.87309  21925204.100    89780040.97647
  21691800.420   113991361.89308  21691794.380    88824434.94046
  22907717.720   120380932.76608  22907714.420    93803298.98345
  22453553.720   117994212.21809  22453553.080    91943551.63446
  24479314.680   128639666.82408  24479314.180   100238695.59844
  23855043.620   125359072.20808  23855044.000    97682393.99844
 15 02 22 00 50  0.0000000  0  7G16G18G21G22G27G29G31
  21167071.620   111233724.39909  21167067.180    86675620.84647
  21917405.840   115176793.02309  21917403.100    89748098.50847
  21701634.660   114043042.04308  21701629.060    88864705.18646
  22890548.620   120290708.30008  22890545.300    93732994.26545
  22441926.460   117933111.16709  22441925.760    91895940.44346
  24493204.560   128712658.97207  24493204.220   100295572.65245
  23872984.520   125453352.70208  23872984.780    97755859.14645
 15 02 22 00 50 30.0000000  0  7G16G18G21G22G27G29G31
  21156397.960   111177632.27209  21156392.780    86631912.69447
  21909684.560   115136217.69909  21909681.580    89716481.39047
  21711512.380   114094951.04208  21711507.340    88905153.75946
  22873409.700   120200642.54708  22873406.080    93662813.22445
  22430316.240   117872100.02909  22430315.460    91848399.31346
  24507101.760   128785690.16806  24507101.440   100352480.07045
  23890931.060   125547662.69008  23890931.300    97829347.30345
 15 02 22 00 51  0.0000000  0  6G16G18G21G22G27G31
  21145799.700   111121936.89909  21145793.940    86588513.70547
  21902045.500   115096073.99409  21902042.220    89685200.60046
  21721435.640   114147099.73808  21721431.260    88945789.10947
  22856304.060   120110751.01908  22856299.920    93592767.91344
  22418725.540   117811191.45909  22418724.640    91800938.10446
  23908885.180   125642011.48408  23908885.320    97902865.68845
 15 02 22 00 51 30.0000000  0  7G16G18G21G22G27G29G31
  21135275.320   111066630.25209  21135269.180    86545417.61047
  21894486.880   115056352.84409  21894483.320    89654249.06346
  21731402.120   114199475.44708  21731398.280    88986601.32347
  22839229.880   120021025.66308  22839225.480    93522852.10945
  22407152.400   117750375.17309  22407151.580    91753548.79446
  24534922.440   128931884.35606  24534922.480   100466403.43645
  23926844.400   125736386.04808  23926844.460    97976404.14845
 15 02 22 00 52  0.0000000  0  7G16G18G21G22G27G29G31
  21124813.700   111011653.50809  21124807.380    86502578.58547
  21886997.420   115016995.20609  21886993.820    89623580.79447
  21741399.920   114252015.60208  21741396.540    89027541.70147
