     2.11           OBSERVATION DATA    G                   RINEX VERSION / TYPE
SPIDER V4,0,0,3554                      2015 03 21 00:41    PGM / RUN BY / DATE 
CNGR                                                        MARKER NAME         
CNGR                                                        MARKER NUMBER       
                                                            OBSERVER / AGENCY   
496521              LEICA GRX1200+GNSS  8.10/4.007          REC # / TYPE / VERS 
10321004            LEIAR25         NONE                    ANT # / TYPE        
  5218738.7445   688113.1521  3590185.5476                  APPROX POSITION XYZ 
        0.0720        0.0000        0.0000                  ANTENNA: DELTA H/E/N
     1     1                                                WAVELENGTH FACT L1/2
     4    C1    L1    P2    L2                              # / TYPES OF OBSERV 
    30.000                                                  INTERVAL            
  2015    02    22    00    00    0.0000000     GPS         TIME OF FIRST OBS   
  2015    02    22    23    59   30.0000000     GPS         TIME OF LAST OBS    
    16                                                      LEAP SECONDS        
    30                                                      # OF SATELLITES     
   G 1   816   816   816   816                              PRN / # OF OBS      
   G 2   930   929   928   928                              PRN / # OF OBS      
   G 3   860   860   860   860                              PRN / # OF OBS      
   G 4   844   844   844   844                              PRN / # OF OBS      
   G 5   609   609   609   609                              PRN / # OF OBS      
   G 6   810   810   810   810                              PRN / # OF OBS      
   G 7   677   677   677   677                              PRN / # OF OBS      
   G 9   817   817   817   817                              PRN / # OF OBS      
   G10   729   729   729   729                              PRN / # OF OBS      
   G11   776   776   776   776                              PRN / # OF OBS      
   G12   809   809   809   809                              PRN / # OF OBS      
   G13   785   785   785   785                              PRN / # OF OBS      
   G14   932   932   931   931                              PRN / # OF OBS      
   G15   696   690   691   690                              PRN / # OF OBS      
   G16   667   667   667   667                              PRN / # OF OBS      
   G17   943   943   943   943                              PRN / # OF OBS      
   G18   903   903   903   903                              PRN / # OF OBS      
   G19   752   752   752   752                              PRN / # OF OBS      
   G20   769   769   769   769                              PRN / # OF OBS      
   G21   739   735   735   735                              PRN / # OF OBS      
   G22   665   664   664   664                              PRN / # OF OBS      
   G23   761   761   761   761                              PRN / # OF OBS      
   G24   828   827   827   827                              PRN / # OF OBS      
   G25   866   866   865   865                              PRN / # OF OBS      
   G27   809   809   809   809                              PRN / # OF OBS      
   G28   867   866   867   866                              PRN / # OF OBS      
   G29   759   759   759   759                              PRN / # OF OBS      
   G30   724   724   724   724                              PRN / # OF OBS      
   G31   863   863   863   863                              PRN / # OF OBS      
   G32   778   778   778   778                              PRN / # OF OBS      
BIT 2 OF LLI FLAGS DATA COLLECTED UNDER A/S CONDITION       COMMENT             
SNR is mapped to RINEX snr flag value [2-9]                 COMMENT             
Lx:     = 25dBHz -> 1; 26-27dBHz -> 2; 28-31dBHz -> 3       COMMENT             
       32-35dBHz -> 4; 36-38dBHz -> 5; 39-41dBHz -> 6       COMMENT             
       42-44dBHz -> 7; 45-48dBHz -> 8; >=49dBHz -> 9        COMMENT             
                                                            END OF HEADER       
 15 02 22 00 00  0.0000000  0  7G16G18G21G25G27G29G31
  22594805.160   118736513.32309  22594802.120    92521951.62447
  22957006.480   120639942.04508  22957004.020    94005158.81846
  20977110.500   110235699.89008  20977106.940    85898032.64948
  23873122.320   125454238.78008  23873122.600    97756612.79246
  23759480.080   124856915.45108  23759480.420    97291089.37347
  23090599.380   121342252.40609  23090597.200    94552538.74447
  22207920.180   116703420.39709  22207917.860    90937728.50748
 15 02 22 00 00 30.0000000  0  7G16G18G21G25G27G29G31
  22578832.400   118652575.72909  22578829.280    92456545.70947
  22943406.580   120568473.95709  22943404.100    93949469.41746
  20981092.460   110256625.14709  20981088.860    85914338.04848
  23891047.480   125548435.91108  23891047.680    97830013.11246
  23746274.140   124787517.72108  23746274.440    97237013.23547
  23103593.080   121410534.84709  23103590.540    94605745.83547
  22222399.960   116779511.80309  22222397.580    90997020.47648
 15 02 22 00 01  0.0000000  0  7G16G18G21G25G27G29G31
  22562889.840   118568797.14009  22562886.720    92391263.69347
  22929844.140   120497202.78009  22929841.320    93893933.47446
  20985148.120   110277937.38709  20985144.400    85930944.99548
  23909011.340   125642836.85308  23909011.660    97903572.24145
  23733083.680   124718201.42508  23733083.960    97183000.56647
  23116594.820   121478858.88509  23116592.380    94658985.30847
  22236940.700   116855923.25509  22236938.240    91056561.84648
 15 02 22 00 01 30.0000000  0  7G16G18G21G25G27G29G31
  22546976.920   118485174.29109  22546973.720    92326103.03847
  22916318.760   120426126.68109  22916315.960    93838549.54246
  20989276.300   110299630.79109  20989272.460    85947848.94648
  23927012.880   125737435.73908  23927013.240    97977285.63446
  23719907.800   124648961.88708  23719908.120    97129047.69047
  23129603.560   121547220.06208  23129601.240    94712253.72947
  22251540.920   116932647.33509  22251538.340    91116346.81448
 15 02 22 00 02  0.0000000  0  7G16G18G21G25G27G29G31
  22531094.700   118401712.78009  22531091.520    92261068.11247
  22902831.680   120355251.91509  22902828.880    93783322.47646
  20993477.380   110321707.11109  20993473.400    85965051.27548
  23945052.420   125832234.74508  23945052.880    98051154.93645
  23706747.200   124579802.43108  23706747.500    97075157.22947
  23142620.200   121615621.44509  23142617.840    94765553.50447
  22266200.720   117009684.75009  22266198.060    91176375.94248
 15 02 22 00 02 30.0000000  0  8G16G18G21G22G25G27G29G31
  22515243.340   118318413.45009  22515240.140    92196159.54947
  22889383.060   120284579.40208  22889380.380    93728253.01646
  20997750.840   110344163.88009  20997746.760    85982550.06648
  24537326.580   128944520.01808  24537325.640   100476249.22645
  23963129.500   125927231.29808  23963130.060    98125178.18845
  23693601.660   124510721.69408  23693601.840    97021328.11047
  23155644.120   121684061.85309  23155641.560    94818883.65747
  22280919.320   117087031.23109  22280916.620    91236645.89648
 15 02 22 00 03  0.0000000  0  8G16G18G21G22G25G27G29G31
  22499421.940   118235271.50509  22499418.680    92131373.62147
  22875972.160   120214105.35409  22875969.840    93673338.20046
  21002095.080   110366992.75208  21002090.940    86000338.79848
  24519514.460   128850919.68608  24519514.180   100403314.38145
  23981242.480   126022416.90408  23981243.300    98199348.72446
  23680469.640   124441712.39508  23680469.760    96967554.65747
  23168673.920   121752533.86108  23168671.340    94872238.41547
  22295694.820   117164676.89209  22295692.080    91297148.97848
 15 02 22 00 03 30.0000000  0  8G16G18G21G22G25G27G29G31
  22483633.760   118152304.00909  22483630.540    92066723.63647
  22862602.280   120143846.84409  22862600.180    93618591.36046
  21006512.560   110390206.86908  21006508.440    86018427.72648
  24501688.020   128757243.40308  24501688.040   100330320.29045
  23999394.120   126117805.04908  23999395.260    98273677.11646
  23667353.920   124372789.23108  23667354.080    96913848.33647
  23181712.480   121821051.99309  23181709.940    94925629.17047
  22310529.560   117242633.99009  22310526.820    91357894.75448
 15 02 22 00 04  0.0000000  0  8G16G18G21G22G25G27G29G31
  22467877.000   118069501.19009  22467873.720    92002201.97247
  22849271.700   120073795.29208  22849269.680    93564005.77646
  21011000.880   110413793.65408  21010996.880    86036807.05248
  24483845.660   128663482.57108  24483845.780   100257260.32046
  24017581.980   126213383.27408  24017583.120    98348153.61045
  23654252.460   124303940.88308  23654252.720    96860200.31247
  23194757.620   121889604.82208  23194754.860    94979046.94047
  22325420.900   117320888.46009  22325418.220    91418872.21848
 15 02 22 00 04 30.0000000  0  8G16G18G21G22G25G27G29G31
  22452153.520   117986873.20109  22452150.100    91937816.53647
  22835982.500   120003960.65808  22835980.460    93509589.21146
  21015561.220   110437759.17008  21015557.380    86055481.48048
  24465989.040   128569647.11308  24465989.380   100184142.19646
  24035807.160   126309157.67008  24035808.300    98422782.96246
  23641166.640   124235174.69508  23641167.000    96806616.29647
  23207810.640   121958199.90909  23207808.320    95032497.60347
  22340369.740   117399444.90509  22340367.100    91480085.00248
 15 02 22 00 05  0.0000000  0  8G16G18G21G22G25G27G29G31
  22436462.560   117904416.22709  22436459.060    91873564.35847
  22822734.120   119934340.03309  22822732.260    93455339.41646
  21020192.280   110462096.31908  21020188.600    86074445.50248
  24448117.540   128475733.33108  24448118.000   100110963.01145
  24054068.480   126405121.29108  24054069.700    98497559.75545
  23628095.340   124166484.92308  23628095.800    96753091.84547
  23220870.700   122026831.46808  23220868.580    95085976.73647
  22355374.380   117478294.63409  22355371.740    91541526.31948
 15 02 22 00 05 30.0000000  0  8G16G18G21G22G25G27G29G31
  22420804.580   117822132.63509  22420801.020    91809447.27947
  22809526.940   119864935.70008  22809524.960    93401258.14446
  21024893.780   110486803.57208  21024890.240    86093697.91848
  24430231.660   128381744.10508  24430232.060   100037725.04845
  24072365.580   126501272.62808  24072366.680    98572482.82946
  23615038.560   124097871.31008  23615038.960    96699626.72147
  23233937.800   122095499.08008  23233935.620    95139483.95647
  22370434.280   117557434.79609  22370431.700    91603193.94048
 15 02 22 00 06  0.0000000  0  8G16G18G21G22G25G27G29G31
  22405180.840   117740029.20609  22405177.260    91745470.59247
  22796362.440   119795755.10509  22796360.120    93347351.21846
  21029666.340   110511883.93308  21029662.880    86113241.06448
  24412332.740   128287685.96708  24412333.140    99964433.34945
  24090699.080   126597615.01108  24090700.220    98647554.75345
  23601997.120   124029338.46408  23601997.480    96646224.52547
  23247012.440   122164207.21309  23247010.700    95193022.71447
  22385549.760   117636867.09209  22385547.260    91665089.20248
 15 02 22 00 06 30.0000000  0  8G16G18G21G22G25G27G29G31
  22389590.780   117658102.96709  22389587.180    91681631.97847
  22783240.100   119726796.30409  22783237.780    93293617.12846
  21034508.820   110537331.46908  21034505.380    86133070.31548
  24394420.380   128193557.37208  24394420.540    99891086.74045
  24109067.820   126694142.58508  24109069.040    98722771.00346
  23588970.160   123960881.73408  23588970.500    96592881.64247
  23260094.140   122232951.74209  23260092.240    95246589.85947
  22400719.480   117716584.41409  22400717.040    91727206.56548
 15 02 22 00 07  0.0000000  0  8G16G18G21G22G25G27G29G31
  22374035.360   117576358.93809  22374031.760    91617935.34947
  22770161.000   119658064.65209  22770158.680    93240060.00746
  21039421.480   110563147.49008  21039418.040    86153186.68748
  24376495.500   128099363.20808  24376495.660    99817689.01345
  24127471.940   126790856.54908  24127473.160    98798132.45445
  23575958.240   123892503.64908  23575958.540    96539600.03147
  23273183.120   122301734.80408  23273181.080    95300187.01447
  22415943.360   117796586.36809  22415940.920    91789545.71248
 15 02 22 00 07 30.0000000  0  8G16G18G21G22G25G27G29G31
  22358514.380   117494796.11309  22358510.980    91554379.91747
  22757124.880   119589559.32909  22757122.540    93186679.27346
  21044403.380   110589327.09708  21044399.840    86173586.38048
  24358557.980   128005102.45508  24358558.080    99744239.39545
  24145910.700   126887752.24908  24145911.780    98873635.55146
  23562960.680   123824200.76808  23562960.920    96486377.03847
  23286278.920   122370552.88809  23286276.560    95353811.47247
  22431220.200   117876866.62009  22431217.780    91852101.72048
 15 02 22 00 08  0.0000000  0  8G16G18G21G22G25G27G29G31
  22343029.220   117413421.42109  22343025.860    91490971.08947
  22744133.140   119521287.55309  22744130.860    93133480.51546
  21049455.180   110615873.73609  21049451.480    86194272.07548
  24340609.320   127910782.46108  24340609.200    99670743.59745
  24164384.680   126984833.10408  24164385.620    98949282.88945
  23549978.260   123755977.82708  23549978.540    96433216.31947
  23299382.280   122439411.21008  23299379.800    95407467.28147
  22446550.380   117957427.06509  22446547.940    91914876.05248
 15 02 22 00 08 30.0000000  0  8G16G18G21G22G25G27G29G31
  22327579.720   117332233.84509  22327576.400    91427708.05947
  22731185.700   119453248.70909  22731183.360    93080463.26346
  21054575.940   110642782.78109  21054572.120    86215240.16948
  24322649.260   127816402.58908  24322648.900    99597201.11645
  24182893.100   127082094.66108  24182893.940    99025071.07045
  23537010.420   123687831.62808  23537010.820    96380115.40947
  23312492.560   122508306.04409  23312490.460    95461151.53747
  22461932.800   118038261.92809  22461930.280    91977864.22448
 15 02 22 00 09  0.0000000  0  8G16G18G21G22G25G27G29G31
  22312166.360   117251236.03909  22312163.020    91364592.90647
  22718283.120   119385446.41009  22718280.800    93027630.33946
  21059765.440   110670053.22009  21059761.480    86236489.86148
  24304678.380   127721965.91808  24304678.020    99523614.40045
  24201435.680   127179536.08008  24201436.380    99100999.37545
  23524057.280   123619762.65708  23524057.720    96327074.66947
  23325609.740   122577238.05509  23325607.600    95514864.75747
  22477367.060   118119369.11009  22477364.420    92041064.58748
 15 02 22 00 09 30.0000000  0  8G16G18G21G22G25G27G29G31
  22296789.060   117170427.82409  22296785.720    91301625.48847
  22705425.520   119317880.14909  22705423.360    92974981.32746
  21065022.840   110697680.81709  21065018.760    86258017.87048
  24286696.840   127627472.16408  24286696.200    99449983.18045
  24220011.800   127277153.28808  24220012.280    99177064.71146
  23511118.360   123551768.12408  23511118.740    96274091.94247
  23338733.700   122646204.53108  23338731.700    95568604.85047
  22492852.020   118200742.75309  22492849.260    92104472.58248
 15 02 22 00 10  0.0000000  0  8G16G18G21G22G25G27G29G31
  22281449.220   117089816.14009  22281445.780    91238811.19147
  22692614.340   119250557.81609  22692612.120    92922522.40346
  21070348.920   110725669.42508  21070344.800    86279827.17448
  24268705.840   127532928.78108  24268704.700    99376313.25645
  24238621.980   127374949.82708  24238622.720    99253269.72246
  23498194.560   123483852.91808  23498194.800    96221171.02747
  23351865.040   122715210.11008  23351863.200    95622375.40847
  22508388.040   118282384.93209  22508385.160    92168089.83547
 15 02 22 00 10 30.0000000  0  8G16G18G21G22G25G27G29G31
  22266146.640   117009400.58909  22266143.200    91176149.74147
  22679849.620   119183478.90909  22679847.380    92870253.16246
  21075742.740   110754014.21708  21075738.640    86301914.02948
  24250705.320   127438335.75708  24250703.840    99302604.66845
  24257265.540   127472921.68408  24257266.280    99329611.36246
  23485285.360   123416014.31208  23485285.460    96168309.80647
  23365003.380   122784251.74808  23365001.420    95676174.05246
  22523974.100   118364290.17209  22523971.140    92231912.05348
 15 02 22 00 11  0.0000000  0  8G16G18G21G22G25G27G29G31
  22250881.840   116929183.75209  22250878.380    91113643.12547
  22667131.860   119116646.14809  22667129.560    92818175.72346
  21081204.080   110782714.12809  21081200.060    86324277.59448
  24232695.760   127343695.34308  24232694.160    99228859.15745
  24275942.200   127571067.49808  24275943.120    99406088.55045
  23472390.740   123348252.32108  23472390.720    96115508.27847
  23378148.880   122853330.41909  23378146.560    95730001.58647
  22539609.680   118446455.69209  22539606.700    92295937.10747
 15 02 22 00 11 30.0000000  0  8G16G18G21G22G25G27G29G31
  22235655.540   116849169.35209  22235652.140    91051294.26947
  22654462.000   119050064.61509  22654459.380    92766294.02747
  21086732.920   110811769.18808  21086729.080    86346917.90048
  24214678.060   127249012.43908  24214676.400    99155080.53745
  24294652.100   127669387.99208  24294653.040    99482701.85945
  23459511.000   123280568.97308  23459511.000    96062768.02747
  23391301.480   122922447.83308  23391299.320    95783859.24647
  22555294.600   118528880.62909  22555291.640    92360164.28347
 15 02 22 00 12  0.0000000  0  8G16G18G21G22G25G27G29G31
  22220467.900   116769358.21209  22220464.580    90989103.79347
  22641840.080   118983735.30309  22641837.260    92714608.87947
  21092328.940   110841177.48308  21092325.300    86369833.46148
  24196652.420   127154288.40708  24196650.480    99081269.84446
  24313394.620   127767880.46808  24313395.860    99559449.17146
  23446645.880   123212962.89708  23446645.980    96010087.99647
  23404461.340   122991602.48609  23404459.240    95837745.99547
  22571028.120   118611560.86809  22571025.220    92424590.40948
 15 02 22 00 12 30.0000000  0  8G16G18G21G22G25G27G29G31
  22205319.140   116689751.34609  22205315.800    90927072.47847
  22629266.360   118917659.10409  22629263.240    92663120.96346
  21097991.600   110870935.65808  21097988.060    86393021.65448
  24178619.180   127059524.02108  24178617.100    99007427.71146
  24332169.360   127866541.97008  24332170.780    99636328.20846
  23433795.220   123145432.62208  23433795.380    95957467.04447
  23417627.880   123060793.18909  23417625.880    95891660.79147
  22586809.420   118694492.27809  22586806.600    92489212.25247
 15 02 22 00 13  0.0000000  0  8G16G18G21G22G25G27G29G31
  22190210.120   116610353.11509  22190206.720    90865203.73547
  22616741.520   118851840.34709  22616738.180    92611833.64746
  21103720.900   110901043.75109  21103717.380    86416482.50348
  24160578.980   126964723.65208  24160576.860    98933557.57445
  24350976.200   127965372.91008  24350977.900    99713339.22545
  23420959.360   123077979.79108  23420959.500    95904906.43347
  23430801.540   123130021.48408  23430799.580    95945604.89947
  22602638.200   118777673.08909  22602635.460    92554028.42948
 15 02 22 00 13 30.0000000  0  8G16G18G21G22G25G27G29G31
  22175140.820   116531163.08309  22175137.240    90803497.21747
  22604265.640   118786279.17609  22604262.440    92560747.03847
  21109516.020   110931497.38008  21109512.500    86440212.60448
  24142531.980   126869887.25908  24142529.700    98859659.29745
  24369814.500   128064369.11208  24369816.440    99790479.04445
  23408137.760   123010601.62608  23408137.780    95852403.97347
  23443981.820   123199284.17608  23443979.760    95999575.83447
  22618513.420   118861098.00109  22618510.800    92619034.81447
 15 02 22 00 14  0.0000000  0  8G16G18G21G22G25G27G29G31
  22160112.480   116452188.52109  22160108.840    90741958.60747
  22591840.340   118720983.87609  22591837.220    92509867.60846
  21115377.840   110962301.34408  21115374.300    86464215.69348
  24124479.560   126775023.14308  24124477.500    98785739.48345
  24388685.120   128163534.97708  24388687.000    99867751.07245
  23395331.400   122943303.94208  23395331.420    95799964.24647
  23457169.500   123268587.63909  23457168.080    96053578.42147
  22634435.700   118944770.09209  22634433.180    92684233.80247
 15 02 22 00 14 30.0000000  0  8G16G18G21G22G25G27G29G31
  22145124.660   116373426.88509  22145120.980    90680585.90447
  22579465.020   118655951.44309  22579462.140    92459193.01247
  21121304.920   110993448.31008  21121301.400    86488486.05248
  24106421.480   126680128.60608  24106419.340    98711795.88146
  24407586.800   128262863.72608  24407588.420    99945150.04045
  23382539.320   122876081.37308  23382539.280    95747583.04847
  23470364.020   123337926.22908  23470362.400    96107608.50047
  22650403.480   119028681.04009  22650401.020    92749618.91847
 15 02 22 00 15  0.0000000  0  8G16G18G21G22G25G27G29G31
  22130177.560   116294879.35709  22130173.880    90619380.04247
  22567139.920   118591183.27009  22567137.160    92408724.33947
  21127296.860   111024935.86009  21127293.320    86513021.80748
  24088357.840   126585205.01608  24088355.680    98637829.67846
  24426518.980   128362352.92408  24426520.680   100022674.00746
  23369761.300   122808932.86108  23369761.280    95695259.56747
  23483565.420   123407299.02508  23483563.880    96161665.20146
  22666415.920   119112826.74909  22666413.520    92815186.97048
 15 02 22 00 15 30.0000000  0  8G16G18G21G22G25G27G29G31
  22115272.560   116216553.48209  22115268.960    90558346.89747
  22554866.720   118526687.71309  22554864.120    92358468.07847
  21133354.300   111056767.23909  21133350.640    86537825.47748
  24070290.260   126490259.90008  24070288.280    98563846.70446
  24445482.300   128462006.42408  24445483.960   100100325.98045
  23356998.360   122741863.55508  23356998.440    95642997.78047
  23496774.080   123476711.48209  23496772.560    96215752.76947
  22682473.540   119197209.79109  22682471.160    92880939.94347
 15 02 22 00 16  0.0000000  0  8G16G18G21G22G25G27G29G31
  22100409.220   116138446.72809  22100405.740    90497484.49547
  22542644.900   118462462.01209  22542642.280    92308422.11347
  21139476.100   111088936.76409  21139472.300    86562892.63748
  24052218.300   126395291.49508  24052216.260    98489845.54645
  24464475.740   128561817.86708  24464477.300   100178101.07145
  23344249.640   122674868.74008  23344249.860    95590794.05947
  23509989.360   123546158.69908  23509988.100    96269867.42047
  22698574.840   119281822.43609  22698572.460    92946871.84348
 15 02 22 00 16 30.0000000  0  8G16G18G21G22G25G27G29G31
  22085588.560   116060564.19609  22085585.280    90436796.82747
  22530475.520   118398511.70409  22530472.900    92258590.73047
  21145662.460   111121445.82709  21145658.580    86588224.38948
  24034142.720   126300305.31808  24034140.740    98415830.57745
  24483499.440   128661788.70508  24483501.260   100256000.31945
  23331515.640   122607951.14208  23331515.900    95538650.52147
  23523211.960   123615643.40008  23523210.720    96324011.35747
  22714719.820   119366664.62409  22714717.440    93012982.60447
 15 02 22 00 17  0.0000000  0  8G16G18G21G22G25G27G29G31
  22070810.900   115982907.34209  22070807.780    90376285.00347
  22518358.940   118334838.59909  22518356.360    92208975.35547
  21151912.860   111154291.78709  21151908.980    86613818.64648
  24016064.200   126205302.95508  24016062.220    98341802.96645
  24502553.080   128761916.71408  24502554.960   100334022.09545
  23318796.160   122541110.00708  23318796.460    95486566.53447
  23536441.500   123685164.85508  23536440.460    96378183.89747
  22730907.780   119451732.55209  22730905.420    93079269.25047
 15 02 22 00 17 30.0000000  0  8G16G18G21G22G25G27G29G31
  22056077.440   115905482.16709  22056074.360    90315953.70547
  22506296.300   118271448.68509  22506293.700    92159580.62947
  21158227.660   111187476.17509  21158223.760    86639676.60648
  23997983.700   126110290.24608  23997981.620    98267767.26745
  24521637.000   128862203.89508  24521639.060   100412167.81545
  23306091.860   122474348.77008  23306092.180    95434544.81647
  23549678.240   123754726.60108  23549677.780    96432387.78347
  22747138.820   119537026.81209  22747136.420    93145732.27147
 15 02 22 00 18  0.0000000  0  8G16G18G21G22G25G27G29G31
  22041387.000   115828282.53509  22041383.780    90255798.15048
  22494286.380   118208336.20609  22494283.860    92110402.10647
  21164605.100   111220989.48309  21164601.100    86665790.86648
  23979900.280   126015262.08108  23979898.020    98193719.54945
  24540749.520   128962640.59708  24540751.600   100490430.09445
  23293401.240   122407659.32408  23293401.600    95382579.03947
  23562921.320   123824320.50208  23562920.960    96486616.79047
  22763410.920   119622536.52909  22763408.400    93212363.16847
 15 02 22 00 18 30.0000000  0  8G16G18G21G22G25G27G29G31
  22026740.820   115751315.53309  22026737.400    90195823.86748
  22482330.600   118145508.16809  22482328.100    92061445.20246
  21171045.780   111254835.07209  21171041.680    86692164.05948
  23961815.360   125920225.59208  23961812.920    98119665.31646
  24559891.160   129063230.13708  24559893.160   100568811.46245
  23280725.140   122341046.35008  23280725.520    95330672.85847
  23576171.600   123893951.51308  23576171.620    96540874.69747
  22779724.240   119708263.13109  22779721.680    93279163.07947
 15 02 22 00 19  0.0000000  0  8G16G18G21G22G25G27G29G31
  22012139.120   115674582.39809  22012135.520    90136031.81048
  22470429.160   118082966.23109  22470426.720    92012711.25447
  21177549.040   111289009.86909  21177544.840    86718793.77048
  23943729.220   125825182.55808  23943726.660    98045605.98946
  24579061.480   129163969.96308  24579063.400   100647309.93845
  23268063.380   122274508.82308  23268063.720    95278825.47147
  23589428.780   123963618.44608  23589429.060    96595160.58647
  22796078.080   119794202.79109  22796075.540    93346128.99847
 15 02 22 00 19 30.0000000  0  8G16G18G21G22G25G27G29G31
  21997581.920   115598083.67309  21997578.260    90076422.42547
  22458582.340   118020711.19709  22458580.000    91964200.85847
  21184114.320   111323511.17609  21184110.120    86745677.91248
  23925641.960   125730133.65408  23925639.240    97971542.08046
  24598259.840   129264856.80908  24598261.600   100725922.95245
  23255415.680   122208044.85008  23255415.940    95227035.39047
  23602692.660   124033319.34008  23602692.900    96649472.96447
  22812471.560   119880350.97609  22812469.060    93413257.41547
 15 02 22 00 20  0.0000000  0  8G16G18G21G22G25G27G29G31
  21983070.460   115521825.40109  21983066.800    90017000.40047
  22446791.300   117958749.28409  22446789.200    91915918.86947
  21190742.040   111358340.72109  21190737.920    86772817.81748
  23907554.820   125635085.09208  23907552.020    97897478.42145
  24617486.700   129365892.88008  24617487.700   100804652.25844
  23242782.760   122141658.25208  23242782.960    95175305.60147
  23615963.720   124103058.43208  23615963.820    96703815.05546
  22828904.800   119966708.36609  22828902.420    93480548.84347
 15 02 22 00 20 30.0000000  0  8G16G18G21G22G25G27G29G31
  21968604.640   115445807.14309  21968601.020    89957765.40648
  22435055.940   117897079.90609  22435053.980    91867864.82647
  21197431.400   111393494.26508  21197427.420    86800210.19748
  23889467.660   125540036.78708  23889465.020    97823414.98746
  24636741.140   129467073.95608  24636741.660   100883494.55445
  23230164.040   122075346.26008  23230164.220    95123633.94147
  23629241.680   124172832.85108  23629241.460    96758184.72047
  22845376.720   120053269.28109  22845374.460    93547998.85447
 15 02 22 00 21  0.0000000  0  8G16G18G21G22G25G27G29G31
  21954185.120   115370032.43509  21954181.620    89898720.18548
  22423377.060   117835706.94309  22423375.200    91820041.74847
  21204182.400   111428971.53008  21204178.560    86827854.81548
  23871381.280   125444992.72308  23871378.700    97749354.84246
  24656022.980   129568399.78708  24656023.140   100962449.65745
  23217559.800   122009110.15408  23217559.840    95072021.42547
  23642526.660   124242643.70108  23642525.640    96812582.78346
  22861887.100   120140032.09808  22861884.900    93615606.20048
 15 02 22 00 21 30.0000000  0  8G16G18G21G22G25G27G29G31
  21939812.800   115294505.71809  21939809.420    89839868.21048
  22411755.540   117774635.06809  22411753.720    91772453.30547
  21210995.120   111464772.77209  21210991.380    86855751.89348
  23853296.600   125349957.75108  23853294.120    97675301.81146
  24675332.400   129669871.03008  24675332.520   101041518.03745
  23204970.420   121942952.03408  23204970.300    95020469.67347
  23655818.740   124312493.21709  23655817.400    96867010.94647
  22878435.740   120226996.06609  22878433.620    93683370.28747
 15 02 22 00 22  0.0000000  0  8G16G18G21G22G25G27G29G31
  21925487.560   115219226.13909  21925484.180    89781208.79448
  22400191.120   117713863.38109  22400189.360    91725098.74547
  21217868.600   111500892.84109  21217864.840    86883897.38748
  23835213.520   125254931.17608  23835211.060    97601255.27646
  24694668.600   129771482.78708  24694668.440   101120695.97245
  23192395.240   121876868.63108  23192395.020    94968976.13947
  23669117.680   124382378.44908  23669116.260    96921466.92846
  22895021.520   120314154.83709  22895019.400    93751286.14047
 15 02 22 00 22 30.0000000  0  8G16G18G21G22G25G27G29G31
  21911210.360   115144199.25909  21911207.020    89722746.30248
  22388684.880   117653397.58709  22388683.020    91677982.56147
  21224803.160   111537333.67409  21224799.320    86912292.83948
  23817133.280   125159919.23808  23817130.620    97527220.17046
  24714031.960   129873237.01608  24714031.640   101199984.85745
  23179834.880   121810863.38408  23179834.640    94917543.51347
  23682423.760   124452302.72408  23682421.880    96975953.37046
  22911644.460   120401508.92109  22911642.340    93819354.20847
 15 02 22 00 23  0.0000000  0  8G16G18G21G22G25G27G29G31
  21896981.080   115069424.08509  21896977.800    89664479.94348
  22377236.500   117593236.56109  22377234.700    91631103.86847
  21231797.780   111574089.97509  21231793.840    86940934.11148
  23799055.500   125064920.38608  23799052.700    97453195.24246
  24733421.460   129975128.62007  24733421.320   101279380.77945
  23167288.660   121744932.71308  23167288.500    94866168.99147
  23695736.480   124522262.28608  23695734.740    97030467.27746
  22928303.360   120489051.70009  22928301.200    93887569.31447
 15 02 22 00 23 30.0000000  0  8G16G18G21G22G25G27G29G31
  21882800.960   114994907.07009  21882797.680    89606414.74148
  22365847.400   117533386.94109  22365845.520    91584467.81347
  21238853.000   111611164.77309  21238848.980    86969823.55648
  23780981.480   124969941.49508  23780978.720    97379185.89146
  24752837.580   130077160.18408  24752837.280   101358885.81644
  23154757.380   121679080.81008  23154757.280    94814855.85047
  23709056.840   124592261.68308  23709055.300    97085012.23846
  22944998.460   120576784.54109  22944996.220    93955932.50547
 15 02 22 00 24  0.0000000  0  8G16G18G21G22G25G27G29G31
  21868669.220   114920644.21209  21868665.920    89548547.58948
  22354516.920   117473844.98309  22354514.860    91538071.50247
  21245967.240   111648550.05709  21245963.220    86998954.94448
  23762910.840   124874979.86408  23762907.900    97305189.96446
  24772278.760   130179324.20008  24772278.580   101438494.00945
  23142239.920   121613301.59908  23142239.960    94763599.33947
  23722383.480   124662294.81108  23722381.920    97139583.46946
  22961727.980   120664698.44409  22961725.720    94024436.79647
 15 02 22 00 24 30.0000000  0  8G16G18G21G22G25G27G29G31
  21854587.320   114846643.48109  21854584.080    89490884.69948
  22343246.560   117414618.47909  22343244.320    91491920.99847
  21253141.320   111686249.82409  21253137.320    87028331.39148
  23744844.820   124780043.11908  23744841.860    97231213.43746
  24791745.860   130281624.41508  24791746.260   101518208.33345
  23129737.360   121547600.53408  23129737.460    94712403.73347
  23735717.640   124732367.09108  23735716.020    97194185.28347
  22978492.380   120752795.73709  22978490.080    94093083.99647
 15 02 22 00 25  0.0000000  0  8G16G18G21G22G25G27G29G31
  21840555.160   114772904.36309  21840552.000    89433425.65548
  22332036.200   117355707.17709  22332033.820    91446016.11647
  21260374.240   111724259.13509  21260370.320    87057949.03048
  23726783.560   124685131.25008  23726780.600    97157256.30346
  24811238.080   130384056.47208  24811238.720   101598025.41945
  23117249.180   121481974.80508  23117249.240    94661266.84247
  23749058.900   124802476.18208  23749057.480    97248815.70346
  22995290.560   120841070.79309  22995288.340    94161869.70047
 15 02 22 00 25 30.0000000  0  7G16G18G21G22G27G29G31
  21826574.560   114699436.38209  21826571.500    89376177.88848
  22320887.640   117297120.48909  22320885.000    91400364.16047
  21267667.180   111762583.87509  21267663.360    87087812.46448
  23708728.840   124590254.06508  23708725.820    97083326.16246
  23104776.680   121416431.66408  23104776.700    94610194.29947
  23762408.480   124872628.96108  23762407.180    97303480.16746
  23012123.420   120929527.92409  23012121.300    94230797.28647
 15 02 22 00 26  0.0000000  0  7G16G18G21G22G27G29G31
  21812643.640   114626229.31809  21812640.660    89319133.43548
  22309798.960   117238848.44409  22309796.100    91354957.39047
  21275017.420   111801209.93909  21275013.680    87117910.68948
  23690678.720   124495401.73708  23690675.880    97009415.41246
  23092317.520   121350958.69108  23092317.560    94559176.42947
  23775764.080   124942812.71608  23775762.200    97358168.82346
  23028988.040   121018151.77209  23028985.920    94299854.75447
 15 02 22 00 26 30.0000000  0  7G16G18G21G22G27G29G31
  21798763.680   114553289.89409  21798760.760    89262297.53648
  22298771.400   117180897.77009  22298768.360    91309801.04947
  21282425.500   111840139.88009  21282421.740    87148245.70648
  23672634.700   124400581.46108  23672632.020    96935529.63346
  23079872.580   121285560.45808  23079872.660    94508216.79547
  23789126.540   125013032.78908  23789124.700    97412885.74146
  23045884.660   121106943.51109  23045882.580    94369043.07547
 15 02 22 00 27  0.0000000  0  7G16G18G21G22G27G29G31
  21784935.280   114480621.04809  21784932.260    89205672.46848
  22287805.520   117123271.20109  22287802.300    91264897.23547
  21289891.140   111879372.44809  21289887.360    87178816.53748
  23654597.340   124305796.20308  23654594.900    96861671.13146
  23067441.980   121220237.27208  23067442.080    94457315.64247
  23802495.880   125083289.20808  23802494.240    97467630.96546
  23062812.820   121195900.86109  23062810.720    94438360.41747
 15 02 22 00 27 30.0000000  0  7G16G18G21G22G27G29G31
  21771158.780   114408224.69509  21771155.640    89149259.73148
  22276901.560   117065970.55709  22276898.400    91220247.42447
  21297414.040   111918905.70909  21297410.200    87209621.67548
  23636567.120   124211048.39608  23636564.880    96787841.83746
  23055025.640   121154988.97608  23055025.740    94406472.83847
  23815872.340   125153581.96808  23815870.240    97522404.57546
  23079771.840   121285020.39309  23079769.700    94507804.15147
 15 02 22 00 28  0.0000000  0  7G16G18G21G22G27G29G31
  21757435.060   114336106.05709  21757431.860    89093063.40248
  22266060.560   117009001.03309  22266057.480    91175855.60747
  21304994.420   111958740.74609  21304990.500    87240661.95848
  23618545.180   124116343.70308  23618542.980    96714046.11546
  23042624.120   121089818.24908  23042624.160    94355690.48447
  23829256.080   125223914.08008  23829253.740    97577208.79446
  23096761.680   121374301.91609  23096759.560    94577374.10447
 15 02 22 00 28 30.0000000  0  7G16G18G21G22G27G29G31
  21743764.360   114264265.76009  21743761.000    89037083.95448
  22255282.760   116952363.80009  22255279.760    91131722.72747
  21312631.700   111998874.92909  21312627.700    87271935.33948
  23600531.640   124021682.54708  23600529.400    96640284.30746
  23030237.060   121024723.60409  23030237.080    94304967.40947
  23842646.960   125294283.26408  23842644.920    97632041.91446
  23113781.460   121463740.85409  23113779.320    94647066.71147
 15 02 22 00 29  0.0000000  0  7G16G18G21G22G27G29G31
  21730147.120   114192706.56709  21730143.680    88981323.55047
  22244568.680   116896060.95609  22244565.620    91087850.40447
  21320325.580   112039306.48109  21320321.560    87303440.43848
  23582527.240   123927068.74208  23582524.920    96566559.41346
  23017864.620   120959705.69108  23017864.580    94254304.12347
  23856044.980   125364690.66608  23856043.400    97686904.76746
  23130830.760   121553335.08909  23130828.620    94716880.33947
 15 02 22 00 29 30.0000000  0  7G16G18G21G22G27G29G31
  21716583.200   114121427.70209  21716579.740    88925781.58048
  22233918.140   116840091.78809  22233914.960    91044238.09647
  21328075.000   112080030.00809  21328071.000    87335173.05848
  23564531.720   123832501.44908  23564529.040    96492870.76346
  23005506.080   120894761.04909  23005505.960    94203697.93947
  23869449.840   125435132.94508  23869448.020    97741794.86346
  23147908.340   121643078.19609  23147906.240    94786809.97247
 15 02 22 00 30  0.0000000  0  7G16G18G21G22G27G29G31
  21703074.280   114050437.99309  21703070.820    88870464.92547
  22223332.840   116784465.16509  22223329.480    91000892.68547
  21335881.060   112121051.13209  21335877.060    87367137.56348
  23546546.940   123737990.09608  23546544.060    96419225.68646
  22993162.720   120829896.37508  22993162.520    94153154.07047
  23882862.600   125505616.81208  23882860.700    97796717.37646
  23165014.920   121732973.82109  23165012.860    94856858.44247
 15 02 22 00 30 30.0000000  0  7G16G18G21G22G27G29G31
  21689620.040   113979736.17609  21689616.720    88815372.61848
  22212812.420   116729179.70909  22212808.940    90957813.14247
  21343742.680   112162364.26909  21343738.660    87399329.61948
  23528572.580   123643533.65208  23528569.400    96345623.37346
  22980833.920   120765108.13309  22980833.720    94102669.76047
  23896282.400   125576138.76808  23896280.880    97851669.51446
  23182149.180   121823015.18509  23182147.240    94927020.48347
 15 02 22 00 31  0.0000000  0  7G16G18G21G22G27G29G31
  21676221.080   113909324.94109  21676217.960    88760506.72948
  22202357.360   116674238.01309  22202353.880    90915001.45847
  21351659.520   112203967.64609  21351655.540    87431747.82948
  23510609.160   123549134.77809  23510605.840    96272065.94646
  22968519.680   120700396.66408  22968519.540    94052245.26847
  23909709.460   125646699.31208  23909708.060    97906651.75846
  23199310.660   121913199.77109  23199308.860    94997294.11347
 15 02 22 00 31 30.0000000  0  7G16G18G21G22G27G29G31
  21662877.660   113839205.81509  21662874.720    88705868.46248
  22191967.900   116619641.72109  22191964.560    90872458.91147
  21359631.180   112245859.33609  21359627.260    87464390.70248
  23492656.980   123454795.62209  23492653.500    96198555.04046
  22956219.960   120635761.51509  22956219.880    94001880.24547
  23923143.700   125717298.04908  23923142.760    97961663.73846
  23216498.720   122003523.98309  23216497.120    95067676.55447
 15 02 22 00 32  0.0000000  0  7G16G18G21G22G27G29G31
  21649590.060   113769379.41009  21649587.220    88651458.28048
  22181644.120   116565390.58209  22181641.000    90830185.31647
  21367656.880   112288035.08708  21367653.080    87497254.92848
  23474716.340   123360517.42408  23474712.640    96125091.62046
  22943934.380   120571200.62208  22943934.320    93951573.08847
  23936584.860   125787932.70908  23936584.420    98016703.69146
  23233712.400   122093982.73408  23233710.860    95138163.81747
 15 02 22 00 32 30.0000000  0  7G16G18G21G22G27G29G31
  21636358.720   113699848.10509  21636355.880    88597278.04648
  22171386.500   116511487.20009  22171383.540    90788182.70647
  21375736.580   112330494.57309  21375732.860    87530340.23948
  23456787.800   123266302.80009  23456783.960    96051677.75046
  22931662.980   120506714.31808  22931662.920    93901324.04847
  23950033.140   125858603.83708  23950032.740    98071772.13746
  23250951.200   122184573.30809  23250949.700    95208753.79847
 15 02 22 00 33  0.0000000  0  7G16G18G21G22G27G29G31
  21623184.960   113630619.21609  21623182.120    88543333.46248
  22161196.540   116457939.19809  22161193.680    90746457.00847
  21383870.880   112373240.72909  21383867.220    87563648.93448
  23438872.720   123172159.05209  23438868.980    95978319.10446
  22919406.720   120442307.71608  22919406.600    93851137.10747
  23963489.300   125929316.50908  23963488.920    98126872.87347
  23268215.580   122275297.96609  23268213.980    95279448.27247
 15 02 22 00 33 30.0000000  0  7G16G18G21G22G27G29G31
  21610068.380   113561690.84209  21610065.540    88489623.05748
  22151073.900   116404744.54709  22151071.160    90705006.64747
  21392058.540   112416267.15409  21392054.940    87597176.03348
  23420970.920   123078085.09909  23420967.180    95905014.83046
  22907164.720   120377976.35408  22907164.740    93801008.80647
  23976952.620   126000066.40008  23976951.960    98182002.64146
  23285504.120   122366149.32609  23285502.420    95350241.46447
 15 02 22 00 34  0.0000000  0  7G16G18G21G22G27G29G31
  21597009.640   113493066.46609  21597006.760    88436149.52548
  22141019.140   116351906.17409  22141016.360    90663833.92447
  21400299.420   112459572.98209  21400295.780    87630920.83048
  23403083.020   122984084.45908  23403079.300    95831767.71346
  22894937.360   120313721.75308  22894937.520    93750940.31347
  23990423.360   126070854.93508  23990422.380    98237162.52746
  23302816.440   122457125.53309  23302814.720    95421131.94347
 15 02 22 00 34 30.0000000  0  7G16G18G21G22G27G29G31
  21584008.860   113424746.57209  21584005.960    88382913.24848
  22131032.260   116299424.44009  22131029.400    90622939.07447
  21408592.820   112503154.85109  21408589.100    87664880.73748
  23385209.440   122890158.47808  23385205.700    95758578.72847
  22882724.320   120249542.00808  22882724.560    93700930.15247
  24003901.160   126141679.87608  24003900.000    98292350.78846
  23320151.620   122548221.72809  23320149.780    95492115.89547
 15 02 22 00 35  0.0000000  0  7G16G18G21G22G27G29G31
  21571067.280   113356737.96609  21571064.340    88329919.53748
  22121114.420   116247305.83909  22121111.620    90582327.20847
  21416939.300   112547015.92809  21416935.600    87699058.20148
  23367351.400   122796314.02508  23367347.740    95685453.31046
  22870526.500   120185441.78908  22870526.720    93650981.95247
  24017386.780   126212546.65608  24017385.560    98347571.61346
  23337509.940   122639439.66309  23337508.000    95563194.72647
 15 02 22 00 35 30.0000000  0  7G16G18G21G22G27G29G31
  21558184.340   113289037.36209  21558181.340    88277165.82048
  22111265.000   116195546.96609  22111262.200    90541995.62947
  21425337.480   112591148.74909  21425333.820    87733447.41448
  23349508.240   122702547.78908  23349504.480    95612388.82147
  22858342.720   120121415.39608  22858342.800    93601091.27348
  24030879.220   126283449.38408  24030877.940    98402820.50746
  23354889.720   122730770.50108  23354887.660    95634361.53647
 15 02 22 00 36  0.0000000  0  7G16G18G21G22G27G29G31
  21545361.260   113221651.44109  21545358.200    88224657.32048
  22101485.180   116144153.99409  22101482.460    90501949.17847
  21433787.740   112635555.58509  21433784.080    87768050.13848
  23331681.420   122608867.42008  23331677.560    95539391.23346
  22846173.920   120057467.38709  22846173.820    93551261.68447
  24044379.300   126354392.50008  24044378.220    98458100.83046
  23372291.280   122822215.82509  23372289.220    95705617.53647
 15 02 22 00 36 30.0000000  0  7G16G18G21G22G27G29G31
  21532598.280   113154581.37609  21532595.140    88172394.94648
  22091775.300   116093128.57709  22091772.520    90462189.13347
  21442289.600   112680233.44709  21442285.960    87802864.06748
  23313871.160   122515274.24009  23313867.220    95466461.60946
  22834019.780   119993596.60908  22834019.660    93501492.27548
  24057886.880   126425374.95708  24057885.720    98513411.83546
  23389713.800   122913771.31209  23389711.680    95776959.39547
 15 02 22 00 37  0.0000000  0  7G16G18G21G22G27G29G31
  21519895.680   113087828.79409  21519892.500    88120379.96848
  22082135.600   116042472.06609  22082132.780    90422716.56247
  21450842.660   112725180.38109  21450839.060    87837887.65348
  23296077.920   122421770.57109  23296073.860    95393601.72946
  22821880.260   119929802.76408  22821880.160    93451782.81248
  24071401.800   126496396.49908  24071400.560    98568753.29446
  23407156.700   123005433.63708  23407154.500    95848384.50447
 15 02 22 00 37 30.0000000  0  7G16G18G21G22G27G29G31
  21507254.580   113021398.91809  21507251.320    88068616.42248
  22072566.940   115992189.03309  22072564.160    90383535.00047
  21459447.080   112770397.01309  21459443.520    87873121.38448
  23278302.640   122328361.10509  23278298.480    95320815.21346
  22809755.880   119866088.39708  22809755.700    93402135.26647
  24084924.540   126567459.34508  24084923.440    98624126.92846
  23424619.820   123097202.34308  23424617.560    95919892.48147
 15 02 22 00 38  0.0000000  0  7G16G18G21G22G27G29G31
  21494674.600   112955290.13909  21494671.260    88017103.09848
  22063069.000   115942277.38909  22063066.260    90344642.83147
  21468101.880   112815878.23909  21468098.320    87908561.30948
  23260545.180   122235045.54009  23260540.960    95248101.87846
  22797645.880   119802449.88308  22797645.600    93352546.83448
  24098454.660   126638560.36908  24098453.460    98679530.31146
  23442101.880   123189070.64408  23442099.620    95991478.08147
 15 02 22 00 38 30.0000000  0  7G16G18G21G22G27G29G31
  21482156.460   112889506.21009  21482152.960    87965842.89548
  22053642.560   115892740.94209  22053639.860    90306043.02247
  21476806.960   112861623.68509  21476803.360    87944207.10348
  23242806.340   122141827.78808  23242802.200    95175464.76146
  22785550.500   119738888.68408  22785550.160    93303018.64547
  24111992.260   126709700.69008  24111991.000    98734964.31246
  23459602.580   123281037.00708  23459600.320    96063140.07746
 15 02 22 00 39  0.0000000  0  7G16G18G21G22G27G29G31
  21469700.880   112824051.37209  21469697.300    87914839.13648
  22044288.340   115843583.72409  22044285.620    90267738.72847
  21485562.340   112907633.39909  21485558.700    87980058.83248
  23225086.960   122048712.35109  23225082.800    95102907.37846
  22773470.280   119675406.92808  22773469.860    93253552.36847
  24125537.800   126780882.40008  24125536.360    98790430.55446
  23477121.780   123373100.58309  23477119.520    96134877.83246
 15 02 22 00 39 30.0000000  0  7G16G18G21G22G27G29G31
  21457307.420   112758923.52809  21457303.860    87864090.18148
  22035005.920   115794803.45809  22035003.140    90229728.14947
  21494366.860   112953901.22809  21494363.160    88016111.68348
  23207386.700   121955697.57109  23207382.740    95030428.42746
  22761404.400   119612000.45808  22761403.920    93204144.74047
  24139090.600   126852102.02008  24139088.840    98845926.38746
  23494658.060   123465253.97008  23494655.740    96206685.58546
 15 02 22 00 40  0.0000000  0  7G16G18G21G22G27G29G31
  21444977.560   112694130.03909  21444974.020    87813601.75448
  22025796.520   115746407.11209  22025793.680    90192016.73748
  21503221.100   113000430.17309  21503217.360    88052368.00748
  23189707.160   121862791.41909  23189703.360    94958034.11547
  22749353.720   119548674.23308  22749353.280    93154799.65847
  24152651.300   126923364.08208  24152649.520    98901455.22746
  23512211.720   123557499.11808  23512209.420    96278564.82447
 15 02 22 00 40 30.0000000  0  7G16G18G21G22G27G29G31
  21432711.120   112629670.15309  21432707.660    87763373.29048
  22016659.920   115698393.66809  22016657.020    90154603.68948
  21512124.160   113047215.81509  21512120.360    88088824.35348
  23172048.160   121769993.30408  23172044.400    94885723.98647
  22737317.720   119485425.48508  22737317.300    93105514.94047
  24166219.540   126994665.45108  24166217.640    98957014.72646
  23529781.720   123649830.24408  23529779.560    96350511.05447
 15 02 22 00 41  0.0000000  0  7G16G18G21G22G27G29G31
  21420508.820   112565547.12809  21420505.420    87713407.29248
  22007596.640   115650765.80009  22007593.760    90117491.08247
  21521075.920   113094257.67309  21521072.180    88125480.34448
  23154410.360   121677306.58608  23154406.580    94813500.65147
  22725296.620   119422255.11408  22725296.280    93056291.29047
  24179795.480   127066007.70508  24179793.500    99012606.09246
  23547367.760   123742245.32408  23547365.680    96422522.70247
 15 02 22 00 41 30.0000000  0  7G16G18G21G22G27G29G31
  21408370.940   112501762.37709  21408367.620    87663704.89548
  21998606.960   115603524.86509  21998604.020    90080679.98747
  21530075.800   113141552.71409  21530072.220    88162333.63148
  23136794.260   121584733.84509  23136790.400    94741366.14147
  22713290.440   119359162.55108  22713290.140    93007128.26747
  24193379.080   127137389.68908  24193377.180    99068228.40146
  23564968.980   123834740.19608  23564966.940    96494596.52646
 15 02 22 00 42  0.0000000  0  7G16G18G21G22G27G29G31
  21396297.960   112438318.35009  21396294.700    87614267.99748
  21989691.180   115556672.45909  21989688.180    90044171.63747
  21539123.500   113189099.26809  21539120.080    88199382.88648
  23119200.300   121492277.70709  23119196.380    94669322.48447
  22701299.200   119296147.94409  22701298.900    92958025.99247
  24206970.300   127208811.77808  24206968.360    99123881.97746
  23582584.960   123927312.51508  23582582.920    96566730.69446
 15 02 22 00 42 30.0000000  0  7G16G18G21G22G27G29G31
  21384290.460   112375218.30909  21384287.200    87565099.13448
  21980849.920   115510211.86209  21980846.960    90007968.59747
  21548218.900   113236896.32309  21548215.580    88236627.35448
  23101629.180   121399941.47109  23101625.400    94597372.24847
  22689323.060   119233212.28908  22689322.680    92908985.24448
  24220569.320   127280275.03708  24220567.460    99179567.59846
  23600215.280   124019960.19608  23600213.360    96638923.58246
 15 02 22 00 43  0.0000000  0  7G16G18G21G22G27G29G31
  21372348.400   112312462.58909  21372345.220    87516198.58948
  21972083.380   115464143.51209  21972080.380    89972071.19648
  21557361.440   113284940.82109  21557358.160    88274064.62948
  23084081.100   121307726.01909  23084077.280    94525516.12147
  22677361.580   119170353.96408  22677361.120    92860004.75447
  24234176.000   127351777.70608  24234174.100    99235283.95746
  23617858.940   124112678.04508  23617857.140    96711171.15046
 15 02 22 00 43 30.0000000  0  7G16G18G21G22G27G29G31
  21360473.060   112250057.41609  21360469.900    87467571.18648
  21963392.440   115418472.28009  21963389.340    89936483.24747
  21566551.440   113333234.54709  21566548.120    88311696.11048
  23066557.280   121215638.06809  23066553.520    94453759.36447
  22665415.520   119107576.92908  22665415.060    92811087.61748
  24247790.860   127423323.68708  24247788.820    99291034.07046
  23635516.140   124205467.14208  23635514.480    96783474.25847
 15 02 22 00 44  0.0000000  0  7G16G18G21G22G27G29G31
  21348664.700   112188004.13909  21348661.560    87419217.99348
  21954777.300   115373199.34609  21954774.100    89901205.66147
  21575788.220   113381774.15309  21575784.820    88349519.18048
  23049057.980   121123679.20909  23049054.240    94382103.19247
  22653484.760   119044880.47008  22653484.360    92762233.24347
  24261413.720   127494912.42008  24261411.820    99346817.47746
  23653186.180   124298323.76008  23653184.680    96855829.94847
 15 02 22 00 44 30.0000000  0  7G16G18G21G22G27G29G31
  21336923.240   112126302.34209  21336920.060    87371138.67348
  21946237.900   115328324.18809  21946234.600    89866238.01647
  21585071.140   113430556.17409  21585067.660    88387531.15148
  23031583.300   121031849.70809  23031579.640    94310547.80847
  22641568.820   118982261.93008  22641568.480    92713439.59048
  24275044.240   127566541.29108  24275042.640    99402632.15946
  23670868.000   124391242.06008  23670866.600    96928233.69947
 15 02 22 00 45  0.0000000  0  7G16G18G21G22G27G29G31
  21325249.680   112064957.31009  21325246.420    87323337.34348
  21937775.100   115283851.71409  21937771.820    89831584.15447
  21594400.520   113479582.11109  21594396.940    88425733.16748
  23014134.320   120940155.38809  23014130.720    94239097.76247
  22629668.340   118919724.61708  22629667.960    92664709.22648
  24288682.840   127638213.26708  24288681.480    99458480.46446
  23688561.580   124484222.28508  23688560.300    97000685.71047
 15 02 22 00 45 30.0000000  0  7G16G18G21G22G27G29G31
  21313643.960   112003969.11009  21313640.720    87275814.08548
  21929388.900   115239781.75409  21929385.620    89797243.95247
  21603775.400   113528847.28309  21603771.760    88464121.62348
  22996711.200   120848596.62109  22996707.600    94167753.35547
  22617782.960   118857266.57608  22617782.580    92616040.64747
  24302329.300   127709926.52608  24302328.100    99514360.86846
  23706266.060   124577259.43208  23706264.700    97073182.09446
 15 02 22 00 46  0.0000000  0  7G16G18G21G22G27G29G31
  21302106.700   111943341.02809  21302103.600    87228571.43648
  21921079.780   115196116.77909  21921076.460    89763219.30648
  21613195.720   113578351.06009  21613191.980    88502695.98848
  22979314.720   120757177.23909  22979310.900    94096517.53847
  22605912.900   118794888.94808  22605912.480    92567434.71548
  24315983.820   127781682.11008  24315982.540    99570274.30446
  23723980.920   124670351.16408  23723979.440    97145721.00346
 15 02 22 00 46 30.0000000  0  7G16G18G21G22G27G29G31
  21290638.160   111883074.06309  21290635.140    87181610.17148
  21912847.920   115152857.49309  21912844.440    89729510.78247
  21622660.900   113628090.58009  21622657.080    88541454.06448
  22961945.020   120665898.62009  22961941.040    94025391.40647
  22594057.900   118732590.49908  22594057.500    92518890.49548
  24329646.180   127853478.80808  24329644.860    99626219.74745
  23741705.520   124763493.88208  23741704.000    97218299.60846
 15 02 22 00 47  0.0000000  0  7G16G18G21G22G27G29G31
  21279238.940   111823171.09709  21279235.960    87134932.53548
  21904693.580   115110006.04709  21904690.000    89696120.06547
  21632170.720   113678064.81609  21632166.860    88580395.02848
  22944602.620   120574763.91709  22944598.540    93954377.42447
  22582218.120   118670372.06409  22582217.740    92470408.62448
  24343316.680   127925317.37908  24343314.960    99682197.83745
  23759439.380   124856685.09709  23759437.720    97290916.00646
 15 02 22 00 47 30.0000000  0  7G16G18G21G22G27G29G31
  21267908.900   111763631.26909  21267905.840    87088537.87648
  21896616.580   115067561.38309  21896613.000    89663046.32247
  21641724.280   113728268.98709  21641720.400    88619515.17148
  22927287.580   120483773.10409  22927283.380    93883475.56247
  22570393.080   118608230.92809  22570392.740    92421986.98248
  24356994.600   127997194.78508  24356992.260    99738206.23045
  23777181.280   124949918.72208  23777179.520    97363565.48346
 15 02 22 00 48  0.0000000  0  7G16G18G21G22G27G29G31
  21256649.500   111704462.62309  21256646.360    87042432.44548
  21888618.240   115025530.57909  21888614.700    89630295.06047
  21651322.240   113778706.62009  21651318.380    88658817.22548
  22910001.440   120392934.27909  22909997.240    93812692.13247
  22558583.840   118546172.72009  22558583.500    92373629.96748
  24370681.060   128069117.05308  24370678.480    99794249.53146
  23794931.700   125043197.48008  23794929.920    97436250.09346
 15 02 22 00 48 30.0000000  0  7G16G18G21G22G27G29G31
  21245460.840   111645665.80209  21245457.660    86996616.73948
  21880698.780   114983914.50309  21880695.400    89597866.98047
  21660963.960   113829374.51909  21660960.200    88698298.70648
  22892744.440   120302248.77609  22892740.300    93742028.15747
  22546790.120   118484196.15309  22546789.780    92325336.56148
  24384375.780   128141082.81908  24384373.180    99850326.71146
  23812689.840   125136516.76808  23812688.180    97508966.31146
 15 02 22 00 49  0.0000000  0  7G16G18G21G22G27G29G31
  21234343.100   111587241.76309  21234339.880    86951091.52848
  21872858.300   114942713.43509  21872855.160    89565762.26648
  21670648.960   113880269.95009  21670645.320    88737957.48848
  22875516.880   120211717.94909  22875512.860    93671484.72747
  22535011.720   118422300.28809  22535011.380    92277106.03948
  24398078.440   128213090.77508  24398075.800    99906436.81745
  23830454.940   125229872.53408  23830453.400    97581710.92646
 15 02 22 00 49 30.0000000  0  7G16G18G21G22G27G29G31
  21223296.960   111529194.01309  21223293.700    86905859.52548
  21865097.480   114901930.77109  21865094.540    89533983.59348
  21680377.280   113931392.65609  21680373.700    88777793.37148
  22858319.540   120121345.93509  22858315.520    93601065.04947
  22523248.980   118360486.79308  22523248.700    92228939.70648
  24411789.480   128285142.74508  24411786.740    99962581.21946
  23848226.760   125323263.56608  23848225.180    97654483.04446
 15 02 22 00 50  0.0000000  0  7G16G18G21G22G27G29G31
  21212323.320   111471527.03309  21212320.040    86860924.21448
  21857416.800   114861569.02409  21857413.920    89502532.89648
  21690148.740   113982741.98009  21690145.160    88817805.83148
  22841153.360   120031137.41609  22841149.340    93530772.74247
  22511502.240   118298757.49109  22511502.000    92180838.97448
  24425509.120   128357240.40008  24425506.480   100018761.15445
  23866005.020   125416688.49008  23866003.540    97727281.53546
 15 02 22 00 50 30.0000000  0  7G16G18G21G22G27G29G31
  21201421.400   111414236.69609  21201418.060    86816282.41448
  21849815.600   114821624.57709  21849812.660    89471407.37147
  21699961.920   114034310.62009  21699958.360    88857989.19048
  22824017.580   119941088.59909  22824013.660    93460604.92747
  22499770.420   118237106.47709  22499770.140    92132799.26148
  24439236.400   128429377.75108  24439233.820   100074972.07545
  23883788.020   125510138.36808  23883786.680    97800099.50946
 15 02 22 00 51  0.0000000  0  7G16G18G21G22G27G29G31
  21190593.040   111357332.79709  21190589.640    86771941.71548
  21842295.640   114782106.81609  21842292.680    89440614.32947
  21709818.060   114086104.74709  21709814.440    88898348.26148
  22806914.240   119851210.31709  22806910.320    93390569.95347
  22488055.020   118175541.78909  22488054.720    92084826.80248
  24452972.660   128501562.62908  24452970.240   100131220.00146
  23901576.660   125603617.85308  23901575.400    97872940.50846
 15 02 22 00 51 30.0000000  0  7G16G18G21G22G27G29G31
  21179837.400   111300811.22009  21179833.960    86727898.94248
  21834855.920   114743010.56609  21834852.940    89410149.73547
