     2.11           OBSERVATION DATA    G                   RINEX VERSION / TYPE
SPIDER V4,0,0,3554                      2015 03 31 03:33    PGM / RUN BY / DATE 
EADB                                                        MARKER NAME         
EADB                                                        MARKER NUMBER       
                                                            OBSERVER / AGENCY   
462408              LEICA GRX1200PRO    3.00/2.127          REC # / TYPE / VERS 
103310              LEIAT504                                ANT # / TYPE        
  5238464.6656   142765.3090  3625629.6523                  APPROX POSITION XYZ 
        0.0770        0.0000        0.0000                  ANTENNA: DELTA H/E/N
     1     1                                                WAVELENGTH FACT L1/2
     4    C1    L1    P2    L2                              # / TYPES OF OBSERV 
    30.000                                                  INTERVAL            
  2015    02    22    00    00    0.0000000     GPS         TIME OF FIRST OBS   
  2015    02    22    23    59   30.0000000     GPS         TIME OF LAST OBS    
    16                                                      LEAP SECONDS        
    30                                                      # OF SATELLITES     
   G 1   835   835   835   835                              PRN / # OF OBS      
   G 2   924   924   924   924                              PRN / # OF OBS      
   G 3   844   844   844   844                              PRN / # OF OBS      
   G 4   849   849   849   849                              PRN / # OF OBS      
   G 5   674   674   674   674                              PRN / # OF OBS      
   G 6   728   728   728   728                              PRN / # OF OBS      
   G 7   648   648   648   648                              PRN / # OF OBS      
   G 9   788   788   788   788                              PRN / # OF OBS      
   G10   785   785   785   785                              PRN / # OF OBS      
   G11   800   800   800   800                              PRN / # OF OBS      
   G12   818   818   818   818                              PRN / # OF OBS      
   G13   823   823   823   823                              PRN / # OF OBS      
   G14   932   932   931   931                              PRN / # OF OBS      
   G15   732   732   732   732                              PRN / # OF OBS      
   G16   690   690   690   690                              PRN / # OF OBS      
   G17   929   929   929   929                              PRN / # OF OBS      
   G18   936   936   936   936                              PRN / # OF OBS      
   G19   778   778   778   778                              PRN / # OF OBS      
   G20   810   810   810   810                              PRN / # OF OBS      
   G21   680   680   679   679                              PRN / # OF OBS      
   G22   778   778   778   778                              PRN / # OF OBS      
   G23   731   731   731   731                              PRN / # OF OBS      
   G24   842   842   842   842                              PRN / # OF OBS      
   G25   856   856   856   856                              PRN / # OF OBS      
   G27   832   832   832   832                              PRN / # OF OBS      
   G28   909   909   908   908                              PRN / # OF OBS      
   G29   746   746   746   746                              PRN / # OF OBS      
   G30   695   695   695   695                              PRN / # OF OBS      
   G31   779   779   779   779                              PRN / # OF OBS      
   G32   746   746   746   746                              PRN / # OF OBS      
BIT 2 OF LLI FLAGS DATA COLLECTED UNDER A/S CONDITION       COMMENT             
SNR is mapped to RINEX snr flag value [2-9]                 COMMENT             
Lx:     = 25dBHz -> 1; 26-27dBHz -> 2; 28-31dBHz -> 3       COMMENT             
       32-35dBHz -> 4; 36-38dBHz -> 5; 39-41dBHz -> 6       COMMENT             
       42-44dBHz -> 7; 45-48dBHz -> 8; >=49dBHz -> 9        COMMENT             
                                                            END OF HEADER       
 15 02 22 00 00  0.0000000  0  7G16G18G21G25G27G29G31
  22265863.050   117007910.12808  22265861.401    91174997.71947
  23306230.191   122475111.72907  23306229.999    95435173.33845
  21097428.510   110867744.20909  21097426.634    86390446.23549
  24311047.596   127755395.86206  24311050.923    99549662.29746
  23250774.837   122183660.78407  23250776.598    95208064.61946
  23529176.320   123646645.92208  23529176.018    96348029.89046
  22012546.008   115676700.02709  22012544.918    90137678.84648
 15 02 22 00 00 30.0000000  0  7G16G18G21G25G27G29G31
  22251063.833   116930140.06208  22251062.205    91114397.67447
  23293120.769   122406221.53308  23293120.198    95381492.70445
  21101968.140   110891600.34609  21101966.285    86409035.43849
  24328679.469   127848053.76106  24328683.509    99621863.13145
  23238148.232   122117307.87107  23238150.212    95156361.08446
  23543380.872   123721290.22208  23543380.432    96406194.27846
  22027460.303   115755075.67508  22027459.384    90198750.74848
 15 02 22 00 01  0.0000000  0  7G16G18G21G25G27G29G31
  22236294.377   116852526.11208  22236292.770    91053919.27547
  23280042.421   122337494.66307  23280042.322    95327939.36645
  21106584.493   110915859.82009  21106582.617    86427938.92449
  24346344.933   127940884.56206  24346348.328    99694198.77145
  23225544.821   122051076.18707  23225546.721    95104752.01746
  23557586.324   123795941.03107  23557585.716    96464363.72846
  22042437.412   115833780.03609  22042436.258    90260078.79348
 15 02 22 00 01 30.0000000  0  7G16G18G21G25G27G29G31
  22221555.793   116775074.20408  22221554.187    90993567.14547
  23266996.596   122268938.57908  23266996.854    95274519.10245
  21111278.464   110940526.17909  21111276.585    86447159.46849
  24364044.019   128033892.00807  24364046.888    99766672.04145
  23212965.251   121984970.25507  23212966.859    95053240.93146
  23571793.691   123870602.99907  23571793.275    96522541.87246
  22057477.302   115912815.13008  22057476.145    90321664.55648
 15 02 22 00 02  0.0000000  0  7G16G18G21G25G27G29G31
  22206847.376   116697781.76508  22206845.965    90933339.28047
  23253983.069   122200551.62708  23253983.010    95221230.61745
  21116048.551   110965593.21909  21116046.760    86466692.22649
  24381775.495   128127070.44806  24381777.838    99839278.59544
  23200408.667   121918985.46007  23200410.477    95001824.24046
  23586002.932   123945271.15407  23586002.297    96580724.84746
  22072578.522   115992173.76708  22072577.735    90383502.41748
 15 02 22 00 02 30.0000000  0  7G16G18G21G25G27G29G31
  22192170.577   116620654.47608  22192169.277    90873240.10247
  23241002.568   122132339.66608  23241002.758    95168078.50245
  21120895.334   110991063.48109  21120893.621    86486539.18649
  24399539.586   128220422.62606  24399542.570    99912020.45745
  23187876.091   121853125.39507  23187877.585    94950504.73446
  23600213.803   124019949.10007  23600213.469    96638915.44046
  22087741.780   116071856.75408  22087741.139    90445593.02348
 15 02 22 00 03  0.0000000  0  7G16G18G21G25G27G29G31
  22177525.541   116543694.13608  22177524.152    90813271.01347
  23228056.071   122064305.73808  23228056.169    95115065.10145
  21125818.610   111016935.40809  21125816.915    86506699.12749
  24417336.560   128313946.95406  24417339.929    99984896.44745
  23175366.949   121787389.50407  23175368.336    94899281.98346
  23614426.184   124094636.07207  23614426.045    96697113.06246
  22102966.235   116151861.09008  22102965.345    90507934.03648
 15 02 22 00 03 30.0000000  0  7G16G18G21G25G27G29G31
  22162912.327   116466901.89508  22162910.757    90753432.91547
  23215143.830   121996451.26708  23215143.799    95062191.54245
  21130817.799   111043206.42009  21130816.131    86527170.04749
  24435166.292   128407641.54606  24435169.689   100057905.11545
  23162881.122   121721776.78807  23162882.734    94848155.21946
  23628639.802   124169330.76307  23628639.763    96755316.70446
  22118251.031   116232183.38708  22118249.882    90570522.81748
 15 02 22 00 04  0.0000000  0  7G16G18G21G25G27G29G31
  22148331.246   116390277.26908  22148329.674    90693725.41447
  23202266.133   121928777.07308  23202265.708    95009458.44245
  21135892.323   111069873.41009  21135890.575    86547949.51749
  24453028.082   128501503.45006  24453030.766   100131044.26944
  23150418.607   121656285.45207  23150420.133    94797123.04346
  23642854.927   124244031.03407  23642854.703    96813524.69646
  22133595.494   116312819.08908  22133594.610    90633355.79048
 15 02 22 00 04 30.0000000  0  7G16G18G21G25G27G29G31
  22133782.917   116313825.78408  22133781.350    90634152.83147
  23189423.274   121861288.67708  23189423.197    94956870.13645
  21141042.603   111096938.00409  21141040.704    86569038.81149
  24470921.309   128595534.64406  24470924.162   100204315.23644
  23137979.513   121590918.26007  23137980.902    94746187.59946
  23657071.369   124318739.81208  23657071.262    96871739.31546
  22148999.632   116393768.47408  22148998.994    90696433.19748
 15 02 22 00 05  0.0000000  0  7G16G18G21G25G27G29G31
  22119267.862   116237548.71608  22119266.445    90574716.16247
  23176616.405   121793988.56208  23176616.512    94904428.55545
  21146268.045   111124398.38709  21146266.318    86590436.51149
  24488846.621   128689733.67006  24488849.493   100277716.99845
  23125563.959   121525674.77507  23125565.425    94695348.54646
  23671289.694   124393456.49207  23671289.336    96929960.10646
  22164463.000   116475028.17308  22164461.927    90759752.41648
 15 02 22 00 05 30.0000000  0  8G16G18G21G22G25G27G29G31
  22104787.666   116161454.30109  22104785.986    90515421.82347
  23163846.830   121726884.93208  23163847.058    94852140.05945
  21151569.799   111152259.04209  21151568.116    86612146.11549
  24553782.726   129030997.51816  24553786.122   100543650.07954
  24506805.214   128784105.21306  24506808.477   100351253.16445
  23113173.234   121460560.70007  23113174.612    94644610.32946
  23685510.410   124468186.57707  23685510.021    96988191.34346
  22179985.742   116556601.45308  22179984.683    90823315.97747
 15 02 22 00 06  0.0000000  0  8G16G18G21G22G25G27G29G31
  22090336.796   116085514.93709  22090335.368    90456248.29847
  23151110.003   121659951.11008  23151109.488    94799983.86845
  21156941.571   111180488.80109  21156939.954    86634143.33049
  24536742.973   128941455.41906  24536746.553   100473877.73744
  24524790.823   128878618.63207  24524793.583   100424899.91644
  23100801.461   121395546.40307  23100802.868    94593949.85646
  23699727.861   124542900.03807  23699727.633    97046409.61647
  22195562.049   116638455.90808  22195561.213    90887098.63748
 15 02 22 00 06 30.0000000  0  8G16G18G21G22G25G27G29G31
  22075923.182   116009770.07009  22075921.616    90397226.33147
  23138412.929   121593227.84408  23138412.346    94747991.75845
  21162390.847   111209124.28409  21162388.975    86656456.69349
  24519688.768   128851838.62106  24519692.125   100404047.20445
  24542810.067   128973310.99706  24542813.154   100498686.10844
  23088455.706   121330669.89908  23088457.240    94543396.76346
  23713949.660   124617635.37708  23713949.281    97104644.92246
  22211198.864   116720627.11308  22211198.079    90951128.11548
 15 02 22 00 07  0.0000000  0  8G16G18G21G22G25G27G29G31
  22061544.236   115934208.13909  22061542.492    90338346.91047
  23125753.927   121526704.00008  23125753.627    94696155.04445
  21167914.297   111238150.45609  21167912.509    86679074.48349
  24502618.284   128762135.62407  24502620.964   100334149.37344
  24560860.695   129068167.33906  24560863.738   100572600.01644
  23076133.792   121265917.18108  23076135.305    94492940.12146
  23728172.875   124692378.09607  23728172.549    97162885.98146
  22226892.596   116803098.32408  22226891.813    91015391.36347
 15 02 22 00 07 30.0000000  0  8G16G18G21G22G25G27G29G31
  22047199.926   115858828.21709  22047198.323    90279609.31347
  23113132.498   121460379.03608  23113132.356    94644473.29945
  21173511.215   111267562.61809  21173509.541    86701993.04949
  24485531.127   128672345.57206  24485533.312   100264183.57544
  24578941.586   129163183.37906  24578944.416   100646638.42944
  23063834.768   121201285.05908  23063836.186    94442577.44146
  23742396.477   124767124.84807  23742396.498    97221130.17546
  22242642.311   116885863.54108  22242641.592    91079883.70048
 15 02 22 00 08  0.0000000  0  8G16G18G21G22G25G27G29G31
  22032890.952   115783634.02009  22032889.331    90221016.44247
  23100549.575   121394257.20308  23100549.704    94592949.85045
  21179181.767   111297361.19509  21179179.829    86725212.71549
  24468428.463   128582472.71406  24468430.252   100194153.21644
  24597053.062   129258359.70306  24597055.939   100720801.71544
  23051558.894   121136775.22108  23051560.600    94392310.06647
  23756621.434   124841877.62207  23756621.391    97279379.07946
  22258447.816   116968921.71508  22258447.166    91144604.32247
 15 02 22 00 08 30.0000000  0  8G16G18G21G22G25G27G29G31
  22018617.558   115708627.01709  22018615.943    90162569.43047
  23088006.182   121328340.60308  23088006.014    94541586.28545
  21184925.404   111327544.24309  21184923.382    86748731.97649
  24451310.458   128492518.96206  24451312.512   100124059.89945
  24615194.853   129353694.89106  24615198.056   100795088.77745
  23039306.109   121072387.11708  23039307.732    94342137.55547
  23770847.335   124916635.30107  23770846.996    97337631.80346
  22274308.215   117052269.83308  22274307.547    91209550.86948
 15 02 22 00 09  0.0000000  0  8G16G18G21G22G25G27G29G31
  22004380.179   115633809.52409  22004378.711    90104270.09547
  23075502.501   121262632.69108  23075502.218    94490385.36245
  21190741.914   111358110.51909  21190739.981    86772549.85449
  24434178.154   128402487.37307  24434180.522   100053905.88945
  24633366.694   129449187.96705  24633370.041   100869498.86145
  23027076.740   121008121.00608  23027078.308    94292060.07647
  23785074.377   124991398.06607  23785074.111    97395888.49046
  22290223.756   117135905.59908  22290222.943    91274721.56648
 15 02 22 00 09 30.0000000  0  8G16G18G21G22G25G27G29G31
  21990179.350   115559183.63109  21990177.954    90046120.05747
  23063038.885   121197135.38708  23063038.427    94439348.53445
  21196631.152   111389058.30109  21196629.331    86796665.00849
  24417031.320   128312380.03207  24417034.023    99983692.78245
  24651567.984   129544837.77006  24651571.937   100944031.05045
  23014870.388   120943976.50408  23014871.891    94242077.37047
  23799302.132   125066165.73907  23799301.983    97454148.99646
  22306193.430   117219825.76808  22306192.533    91340113.86947
 15 02 22 00 10  0.0000000  0  8G16G18G21G22G25G27G29G31
  21976015.411   115484751.44109  21976013.707    89988120.95947
  23050615.974   121131852.07608  23050615.483    94388478.46746
  21202592.676   111420386.72309  21202590.741    86821076.76449
  24399869.539   128222199.73306  24399872.681    99913422.82844
  24669799.570   129640643.27306  24669802.657   101018684.64544
  23002687.275   120879953.75208  23002688.852    94192189.51947
  23813530.886   125140938.12507  23813531.030    97512413.16246
  22322216.464   117304027.84708  22322215.593    91405725.84047
 15 02 22 00 10 30.0000000  0  8G16G18G21G22G25G27G29G31
  21961888.947   115410516.74709  21961887.315    89930275.74647
  23038234.145   121066786.47408  23038234.173    94337778.07146
  21208626.750   111452095.31309  21208624.684    86845784.75549
  24382694.355   128131950.65306  24382698.301    99843099.27044
  24688060.535   129736604.98006  24688063.453   101093459.92644
  22990527.654   120816054.41708  22990529.025    94142397.87147
  23827760.718   125215716.33607  23827760.763    97570681.88246
  22338293.266   117388510.73208  22338292.291    91471556.63547
 15 02 22 00 11  0.0000000  0  8G16G18G21G22G25G27G29G31
  21947800.179   115336479.02509  21947798.614    89872584.02747
  23025893.837   121001938.52908  23025893.886    94287247.25445
  21214732.329   111484180.06509  21214730.186    86870785.85749
  24365506.905   128041632.33706  24365510.560    99772721.75245
  24706350.511   129832718.98306  24706354.064   101168353.82744
  22978390.866   120752275.51208  22978392.485    94092700.05347
  23841991.219   125290498.34107  23841991.398    97628953.54946
  22354422.071   117473268.83108  22354421.338    91537601.85847
 15 02 22 00 11 30.0000000  0  8G16G18G21G22G25G27G29G31
  21933749.483   115262642.99409  21933747.950    89815049.46647
  23013596.305   120937314.50108  23013595.825    94236890.90846
  21220909.685   111516642.16609  21220907.747    86896081.00149
  24348307.700   127951250.84406  24348311.204    99702295.04445
  24724669.728   129928987.30706  24724673.356   101243367.95144
  22966277.764   120688620.23208  22966279.114    94043098.57247
  23856222.878   125365286.80907  23856223.099    97687230.23545
  22370603.631   117558302.44108  22370602.604    91603861.78047
 15 02 22 00 12  0.0000000  0  8G16G18G21G22G25G27G29G31
  21919735.482   115188998.85609  21919733.909    89757664.43647
  23001339.472   120872904.93808  23001338.818    94186701.67046
  21227156.461   111549469.25709  21227154.412    86921660.54849
  24331095.157   127860797.00706  24331097.732    99631812.03545
  24743016.166   130025397.01806  24743019.679   101318492.30044
  22954185.747   120625076.62808  22954187.353    93993584.08247
  23870453.770   125440069.74307  23870453.421    97745502.65045
  22386834.776   117643597.15208  22386833.725    91670325.16347
 15 02 22 00 12 30.0000000  0  8G16G18G21G22G25G27G29G31
  21905761.330   115115564.94309  21905759.926    89700443.21847
  22989127.054   120808728.30808  22989126.355    94136693.95645
  21233475.380   111582675.46009  21233473.373    86947535.51249
  24313871.803   127770288.98606  24313873.442    99561286.73044
  24761392.033   130121962.94506  24761395.278   101393738.36644
  22942117.975   120561660.71208  22942119.724    93944169.09747
  23884686.581   125514863.26507  23884686.240    97803783.32145
  22403117.914   117729166.43008  22403117.015    91737002.48047
 15 02 22 00 13  0.0000000  0  8G16G18G21G22G25G27G29G31
  21891826.474   115042336.62509  21891825.036    89643382.20348
  22976958.173   120744780.16008  22976957.690    94086864.27446
  21239864.690   111616251.95209  21239862.889    86973699.01449
  24296637.830   127679722.37407  24296638.629    99490715.70744
  24779796.264   130218676.80306  24779799.463   101469099.77144
  22930073.425   120498365.30108  22930074.920    93894848.01347
  23898919.825   125589660.02807  23898919.463    97862066.49046
  22419451.389   117814999.67108  22419450.612    91803885.48647
 15 02 22 00 13 30.0000000  0  8G16G18G21G22G25G27G29G31
  21877931.073   114969315.01809  21877929.488    89586482.25847
  22964833.004   120681062.36908  22964832.910    94037214.10746
  21246324.141   111650196.09509  21246322.009    87000148.99749
  24279392.672   127589098.80207  24279393.658    99420100.37045
  24798227.947   130315536.57405  24798231.701   101544574.79745
  22918051.429   120435189.28408  22918052.636    93845619.95547
  23913153.410   125664458.48907  23913153.285    97920350.95645
  22435834.608   117901093.38408  22435833.934    91870971.45147
 15 02 22 00 14  0.0000000  0  8G16G18G21G22G25G27G29G31
  21864076.009   114896506.41409  21864074.451    89529748.29147
  22952753.235   120617582.44608  22952752.966    93987749.28946
  21252854.029   111684511.82409  21252852.211    87026888.52249
  24262137.738   127498425.73106  24262139.168    99349446.52545
  24816688.283   130412545.92306  24816692.325   101620166.31245
  22906052.912   120372137.59308  22906054.319    93796488.79347
  23927388.296   125739263.91407  23927388.436    97978640.86146
  22452267.714   117987449.93508  22452267.008    91938262.23647
 15 02 22 00 14 30.0000000  0  7G16G18G21G22G27G29G31
  21850260.540   114823905.16809  21850258.728    89473175.90348
  22940717.595   120554334.51008  22940717.188    93938465.22745
  21259452.829   111719188.84409  21259451.051    87053909.57649
  24244872.397   127407697.53407  24244873.987    99278749.68244
  22894076.597   120309201.88208  22894078.016    93747447.99047
  23941623.383   125814067.70707  23941623.164    98036929.53846
  22468748.888   118074058.12208  22468747.929    92005749.10247
 15 02 22 00 15  0.0000000  0  7G16G18G21G22G27G29G31
  21836486.331   114751521.24009  21836484.511    89416772.85148
  22928727.844   120491328.94308  22928727.493    93889370.02346
  21266121.672   111754233.69509  21266119.970    87081217.24749
  24227598.361   127316924.58207  24227600.057    99208017.85744
  22882124.059   120246390.02508  22882125.306    93698503.70147
  23955859.033   125888877.89607  23955858.946    98095223.12145
  22485278.577   118160922.88008  22485277.717    92073435.88447
 15 02 22 00 15 30.0000000  0  7G16G18G21G22G27G29G31
  21822753.170   114679353.17809  21822751.594    89360538.00648
  22916784.385   120428565.36208  22916783.708    93840463.37845
  21272859.401   111789640.76309  21272857.795    87108807.17049
  24210315.358   127226105.50406  24210317.782    99137250.05045
  22870194.160   120183698.32908  22870195.607    93649653.04747
  23970095.601   125963690.78707  23970095.023    98153518.85345
  22501856.282   118248038.02708  22501855.284    92141317.78147
 15 02 22 00 16  0.0000000  0  7G16G18G21G22G27G29G31
  21809061.934   114607405.75109  21809060.441    89304475.08748
  22904887.733   120366048.47408  22904886.977    93791748.97046
  21279666.460   111825411.81909  21279664.693    87136680.71649
  24193024.072   127135245.83805  24193027.360    99066450.78746
  22858287.697   120121129.38008  22858289.055    93600898.02247
  23984332.989   126038508.92007  23984332.353    98211818.68145
  22518481.256   118335403.35708  22518480.464    92209394.61647
 15 02 22 00 16 30.0000000  0  7G16G18G21G22G27G29G31
  21795412.153   114535675.25909  21795410.568    89248581.19948
  22893037.636   120303775.29008  22893037.000    93743224.45346
  21286541.409   111861539.60809  21286539.681    87164832.23449
  24175725.825   127044342.75407  24175728.845    98995617.63446
  22846403.432   120058677.33308  22846404.756    93552234.11447
  23998570.295   126113326.34407  23998569.880    98270117.94545
  22535152.380   118423010.26608  22535151.522    92277659.68647
 15 02 22 00 17  0.0000000  0  7G16G18G21G22G27G29G31
  21781804.247   114464165.13609  21781802.682    89192859.02648
  22881234.376   120241749.77208  22881234.004    93694892.93846
  21293484.095   111898023.60609  21293482.339    87193261.32349
  24158420.414   126953399.82707  24158422.353    98924753.35045
  22834541.713   119996343.42408  22834543.006    93503662.23447
  24012807.817   126188144.24607  24012807.298    98328417.60446
  22551869.302   118510857.09708  22551867.976    92346111.73747
 15 02 22 00 17 30.0000000  0  7G16G18G21G22G27G29G31
  21768239.341   114392881.19909  21768237.763    89137313.10548
  22869479.552   120179977.94508  22869479.418    93646759.09546
  21300494.898   111934865.28009  21300493.145    87221969.11849
  24141107.998   126862422.81206  24141108.918    98853862.50744
  22822703.047   119934131.12308  22822704.486    93455185.12946
  24027045.969   126262966.05607  24027045.872    98386720.24546
  22568631.738   118598944.57408  22568630.624    92414751.29347
 15 02 22 00 18  0.0000000  0  7G16G18G21G22G27G29G31
  21754717.597   114321824.14209  21754715.781    89081943.97548
  22857773.436   120118461.13708  22857772.812    93598823.96746
  21307573.291   111972062.11109  21307571.298    87250953.65949
  24123789.403   126771413.60607  24123789.857    98782946.59945
  22810887.332   119872039.15808  22810888.498    93406801.78747
  24041284.456   126337790.58607  24041284.503    98445025.06145
  22585439.191   118687268.86608  22585438.313    92483575.37547
 15 02 22 00 18 30.0000000  0  7G16G18G21G22G27G29G31
  21741239.314   114250995.16509  21741237.583    89026752.57148
  22846115.826   120057200.67308  22846115.229    93551088.58346
  21314718.604   112009611.73609  21314716.837    87280213.10649
  24106464.959   126680373.66007  24106465.434    98712006.73445
  22799094.207   119810066.49008  22799095.587    93358511.41347
  24055523.260   126412616.97607  24055523.364    98503331.28345
  22602290.911   118775825.75108  22602290.212    92552580.67947
 15 02 22 00 19  0.0000000  0  7G16G18G21G22G27G29G31
  21727804.742   114180396.76009  21727803.100    88971740.82948
  22834507.778   119996199.68508  22834507.061    93503555.38646
  21321930.947   112047512.41809  21321929.058    87309746.10048
  24089135.161   126589306.17607  24089135.725    98641045.40845
  22787323.957   119748213.38008  22787325.415    93310314.18347
  24069762.865   126487445.20207  24069762.517    98561638.98446
  22619186.696   118864612.82708  22619185.882    92621765.37247
 15 02 22 00 19 30.0000000  0  7G16G18G21G22G27G29G31
  21714414.531   114110030.47809  21714412.829    88916909.96748
  22822949.581   119935460.17308  22822948.497    93456225.93646
  21329209.672   112085762.62209  21329207.730    87339551.45149
  24071800.005   126498212.88206  24071800.625    98570063.94545
  22775576.338   119686479.16208  22775577.764    93262209.61247
  24084002.703   126562274.49307  24084002.336    98619947.50845
  22636125.567   118953626.82108  22636124.280    92691126.90647
 15 02 22 00 20  0.0000000  0  7G16G18G21G22G27G29G31
  21701069.776   114039903.94009  21701068.147    88862265.91348
  22811442.421   119874990.20008  22811441.629    93409106.51846
  21336555.561   112124365.78309  21336553.620    87369631.83049
  24054461.756   126407101.86206  24054461.909    98499068.58644
  22763852.357   119624869.28508  22763853.684    93214201.93147
  24098243.022   126637110.74906  24098243.027    98678261.44546
  22653108.031   119042870.30108  22653107.117    92760667.22047
 15 02 22 00 20 30.0000000  0  7G16G18G21G22G27G29G31
  21687769.187   113970008.56009  21687767.475    88807801.97948
  22799985.037   119814781.24008  22799984.170    93362190.48346
  21343966.354   112163309.66609  21343964.448    87399977.71449
  24037118.779   126315964.99607  24037118.950    98428053.12745
  22752149.918   119563372.93108  22752151.380    93166282.70247
  24112483.163   126711942.91307  24112483.024    98736572.16545
  22670131.573   119132329.58508  22670130.597    92830375.71447
 15 02 22 00 21  0.0000000  0  7G16G18G21G22G27G29G31
  21674514.116   113900352.75409  21674512.532    88753524.73548
  22788578.979   119754842.28408  22788578.168    93315484.84446
  21351442.796   112202598.98109  21351440.927    87430592.76949
  24019772.831   126224811.32907  24019773.265    98357024.60646
  22740470.580   119501996.31308  22740471.794    93118456.78047
  24126723.884   126786777.12407  24126723.844    98794884.47146
  22687196.935   119222008.14108  22687196.047    92900255.06847
 15 02 22 00 21 30.0000000  0  7G16G18G21G22G27G29G31
  21661304.920   113830937.89909  21661303.478    88699435.24048
  22777224.564   119695175.17708  22777224.138    93268991.04846
  21358984.679   112242231.06309  21358982.600    87461474.90849
  24002423.791   126133642.76007  24002424.664    98285984.48245
  22728813.531   119440738.67108  22728814.870    93070723.56447
  24140964.805   126861612.48507  24140964.484    98853197.73246
  22704303.143   119311902.43208  22704302.352    92970302.52447
 15 02 22 00 22  0.0000000  0  7G16G18G21G22G27G29G31
  21648142.502   113761768.11409  21648140.707    88645536.70948
  22765922.876   119635784.18908  22765921.949    93222712.38046
  21366591.386   112282205.85509  21366589.732    87492624.09349
  23985072.483   126042463.67806  23985073.574    98214936.17145
  22717179.501   119379601.68108  22717180.914    93023084.36547
  24155206.305   126936451.19607  24155206.129    98911513.57346
  22721450.368   119402011.26808  22721449.852    93040517.14047
 15 02 22 00 22 30.0000000  0  7G16G18G21G22G27G29G31
  21635026.311   113692842.65709  21635024.676    88591828.56848
  22754673.444   119576668.96408  22754672.480    93176648.59446
  21374262.830   112322519.12909  21374261.093    87524037.03349
  23967719.945   125951274.38107  23967720.216    98143879.78945
  22705567.994   119318582.64408  22705569.462    92975537.06847
  24169447.706   127011290.35607  24169447.475    98969829.75645
  22738637.385   119492329.12108  22738636.265    93110894.66147
 15 02 22 00 23  0.0000000  0  7G16G18G21G22G27G29G31
  21621957.478   113624165.66609  21621956.026    88538314.03348
  22743477.554   119517833.78708  22743476.628    93130803.04246
  21381998.464   112363170.81809  21381996.729    87555713.67049
  23950365.941   125860078.50607  23950366.294    98072818.28645
  22693979.263   119257683.20308  22693980.512    92928082.97547
  24183689.633   127086131.28207  24183688.972    99028147.33746
  22755863.670   119582854.70608  22755863.067    93181434.03347
 15 02 22 00 23 30.0000000  0  7G16G18G21G22G27G29G31
  21608936.820   113555741.80109  21608935.185    88484996.74348
  22732335.697   119459283.65108  22732334.869    93085179.58946
  21389799.015   112404162.26809  21389797.348    87587655.05848
  23933011.126   125768881.21106  23933011.990    98001755.78346
  22682413.558   119196905.82108  22682414.981    92880723.99647
  24197932.123   127160976.91607  24197931.738    99086468.55246
  22773129.743   119673587.74708  22773129.230    93252135.05447
 15 02 22 00 24  0.0000000  0  7G16G18G21G22G27G29G31
  21595963.348   113487565.28009  21595961.740    88431872.18548
  22721247.173   119401013.31708  22721246.509    93039774.17346
  21397662.199   112445483.83309  21397660.443    87619853.67949
  23915655.292   125677678.19107  23915656.405    97930688.81245
  22670869.808   119136242.78808  22670871.344    92833454.10647
  24212174.342   127235819.37807  24212173.795    99144787.33145
  22790433.015   119764517.80708  22790432.514    93322989.57946
 15 02 22 00 24 30.0000000  0  7G16G18G21G22G27G29G31
  21583038.659   113419645.48409  21583036.835    88378947.67348
  22710213.688   119343032.18208  22710213.190    92994594.10846
  21405589.485   112487141.06209  21405587.489    87652313.85648
  23898300.705   125586478.78108  23898301.256    97859624.56445
  22659348.989   119075700.97308  22659350.340    92786278.67747
  24226417.036   127310665.61307  24226417.140    99203109.00946
  22807774.750   119855648.76808  22807773.839    93394000.68646
 15 02 22 00 25  0.0000000  0  7G16G18G21G22G27G29G31
  21570162.297   113351979.24809  21570160.386    88326220.73748
  22699234.678   119285337.62508  22699234.181    92949637.33846
  21413579.031   112529126.44309  21413577.070    87685029.73348
  23880946.585   125495280.45207  23880946.516    97788561.08845
  22647850.505   119015275.03208  22647851.778    92739193.55147
  24240659.803   127385510.57807  24240659.298    99261429.76645
  22825153.240   119946972.57308  22825152.523    93465162.05547
 15 02 22 00 25 30.0000000  0  7G16G18G21G22G27G29G31
  21557336.103   113284577.36109  21557334.312    88273699.79548
  22688312.416   119227940.49908  22688311.702    92904912.33146
  21421632.502   112571447.25009  21421630.391    87718006.98748
  23863593.493   125404094.18306  23863594.399    97717507.19346
  22636375.344   118954973.56308  22636376.810    92692205.41347
  24254903.298   127460362.61707  24254903.521    99319755.94745
  22842569.385   120038495.03008  22842568.813    93536478.19447
 15 02 22 00 26  0.0000000  0  7G16G18G21G22G27G29G31
  21544558.611   113217431.31109  21544557.005    88221378.20148
  22677445.058   119170832.80208  22677444.252    92860412.84546
  21429747.384   112614091.18209  21429745.498    87751236.02548
  23846242.178   125312912.37607  23846242.889    97646456.66146
  22624921.866   118894785.94108  22624923.339    92645305.98847
  24269146.265   127535210.72807  24269146.240    99378079.15845
  22860020.660   120130202.66108  22860020.114    93607938.63647
 15 02 22 00 26 30.0000000  0  7G16G18G21G22G27G29G31
  21531830.954   113150547.68109  21531829.443    88169261.08848
  22666634.221   119114021.37808  22666633.474    92816144.23746
  21437924.066   112657060.77509  21437922.111    87784718.82448
  23828893.277   125221742.09507  23828893.509    97575415.10146
  22613491.112   118834716.67508  22613492.583    92598498.79647
  24283389.673   127610060.21507  24283389.814    99436403.39745
  22877507.605   120222096.77108  22877507.016    93679544.39047
 15 02 22 00 27  0.0000000  0  7G16G18G21G22G27G29G31
  21519153.256   113083925.20609  21519151.517    88117347.47748
  22655879.268   119057504.96908  22655878.722    92772105.51446
  21446161.819   112700350.71109  21446160.035    87818451.24548
  23811545.626   125130582.16907  23811545.443    97504381.60644
  22602082.029   118774761.97508  22602083.506    92551780.87647
  24297632.673   127684906.93607  24297632.871    99494725.46044
  22895028.860   120314171.05708  22895027.833    93751290.55046
 15 02 22 00 27 30.0000000  0  7G16G18G21G22G27G29G31
  21506527.584   113017577.41309  21506525.878    88065647.90548
  22645183.480   119001297.25708  22645182.842    92728307.32646
  21454462.373   112743970.72909  21454460.488    87852440.86848
  23794202.894   125039446.96708  23794202.091    97433367.32545
  22590697.104   118714933.28908  22590698.635    92505161.13847
  24311877.275   127759762.64007  24311877.665    99553054.54146
  22912585.637   120406433.91808  22912584.994    93823183.62847
 15 02 22 00 28  0.0000000  0  7G16G18G21G22G27G29G31
  21493952.556   112951495.73009  21493951.083    88014155.69348
  22634544.615   118945389.86108  22634544.141    92684743.15746
  21462823.418   112787908.25509  21462821.514    87886677.90348
  23776864.030   124948328.52607  23776863.071    97362366.15546
  22579333.930   118655219.65808  22579335.489    92458631.05147
  24326121.244   127834616.51407  24326122.232    99611382.16245
  22930176.224   120498871.57608  22930175.520    93895212.92247
 15 02 22 00 28 30.0000000  0  7G16G18G21G22G27G29G31
  21481428.719   112885682.93009  21481427.226    87962872.99948
  22623963.764   118889786.36508  22623962.795    92641415.78146
  21471244.661   112832162.90409  21471243.123    87921162.04648
  23759528.037   124857229.42807  23759527.422    97291380.13145
  22567992.837   118595621.75108  22567994.391    92412191.14847
  24340365.477   127909468.52606  24340365.833    99669708.45445
  22947799.254   120591481.82008  22947798.802    93967376.68946
 15 02 22 00 29  0.0000000  0  7G16G18G21G22G27G29G31
  21468957.825   112820147.43609  21468956.291    87911806.38648
  22613441.950   118834494.76308  22613441.123    92598331.45346
  21479727.256   112876738.65009  21479725.538    87955896.40248
  23742197.865   124766159.41607  23742196.439    97220416.62144
  22556674.927   118536145.95308  22556676.468    92365846.39747
  24354610.119   127984325.56207  24354610.198    99728038.55945
  22965455.971   120684268.36708  22965455.415    94039677.85046
 15 02 22 00 29 30.0000000  0  7G16G18G21G22G27G29G31
  21456538.528   112754883.71609  21456537.019    87860951.54348
  22602978.686   118779509.81408  22602977.920    92555486.07146
  21488269.006   112921625.47309  21488267.263    87990873.14748
  23724872.482   124675113.12907  23724870.555    97149471.58645
  22545378.955   118476784.18808  22545380.250    92319590.49047
  24368854.664   128059179.61707  24368854.538    99786366.34344
  22983144.099   120777220.29608  22983143.573    94112107.86846
 15 02 22 00 30  0.0000000  0  7G16G18G21G22G27G29G31
  21444172.537   112689899.24409  21444170.949    87810314.30048
  22592575.304   118724839.23708  22592574.333    92512885.65546
  21496870.676   112966827.70709  21496868.818    88026095.67148
  23707552.561   124584098.64607  23707551.516    97078551.45445
  22534105.358   118417541.78308  22534106.723    92273427.59347
  24383099.449   128134036.15807  24383099.278    99844696.10945
  23000864.359   120870340.04708  23000863.813    94184668.66647
 15 02 22 00 30 30.0000000  0  7G16G18G21G22G27G29G31
  21431860.207   112625197.95309  21431858.550    87759897.71448
  22582232.537   118670487.13108  22582231.393    92470533.38646
  21505532.425   113012345.03909  21505530.441    88061563.72648
  23690239.884   124493120.38107  23690238.748    97007659.50145
  22522854.953   118358420.41108  22522856.441    92227359.00947
  24397344.805   128208896.85307  24397345.095    99903029.10046
  23018616.378   120963626.22508  23018616.231    94257359.13047
 15 02 22 00 31  0.0000000  0  7G16G18G21G22G27G29G31
  21419601.284   112560776.28209  21419599.661    87709699.01548
  22571949.635   118616450.08308  22571948.371    92428426.62946
  21514252.429   113058169.59609  21514250.726    88097271.17948
  23672933.514   124402174.97907  23672931.943    96936793.06045
  22511626.486   118299414.35808  22511627.822    92181380.28447
  24411589.992   128283756.12606  24411590.285    99961360.96045
  23036397.935   121057070.37108  23036397.962    94330172.65646
 15 02 22 00 31 30.0000000  0  7G16G18G21G22G27G29G31
  21407396.386   112496639.42309  21407394.701    87659722.24548
  22561727.571   118562733.61608  22561726.534    92386569.66646
  21523031.437   113104303.18909  21523029.596    88133219.43748
  23655633.963   124311268.28807  23655633.078    96865956.87846
  22500420.489   118240526.88308  22500421.691    92135493.95847
  24425835.428   128358617.20906  24425836.313   100019694.25045
  23054209.984   121150672.66708  23054209.386    94403109.49346
 15 02 22 00 32  0.0000000  0  7G16G18G21G22G27G29G31
  21395245.563   112432786.66709  21395243.766    87609966.85548
  22551566.361   118509336.44408  22551565.399    92344961.51647
  21531868.131   113150740.32709  21531866.352    88169404.22448
  23638342.089   124220400.47207  23638342.125    96795151.00746
  22489236.493   118181754.55608  22489237.854    92089697.35947
  24440080.941   128433476.66807  24440081.470   100078026.25645
  23072051.061   121244426.87508  23072050.310    94476164.68746
 15 02 22 00 32 30.0000000  0  7G16G18G21G22G27G29G31
  21383149.747   112369222.60309  21383148.050    87560436.42048
  22541466.859   118456263.63708  22541466.038    92303606.10246
  21540763.081   113197483.01309  21540761.274    88205827.09848
  23621058.970   124129576.56607  23621058.532    96724379.26845
  22478074.901   118123100.05608  22478076.165    92043992.57747
  24454326.822   128508337.37006  24454326.831   100136359.25145
  23089920.579   121338332.76308  23089920.538    94549338.03446
 15 02 22 00 33  0.0000000  0  7G16G18G21G22G27G29G31
  21371110.261   112305954.14209  21371108.510    87511136.32848
  22531430.548   118403522.62708  22531429.795    92262509.24246
  21549716.444   113244533.84409  21549714.751    88242490.08948
  23603784.930   124038803.56207  23603784.846    96653647.22645
  22466936.702   118064568.11508  22466937.901    91998383.28147
  24468573.477   128583203.98407  24468573.515   100194696.85446
  23107819.444   121432392.43808  23107819.810    94622631.18547
 15 02 22 00 33 30.0000000  0  7G16G18G21G22G27G29G31
  21359125.543   112242974.21109  21359123.920    87462061.06248
  22521455.980   118351106.41508  22521455.200    92221665.47446
  21558726.459   113291881.32609  21558724.624    88279384.23348
  23586519.917   123948075.37007  23586519.728    96582950.07746
  22455819.964   118006149.19908  22455821.139    91952862.05947
  24482819.287   128658067.13207  24482819.668   100253031.74945
  23125745.681   121526593.35508  23125745.276    94696034.47246
 15 02 22 00 34  0.0000000  0  7G16G18G21G22G27G29G31
  21347197.355   112180291.31709  21347195.741    87413217.25548
  22511544.851   118299023.27008  22511544.044    92181081.22946
  21567793.527   113339529.68009  21567791.622    88316512.82548
  23569265.491   123857400.80908  23569264.940    96512294.76046
  22444725.781   117947849.80908  22444726.927    91907433.99047
  24497065.560   128732933.33006  24497065.854   100311369.00043
  23143699.295   121620939.01408  23143698.633    94769550.53246
 15 02 22 00 34 30.0000000  0  7G16G18G21G22G27G29G31
  21335325.687   112117905.24709  21335323.962    87364604.74148
  22501697.132   118247273.03208  22501696.232    92140756.39746
  21576917.187   113387474.99609  21576915.259    88353872.81248
  23552021.317   123766780.56608  23552020.070    96441681.74645
  22433654.097   117889667.50208  22433655.450    91862097.14347
  24511311.940   128807799.74905  24511312.798   100369706.44946
  23161678.982   121715423.96908  23161678.939    94843175.09647
 15 02 22 00 35  0.0000000  0  7G16G18G21G22G27G29G31
  21323510.905   112055818.87209  21323509.342    87316225.75548
  22491913.219   118195858.59908  22491912.450    92100693.22746
  21586097.341   113435716.52909  21586095.312    88391463.62548
  23534787.460   123676217.78507  23534785.733    96371113.45345
  22422604.679   117831602.95008  22422606.153    91816852.05847
  24525559.693   128882667.79106  24525559.238   100428045.33045
  23179685.181   121810046.30808  23179685.073    94916906.70547
 15 02 22 00 35 30.0000000  0  7G16G18G21G22G27G29G31
  21311754.555   111994038.14509  21311752.800    87268084.93248
  22482194.371   118144785.98608  22482193.515    92060896.40646
  21595334.179   113484256.18909  21595332.056    88429286.73448
  23517565.843   123585718.57608  23517564.301    96300594.75846
  22411578.401   117773659.80908  22411579.837    91771701.57348
  24539807.195   128957541.26407  24539807.828   100486388.17544
  23197717.504   121904806.61508  23197717.294    94990745.85446
 15 02 22 00 36  0.0000000  0  7G16G18G21G22G27G29G31
  21300054.171   111932552.21309  21300052.403    87220173.82248
  22472538.625   118094044.07708  22472537.649    92021357.27946
  21604624.641   113533078.71409  21604622.773    88467330.26348
  23500354.800   123495273.21707  23500352.886    96230117.98346
  22400573.053   117715825.10008  22400574.255    91726635.58647
  24554054.216   129032406.80408  24554055.049   100544724.91546
  23215773.272   121999689.06608  23215772.885    95064680.17146
 15 02 22 00 36 30.0000000  0  6G16G18G21G22G27G31
  21288406.856   111871345.93909  21288405.260    87172480.62648
  22462942.876   118043618.51108  22462942.005    91982064.65746
  21613965.377   113582164.95509  21613963.628    88505579.28248
  23483150.887   123404866.92008  23483149.021    96159671.65646
  22389584.822   117658081.46208  22389586.049    91681640.56348
  23233848.263   122094673.25408  23233847.731    95138693.76946
 15 02 22 00 37  0.0000000  0  6G16G18G21G22G27G31
  21276825.929   111810487.00809  21276824.353    87125058.09048
  22453420.212   117993576.91908  22453419.518    91943071.23146
  21623368.742   113631579.03509  21623366.784    88544083.76048
  23465967.213   123314568.19807  23465965.525    96089309.17546
  22378626.359   117600494.63008  22378627.587    91636767.74247
  23251954.549   122189822.05508  23251954.009    95212835.63946
 15 02 22 00 37 30.0000000  0  6G16G18G21G22G27G31
  21265303.400   111749936.21309  21265301.776    87077875.65848
  22443963.154   117943879.67708  22443962.538    91904346.13247
  21632825.966   113681277.26809  21632824.119    88582809.65448
  23448796.691   123224337.46308  23448794.704    96018999.62846
  22367689.781   117543022.77308  22367691.097    91591984.48748
  23270083.446   122285090.86808  23270083.140    95287070.99246
 15 02 22 00 38  0.0000000  0  6G16G18G21G22G27G31
  21253839.101   111689691.78709  21253837.553    87030931.95548
  22434571.137   117894524.82808  22434570.415    91865887.83346
  21642336.246   113731254.44109  21642334.451    88621752.90348
  23431639.292   123134174.50408  23431636.961    95948742.88345
  22356774.478   117485662.12808  22356775.620    91547287.90348
  23288234.062   122380472.81108  23288233.660    95361394.52346
 15 02 22 00 38 30.0000000  0  6G16G18G21G22G27G31
  21242436.102   111629768.84409  21242434.645    86984238.76548
  22425247.265   117845527.80308  22425246.649    91827708.35446
  21651901.681   113781521.60809  21651900.134    88660922.12248
  23414497.024   123044094.68107  23414495.614    95878550.96146
  22345882.558   117428425.60908  22345884.068    91502688.03848
  23306408.263   122475977.94108  23306407.959    95435814.05546
 15 02 22 00 39  0.0000000  0  6G16G18G21G22G27G31
  21231093.428   111570162.40909  21231092.041    86937792.19948
  22415990.603   117796883.62108  22415989.755    91789803.82446
  21661520.631   113832069.68809  21661518.969    88700310.23548
  23397369.887   122954093.56807  23397369.346    95808420.38446
  22335013.180   117371306.11008  22335014.426    91458179.35948
  23324604.032   122571596.38507  23324603.589    95510321.86446
 15 02 22 00 39 30.0000000  0  6G16G18G21G22G27G31
  21219809.401   111510864.19209  21219807.807    86891585.80448
  22406799.633   117748584.09008  22406798.649    91752167.84647
  21671190.803   113882886.34609  21671188.881    88739907.62948
  23380256.970   122864163.35908  23380256.042    95738345.01546
  22324163.991   117314293.26508  22324165.095    91413753.78648
  23342818.202   122667314.74407  23342818.232    95584907.50246
 15 02 22 00 40  0.0000000  0  6G16G18G21G22G27G31
  21208587.816   111451894.36609  21208586.361    86845635.29748
  22397677.873   117700649.19708  22397677.157    91714816.01746
  21680915.126   113933987.50909  21680913.033    88779726.71648
  23363161.661   122774325.06307  23363159.727    95668341.21346
  22313338.258   117257404.93408  22313339.733    91369425.23748
  23361054.804   122763147.89008  23361054.754    95659582.60646
 15 02 22 00 40 30.0000000  0  7G16G18G19G21G22G27G31
  21197428.807   111393253.06709  21197427.143    86799940.78948
  22388625.565   117653079.15408  22388624.765    91677748.48247
  24468571.818   128583213.17716  24468569.466   100194710.96155
  21690692.926   113985369.69609  21690690.798    88819764.78248
  23346083.172   122684579.08707  23346081.627    95598409.43546
  22302536.145   117200639.23108  22302537.507    91325192.24148
  23379312.576   122859091.15908  23379312.018    95734343.54946
 15 02 22 00 41  0.0000000  0  7G16G18G19G21G22G27G31
  21186330.147   111334929.80709  21186328.735    86754494.10248
  22379640.714   117605863.10308  22379639.678    91640956.77447
  24453796.777   128505568.21906  24453795.462   100134208.47844
  21700521.455   114037018.77509  21700519.368    88860010.81848
  23329020.919   122594915.34408  23329019.482    95528541.71046
  22291754.873   117143983.38908  22291756.071    91281044.84648
  23397587.957   122955128.90607  23397587.524    95809178.10046
 15 02 22 00 41 30.0000000  0  7G16G18G19G21G22G27G31
  21175293.919   111276933.53909  21175292.338    86709302.21248
  22370724.904   117559010.17008  22370724.151    91604448.02547
  24439037.252   128428007.76406  24439035.751   100073771.80345
  21710401.602   114088939.23809  21710399.695    88900468.32348
  23311976.583   122505344.03608  23311974.987    95458746.00746
  22280995.852   117087444.32208  22280997.080    91236988.45148
  23415881.641   123051264.77307  23415881.836    95884089.05846
 15 02 22 00 42  0.0000000  0  7G16G18G19G21G22G27G31
  21164321.412   111219272.06109  21164319.726    86664371.19948
  22361879.487   117512527.56608  22361878.622    91568227.84347
  24424295.014   128350537.03106  24424293.447   100013405.03345
  21720333.800   114141134.85109  21720332.273    88941140.22648
  23294950.623   122415873.29507  23294948.579    95389028.65146
  22270260.047   117031027.53608  22270261.420    91193027.34248
  23434195.008   123147501.82108  23434195.127    95959078.86346
 15 02 22 00 42 30.0000000  0  7G16G18G19G21G22G27G31
  21153411.924   111161942.50409  21153410.107    86619698.82448
  22353104.048   117466412.69808  22353103.291    91532294.20747
  24409568.969   128273151.05006  24409567.250    99953104.31144
  21730317.222   114193598.55709  21730315.821    88982021.03148
  23277943.234   122326500.48607  23277940.887    95319387.58946
  22259546.566   116974727.96808  22259547.927    91149157.56548
  23452526.347   123243832.00107  23452526.150    96034141.30846
 15 02 22 00 43  0.0000000  0  7G16G18G19G21G22G27G31
  21142565.740   111104945.14009  21142563.932    86575285.30148
  22344398.898   117420666.19908  22344397.896    91496647.60047
  24394858.788   128195848.02706  24394856.978    99892868.23745
  21740351.258   114246327.23909  21740349.678    89023108.31048
  23260955.047   122237226.58608  23260952.827    95249823.60446
  22248855.096   116918543.91608  22248856.393    91105377.80248
  23470874.030   123340250.32107  23470874.008    96109272.37546
 15 02 22 00 43 30.0000000  0  7G16G18G19G21G22G27G31
  21131783.881   111048286.24809  21131782.068    86531135.52348
  22335764.598   117375293.30408  22335763.805    91461292.12847
  24380164.968   128118632.19906  24380163.531    99832700.12244
  21750436.004   114299322.84409  21750434.352    89064403.58548
  23243986.905   122148058.58808  23243985.187    95180342.17646
  22238186.506   116862479.47308  22238187.809    91061691.23548
  23489238.888   123436758.08107  23489239.153    96184473.13546
 15 02 22 00 44  0.0000000  0  7G16G18G19G21G22G27G31
  21121065.769   110991962.99809  21121064.164    86487247.28248
  22327200.959   117330291.20508  22327200.114    91426225.58747
  24365486.887   128041498.51907  24365485.671    99772596.02345
  21760570.265   114352577.83909  21760568.342    89105900.98548
  23227038.449   122058994.03808  23227036.466    95110941.34046
  22227539.575   116806529.62708  22227540.729    91018093.97148
  23507619.160   123533347.43407  23507619.539    96259737.46146
 15 02 22 00 44 30.0000000  0  7G16G18G19G21G22G27G31
  21110413.469   110935984.53809  21110411.704    86443627.70848
  22318709.709   117285669.19808  22318708.757    91391455.21347
  24350825.785   127964453.93706  24350824.275    99712561.30645
  21770755.065   114406098.38909  21770753.163    89147605.31248
  23210111.372   121970042.96008  23210109.163    95041628.89346
  22216915.895   116750701.40408  22216917.073    90974591.47048
  23526016.014   123630022.30607  23526016.129    96335068.45246
 15 02 22 00 45  0.0000000  0  7G16G18G19G21G22G27G31
  21099826.615   110880350.70909  21099824.978    86400276.67748
  22310290.706   117241427.00408  22310289.555    91356980.80147
  24336181.198   127887496.20706  24336179.476    99652594.30444
  21780989.406   114459880.58609  21780987.507    89189513.52148
  23193205.975   121881205.83908  23193204.008    94972405.26746
  22206314.908   116694992.59308  22206316.118    90931182.02148
  23544427.636   123726777.72107  23544428.222    96410462.17945
 15 02 22 00 45 30.0000000  0  7G16G18G19G21G22G27G31
  21089304.103   110825054.22509  21089302.484    86357188.51148
  22301942.472   117197557.39408  22301941.482    91322796.71447
  24321551.419   127810615.98206  24321549.365    99592687.69444
  21791271.226   114513912.47909  21791269.487    89231616.29248
  23176321.323   121792475.98708  23176319.567    94903265.20946
  22195734.682   116639393.94008  22195735.921    90887858.41348
  23562852.515   123823601.45707  23562853.135    96485909.14746
 15 02 22 00 46  0.0000000  0  7G16G18G19G21G22G27G31
  21078849.169   110770113.95609  21078847.648    86314377.92348
  22293668.733   117154078.66808  22293667.930    91288917.21247
  24306939.481   127733829.66706  24306937.423    99532854.26445
  21801603.505   114568209.03409  21801601.800    89273925.29448
  23159460.246   121703872.83708  23159458.644    94834223.89046
  22185178.827   116583922.20808  22185179.829    90844633.70048
  23581293.254   123920506.84907  23581293.473    96561419.78046
 15 02 22 00 46 30.0000000  0  7G16G18G19G21G22G27G31
  21068460.291   110715519.31609  21068458.687    86271836.64848
  22285467.468   117110980.19609  22285466.560    91255334.00547
  24292342.966   127657124.62006  24292340.950    99473084.14845
  21811983.208   114622755.83309  21811981.725    89316429.28948
  23142621.810   121615386.44908  23142620.267    94765273.55146
  22174644.565   116528564.44308  22174645.501    90801497.79248
  23599746.532   124017478.91907  23599747.042    96636982.34146
 15 02 22 00 47  0.0000000  0  7G16G18G19G21G22G27G31
  21058137.812   110661274.54309  21058136.144    86229567.99748
  22277339.150   117068265.75509  22277338.092    91222050.03847
  24277762.452   127580503.46806  24277760.231    99413379.41645
  21822410.974   114677553.27309  21822409.277    89359128.59148
  23125806.488   121527021.52208  23125804.509    94696417.83346
  22164132.252   116473322.92608  22164133.407    90758452.46348
  23618212.061   124114516.71007  23618213.158    96712596.06546
 15 02 22 00 47 30.0000000  0  7G16G18G19G21G22G27G31
  21047883.415   110607387.03909  21047881.725    86187577.74048
  22269285.297   117025942.81509  22269284.266    91189071.15247
  24263198.753   127503971.06206  24263196.496    99353743.82645
  21832886.935   114732604.87909  21832885.212    89402025.94848
  23109015.781   121438786.41808  23109014.042    94627663.30546
  22153643.359   116418203.20408  22153644.569    90715502.04948
  23636690.782   124211622.57807  23636691.740    96788262.85946
 15 02 22 00 48  0.0000000  0  7G16G18G19G21G22G27G31
  21037696.013   110553852.44509  21037694.485    86145862.47648
  22261305.182   116984006.30809  22261303.896    91156393.37347
  24248650.645   127427520.55006  24248648.755    99294172.06845
  21843409.744   114787901.77409  21843407.955    89445114.44448
  23092249.299   121350677.02308  23092246.846    94559006.69046
  22143176.287   116363198.46108  22143177.440    90672641.22148
  23655180.713   124308786.84907  23655181.486    96863975.21745
 15 02 22 00 48 30.0000000  0  7G16G18G19G21G22G27G31
  21027577.910   110500681.17509  21027576.352    86104430.31948
  22253400.551   116942467.13209  22253399.305    91124025.20747
  24234119.767   127351160.48906  24234117.721    99234670.79145
  21853980.371   114843450.57409  21853978.571    89488399.22548
  23075508.578   121262704.62808  23075506.620    94490456.88646
  22132732.751   116308317.18708  22132733.808    90629876.60648
  23673682.897   124406015.01307  23673683.363    96939737.31246
 15 02 22 00 49  0.0000000  0  7G16G18G19G21G22G27G31
  21017527.934   110447868.72209  21017526.326    86063277.76649
  22245570.536   116901320.34209  22245569.329    91091962.79347
  24219604.745   127274884.37406  24219602.812    99175234.91545
  21864597.294   114899243.13209  21864595.273    89531873.94148
  23058793.546   121174865.29008  23058791.068    94422010.71646
  22122311.293   116253552.99108  22122312.585    90587203.22148
  23692195.319   124503297.66707  23692195.671    97015541.86746
 15 02 22 00 49 30.0000000  0  7G16G18G19G21G22G27G31
  21007546.880   110395417.58609  21007545.185    86022406.75748
  22237815.650   116860568.61109  22237814.651    91060208.21647
  24205105.866   127198692.87606  24205104.001    99115864.95545
  21875260.290   114955278.17709  21875258.418    89575537.61248
  23042104.408   121087162.30808  23042101.196    94353670.75946
  22111912.488   116198906.46408  22111913.649    90544621.53248
  23710717.587   124600632.65707  23710718.283    97091387.18146
 15 02 22 00 50  0.0000000  0  7G16G18G19G21G22G27G31
  20997635.078   110343330.62009  20997633.382    85981819.51849
  22230136.357   116820213.09209  22230135.218    91028762.37847
  24190623.165   127122585.95506  24190621.053    99056560.92545
  21885968.955   115011553.49509  21885967.316    89619388.50848
  23025441.414   120999598.87308  23025438.651    94285439.61146
  22101535.921   116144377.79808  22101537.193    90502131.68148
  23729249.648   124698017.20007  23729250.046    97167271.11846
 15 02 22 00 50 30.0000000  0  7G16G18G19G21G22G27G31
  20987793.692   110291613.69809  20987791.964    85941520.62049
  22222533.528   116780260.39409  22222532.485    90997630.42747
  24176157.534   127046567.61407  24176155.231    98997325.89445
  21896723.997   115068071.78109  21896722.349    89663428.72848
  23008806.520   120912181.41308  23008803.720    94217322.16346
  22091182.832   116089971.10308  22091183.955    90459736.87148
  23747791.192   124795452.41807  23747791.121    97243194.60045
 15 02 22 00 51  0.0000000  0  7G16G18G19G21G22G27G31
  20978021.145   110240258.23709  20978019.393    85901503.38649
  22215005.739   116740701.81309  22215004.597    90966805.57547
  24161706.766   126970627.35106  24161704.091    98938151.70745
  21907523.133   115124820.87609  21907521.320    89707648.80248
  22992197.821   120824902.52008  22992195.254    94149312.71047
  22080850.878   116035676.00808  22080852.196    90417429.01648
  23766339.355   124892924.83207  23766339.555    97319146.98946
 15 02 22 00 51 30.0000000  0  7G16G18G19G21G22G27G31
  20968320.169   110189279.92309  20968318.628    85861780.03049
  22207555.901   116701552.20909  22207554.649    90936299.41047
  24147273.084   126894778.77506  24147270.584    98879048.96745
  21918368.348   115181811.83009  21918366.507    89752057.34048
  22975618.525   120737778.10408  22975615.809    94081423.62346
  22070542.427   115981505.92208  22070543.848    90375218.58548
  23784897.116   124990445.30407  23784897.303    97395136.80546
 15 02 22 00 52  0.0000000  0  7G16G18G19G21G22G27G31
  20958690.707   110138676.41609  20958688.904    85822348.73649
  22200183.316   116662809.23309  22200182.139    90906110.08947
  24132856.204   126819017.46906  24132853.830    98820014.24245
  21929258.366   115239038.60709  21929256.346    89796649.63348
  22959067.907   120650806.48708  22959065.317    94013653.59346
  22060257.262   115927456.57908  22060258.659    90333102.23348
  23803462.706   125088006.17107  23803462.831    97471158.16246
 15 02 22 00 52 30.0000000  0  7G16G18G19G21G22G27G31
  20949131.827   110088444.91009  20949130.283    85783207.31149
  22192887.417   116624469.93109  22192886.348    90876235.32447
  24118454.819   126743338.52306  24118452.299    98761043.72145
  21940191.738   115296494.64609  21940189.828    89841420.56948
  22942546.437   120563986.07708  22942544.063    93946001.38246
  22049994.156   115873523.37308  22049995.416    90291076.37848
  23822034.333   125185600.16807  23822034.375    97547205.27945
 15 02 22 00 53  0.0000000  0  7G16G18G19G21G22G27G31
  20939645.097   110038591.87209  20939643.460    85744360.79449
  22185669.530   116586539.80409  22185668.519    90846679.39847
  24104069.917   126667745.75806  24104067.693    98702140.29145
  21951169.192   115354182.46209  21951167.492    89886372.11248
  22926054.790   120477323.51508  22926053.085    93878472.17647
  22039753.891   115819710.50708  22039755.121    90249144.29948
  23840612.501   125283228.25307  23840612.348    97623279.00445
 15 02 22 00 53 30.0000000  0  7G16G18G19G21G22G27G31
  20930230.292   109989116.23709  20930228.630    85705808.35749
  22178529.477   116549018.20009  22178528.286    90817441.80647
  24089701.102   126592236.87307  24089698.935    98643302.25345
  21962189.938   115412097.09409  21962188.197    89931500.39848
  22909593.033   120390818.49008  22909591.813    93811065.76846
  22029536.104   115766015.17608  22029537.084    90207303.80148
  23859195.892   125380885.10207  23859195.909    97699375.11445
 15 02 22 00 54  0.0000000  0  7G16G18G19G21G22G27G31
  20920887.973   109940022.55209  20920886.391    85667553.54649
