     2.11           OBSERVATION DATA    G                   RINEX VERSION / TYPE
SPIDER V4,0,0,3554                      2015 03 13 01:41    PGM / RUN BY / DATE 
EMHD                                                        MARKER NAME         
EMHD                                                        MARKER NUMBER       
                                                            OBSERVER / AGENCY   
462397              LEICA GRX1200PRO    8.20/0.000          REC # / TYPE / VERS 
103297              LEIAT504                                ANT # / TYPE        
  5146535.6892   265261.6083  3747697.6292                  APPROX POSITION XYZ 
        0.0470        0.0000        0.0000                  ANTENNA: DELTA H/E/N
     1     1                                                WAVELENGTH FACT L1/2
     4    C1    L1    P2    L2                              # / TYPES OF OBSERV 
    30.000                                                  INTERVAL            
  2015    02    22    07    36   30.0000000     GPS         TIME OF FIRST OBS   
  2015    02    22    12    00    0.0000000     GPS         TIME OF LAST OBS    
    16                                                      LEAP SECONDS        
    18                                                      # OF SATELLITES     
   G 1   256   256   256   256                              PRN / # OF OBS      
   G 2   221   221   221   221                              PRN / # OF OBS      
   G 3   318   318   318   318                              PRN / # OF OBS      
   G 4   122   122   122   122                              PRN / # OF OBS      
   G 5   131   131   131   131                              PRN / # OF OBS      
   G 6   431   431   431   431                              PRN / # OF OBS      
   G 7   316   316   316   316                              PRN / # OF OBS      
   G 9   446   446   446   446                              PRN / # OF OBS      
   G10   371   371   371   371                              PRN / # OF OBS      
   G11   159   159   159   159                              PRN / # OF OBS      
   G13    59    59    59    59                              PRN / # OF OBS      
   G17   288   288   288   288                              PRN / # OF OBS      
   G20   444   444   444   444                              PRN / # OF OBS      
   G23   422   422   422   422                              PRN / # OF OBS      
   G28     5     5     5     5                              PRN / # OF OBS      
   G30   198   198   198   198                              PRN / # OF OBS      
   G31    87    87    87    87                              PRN / # OF OBS      
   G32   140   140   140   140                              PRN / # OF OBS      
BIT 2 OF LLI FLAGS DATA COLLECTED UNDER A/S CONDITION       COMMENT             
SNR is mapped to RINEX snr flag value [2-9]                 COMMENT             
Lx:     = 25dBHz -> 1; 26-27dBHz -> 2; 28-31dBHz -> 3       COMMENT             
       32-35dBHz -> 4; 36-38dBHz -> 5; 39-41dBHz -> 6       COMMENT             
       42-44dBHz -> 7; 45-48dBHz -> 8; >=49dBHz -> 9        COMMENT             
                                                            END OF HEADER       
 15 02 22 07 36 30.0000000  0  6G01G03G09G11G17G23
  20796187.280   109284700.55908  20796190.560    85156923.46748
  20559186.900   108039256.42808  20559189.200    84186441.98948
  22670142.700   119132403.78506  22670145.400    92830455.66246
  21933216.300   115259828.98707  21933216.880    89812856.14746
  21993101.080   115574526.64407  21993100.620    90058070.93247
  20999561.920   110353442.10708  20999559.780    85989686.70347
 15 02 22 07 37  0.0000000  0  9G01G03G04G09G11G17G23G31G32
  20803365.560   109322422.30708  20803368.600    85186317.00047
  20562175.360   108054960.58608  20562177.400    84198678.96947
  22696018.780   119268388.68706  22696020.640    92936415.23545
  22651526.240   119034573.76406  22651528.960    92754224.49545
  21949851.660   115347247.50307  21949852.040    89880974.40845
  21987118.560   115543088.10807  21987117.980    90033573.35746
  20989834.540   110302324.35708  20989832.260    85949854.70647
  24110587.760   126701997.53305  24110588.900    98728828.92945
  22922185.600   120456895.57306  22922186.100    93862518.73644
 15 02 22 07 37 30.0000000  0 10G01G03G04G09G11G17G20G23G31G32
  20810618.920   109360538.45908  20810621.640    85216017.85747
  20565208.300   108070898.55208  20565210.040    84211098.13448
  22711993.860   119352338.16006  22711995.640    93001830.29845
  22632962.880   118937022.41506  22632965.260    92678210.44545
  21966548.720   115434990.01607  21966548.520    89949345.13246
  21981244.100   115512217.61007  21981243.340    90009518.38946
  23885526.720   125519290.97904  23885524.880    97807239.07144
  20980194.520   110251665.93808  20980192.020    85910380.61647
  24112322.040   126711111.24105  24112322.820    98735930.47545
  22937095.680   120535248.41706  22937095.880    93923572.82644
 15 02 22 07 38  0.0000000  0 10G01G03G04G09G11G17G20G23G31G32
  20817945.220   109399037.92308  20817947.640    85246017.40148
  20568283.460   108087058.50808  20568284.920    84223690.27748
  22728015.160   119436529.13606  22728016.640    93067433.55444
  22614450.860   118839740.72306  22614452.980    92602406.55945
  21983305.020   115523043.79407  21983304.400    90017958.39245
  21975475.720   115481904.96007  21975474.940    89985898.12246
  23870380.820   125439697.82104  23870379.200    97745218.48343
  20970640.000   110201456.91208  20970637.280    85871256.70147
  24114157.500   126720756.03705  24114158.380    98743445.85345
  22952013.000   120613638.75606  22952012.900    93984656.14445
 15 02 22 07 38 30.0000000  0 10G01G03G04G09G11G17G20G23G31G32
  20825346.160   109437929.74708  20825348.340    85276322.66147
  20571402.440   108103448.66208  20571403.680    84236461.79948
  22744083.880   119520969.37906  22744085.020    93133231.07245
  22595992.200   118742739.59406  22595994.180    92526821.28146
  22000121.820   115611416.06007  22000120.920    90086819.83245
  21969815.420   115452160.08707  21969814.520    89962720.25846
  23855254.840   125360210.13604  23855253.240    97683279.94144
  20961172.880   110151707.00008  20961169.980    85832490.54047
  24116095.800   126730940.97605  24116096.540    98751382.18344
  22966938.900   120692074.61406  22966938.580    94045774.93545
 15 02 22 07 39  0.0000000  0 10G01G03G04G09G11G17G20G23G31G32
  20832820.960   109477209.77608  20832823.120    85306930.42248
  20574564.240   108120063.97208  20574565.480    84249408.76748
  22760198.900   119605653.54506  22760200.020    93199218.62145
  22577586.460   118646016.79906  22577588.540    92451452.88146
  22016997.880   115700100.42207  22016996.980    90155924.46746
  21964262.640   115422979.87907  21964261.680    89939982.40547
  23840147.900   125280823.65804  23840146.460    97621420.45042
  20951792.580   110102413.11708  20951789.640    85794079.72247
  24118136.100   126741662.13405  24118136.820    98759736.26744
  22981872.400   120770550.76806  22981872.260    94106925.12944
 15 02 22 07 39 30.0000000  0 10G01G03G04G09G11G17G20G23G31G32
  20840369.100   109516875.38808  20840371.380    85337838.64248
  20577768.260   108136901.08808  20577769.560    84262528.57948
  22776359.640   119690578.35706  22776360.740    93265393.71445
  22559233.480   118549571.72606  22559235.760    92376300.91446
  22033932.460   115789092.45907  22033931.720    90225268.83346
  21958817.020   115394362.71107  21958816.120    89917683.28047
  23825059.800   125201536.16804  23825058.720    97559637.91244
  20942498.660   110053573.34608  20942495.840    85756022.75947
  24120277.900   126752917.03505  24120278.720    98768506.32445
  22996812.820   120849063.82805  22996812.900    94168104.06146
 15 02 22 07 40  0.0000000  0 10G01G03G04G09G11G17G20G23G31G32
  20847990.800   109556927.76308  20847993.240    85369048.23448
  20581014.520   108153960.42508  20581015.980    84275821.55148
  22792566.120   119775743.77706  22792567.500    93331756.27846
  22540933.920   118453407.50206  22540936.420    92301367.78446
  22050925.580   115878391.81307  22050925.020    90294852.68646
  21953478.800   115366310.12307  21953478.040    89895824.09047
  23809990.620   125122345.85604  23809991.580    97497931.48944
  20933291.520   110005189.63008  20933288.860    85718321.16348
  24122521.380   126764706.97205  24122522.260    98777693.24945
  23011760.260   120927613.93505  23011760.820    94229311.86546
 15 02 22 07 40 30.0000000  0 10G01G03G04G09G11G17G20G23G31G32
  20855686.600   109597369.41208  20855689.180    85400561.16048
  20584303.380   108171243.69008  20584305.020    84289289.01048
  22808818.740   119861151.48806  22808820.320    93398307.67245
  22522688.680   118357528.59406  22522691.340    92226656.98446
  22067977.320   115967999.15907  22067976.920    90364676.52246
  21948248.780   115338826.29807  21948248.240    89874408.10247
  23794940.980   125043261.32604  23794942.120    97436307.19544
  20924171.860   109957265.44608  20924169.320    85680977.64048
  24124867.280   126777034.69205  24124868.160    98787299.26244
  23026715.020   121006202.65405  23026716.060    94290549.72446
 15 02 22 07 41  0.0000000  0 10G01G03G04G09G11G17G20G23G31G32
  20863456.780   109638201.75008  20863459.480    85432378.50548
  20587634.980   108188751.56908  20587636.800    84302931.48848
  22825117.520   119946801.80306  22825119.260    93465048.07945
  22504498.380   118261938.44306  22504501.160    92152171.17846
  22085087.500   116057913.96107  22085087.360    90434739.92946
  21943127.440   115311913.27007  21943127.060    89853436.87047
  23779911.640   124964280.99704  23779912.720    97374764.02245
  20915140.080   109909802.97408  20915137.620    85643993.89448
  24127315.860   126789901.65905  24127316.820    98797325.45945
  23041677.340   121084830.52106  23041678.760    94351818.09346
 15 02 22 07 41 30.0000000  0 11G01G03G04G06G09G11G17G20G23G31G32
  20871297.340   109679403.71908  20871300.140    85464483.89448
  20591005.200   108206462.29408  20591007.240    84316732.04148
  22841458.380   120032672.61906  22841460.200    93531960.31345
  24648472.620   129528595.86504  24648476.720   100931391.83645
  22486359.380   118166617.95906  22486362.340    92077895.52447
  22102252.000   116148113.58907  22102252.000    90505025.29246
  21938110.880   115285550.44107  21938110.580    89832894.37847
  23764898.120   124885383.77804  23764898.980    97313285.62345
  20906192.220   109862781.83608  20906189.900    85607354.04948
  24129863.060   126803286.92005  24129864.460    98807755.51445
  23056643.140   121163475.58706  23056644.720    94413099.87146
 15 02 22 07 42  0.0000000  0 11G01G03G04G06G09G11G17G20G23G31G32
  20879211.900   109720994.74708  20879214.840    85496892.43848
  20594417.600   108224394.53508  20594419.800    84330705.19348
  22857844.660   120118782.39806  22857846.500    93599058.76246
  24629780.360   129430368.27704  24629784.560   100854850.73744
  22468275.860   118071588.44806  22468278.920    92003846.59247
  22119474.040   116238615.27407  22119474.080    90575546.00346
  21933203.020   115259758.55907  21933202.640    89812796.77247
  23749904.260   124806589.44504  23749905.080    97251887.42745
  20897332.260   109816222.59508  20897330.060    85571074.12148
  24132512.540   126817209.90805  24132513.900    98818604.60545
  23071615.780   121242156.41906  23071617.420    94474409.52246
 15 02 22 07 42 30.0000000  0 11G01G03G04G06G09G11G17G20G23G31G32
  20887199.880   109762971.65208  20887202.940    85529601.66448
  20597871.420   108242544.43708  20597873.760    84344847.95448
  22874275.520   120205126.99506  22874277.520    93666340.16745
  24611085.200   129332124.90204  24611089.320   100778297.41043
  22450247.500   117976848.84006  22450250.720    91930023.55746
  22136752.680   116329414.31507  22136752.680    90646298.42346
  21928403.240   115234535.00607  21928402.820    89793142.02347
  23734929.280   124727894.83704  23734929.840    97190566.90243
  20888559.680   109770122.74708  20888557.640    85535152.16148
  24135263.780   126831667.58304  24135265.040    98829870.33445
  23086594.520   121320868.99406  23086596.120    94535743.90046
 15 02 22 07 43  0.0000000  0 11G01G03G04G06G09G11G17G20G23G31G32
  20895261.920   109805337.84308  20895265.020    85562614.24148
  20601367.140   108260914.70108  20601369.600    84359162.42948
  22890751.460   120291708.80906  22890753.580    93733806.43946
  24592388.020   129233870.48204  24592392.180   100701735.44045
  22432275.320   117882404.44406  22432278.620    91856430.56447
  22154088.120   116420512.24107  22154088.140    90717283.74846
  21923712.280   115209883.97107  21923711.960    89773933.40047
  23719973.940   124649303.52704  23719974.700    97129326.89844
  20879875.360   109724486.59508  20879873.420    85499591.52548
  24138117.340   126846663.21805  24138118.880    98841555.21444
  23101579.780   121399615.90006  23101581.120    94597105.05845
 15 02 22 07 43 30.0000000  0 11G01G03G04G06G09G11G17G20G23G31G32
  20903396.640   109848085.98508  20903399.760    85595924.43748
  20604903.300   108279497.40008  20604905.840    84373642.43548
  22907271.000   120378519.48306  22907273.140    93801451.01545
  24573687.520   129135599.28504  24573691.920   100625160.41444
  22414358.360   117788249.99006  22414361.620    91783063.48746
  22171478.620   116511899.78307  22171478.720    90788494.74846
  21919129.120   115185799.20307  21919128.860    89755166.01747
  23705036.940   124570808.55304  23705037.580    97068161.93343
  20871278.040   109679307.43908  20871276.120    85464386.99648
  24141072.020   126862189.88305  24141073.520    98853653.91544
  23116569.980   121478389.00306  23116571.040    94658486.63945
 15 02 22 07 44  0.0000000  0 11G01G03G04G06G09G11G17G20G23G31G32
  20911604.620   109891219.15608  20911607.780    85629534.66148
  20608480.320   108298294.87208  20608482.900    84388289.79148
  22923834.600   120465561.24006  22923836.620    93869275.68145
  24554984.820   129037315.73904  24554988.960   100548575.78942
  22396497.480   117694390.45806  22396500.760    91709926.23547
  22188924.500   116603578.43607  22188924.720    90859932.58246
  21914654.500   115162284.53007  21914654.240    89736842.86047
  23690118.760   124492412.95105  23690119.060    97007074.42745
  20862768.440   109634589.22608  20862766.480    85429541.64548
  24144128.340   126878250.63505  24144129.820    98866168.75245
  23131565.540   121557190.60106  23131566.400    94719890.43045
 15 02 22 07 44 30.0000000  0 11G01G03G04G06G09G11G17G20G23G31G32
  20919886.720   109934741.49408  20919889.860    85663448.13048
  20612098.880   108317310.63608  20612101.460    84403107.24348
  22940442.780   120552837.05006  22940444.540    93937282.71445
  24536280.780   128939025.38704  24536285.100   100471985.86645
  22378693.860   117600832.06306  22378697.120    91637023.61747
  22206426.220   116695550.51907  22206426.480    90931599.05446
  21910289.260   115139344.65007  21910288.940    89718967.60147
  23675220.240   124414120.87904  23675220.340    96946067.56244
  20854347.560   109590336.95608  20854345.500    85395059.36548
  24147286.940   126894849.50204  24147288.540    98879102.93345
  23146567.080   121636024.12105  23146567.960    94781319.07544
 15 02 22 07 45  0.0000000  0 11G01G03G04G06G09G11G17G20G23G31G32
  20928242.320   109978650.16308  20928245.380    85697662.63348
  20615758.380   108336541.25108  20615760.900    84418092.12048
  22957094.740   120640343.28306  22957096.520    94005469.28446
  24517575.000   128840726.91403  24517579.400   100395389.61446
  22360947.420   117507573.92106  22360950.580    91564354.97347
  22223982.900   116787811.25907  22223983.180    91003490.45546
  21906032.960   115116977.77407  21906032.660    89701538.84447
  23660340.860   124335929.82104  23660341.380    96885139.51244
  20846015.000   109546548.60508  20846012.820    85360938.58548
  24150547.440   126911983.46905  24150549.080    98892454.04145
  23161573.940   121714885.85205  23161574.820    94842769.66845
 15 02 22 07 45 30.0000000  0 10G01G03G04G09G11G17G20G23G31G32
  20936669.020   110022932.49008  20936672.000    85732168.30048
  20619456.220   108355973.40808  20619458.680    84433234.03648
  22973787.980   120728066.12106  22973789.720    94073824.67144
  22343256.120   117414605.38606  22343259.200    91491911.99146
  22241591.940   116880346.41107  22241591.960    91075595.70846
  21901883.400   115095171.52607  21901883.020    89684546.92547
  23645478.400   124257827.44305  23645479.180    96824280.44844
  20837768.400   109503212.23308  20837766.180    85327170.00448
  24153907.400   126929639.99404  24153908.960    98906212.33444
  23176583.660   121793762.57305  23176584.640    94904231.94245
 15 02 22 07 46  0.0000000  0 11G01G03G04G06G09G11G17G20G23G31G32
  20945172.900   110067620.57808  20945175.820    85766990.15348
  20623198.420   108375638.68908  20623200.820    84448557.60748
  22990528.300   120816036.82006  22990530.040    94142373.17145
  24480158.060   128644102.81504  24480164.140   100242174.33144
  22325626.440   117321960.62106  22325629.380    91419721.30546
  22259258.780   116973185.95307  22259258.600    91147938.12446
  21897846.920   115073959.42307  21897846.420    89668017.97547
  23630639.160   124179846.08204  23630639.880    96763515.76045
  20829614.000   109460360.53008  20829611.740    85293779.07848
  24157372.920   126947851.24904  24157374.520    98920402.90144
  23191602.220   121872685.66005  23191603.360    94965730.35145
 15 02 22 07 46 30.0000000  0 10G01G03G04G06G09G11G17G20G23G32
  20953748.000   110112683.04108  20953750.940    85802103.72348
  20626978.920   108395505.09308  20626981.200    84464037.88748
  23007309.660   120904223.10806  23007311.260    94211089.65945
  24461449.140   128545783.97304  24461454.180   100165562.23645
  22308052.720   117229610.16506  22308055.600    91347759.93547
  22276977.180   117066296.86107  22276976.980    91220492.00046
  21893917.600   115053310.51807  21893916.960    89651927.87847
  23615816.820   124101954.26704  23615817.560    96702820.86445
  20821546.100   109417963.29008  20821543.720    85260742.28048
  23206623.560   121951622.98206  23206624.820    95027239.86346
 15 02 22 07 47  0.0000000  0 11G01G03G04G06G09G11G17G20G23G31G32
  20962396.240   110158129.98008  20962399.200    85837516.88248
  20630799.520   108415582.20808  20630801.660    84479682.36548
  23024133.680   120992634.16606  23024135.420    94279981.30445
  24442739.380   128447461.42904  24442743.620   100088947.24946
  22290537.260   117137566.19006  22290540.160    91276037.39247
  22294748.900   117159687.84007  22294748.760    91293264.10846
  21890097.460   115033235.48907  21890096.780    89636284.96148
  23601013.620   124024162.81305  23601014.300    96642204.12244
  20813566.660   109376031.04408  20813564.180    85228067.82248
  24164604.680   126985854.66204  24164605.980    98950022.05145
  23221649.460   122030583.96006  23221650.700    95088767.77946
 15 02 22 07 47 30.0000000  0 11G01G03G04G06G09G11G17G20G23G31G32
  20971117.960   110203962.71808  20971120.860    85873230.66248
  20634660.360   108435870.72308  20634662.380    84495491.57348
  23041000.660   121081270.31306  23041002.500    94349048.34245
  24424029.280   128349137.94704  24424033.200   100012331.52445
  22273080.780   117045832.00006  22273083.660    91204556.23547
  22312573.860   117253358.32207  22312573.820    91366254.01246
  21886386.900   115013736.47207  21886386.260    89621090.88148
  23586229.800   123946472.91604  23586230.460    96581666.49045
  20805676.120   109334565.91408  20805673.560    85195757.34348
  24168372.960   127005657.07304  24168374.320    98965452.42845
  23236680.060   122109569.35306  23236681.220    95150314.77246
 15 02 22 07 48  0.0000000  0 11G01G03G04G06G09G11G17G20G23G31G32
  20979913.200   110250181.47208  20979915.980    85909245.23548
  20638561.340   108456370.43308  20638563.320    84511465.34648
  23057910.300   121170130.77206  23057912.160    94418290.14745
  24405319.200   128250815.49004  24405323.200    99935716.63645
  22255683.780   116954409.96407  22255686.560    91133318.30247
  22330451.700   117347306.61607  22330451.660    91439460.38546
  21882786.200   114994814.58207  21882785.560    89606346.52147
  23571465.220   123868885.07004  23571466.180    96521208.42744
  20797874.640   109293569.02808  20797872.060    85163811.73448
  24172242.980   127025994.31204  24172244.220    98981299.48645
  23251715.240   122188578.74806  23251716.360    95211880.42246
 15 02 22 07 48 30.0000000  0 10G01G03G04G09G11G17G20G23G31G32
  20988781.720   110296785.15008  20988784.380    85945559.75248
  20642502.220   108477079.67908  20642504.160    84527602.40148
  23074862.200   121259213.52606  23074864.060    94487705.19045
  22238346.380   116863300.83907  22238348.960    91062324.21147
  22348381.880   117441529.92507  22348381.860    91512881.05946
  21879295.320   114976469.37607  21879294.600    89592051.52348
  23556720.000   123791398.49305  23556720.860    96460829.24345
  20790162.220   109253040.06308  20790159.620    85132230.73048
  24176214.640   127046865.25004  24176215.880    98997562.59646
  23266754.540   122267610.31405  23266755.700    95273463.36345
 15 02 22 07 49  0.0000000  0 11G01G03G04G06G09G11G17G20G23G31G32
  20997723.500   110343774.27108  20997726.160    85982174.60948
  20646482.940   108497998.50608  20646484.880    84543902.75548
  23091856.360   121348518.27406  23091858.260    94557293.19145
  24367900.500   128054179.12604  24367903.820    99782491.92544
  22221068.980   116772507.28207  22221071.400    90991576.01147
  22366364.140   117536026.94807  22366364.200    91586515.02146
  21875914.360   114958701.73407  21875913.520    89578206.57347
  23541994.220   123714013.54705  23541994.980    96400529.23044
  20782539.060   109212980.22108  20782536.420    85101015.27348
  24180287.920   127068270.19205  24180289.020    99014241.70845
  23281798.000   122346664.12305  23281799.280    95335063.64945
 15 02 22 07 49 30.0000000  0 10G01G03G04G09G11G17G20G23G31G32
  21006736.560   110391138.51008  21006739.300    86019081.76548
  20650501.500   108519116.12908  20650503.440    84560358.01948
  23108890.620   121438033.80206  23108892.560    94627045.46245
  22203850.040   116682020.97007  22203852.360    90921067.20947
  22384396.260   117630785.83907  22384396.280    91660353.02846
  21872641.440   114941502.18407  21872640.520    89564804.29248
  23527285.920   123636721.00905  23527286.720    96340301.25145
  20775003.320   109173379.75608  20775000.660    85070157.77648
  24184460.820   127090198.62504  24184461.860    99031328.73345
  23296843.580   122425729.30505  23296845.020    95396672.76345
 15 02 22 07 50  0.0000000  0 10G01G03G04G09G11G17G20G23G31G32
  21015824.740   110438897.45808  21015827.580    86056296.48748
  20654561.540   108540451.62308  20654563.480    84576983.04448
  23125968.640   121527778.72706  23125970.520    94696976.48145
  22186693.620   116591863.47207  22186695.980    90850814.63247
  22402481.620   117725824.56407  22402481.640    91734409.08746
  21869480.440   114924890.86907  21869479.500    89551860.37447
  23512599.080   123559540.65805  23512599.800    96280160.67145
  20767558.880   109134259.27508  20767556.260    85039674.28648
  24188737.120   127112670.18104  24188738.060    99048838.96945
  23311894.880   122504824.92805  23311896.460    95458305.63845
 15 02 22 07 50 30.0000000  0 11G01G03G04G06G09G11G17G20G23G31G32
  21024986.640   110487043.67208  21024989.540    86093812.97448
  20658661.580   108561997.16608  20658663.540    84593771.75048
  23143088.660   121617744.69805  23143090.740    94767079.73045
  24311777.760   127759252.75904  24311781.860    99552684.32544
  22169598.760   116502029.43907  22169601.200    90780814.10147
  22420618.360   117821133.59207  22420618.420    91808675.77846
  21866430.100   114908861.17507  21866429.220    89539369.67248
  23497932.260   123482465.33905  23497932.900    96220101.93645
  20760204.460   109095611.76508  20760201.920    85009559.34848
  24193115.380   127135677.41804  24193116.280    99066766.62844
  23326950.520   122583942.99705  23326952.080    95519956.00046
 15 02 22 07 51  0.0000000  0 10G01G03G04G09G11G17G20G23G31G32
  21034219.780   110535563.88808  21034222.760    86131620.90248
  20662799.020   108583739.02108  20662800.960    84610713.44148
  23160247.960   121707917.42306  23160250.140    94837344.10345
  22152563.240   116412507.58007  22152565.800    90711056.83947
  22438803.760   117916698.22507  22438803.920    91883141.64846
  21863488.020   114893400.29007  21863487.220    89527322.20748
  23483282.880   123405481.94405  23483283.520    96160114.87345
  20752937.800   109057424.93608  20752935.300    84979803.38548
  24197592.900   127159206.75204  24197593.860    99085101.14046
  23342007.900   122663069.69205  23342009.220    95581613.10845
 15 02 22 07 51 30.0000000  0 11G01G03G04G06G09G11G17G20G23G31G32
  21043528.980   110584483.73008  21043531.980    86169740.20848
  20666978.620   108605702.46308  20666980.520    84627827.77348
  23177451.400   121798321.73205  23177453.780    94907788.89245
  24274373.320   127562691.90204  24274376.420    99399517.96745
  22135592.440   116323325.66007  22135595.060    90641564.44447
  22457042.400   118012542.18207  22457042.560    91957825.14646
  21860659.200   114878534.90907  21860658.520    89515738.75648
  23468655.820   123328616.43505  23468656.460    96100219.65144
  20745763.780   109019725.03008  20745761.280    84950426.82348
  24202174.660   127183283.81104  24202175.500    99103862.42546
  23357071.800   122742230.16205  23357072.860    95643296.48445
 15 02 22 07 52  0.0000000  0 11G01G03G04G06G09G11G17G20G23G31G32
  21052908.940   110633775.37708  21052911.920    86208149.25348
  20671194.960   108627859.21408  20671196.840    84645092.75148
  23194693.460   121888928.68306  23194695.800    94978391.61945
  24255673.020   127464420.71304  24255677.200    99322940.49843
  22118681.460   116234457.90507  22118684.100    90572316.85547
  22475328.580   118108636.02007  22475328.740    92032703.38046
  21857938.380   114864237.33207  21857937.840    89504597.75648
  23454046.080   123251841.41805  23454046.800    96040394.95244
  20738677.320   108982485.12408  20738674.760    84921408.71948
  24206855.320   127207880.49904  24206856.120    99123028.64845
  23372136.640   122821396.26205  23372137.800    95704984.29745
 15 02 22 07 52 30.0000000  0 11G01G03G04G06G09G11G17G20G23G31G32
  21062363.120   110683457.45708  21062366.160    86246862.51748
  20675451.540   108650227.54308  20675453.420    84662522.59948
  23211977.460   121979756.49205  23211979.860    95049166.42545
  24236977.140   127366172.46704  24236981.120    99246383.34846
  22101834.180   116145924.87007  22101836.820    90503330.09947
  22493665.480   118204996.53106  22493665.640    92107789.40846
  21855329.320   114850526.80207  21855328.820    89493914.19447
  23439457.180   123175176.03105  23439457.980    95980655.69945
  20731682.060   108945724.51208  20731679.460    84892764.08148
  24211638.280   127233015.01504  24211639.280    99142613.91446
  23387205.960   122900585.95005  23387207.320    95766690.44545
 15 02 22 07 53  0.0000000  0 11G01G03G04G06G09G11G17G20G23G31G32
  21071889.620   110733519.92808  21071892.820    86285872.20248
  20679746.340   108672797.03208  20679748.300    84680109.18348
  23229301.380   122070793.95405  23229303.920    95120104.58645
  24218283.760   127267936.97005  24218287.640    99169836.19345
  22085049.060   116057718.63707  22085051.700    90434597.98548
  22512050.780   118301612.09706  22512051.080    92183074.18446
  21852830.220   114837393.80107  21852829.700    89483680.65848
  23424887.140   123098610.31905  23424887.960    95920994.12445
  20724776.180   108909433.71508  20724773.560    84864485.53448
  24216521.680   127258677.29004  24216522.820    99162610.44745
  23402277.820   122979788.93805  23402279.340    95828406.98145
 15 02 22 07 53 30.0000000  0 11G01G03G04G06G09G11G17G20G23G31G32
  21081488.960   110783964.95508  21081492.300    86325179.97948
  20684079.780   108695569.57308  20684081.860    84697853.99248
  23246665.500   122162042.49506  23246668.120    95191207.25845
  24199593.440   127169718.23704  24199597.520    99093302.09546
  22068326.920   115969843.44507  22068329.520    90366123.83547
  22530484.660   118398483.08006  22530485.120    92258557.96846
  21850441.560   114824841.07907  21850441.080    89473899.28448
  23410336.800   123022146.93305  23410337.560    95861412.30244
  20717960.180   108873615.38808  20717957.620    84836575.14348
  24221505.820   127284869.56704  24221507.260    99183019.98445
  23417352.520   123059006.86105  23417354.260    95890135.15546
 15 02 22 07 54  0.0000000  0 11G01G03G04G06G09G11G17G20G23G31G32
  21091161.100   110834792.23608  21091164.500    86364785.60748
  20688451.700   108718544.50208  20688453.920    84715756.50749
  23264069.660   122253500.81705  23264072.240    95262473.33945
  24180906.500   127071517.90104  24180910.660    99016782.34346
  22051668.080   115882301.00707  22051670.700    90297908.97547
  22548966.900   118495607.77006  22548967.420    92334239.46447
  21848163.360   114812869.01307  21848162.980    89464570.37848
  23395806.040   122945785.92905  23395806.480    95801910.22544
  20711234.180   108838270.11908  20711231.680    84809033.37448
  24226590.800   127311591.28504  24226592.380    99203842.05245
  23432429.980   123138239.11205  23432431.860    95951874.47546
 15 02 22 07 54 30.0000000  0 11G01G03G04G06G09G11G17G20G23G31G32
  21100906.300   110886003.29808  21100909.680    86404690.28848
  20692862.360   108741722.98908  20692864.680    84733817.63948
  23281513.920   122345169.59605  23281516.060    95333903.46446
  24162223.740   126973339.36105  24162227.960    98940279.61145
  22035073.240   115795094.91807  22035075.920    90229956.21147
  22567497.460   118592986.02906  22567497.940    92410118.53346
  21845996.060   114801479.97707  21845995.800    89455695.78248
  23381294.880   122869529.26105  23381295.100    95742489.43845
  20704598.640   108803400.24208  20704596.200    84781862.03948
  24231776.780   127338843.53904  24231778.200    99225077.55644
  23447510.500   123217486.74405  23447512.220    96013625.78046
 15 02 22 07 55  0.0000000  0 11G01G03G04G06G09G11G17G20G23G31G32
  21110724.560   110937598.45308  21110727.880    86444894.26348
  20697311.780   108765105.10908  20697314.180    84752037.45549
  23298998.060   122437048.49705  23299000.060    95405497.29245
  24143545.580   126875184.90004  24143549.840    98863795.61346
  22018542.900   115708227.55007  22018545.620    90162267.39148
  22586076.040   118690616.55506  22586076.420    92486194.19846
  21843939.840   114790674.45207  21843939.620    89447275.88248
  23366803.640   122793377.90605  23366803.800    95683150.73445
  20698053.740   108769006.77608  20698051.340    84755061.93548
  24237063.660   127366626.56004  24237065.160    99246726.60746
  23462594.020   123296750.08905  23462595.600    96075389.35246
 15 02 22 07 55 30.0000000  0 11G01G03G04G06G09G11G17G20G23G31G32
  21120615.440   110989575.07808  21120618.680    86485395.48948
  20701799.440   108788687.95808  20701801.840    84770413.67648
  23316521.420   122529133.77605  23316523.460    95477251.92045
  24124871.680   126777053.67804  24124876.220    98787329.79845
  22002076.860   115621698.31007  22002079.660    90094842.04448
  22604701.700   118788494.78106  22604702.100    92562462.84346
  21841994.280   114780450.14007  21841994.040    89439308.86148
  23352332.080   122717329.80405  23352332.120    95623892.48045
  20691599.080   108735087.58408  20691596.720    84728631.39048
  24242450.880   127394937.30404  24242452.520    99268786.84246
  23477679.840   123376025.74905  23477681.320    96137162.48146
 15 02 22 07 56  0.0000000  0 11G01G03G04G06G09G11G17G20G23G31G32
  21130579.320   111041935.42208  21130582.560    86526195.71348
  20706325.680   108812473.47908  20706328.100    84788947.82548
  23334084.340   122621426.81805  23334086.380    95549168.45746
  24106202.920   126678949.93304  24106207.580    98710885.35145
  21985675.980   115535511.52607  21985678.800    90027683.54448
  22623374.720   118886621.72706  22623375.120    92638925.30646
  21840159.880   114770810.09507  21840159.640    89431797.12448
  23337880.600   122641387.27405  23337880.960    95564716.46446
  20685235.280   108701645.59208  20685232.940    84702572.69948
  24247939.420   127423777.08803  24247941.820    99291268.13345
  23492768.260   123455315.92105  23492769.920    96198946.93446
 15 02 22 07 56 30.0000000  0 11G01G03G04G06G09G11G17G20G23G31G32
  21140615.160   111094673.84108  21140618.400    86567290.54748
  20710889.400   108836455.87608  20710891.840    84807635.37748
  23351685.500   122713921.37005  23351687.660    95621242.03245
  24087538.940   126580870.12404  24087543.300    98634459.47745
  21969339.620   115449663.59307  21969342.400    89960789.08648
  22642093.620   118984989.67406  22642094.020    92715575.58146
  21838435.580   114761748.81107  21838435.400    89424736.36948
  23323448.240   122565545.02305  23323448.620    95505618.61445
  20678961.340   108668675.88108  20678959.000    84676882.01548
  24253527.280   127453145.91614  24253529.700    99314148.74354
  23507858.280   123534614.75305  23507860.200    96260738.12746
 15 02 22 07 57  0.0000000  0 11G01G03G04G06G09G11G17G20G23G31G32
  21150724.200   111147796.81608  21150727.440    86608685.03048
  20715491.800   108860641.31008  20715494.200    84826481.14548
  23369326.040   122806622.84705  23369328.200    95693476.82445
  24068881.180   126482822.70504  24068885.480    98558058.87345
  21953069.400   115364163.13607  21953072.140    89894165.39048
  22660859.300   119083603.75406  22660859.760    92792417.62146
  21836822.780   114753273.58207  21836822.700    89418132.26748
  23309036.460   122489810.57105  23309036.660    95446604.72945
  20672778.700   108636185.82508  20672776.340    84651565.09148
  24259216.240   127483041.80204  24259217.700    99337438.40146
  23522951.140   123613928.18605  23522953.160    96322540.69645
 15 02 22 07 57 30.0000000  0 11G01G03G04G06G09G11G17G20G23G31G32
  21160905.420   111201299.06208  21160908.620    86650375.05148
  20720131.800   108885024.35608  20720134.120    84845480.90149
  23387004.840   122899525.15805  23387006.920    95765868.10846
  24050228.980   126384804.27304  24050233.240    98481680.87745
  21936864.640   115279006.79707  21936867.400    89827809.83848
  22679670.480   119182456.99406  22679671.020    92869446.04046
  21835320.660   114745379.42007  21835320.560    89411980.94048
  23294644.180   122414178.91105  23294644.420    95387670.93345
  20666686.380   108604170.51008  20666684.000    84626618.09548
  24265004.960   127513461.24204  24265006.660    99361141.81044
  23538045.860   123693250.82805  23538047.820    96384350.44146
 15 02 22 07 58  0.0000000  0 11G01G03G04G06G09G11G17G20G23G31G32
  21171159.240   111255183.31008  21171162.500    86692362.73648
  20724809.940   108909607.53308  20724812.160    84864636.60148
  23404722.340   122992630.31105  23404724.320    95838417.44145
  24031583.240   126286819.82005  24031587.540    98405329.35546
  21920726.240   115194199.48207  21920729.100    89761726.24848
  22698527.320   119281550.40906  22698528.020    92946661.60046
  21833929.620   114738069.35807  21833929.540    89406284.76148
  23280272.120   122338653.35205  23280272.360    95328819.81945
  20660685.100   108572633.53408  20660682.700    84602043.83048
  24270893.960   127544407.84903  24270895.620    99385255.96144
  23553142.840   123772585.27905  23553144.740    96446169.39546
 15 02 22 07 58 30.0000000  0 10G01G03G04G06G09G11G17G20G23G32
  21181485.220   111309446.54708  21181488.520    86734645.73648
  20729525.500   108934387.61908  20729527.680    84883945.73649
  23422477.660   123085934.53805  23422479.780    95911121.89446
  24012943.840   126188868.33905  24012947.860    98329003.47945
  21904654.020   115109740.18707  21904657.000    89695913.84348
  22717429.040   119380879.43506  22717429.840    93024060.75546
  21832649.260   114731341.06807  21832649.180    89401041.90548
  23265919.740   122263231.26405  23265920.180    95270049.37045
  20654774.360   108541572.30908  20654771.960    84577840.28748
  23568241.340   123851928.16105  23568243.240    96507994.92046
 15 02 22 07 59  0.0000000  0 11G01G03G04G06G09G11G17G20G23G31G32
  21191884.000   111364092.48608  21191887.380    86777226.94448
  20734279.180   108959368.20208  20734281.380    84903411.10349
  23440271.340   123179440.77105  23440273.700    95983983.76344
  23994311.720   126090955.57204  23994315.560    98252707.77845
  21888649.240   115025634.72107  21888652.180    89630377.14548
  22736376.100   119480446.15006  22736376.880    93101645.11846
  21831480.400   114725198.65507  21831480.300    89396255.58648
  23251587.900   122187916.86905  23251588.520    95211362.82545
  20648954.980   108510991.19008  20648952.560    84554010.85048
  24282971.400   127607875.60304  24282973.040    99434712.22045
  23583342.080   123931283.20705  23583344.020    96569829.88746
 15 02 22 07 59 30.0000000  0 11G01G03G04G06G09G11G17G20G23G31G32
  21202354.380   111419114.56508  21202357.720    86820101.24748
  20739069.720   108984542.58108  20739071.940    84923027.47849
  23458102.020   123273141.40805  23458104.420    96056997.12245
  23975686.060   125993077.14505  23975690.040    98176438.87146
  21872711.080   114941878.59107  21872713.820    89565112.66048
  22755366.840   119580242.44006  22755367.500    93179408.37146
  21830421.860   114719635.80507  21830421.740    89391920.86348
  23237275.520   122112703.89005  23237276.060    95152755.33646
  20643225.820   108480884.40608  20643223.440    84530551.03248
  24289159.460   127640393.32404  24289160.980    99460050.63846
  23598443.920   124010643.48805  23598445.940    96631668.96146
 15 02 22 08 00  0.0000000  0 11G01G03G04G06G09G11G17G20G23G31G32
  21212897.460   111474518.41708  21212900.680    86863273.03648
  20743898.120   109009916.25208  20743900.380    84942799.14948
  23475970.660   123367041.70105  23475973.200    96130166.04345
  23957068.520   125895240.89405  23957072.700    98100202.83646
  21856840.880   114858479.48407  21856843.420    89500126.36448
  22774401.940   119680272.30006  22774402.600    93257353.63246
  21829474.760   114714658.40107  21829474.580    89388042.33248
  23222983.620   122037599.22805  23222984.360    95094232.25146
  20637588.080   108451257.93508  20637585.680    84507465.47749
  24295447.380   127673436.77104  24295449.080    99485798.73645
  23613547.940   124090014.56405  23613549.900    96693516.45846
 15 02 22 08 00 30.0000000  0 11G01G03G04G06G09G11G17G20G23G31G32
  21223512.440   111530300.34508  21223515.660    86906739.43548
  20748763.740   109035485.42308  20748766.000    84962723.15848
  23493876.300   123461136.68405  23493879.000    96203486.64245
  23938458.620   125797445.18304  23938462.840    98023998.40246
  21841038.220   114775435.77407  21841040.740    89435417.00948
  22793480.500   119780530.74106  22793481.140    93335477.01146
  21828638.440   114710263.33907  21828638.260    89384617.58248
  23208711.700   121962599.52705  23208712.460    95035790.96145
  20632041.240   108422109.02808  20632038.840    84484752.05348
  24301834.480   127707001.73104  24301836.440    99511953.18345
  23628653.280   124169392.72905  23628655.220    96755369.45945
 15 02 22 08 01  0.0000000  0 10G01G03G04G06G09G11G17G20G23G32
  21234199.660   111586461.79208  21234202.920    86950501.55948
  20753666.780   109061251.44308  20753669.100    84982800.55548
  23511819.360   123555427.40205  23511822.040    96276959.78745
  23919856.980   125699693.68005  23919861.200    97947828.40446
  21825303.780   114692750.97307  21825306.340    89370987.31648
  22812602.500   119881017.35106  22812603.160    93413778.16346
  21827913.200   114706452.52407  21827913.140    89381648.08748
  23194459.940   121887706.45105  23194460.760    94977432.75545
  20626585.680   108393439.64308  20626583.220    84462412.28348
  23643760.040   124248779.19405  23643762.020    96817228.93146
 15 02 22 08 01 30.0000000  0 11G01G03G04G06G09G11G17G20G23G31G32
  21244958.980   111643002.11108  21244962.280    86994558.90948
  20758607.220   109087213.60108  20758609.580    85003030.77849
  23529799.460   123649912.11705  23529802.000    96350584.10145
  23901264.200   125601987.95904  23901268.320    97871694.12146
  21809637.900   114610426.56207  21809640.500    89306838.44748
  22831767.540   119981730.01606  22831768.260    93492255.48146
  21827299.060   114703225.49107  21827299.060    89379133.48948
  23180228.500   121812920.06505  23180229.140    94919157.70045
  20621221.380   108365249.89408  20621218.880    84440446.25749
  24314906.820   127775696.30104  24314908.760    99565486.86746
  23658868.340   124328173.20005  23658870.180    96879094.27446
 15 02 22 08 02  0.0000000  0 11G01G03G04G06G09G11G17G20G23G31G32
  21255789.760   111699918.39408  21255793.180    87038909.21248
  20763584.460   109113368.95308  20763586.840    85023411.54349
  23547815.680   123744587.36205  23547818.340    96424356.86245
  23882680.060   125504327.32904  23882684.260    97795594.94546
  21794040.440   114528461.68007  21794043.060    89242969.73048
  22850974.760   120082664.25206  22850975.500    93570905.42246
  21826795.600   114700579.69607  21826795.600    89377071.79848
  23166016.980   121738238.56705  23166017.600    94860964.35645
  20615947.840   108337537.14108  20615945.320    84418851.91448
  24321591.520   127810823.87504  24321593.460    99592858.98646
  23673977.440   124407571.95905  23673979.360    96940963.32845
 15 02 22 08 02 30.0000000  0 11G01G03G04G06G09G11G17G20G23G31G32
  21266692.820   111757214.42207  21266696.300    87083555.41848
  20768599.200   109139721.22508  20768601.540    85043945.74648
  23565868.540   123839456.06305  23565871.420    96498280.38745
  23864105.340   125406717.78004  23864109.740    97719535.63046
  21778512.620   114446862.12807  21778515.120    89179385.68448
  22870224.640   120183822.54206  22870225.380    93649729.96346
  21826403.500   114698519.13907  21826403.480    89375466.13248
  23151826.120   121663665.99605  23151826.740    94802855.87745
  20610765.880   108310305.79708  20610763.360    84397632.68749
  24328375.540   127846473.04204  24328377.500    99620637.54846
  23689088.100   124486978.98405  23689090.160    97002838.84245
 15 02 22 08 03  0.0000000  0 11G01G03G04G06G09G11G17G20G23G31G32
  21277667.260   111814885.34608  21277670.760    87128493.75048
  20773650.420   109166265.53808  20773652.760    85064629.60048
  23583957.160   123934512.67305  23583960.200    96572350.32245
  23845540.080   125309156.82805  23845544.260    97643514.09445
  21763053.800   114365625.21207  21763056.240    89116084.20648
  22889515.840   120285198.05206  22889516.520    93728723.76645
  21826121.920   114697039.40007  21826121.920    89374313.05848
  23137655.360   121589198.13605  23137656.000    94744828.97146
  20605674.760   108283551.88308  20605672.260    84376785.48149
  24335257.800   127882638.62704  24335259.660    99648818.46845
  23704199.580   124566389.50405  23704201.600    97064717.08046
 15 02 22 08 03 30.0000000  0 11G01G03G04G06G09G11G17G20G23G31G32
  21288712.980   111872930.73407  21288716.440    87173723.87548
  20778738.160   109193001.48308  20778740.440    85085462.77048
  23602081.500   124029756.16005  23602084.540    96646565.86045
  23826984.520   125211646.20205  23826988.500    97567531.77145
  21747664.320   114284752.53107  21747666.720    89053066.54348
  22908847.940   120386788.99106  22908848.640    93807885.42945
  21825950.840   114696140.29207  21825950.900    89373612.41548
  23123504.420   121514834.85705  23123505.120    94686883.55146
  20600674.540   108257275.44508  20600671.980    84356310.32649
  24342238.020   127919319.67904  24342239.820    99677401.06245
  23719311.580   124645803.09305  23719313.600    97126597.67745
 15 02 22 08 04  0.0000000  0 11G01G03G04G06G09G11G17G20G23G31G32
  21299830.500   111931353.40607  21299833.920    87219247.98048
  20783862.840   109219931.86008  20783865.140    85106447.44848
  23620241.920   124125188.48705  23620244.820    96720928.54546
  23808439.380   125114191.08904  23808443.460    97491592.73345
  21732345.040   114204248.97707  21732347.420    88990336.50948
  22928221.380   120488596.70606  22928222.000    93887216.00546
  21825890.880   114695824.86907  21825890.960    89373366.59648
  23109374.340   121440580.36805  23109375.060    94629022.87545
  20595765.780   108231479.71808  20595763.160    84336209.75049
  24349316.880   127956518.98204  24349318.660    99706387.47146
  23734424.660   124725222.48905  23734426.840    97188482.83145
 15 02 22 08 04 30.0000000  0 11G01G03G04G06G09G11G17G20G23G31G32
  21311019.200   111990150.54007  21311022.620    87265063.87348
  20789023.980   109247053.89508  20789026.360    85127581.46849
  23638437.480   124220805.84105  23638440.240    96795435.40445
  23789904.860   125016791.04005  23789908.840    97415696.57144
  21717095.820   114124113.81607  21717098.120    88927893.53948
  22947635.320   120590616.63806  22947635.840    93966711.93946
  21825941.500   114696090.56107  21825941.540    89373573.58648
  23095264.540   121366432.41405  23095265.300    94571245.23045
  20590948.100   108206162.72008  20590945.480    84316482.21349
  24356493.660   127994233.21004  24356495.420    99735775.11746
  23749538.320   124804645.01905  23749540.540    97250370.40846
 15 02 22 08 05  0.0000000  0 11G01G03G04G06G09G11G17G20G23G31G32
  21322279.620   112049324.39907  21322283.060    87311173.31548
  20794222.060   109274369.87408  20794224.480    85148866.61348
  23656668.340   124316610.05905  23656671.320    96870087.89245
  23771381.680   124919450.67005  23771385.360    97339846.89145
  21701917.480   114044351.39807  21701919.780    88865741.02248
  22967089.980   120692849.93706  22967090.320    94046374.14846
  21826103.220   114696940.16907  21826103.220    89374235.57948
  23081175.600   121292393.97005  23081176.240    94513552.92245
  20586222.060   108181327.29708  20586219.480    84297129.92749
  24363768.760   128032463.91904  24363770.380    99765565.19846
  23764653.020   124884072.94105  23764655.300    97312262.20145
 15 02 22 08 05 30.0000000  0 11G01G03G04G06G09G11G17G20G23G31G32
  21333611.120   112108871.62908  21333614.580    87357573.70048
  20799456.400   109301876.55007  20799458.860    85170300.35949
  23674934.060   124412596.80805  23674937.280    96944882.57746
  23752869.560   124822168.94905  23752873.160    97264042.92845
  21686809.800   113964960.45907  21686812.180    88803877.96048
  22986584.140   120795291.67506  22986584.580    94126198.76646
  21826375.320   114698370.15607  21826375.340    89375349.81848
  23067106.880   121218461.84305  23067107.500    94455943.43745
  20581587.100   108156970.46208  20581584.520    84278150.56549
  24371141.560   128071207.70304  24371142.960    99795755.08645
  23779768.140   124963502.97805  23779770.440    97374155.62645
 15 02 22 08 06  0.0000000  0 11G01G03G04G06G09G11G17G20G23G31G32
  21345013.940   112168793.77607  21345017.480    87404266.23548
  20804727.400   109329575.54808  20804729.840    85191883.95648
  23693234.820   124508767.13905  23693238.220    97019820.33346
  23734369.280   124724949.87605  23734373.200    97188287.80246
  21671773.560   113885944.58707  21671775.980    88742307.15748
  23006117.960   120897942.10506  23006118.540    94206186.01046
  21826758.280   114700382.44607  21826758.280    89376917.78748
  23053058.740   121144638.73905  23053059.480    94398418.91045
  20577043.620   108133094.39508  20577041.020    84259545.82749
  24378612.020   128110465.49004  24378613.500    99826345.48645
  23794883.920   125042936.81005  23794886.300    97436051.99945
 15 02 22 08 06 30.0000000  0 11G01G03G04G06G09G11G17G20G23G31G32
  21356488.080   112229090.57107  21356491.620    87451250.69348
  20810034.960   109357466.68008  20810037.400    85213617.26749
  23711570.420   124605120.11705  23711573.680    97094900.40444
  23715881.320   124627795.52904  23715885.440    97112583.12646
  21656809.080   113807305.59507  21656811.460    88681030.03348
  23025690.940   121000798.90706  23025691.680    94286334.04446
  21827252.100   114702976.96507  21827252.080    89378939.44548
  23039031.440   121070925.42905  23039032.220    94340979.95945
  20572591.680   108109699.28708  20572589.080    84241315.85748
  24386180.120   128150236.39504  24386181.780    99857335.70146
  23810000.280   125122374.09605  23810002.760    97497951.07345
 15 02 22 08 07  0.0000000  0 11G01G03G04G06G09G11G17G20G23G31G32
  21368032.680   112289757.21707  21368036.160    87498523.35148
  20815378.160   109385545.26008  20815380.640    85235496.63749
  23729939.600   124701650.02605  23729942.640    97170118.34946
  23697405.220   124530703.64604  23697409.600    97036927.11246
  21641915.820   113729040.76207  21641918.120    88620044.45748
  23045302.080   121103856.12706  23045303.040    94366638.26446
  21827855.880   114706149.32207  21827855.840    89381411.36648
  23025024.280   120997317.28505  23025025.100    94283622.97046
  20568230.480   108086781.02408  20568227.900    84223457.45349
  24393844.940   128190515.13804  24393846.680    99888721.62046
  23825116.540   125201810.32605  23825119.100    97559849.32646
 15 02 22 08 07 30.0000000  0 11G01G03G04G06G09G11G17G20G23G31G32
  21379648.020   112350795.85707  21379651.460    87546085.86348
  20820757.460   109413813.60408  20820759.980    85257523.87148
  23748342.800   124798358.52005  23748345.840    97245475.45545
  23678942.060   124433678.86705  23678946.540    96961323.40446
  21627094.540   113651154.36807  21627096.780    88559353.76248
  23064951.580   121207114.60006  23064952.640    94447099.29046
  21828569.920   114709901.52007  21828569.880    89384335.12448
  23011037.900   120923817.79205  23011038.540    94226350.62845
  20563960.500   108064342.30608  20563957.980    84205972.72249
  24401606.900   128231303.58504  24401608.620    99920504.72845
  23840233.040   125281247.73105  23840235.580    97621748.50644
 15 02 22 08 08  0.0000000  0 11G01G03G04G06G09G11G17G20G23G31G32
  21391334.200   112412206.88507  21391337.620    87593938.54648
  20826172.960   109442272.27407  20826175.520    85279699.41348
  23766779.920   124895245.13105  23766783.140    97320971.33546
  23660492.200   124336724.03305  23660496.760    96885774.21246
  21612345.680   113573648.87507  21612348.020    88498959.88848
  23084639.140   121310573.48606  23084640.260    94527716.48846
  21829394.460   114714234.27007  21829394.360    89387711.24648
  22997072.320   120850427.97405  22997072.800    94169163.75546
  20559781.980   108042383.99308  20559779.460    84188862.33849
  24409465.780   128272601.41204  24409467.480    99952684.76646
  23855349.960   125360686.95105  23855352.420    97683649.09144
 15 02 22 08 08 30.0000000  0 11G01G03G04G06G09G11G17G20G23G31G32
  21403091.340   112473991.06507  21403094.820    87642082.02048
  20831624.860   109470922.14707  20831627.440    85302023.95948
  23785250.960   124992309.90305  23785254.240    97396606.05344
  23642056.300   124239842.41005  23642060.800    96810282.07046
  21597669.860   113496527.08307  21597672.320    88438865.00548
  23104364.620   121414231.58306  23104365.740    94608488.90046
  21830329.600   114719148.39607  21830329.480    89391540.39648
  22983127.780   120777149.20105  22983128.300    94112063.45646
  20555695.200   108020907.38908  20555692.620    84172127.32349
  24417421.620   128314409.18404  24417423.280    99985262.18145
  23870467.400   125440128.88305  23870469.900    97745551.78845
 15 02 22 08 09  0.0000000  0 11G01G03G04G06G09G11G17G20G23G31G32
  21414918.360   112536142.53007  21414921.840    87690511.67148
  20837112.100   109499757.53808  20837114.660    85324493.05448
  23803754.480   125089546.54605  23803758.080    97472374.66744
  23623633.760   124143030.57005  23623637.960    96734844.25346
  21583066.380   113419785.20907  21583068.940    88379066.16348
  23124126.640   121518081.64706  23124127.820    94689410.88245
  21831374.320   114724638.23407  21831374.220    89395818.14348
  22969203.360   120703976.54205  22969204.120    94055045.83746
  20551699.080   107999907.29708  20551696.440    84155763.61249
  24425473.300   128356720.42204  24425474.980   100018231.91845
  23885584.380   125519567.83305  23885586.900    97807452.12745
 15 02 22 08 09 30.0000000  0 11G01G03G04G06G09G11G17G20G23G31G32
  21426815.680   112598663.19707  21426819.140    87739229.00948
  20842635.060   109528780.60807  20842637.600    85347108.39048
  23822291.060   125186956.15405  23822294.660    97548278.09645
  23605225.400   124046293.11305  23605229.380    96659464.42846
  21568535.940   113343427.22907  21568538.540    88319566.46348
  23143925.460   121622124.24706  23143926.580    94770482.92746
  21832528.920   114730705.62707  21832528.900    89400545.94148
  22955299.660   120630912.30505  22955300.480    93998112.70646
  20547794.080   107979386.19508  20547791.440    84139773.13449
  24433621.000   128399536.90404  24433622.860   100051595.34246
  23900701.120   125599005.84204  23900703.620    97869351.74845
 15 02 22 08 10  0.0000000  0 11G01G03G04G06G09G11G17G20G23G31G32
  21438783.920   112661556.09007  21438787.340    87788236.39448
  20848194.380   109557994.57408  20848196.880    85369872.47848
  23840860.920   125284541.08305  23840864.480    97624318.10245
  23586831.980   123949635.54805  23586835.920    96584146.87045
  21554079.480   113267458.27107  21554082.080    88260369.90148
  23163761.220   121726361.08606  23163762.260    94851706.32046
  21833794.100   114737353.97507  21833794.120    89405726.43548
  22941417.500   120557961.12705  22941418.240    93941267.67046
  20543980.880   107959347.45408  20543978.240    84124158.52749
  24441865.160   128442860.55904  24441867.300   100085353.98645
  23915818.120   125678446.40204  23915820.620    97931253.36446
 15 02 22 08 10 30.0000000  0 11G01G03G04G06G09G11G17G20G23G31G32
  21450822.060   112724816.29107  21450825.480    87837529.99648
  20853789.140   109587394.76408  20853791.580    85392781.68648
  23859463.080   125382295.73305  23859466.600    97700490.36844
  23568453.220   123853055.58705  23568457.160    96508889.74746
  21539696.580   113191875.49307  21539699.100    88201474.25648
  23183632.820   121830785.93506  23183633.760    94933076.18646
  21835169.020   114744578.62407  21835168.980    89411356.00148
  22927556.140   120485118.55005  22927556.700    93884507.28845
  20540258.620   107939786.62508  20540255.940    84108916.32249
  24450204.960   128486686.18804  24450207.160   100119503.78046
  23930934.760   125757884.76104  23930937.300    97993153.25545
 15 02 22 08 11  0.0000000  0 11G01G03G04G06G09G11G17G20G23G31G32
  21462929.980   112788443.14107  21462933.380    87887109.30048
  20859419.200   109616980.77608  20859421.640    85415835.68748
  23878097.600   125480218.83205  23878100.900    97776793.90744
  23550089.600   123756555.08505  23550093.660    96433694.56345
  21525387.420   113116680.23107  21525389.860    88142880.58548
  23203539.760   121935396.50506  23203540.700    95014590.79945
  21836653.400   114752378.62607  21836653.260    89417433.88348
  22913715.440   120412384.77605  22913715.780    93827831.67146
  20536627.300   107920703.90508  20536624.620    84094046.67449
  24458640.020   128531012.42804  24458642.240   100154043.70146
  23946050.880   125837320.49704  23946053.540    98055051.09846
 15 02 22 08 11 30.0000000  0 11G01G03G04G06G09G11G17G20G23G31G32
  21475107.980   112852438.89507  21475111.460    87936976.06448
  20865085.160   109646755.20308  20865087.580    85439036.51248
  23896764.340   125578312.04305  23896767.620    97853229.97144
  23531742.220   123660139.15505  23531746.300    96358565.28946
  21511152.820   113041876.98507  21511155.240    88084592.37848
  23223482.200   122040193.94606  23223483.200    95096250.99645
  21838247.600   114760756.24007  21838247.440    89423961.85848
  22899895.920   120339763.02705  22899896.320    93771243.33546
  20533087.440   107902101.76708  20533084.760    84079551.49849
  24467170.600   128575841.23405  24467172.900   100188975.23344
  23961166.960   125916756.16804  23961169.740    98116948.85545
 15 02 22 08 12  0.0000000  0 11G01G03G04G06G09G11G17G20G23G31G32
  21487355.660   112916801.06307  21487359.180    87987128.34048
  20870786.460   109676715.73408  20870788.880    85462382.34848
  23915462.840   125676572.30705  23915466.100    97929796.22445
  23513410.820   123563807.71504  23513415.020    96283501.84246
  21496992.660   112967465.19707  21496995.140    88026609.20548
  23243459.400   122145174.31206  23243460.400    95178053.73946
  21839951.240   114769709.04907  21839951.100    89430938.04048
  22886097.400   120267251.73805  22886097.860    93714741.08346
  20529638.620   107883978.20108  20529635.960    84065429.24549
  24475796.280   128621169.59605  24475798.500   100224296.03946
  23976282.640   125996189.64704  23976285.400    98178844.94046
 15 02 22 08 12 30.0000000  0 11G01G03G04G06G09G11G17G20G23G31G32
  21499674.600   112981537.61707  21499678.120    88037572.34448
  20876524.800   109706870.74608  20876527.220    85485879.73848
  23934194.480   125775006.70405  23934197.800    98006498.16145
  23495097.680   123467571.57005  23495101.860    96208512.63246
  21482908.940   112893454.90907  21482911.440    87968938.89648
  23263472.680   122250344.33806  23263473.740    95260004.26845
  21841765.980   114779245.59907  21841765.840    89438369.08748
  22872321.560   120194859.71205  22872322.140    93658331.76046
  20526282.420   107866341.39808  20526279.780    84051686.28449
  24484518.340   128667004.53305  24484520.480   100260011.56645
  23991399.580   126075629.06704  23991402.340    98240745.64945
 15 02 22 08 13  0.0000000  0 11G01G03G04G06G09G11G17G20G23G31G32
  21512060.140   113046623.98207  21512063.660    88088288.93948
  20882295.480   109737195.87908  20882297.940    85509509.68948
  23952954.420   125873590.22905  23952957.740    98083316.29445
  23476798.540   123371408.77405  23476802.940    96133580.62646
  21468897.320   112819823.65407  21468899.820    87911563.93748
  23283517.060   122355677.67506  23283518.240    95342082.05946
  21843687.060   114789340.85307  21843686.900    89446235.49248
  22858564.040   120122563.62205  22858564.760    93601997.18746
  20523014.400   107849167.86108  20523011.760    84038304.32149
  24493332.140   128713321.16705  24493334.180   100296102.43445
  24006513.120   126155050.40404  24006515.900    98302632.23643
 15 02 22 08 13 30.0000000  0 12G01G03G04G06G09G10G11G17G20G23G31G32
  21524515.600   113112077.26707  21524519.040    88139291.44648
  20888101.860   109767708.69607  20888104.380    85533285.89448
  23971745.740   125972339.33505  23971749.120    98160263.45045
  23458517.180   123275339.17705  23458521.660    96058721.20246
  21454961.500   112746590.62207  21454963.980    87854499.27848
  24376660.260   128100218.02904  24376662.540    99818360.26944
  23303595.580   122461190.16106  23303596.660    95424299.44246
