     2.11           OBSERVATION DATA    G                   RINEX VERSION / TYPE
SPIDER V4,0,0,3554                      2015 03 19 00:18    PGM / RUN BY / DATE 
OBHM                                                        MARKER NAME         
OBHM                                                        MARKER NUMBER       
                                                            OBSERVER / AGENCY   
496638              LEICA GRX1200+GNSS  8.20/4.007          REC # / TYPE / VERS 
10321015            LEIAR25         NONE                    ANT # / TYPE        
  5268006.0133   -44062.8765  3585543.8986                  APPROX POSITION XYZ 
        0.1200        0.0000        0.0000                  ANTENNA: DELTA H/E/N
     1     1                                                WAVELENGTH FACT L1/2
     4    C1    L1    P2    L2                              # / TYPES OF OBSERV 
    30.000                                                  INTERVAL            
  2015    02    22    00    00    0.0000000     GPS         TIME OF FIRST OBS   
  2015    02    22    23    59   30.0000000     GPS         TIME OF LAST OBS    
    16                                                      LEAP SECONDS        
    30                                                      # OF SATELLITES     
   G 1   272   272   272   272                              PRN / # OF OBS      
   G 2   867   867   867   867                              PRN / # OF OBS      
   G 3   261   261   261   261                              PRN / # OF OBS      
   G 4   423   423   423   423                              PRN / # OF OBS      
   G 5   683   683   683   683                              PRN / # OF OBS      
   G 6   378   378   378   378                              PRN / # OF OBS      
   G 7   595   594   594   594                              PRN / # OF OBS      
   G 9   397   397   397   397                              PRN / # OF OBS      
   G10   578   578   578   578                              PRN / # OF OBS      
   G11   334   334   334   334                              PRN / # OF OBS      
   G12   812   812   811   811                              PRN / # OF OBS      
   G13   834   834   834   834                              PRN / # OF OBS      
   G14   750   750   749   749                              PRN / # OF OBS      
   G15   742   742   742   742                              PRN / # OF OBS      
   G16   704   704   704   704                              PRN / # OF OBS      
   G17   444   444   444   444                              PRN / # OF OBS      
   G18   946   945   945   945                              PRN / # OF OBS      
   G19   539   539   538   538                              PRN / # OF OBS      
   G20   491   491   491   491                              PRN / # OF OBS      
   G21   695   683   676   675                              PRN / # OF OBS      
   G22   777   769   768   766                              PRN / # OF OBS      
   G23   211   211   211   211                              PRN / # OF OBS      
   G24   853   852   852   852                              PRN / # OF OBS      
   G25   870   870   870   870                              PRN / # OF OBS      
   G27   722   722   722   722                              PRN / # OF OBS      
   G28   657   657   657   657                              PRN / # OF OBS      
   G29   748   748   747   747                              PRN / # OF OBS      
   G30   648   648   648   648                              PRN / # OF OBS      
   G31   651   651   651   651                              PRN / # OF OBS      
   G32   307   307   307   307                              PRN / # OF OBS      
BIT 2 OF LLI FLAGS DATA COLLECTED UNDER A/S CONDITION       COMMENT             
SNR is mapped to RINEX snr flag value [2-9]                 COMMENT             
Lx:     = 25dBHz -> 1; 26-27dBHz -> 2; 28-31dBHz -> 3       COMMENT             
       32-35dBHz -> 4; 36-38dBHz -> 5; 39-41dBHz -> 6       COMMENT             
       42-44dBHz -> 7; 45-48dBHz -> 8; >=49dBHz -> 9        COMMENT             
                                                            END OF HEADER       
 15 02 22 00 00  0.0000000  0  7G16G18G21G25G27G29G31
  22195044.900   116635763.34709  22195041.000    90885007.29047
  23395837.600   122946014.91708  23395836.060    95802106.51346
  21158213.620   111187376.00309  21158210.120    86639585.71348
  24434512.420   128404388.18207  24434514.400   100055434.00245
  23086377.880   121319766.77408  23086378.220    94534908.91447
  23707669.060   124584943.19808  23707666.340    97079293.74946
  21918136.140   115180605.64609  21918133.600    89751120.44148
 15 02 22 00 00 30.0000000  0  7G16G18G21G25G27G29G31
  22180644.220   116560087.23709  22180640.260    90826038.89747
  23383074.020   122878942.75008  23383072.680    95749842.55246
  21163143.760   111213284.27209  21163140.360    86659773.96648
  24451877.560   128495642.82407  24451879.560   100126541.43644
  23074150.180   121255510.42608  23074150.680    94484839.05747
  23722140.060   124660988.61408  23722137.500    97138549.88646
  21932992.420   115258676.03709  21932989.940    89811954.47348
 15 02 22 00 01  0.0000000  0  7G16G18G21G25G27G29G31
  22166272.700   116484564.58109  22166268.740    90767190.08747
  23370340.900   122812030.43908  23370339.700    95697703.15446
  21168151.820   111239602.27008  21168148.520    86680281.49948
  24469275.240   128587068.34607  24469277.360   100197781.99845
  23061948.920   121191392.52409  23061949.420    94434877.07647
  23736610.220   124737029.90508  23736607.860    97197802.83446
  21947913.500   115337086.71809  21947911.040    89873053.67548
 15 02 22 00 01 30.0000000  0  7G16G18G21G25G27G29G31
  22151930.560   116409196.66009  22151926.700    90708461.85347
  23357638.800   122745281.02308  23357637.660    95645690.69846
  21173237.680   111266328.96209  21173234.440    86701107.49948
  24486705.340   128678664.09007  24486707.720   100269155.19946
  23049774.080   121127413.19009  23049774.500    94385023.08047
  23751079.520   124813067.20708  23751077.420    97257052.67246
  21962898.840   115415835.17209  21962896.380    89934416.07748
 15 02 22 00 02  0.0000000  0  7G16G18G21G25G27G29G31
  22137617.760   116333983.16109  22137614.080    90649853.95447
  23344967.920   122678695.07308  23344966.540    95593805.58945
  21178400.640   111293460.44009  21178397.400    86722248.91048
  24504167.220   128770426.81807  24504169.860   100340658.49445
  23037625.160   121063570.02209  23037625.440    94335275.19247
  23765547.480   124889097.83808  23765545.800    97316297.29546
  21977947.620   115494916.62709  21977945.060    89996037.96448
 15 02 22 00 02 30.0000000  0  7G16G18G21G25G27G29G31
  22123335.660   116258930.81809  22123332.100    90591371.60747
  23332329.460   122612279.55108  23332328.000    95542053.29246
  21183641.320   111321000.36209  21183638.020    86743708.58648
  24521661.680   128862360.41308  24521664.320   100412294.94945
  23025503.000   120999867.66709  23025503.120    94285637.01247
  23780014.980   124965126.41908  23780013.740    97375540.31046
  21993060.120   115574333.00409  21993057.500    90057920.82048
 15 02 22 00 03  0.0000000  0  7G16G18G21G25G27G29G31
  22109083.440   116184035.10209  22109079.980    90533011.32047
  23319722.860   122546031.32908  23319721.340    95490431.35846
  21188958.260   111348940.92109  21188954.880    86765480.45448
  24539187.220   128954457.26108  24539189.900   100484058.62546
  23013406.320   120936299.33709  23013406.360    94236103.27347
  23794480.680   125041145.98608  23794479.780    97434776.30946
  22008234.620   115654075.15609  22008231.920    90120057.53348
 15 02 22 00 03 30.0000000  0  7G16G18G21G25G27G29G31
  22094862.580   116109303.99609  22094859.160    90474779.30047
  23307149.700   122479958.63308  23307148.020    95438946.19446
  21194352.200   111377286.36708  21194348.780    86787567.80648
  24556744.780   129046722.32908  24556747.520   100555953.36146
  23001336.260   120872870.85708  23001336.280    94186678.49347
  23808945.760   125117162.13408  23808945.120    97494009.64546
  22023471.760   115734146.63009  22023469.020    90182450.85348
 15 02 22 00 04  0.0000000  0  7G16G18G21G25G27G29G31
  22080672.580   116034734.76709  22080669.120    90416673.41447
  23294609.680   122414060.14408  23294607.800    95387596.77746
  21199822.160   111406031.37608  21199818.740    86809966.51748
  24574333.460   129139150.65708  24574336.040   100627975.35546
  22989292.080   120809578.14009  22989292.040    94137359.52047
  23823409.540   125193170.39408  23823408.860    97553236.84046
  22038770.300   115814540.67009  22038767.460    90245095.53448
 15 02 22 00 04 30.0000000  0  7G16G18G21G25G27G29G31
  22066513.640   115960328.83509  22066510.120    90358694.76247
  23282103.040   122348337.33108  23282101.080    95336384.25346
  21205367.600   111435173.53308  21205364.320    86832674.68748
  24591952.880   129231740.29308  24591955.240   100700123.01846
  22977273.560   120746420.03709  22977273.440    94088145.43747
  23837871.780   125269169.78908  23837870.980    97612457.12746
  22054129.520   115895253.58209  22054126.660    90307988.68448
 15 02 22 00 05  0.0000000  0  7G16G18G21G25G27G29G31
  22052386.400   115886089.68809  22052382.880    90300846.08047
  23269630.780   122282794.92608  23269628.820    95285312.30846
  21210988.700   111464713.24108  21210985.580    86855692.64748
  24609603.100   129324492.09708  24609605.380   100772397.04446
  22965280.960   120683398.17209  22965280.800    94039037.51247
  23852332.780   125345161.91308  23852331.680    97671671.75446
  22069549.240   115976284.33409  22069546.320    90371129.50048
 15 02 22 00 05 30.0000000  0  8G16G18G21G22G25G27G29G31
  22038291.860   115812022.84309  22038288.400    90243131.66147
  23257193.940   122217438.59408  23257191.960    95234385.35946
  21216685.900   111494652.36508  21216682.840    86879021.83748
  24546940.560   128995039.59607  24546937.320   100515605.73545
  24627284.560   129417408.32108  24627286.780   100844799.18446
  22953314.920   120620515.77709  22953314.700    93990038.27147
  23866793.000   125421149.56608  23866791.600    97730882.89946
  22085029.580   116057633.66009  22085026.600    90434518.55848
 15 02 22 00 06  0.0000000  0  8G16G18G21G22G25G27G29G31
  22024229.900   115738126.99409  22024226.540    90185550.48247
  23244792.500   122152267.92208  23244790.340    95183603.07546
  21222458.220   111524986.06408  21222455.160    86902658.48448
  24530283.760   128907507.99407  24530282.880   100447405.56546
  24644996.360   129510484.72108  24644998.720   100917326.14545
  22941374.740   120557769.42908  22941374.420    93941145.04447
  23881251.760   125497129.09708  23881249.940    97790087.71646
  22100569.340   116139295.47909  22100566.360    90498151.10548
 15 02 22 00 06 30.0000000  0  8G16G18G21G22G25G27G29G31
  22010200.720   115664403.19209  22010197.400    90128103.36447
  23232426.780   122087285.29908  23232424.440    95132967.31446
  21228305.340   111555712.64108  21228302.200    86926601.27048
  24513608.760   128819880.90608  24513608.060   100379129.27546
  24662738.340   129603720.14107  24662741.020   100989977.00745
  22929460.280   120495158.73208  22929459.980    93892357.51047
  23895709.020   125573100.69308  23895706.800    97849286.35446
  22116168.080   116221267.13009  22116165.100    90562025.08648
 15 02 22 00 07  0.0000000  0  8G16G18G21G22G25G27G29G31
  21996205.300   115590856.61109  21996202.000    90070794.34847
  23220097.940   122022496.45808  23220095.360    95082482.55646
  21234227.540   111586833.75908  21234224.280    86950851.49948
  24496917.640   128732170.62206  24496917.260   100310779.47646
  24680510.880   129697116.35507  24680513.860   101062753.14646
  22917572.100   120432686.44508  22917571.880    93843677.83747
  23910165.180   125649066.58908  23910162.640    97908480.55346
  22131825.800   116303548.71309  22131822.820    90626140.57248
 15 02 22 00 07 30.0000000  0  8G16G18G21G22G25G27G29G31
  21982243.780   115517488.03209  21982240.440    90013624.02248
  23207806.100   121957902.69708  23207803.440    95032149.81346
  21240224.280   111618346.52509  21240220.860    86975406.89748
  24480209.560   128644365.61407  24480209.140   100242358.27146
  24698313.440   129790671.15506  24698316.720   101135652.85545
  22905709.900   120370351.16108  22905709.820    93795104.91547
  23924619.920   125725025.26608  23924617.140    97967669.11646
  22147541.620   116386136.07809  22147538.680    90690494.32248
 15 02 22 00 08  0.0000000  0  8G16G18G21G22G25G27G29G31
  21968316.160   115444297.75509  21968312.760    89956592.64448
  23195551.480   121893504.82508  23195548.780    94981969.70246
  21246294.980   111650247.97808  21246291.460    87000265.17548
  24463484.340                                                  
  24716145.680   129884381.82206  24716149.140   101208674.00845
  22893873.440   120308151.07708  22893873.500    93746637.35047
  23939072.800   125800975.29008  23939070.060    98026850.95146
  22163314.740   116469024.75609  22163311.900    90755082.87048
 15 02 22 00 08 30.0000000  0  8G16G18G21G22G25G27G29G31
  21954422.760   115371287.63209  21954419.400    89899701.64748
  23183334.660   121829305.40008  23183331.900    94931944.21946
  21252439.340   111682536.60208  21252435.740    87025425.14148
  24446744.880   128468506.22307                                
  24734007.620   129978247.36007  24734011.120   101281815.88244
  22882062.820   120246086.19408  22882062.940    93698275.11847
  23953523.760   125876915.98308  23953521.200    98086025.50146
  22179144.700   116552212.33209  22179142.000    90819904.31948
 15 02 22 00 09  0.0000000  0  8G16G18G21G22G25G27G29G31
  21940563.580   115298457.33609  21940560.300    89842950.77548
  23171155.780   121765305.32408  23171153.100    94882074.07546
  21258656.620   111715208.53708  21258653.020    87050883.79348
  24429988.820   128380453.00808  24429988.040   100036718.23144
  24751898.680   130072264.49807  24751901.880   101355075.84644
  22870277.540   120184154.11708  22870277.640    93650016.38147
  23967972.440   125952845.03708  23967970.040    98145190.97946
  22195030.700   116635694.00209  22195028.060    90884954.93048
 15 02 22 00 09 30.0000000  0  8G16G18G21G22G25G27G29G31
  21926739.820   115225812.92909  21926736.560    89786344.75448
  23159015.960   121701510.55208  23159013.420    94832363.92846
  21264947.280   111748266.05309  21264943.680    87076642.90248
  24413217.400   128292319.51308  24413214.960    99968033.56357
  24769819.280   130166436.00507  24769822.140   101428456.16844
  22858518.220   120122358.40209  22858518.300    93601863.90847
  23982419.500   126028766.11608  23982417.320    98204350.24546
  22210972.860   116719470.49209  22210970.220    90950235.28148
 15 02 22 00 10  0.0000000  0  8G16G18G21G22G25G27G29G31
  21912951.560   115153355.07609  21912948.340    89729884.08748
  23146915.520   121637923.02508  23146913.120    94782815.25546
  21271310.920   111781706.92309  21271307.300    87102700.72348
  24396430.900   128204106.19409                                
  24787768.880   130260759.64608  24787771.500   101501954.99845
  22846784.620   120060697.84209  22846784.640    93553816.73147
  23996864.800   126104677.71508  23996862.760    98263502.11646
  22226970.420   116803538.04009  22226967.800    91015742.42348
 15 02 22 00 10 30.0000000  0  8G16G18G21G22G25G27G29G31
  21899199.020   115081085.07709  21899195.880    89673569.81148
  23134854.760   121574544.16808  23134852.560    94733429.19446
  21277746.980   111815528.23609  21277743.300    87129055.00248
  24379631.140   128115822.09208  24379629.440    99830505.94045
  24805747.120   130355233.70108  24805749.520   101575571.04545
  22835076.520   119999171.54509  22835076.560    93505874.18447
  24011308.140   126180578.52308  24011306.300    98322645.58446
  22243022.780   116887893.15409  22243020.100    91081473.64348
 15 02 22 00 11  0.0000000  0  7G16G18G21G22G27G29G31
  21885483.160   115009007.63909  21885480.020    89617405.58348
  23122834.800   121511379.12008  23122832.640    94684209.73046
  21284255.640   111849731.22909  21284251.940    87155706.68848
  24362817.200   128027467.44408                                
  22823394.420   119937781.83709  22823394.520    93458038.08347
  24025750.180   126256471.75608  24025748.460    98381783.13946
  22259129.800   116972535.57709  22259127.100    91147428.74548
 15 02 22 00 11 30.0000000  0  7G16G18G21G22G27G29G31
  21871803.600   114937120.84309  21871800.420    89561389.89848
  23110855.500   121448427.63909  23110853.400    94635156.67346
  21290835.940   111884310.51809  21290832.140    87182651.59148
  24345990.240   127939042.98808  24345988.180    99692753.25445
  22811737.700   119876525.30509  22811737.780    93410305.74348
  24040190.060   126332353.55108  24040188.460    98440911.78046
  22275290.280   117057459.11809  22275287.600    91213602.89048
 15 02 22 00 12  0.0000000  0  7G16G18G21G22G27G29G31
  21858159.400   114865419.84309  21858156.140    89505518.99548
  23098916.000   121385685.23808  23098913.880    94586266.52746
  21297486.380   111919258.67709  21297482.520    87209883.92548
  24329148.540   127850540.72906  24329147.040    99623790.25245
  22800105.020   119815394.99609  22800105.060    93362671.77548
  24054626.400   126408216.89108  24054624.820    98500026.05646
  22291502.420   117142654.33109  22291499.760    91279988.73148
 15 02 22 00 12 30.0000000  0  7G16G18G21G22G27G29G31
  21844555.920   114793932.99709  21844552.640    89449814.97048
  23087021.680   121323180.50308  23087019.660    94537561.59846
  21304211.580   111954599.93308  21304207.660    87237422.56848
  24312298.140                    24312295.720                  
  22788501.300   119754416.86209  22788501.280    93315156.36048
  24069064.200   126484087.95508  24069062.620    98559146.34446
  22307770.680   117228144.87709  22307768.080    91346604.69848
 15 02 22 00 13  0.0000000  0  7G16G18G21G22G27G29G31
  21830988.660   114722636.65709  21830985.380    89394259.38848
  23075168.060   121260890.01908  23075166.140    94489023.61246
  21311006.220   111990306.48809  21311002.340    87265245.85248
  24295434.740   127673368.69207  24295435.020    99485738.49544
  22776921.560   119693564.78609  22776921.460    93267739.17348
  24083498.440   126559940.50608  24083496.900    98618252.22746
  22324089.540   117313901.22309  22324087.000    91413427.78248
 15 02 22 00 13 30.0000000  0  7G16G18G21G22G27G29G31
  21817459.420   114651539.99209  21817456.060    89338859.39548
  23063357.160   121198823.82008  23063355.280    94440660.37446
  21317871.380   112026383.75709  21317867.580    87293358.00748
  24278560.180                                                  
  22765367.120   119632845.75009  22765367.020    93220425.66648
  24097930.380   126635780.96008  24097928.900    98677348.66046
  22340459.880   117399928.05609  22340457.400    91480461.63148
 15 02 22 00 14  0.0000000  0  7G16G18G21G22G27G29G31
  21803968.600   114580645.27509  21803965.180    89283616.76948
  23051589.660   121136985.42908  23051587.800    94392474.67746
  21324807.060   112062831.68808  21324803.420    87321759.00048
  24261675.500                                                  
  22753838.100   119572260.64508  22753838.040    93173216.51948
  24112360.340   126711610.75908  24112358.840    98736436.81346
  22356881.420   117486223.77809  22356878.960    91547705.01648
 15 02 22 00 14 30.0000000  0  7G16G18G21G22G27G29G31
  21790517.040   114509956.85809  21790513.540    89228534.89848
  23039866.360   121075379.04009  23039864.440    94344469.73546
  21331813.260   112099650.05608  21331809.800    87350448.63548
  24244780.560                    24244778.940                  
  22742334.900   119511811.13908  22742334.820    93126113.02848
  24126788.500   126787431.34908  24126787.040    98795517.78246
  22373353.880   117572787.33709  22373351.540    91615157.08848
 15 02 22 00 15  0.0000000  0  7G16G18G21G22G27G29G31
  21777104.480   114439473.57909  21777100.900    89173612.87148
  23028187.100   121014004.00409  23028185.180    94296645.07746
  21338889.100   112136834.34208  21338885.780    87379423.40648
  24227875.140                                                  
  22730856.880   119451494.01008  22730856.780    93079112.67447
  24141214.260   126863239.63908  24141212.920    98854589.15746
  22389876.220   117659612.61209  22389873.880    91682813.10648
 15 02 22 00 15 30.0000000  0  7G16G18G21G22G27G29G31
  21763731.960   114369200.53909  21763728.280    89118854.66548
  23016553.100   120952866.50109  23016551.100    94249005.49546
  21346034.760   112174385.46709  21346031.560    87408684.02148
  24210961.640                                                  
  22719404.540   119391312.06508  22719404.420    93032217.67047
  24155638.280   126939038.47008  24155637.020    98913653.15146
  22406448.460   117746700.05309  22406446.080    91750673.40348
 15 02 22 00 16  0.0000000  0  7G16G18G21G22G27G29G31
  21750399.060   114299135.36409  21750395.260    89064258.42748
  23004963.820   120891964.17409  23004961.760    94201549.18546
  21353249.300   112212298.05509  21353246.160    87438226.29348
  24194038.200                                                  
  22707977.120   119331260.89008  22707976.980    92985424.57047
  24170059.700   127014823.30708  24170058.340    98972706.25846
  22423069.240   117834042.38409  22423066.720    91818732.32148
 15 02 22 00 16 30.0000000  0  7G16G18G21G22G27G29G31
  21737105.640   114229277.54409  21737101.680    89009823.76748
  22993419.240   120831297.25409  22993417.180    94154276.30846
  21360531.900   112250568.11109  21360528.740    87468047.11248
  24177104.520   127051540.71608  24177104.140    99001198.05044
  22696574.060   119271337.71809  22696573.940    92938731.21147
  24184477.920   127090591.52008  24184476.440    99031746.42245
  22439737.500   117921634.29309  22439734.920    91886985.71748
 15 02 22 00 17  0.0000000  0  7G16G18G21G22G27G29G31
  21723853.840   114159638.54209  21723849.780    88955559.61348
  22981921.760   120770877.88908  22981919.660    94107196.33246
  21367883.960   112289203.20509  21367880.740    87498152.37448
  24160164.560   126962520.62008  24160164.220    98931831.68447
  22685197.220   119211551.92908  22685197.040    92892144.90848
  24198894.680   127166352.36008  24198893.160    99090780.84145
  22456454.500   118009482.40309  22456451.840    91955438.75348
 15 02 22 00 17 30.0000000  0  7G16G18G21G22G27G29G31
  21710643.340   114090217.00409  21710639.260    88901464.91248
  22970471.220   120710704.96309  22970469.040    94060308.37346
  21375304.420   112328197.62609  21375301.120    87528537.63948
  24143217.480   126873462.64308  24143217.140    98862435.87046
  22673845.860   119151899.76409  22673845.560    92845662.73147
  24213309.320   127242102.08808  24213307.800    99149806.61344
  22473218.980   118097580.21409  22473216.320    92024086.35548
 15 02 22 00 18  0.0000000  0  7G16G18G21G22G27G29G31
  21697474.660   114021015.71209  21697470.720    88847541.83648
  22959068.240   120650781.95908  22959066.020    94013615.16446
  21382793.140   112367551.01209  21382789.800    87559202.61148
  24126263.820   126784371.03408  24126263.680    98793014.13045
  22662520.060   119092382.09209  22662519.720    92799285.33848
  24227721.920   127317841.75608  24227720.460    99208824.52845
  22490030.620   118185926.09409  22490027.980    92092927.26048
 15 02 22 00 18 30.0000000  0  7G16G18G21G22G27G29G31
  21684347.940   113952034.94509  21684344.160    88793790.58748
  22947712.840   120591109.26808  22947710.540    93967117.00646
  21390349.520   112407260.05709  21390346.140    87590144.72248
  24109303.700   126695246.08208  24109303.760    98723566.48646
  22651219.420   119032996.91909  22651219.080    92753011.19648
  24242132.280   127393569.46808  24242130.840    99267833.14545
  22506888.520   118274515.02509  22506885.980    92161957.54048
 15 02 22 00 19  0.0000000  0  7G16G18G21G22G27G29G31
  21671263.520   113883276.64709  21671259.980    88740212.70348
  22936405.540   120531689.64708  22936403.300    93920816.05246
  21397973.160   112447322.58509  21397969.840    87621362.28048
  24092337.720   126606090.46108  24092337.840    98654095.01646
  22639943.980   118973744.06909  22639943.700    92706840.17348
  24256540.280   127469284.85708  24256538.860    99326832.14545
  22523792.160   118363344.13909  22523789.720    92231174.98948
 15 02 22 00 19 30.0000000  0  7G16G18G21G22G27G29G31
  21658221.660   113814741.71509  21658218.320    88686808.86648
  22925146.640   120472524.47708  22925144.560    93874713.35546
  21405663.680   112487736.38509  21405660.340    87652853.55148
  24075366.140   126516905.60408  24075366.280    98584600.93646
  22628693.360   118914622.09809  22628693.200    92660771.11748
  24270945.600   127544986.62308  24270944.460    99385820.49945
  22540740.840   118452409.61509  22540738.440    92300576.60948
 15 02 22 00 20  0.0000000  0  7G16G18G21G22G27G29G31
  21645223.120   113746434.32009  21645219.920    88633582.33048
  22913937.040   120413618.39609  22913935.040    93828812.55346
  21413421.000   112528501.42909  21413417.660    87684618.52148
  24058389.720   126427695.72808  24058389.640    98515087.39445
  22617468.020   118855632.97209  22617468.000    92614805.58448
  24285348.820   127620676.97207  24285347.940    99444799.98245
  22557734.340   118541710.59009  22557731.920    92370161.73848
 15 02 22 00 20 30.0000000  0  7G16G18G21G22G27G29G31
  21632267.800   113678353.80109  21632264.640    88580532.58848
  22902776.660   120354970.90509  22902774.700    93783113.24846
  21421244.320   112569613.50009  21421241.020    87716653.90148
  24041408.420   126338460.52508  24041408.120    98445554.01246
  22606267.440   118796773.95809  22606267.560    92568941.44648
  24299749.420   127696353.09808  24299748.660    99503768.37545
  22574771.640   118631241.49409  22574769.100    92439926.04548
 15 02 22 00 21  0.0000000  0  7G16G18G21G22G27G29G31
  21619356.680   113610505.24709  21619353.520    88527663.59148
  22891666.660   120296587.74209  22891664.700    93737619.89746
  21429134.000   112611074.02209  21429130.740    87748960.79548
  24024423.380   126249205.90508  24024423.060    98376005.47145
  22595092.260   118738047.89109  22595092.340    92523180.89348
  24314147.960   127772017.72408  24314147.260    99562727.80545
  22591852.660   118721002.53709  22591850.140    92509869.67048
 15 02 22 00 21 30.0000000  0  7G16G18G21G22G27G29G31
  21606489.840   113542888.85109  21606486.520    88474975.48348
  22880607.080   120238469.62408  22880605.160    93692333.08546
  21437089.240   112652879.11209  21437085.980    87781536.18148
  24007434.820   126159932.68208  24007434.320    98306442.36745
  22583942.040   118679452.75009  22583941.960    92477522.35048
  24328544.080   127847668.81508  24328543.200    99621676.67546
  22608976.540   118810989.06009  22608974.120    92579988.97548
 15 02 22 00 22  0.0000000  0  7G16G18G21G22G27G29G31
  21593667.380   113475505.71909  21593663.920    88422469.15848
  22869598.200   120180617.86408  22869596.360    93647253.83246
  21445109.440   112695025.78609  21445106.200    87814377.74648
  23990443.040   126070642.37208  23990442.380    98236865.92045
  22572816.520   118620987.35609  22572816.240    92431964.91448
  24342937.520   127923305.67308  24342936.480    99680614.47646
  22626142.540   118901196.97509  22626140.160    92650280.81648
 15 02 22 00 22 30.0000000  0  7G16G18G21G22G27G29G31
  21580890.020   113408360.10009  21580886.540    88370147.90448
  22858640.940   120123037.13709  22858639.040    93602385.77046
  21453194.840   112737514.75809  21453191.540    87847486.03548
  23973449.060   125981340.11708  23973448.300    98167280.17646
  22561716.080   118562653.88809  22561715.600    92386510.26848
  24357328.680   127998930.37108  24357327.480    99739542.77546
  22643350.620   118991625.78009  22643348.260    92720744.76748
 15 02 22 00 23  0.0000000  0  7G16G18G21G22G27G29G31
  21568158.200   113341453.96609  21568154.720    88318013.26048
  22847735.700   120065729.64009  22847733.700    93557730.61746
  21461344.960   112780343.89609  21461341.620    87880859.39248
  23956453.260   125892027.60808  23956452.400    98097686.40746
  22550640.640   118504451.81609  22550640.020    92341158.00848
  24371717.320   128074542.26708  24371716.040    99798461.10146
  22660600.080   119082272.14209  22660597.780    92791378.25048
 15 02 22 00 23 30.0000000  0  7G16G18G21G22G27G29G31
  21555472.280   113274789.21109  21555468.840    88266066.71748
  22836882.900   120008697.72609  22836880.720    93513290.19746
  21469559.580   112823511.79209  21469556.220    87914496.72248
  23939456.020   125802707.39908  23939455.020    98028086.63846
  22539590.140   118446380.87309  22539589.520    92295907.93948
  24386103.420   128150141.48308  24386102.060    99857369.54546
  22677890.360   119173133.16009  22677888.140    92862178.99948
 15 02 22 00 24  0.0000000  0  7G16G18G21G22G27G29G31
  21542833.200   113208370.64709  21542829.820    88214311.99548
  22826083.480   119951946.73509  22826081.320    93469068.68846
  21477838.840   112867019.39009  21477835.440    87948398.74448
  23922458.400   125713385.69608  23922457.380    97958485.66946
  22528565.080   118388443.92309  22528564.500    92250762.27048
  24400487.500   128225730.77008  24400486.220    99916270.25746
  22695221.520   119264208.97409  22695219.340    92933147.11648
 15 02 22 00 24 30.0000000  0  7G16G18G21G22G27G29G31
  21530240.400   113142195.29209  21530237.080    88162746.78748
  22815337.020   119895473.80109  22815334.860    93425063.84646
  21486181.460   112910859.90209  21486178.000    87982560.17348
  23905459.920   125624059.56008  23905458.800    97888881.22446
  22517564.440   118330635.54309  22517563.940    92205716.79548
  24414868.620   128301304.73108  24414867.440    99975159.01846
  22712591.940   119355491.22609  22712589.800    93004276.08748
 15 02 22 00 25  0.0000000  0  7G16G18G21G22G27G29G31
  21517695.100   113076269.37909  21517691.800    88111375.94448
  22804644.740   119839285.74509  22804642.520    93381280.97646
  21494587.800   112955035.24109  21494584.280    88016982.50748
  23888461.820   125534735.89108  23888460.620    97819278.70146
  22506588.940   118272959.68108  22506588.580    92160774.58248
  24429247.700   128376867.89208  24429246.640   100034039.37545
  22730001.980   119446981.35909  22729999.820    93075567.04248
 15 02 22 00 25 30.0000000  0  7G16G18G21G22G27G29G31
  21505197.260   113010592.58209  21505193.920    88060199.22348
  22794006.680   119783382.39408  22794004.320    93337719.95246
  21503057.180   112999541.60709  21503053.600    88051662.79348
  23871464.220   125445414.87908  23871463.040    97749678.23946
  22495638.140   118215413.87408  22495637.980    92115933.71248
  24443624.280   128452417.43707  24443623.260   100092909.13045
  22747450.580   119538674.12909  22747448.420    93147015.90948
 15 02 22 00 26  0.0000000  0  7G16G18G21G22G27G29G31
  21492746.820   112945164.68609  21492743.440    88009216.46048
  22783422.800   119727764.08908  22783420.500    93294381.06846
  21511588.860   113044375.01909  21511585.180    88086597.92548
  23854467.200   125356096.95408  23854466.060    97680080.18046
  22484711.740   118157995.80908  22484711.700    92071192.38348
  24457997.900   128527950.81907  24457996.780   100151766.27645
  22764936.700   119630564.46809  22764934.600    93218618.71948
 15 02 22 00 26 30.0000000  0  7G16G18G21G22G27G29G31
  21480344.480   112879989.60309  21480341.120    87958430.67948
  22772893.960   119672435.06908  22772891.780    93251267.59347
  21520182.680   113089535.33809  21520178.980    88121787.77348
  23837471.720   125266786.62208  23837470.420    97610488.01246
  22473810.080   118100707.28809  22473810.040    92026551.98348
  24472369.080   128603470.60207  24472367.840   100210612.78445
  22782460.180   119722651.04509  22782458.120    93290374.43248
 15 02 22 00 27  0.0000000  0  7G16G18G21G22G27G29G31
  21467990.360   112815067.89109  21467987.020    87907842.33248
  22762420.200   119617395.91608  22762418.200    93208379.98746
  21528837.960   113135019.11509  21528834.300    88157229.66748
  23820478.020   125177484.79608  23820476.500    97540902.45246
  22462932.800   118043546.32909  22462932.720    91982010.99048
  24486737.340   128678974.52907  24486735.780   100269446.98245
  22800020.320   119814929.49409  22800018.180    93362279.66648
 15 02 22 00 27 30.0000000  0  7G16G18G21G22G27G29G31
  21455685.480   112750405.17409  21455682.140    87857455.80748
  22752002.760   119562652.53008  22752000.880    93165722.84446
  21537555.060   113180828.19209  21537551.500    88192925.05048
  23803487.080   125088197.80008  23803485.540    97471328.46046
  22452080.520   117986516.51909  22452080.360    91937572.19348
  24501103.240   128754466.52907  24501101.460   100328271.89345
  22817617.080   119907400.35109  22817614.800    93434334.82648
 15 02 22 00 28  0.0000000  0  7G16G18G21G22G27G29G31
  21443430.220   112686003.43209  21443426.880    87807272.63348
  22741642.000   119508207.12308  22741640.140    93123297.89046
  21546333.640   113226960.58509  21546330.160    88228872.36548
  23786499.500   124998928.32308  23786497.920    97401768.10646
  22441253.080   117929617.37809  22441252.860    91893235.21248
  24515466.760   128829946.46107  24515464.800   100387087.39645
  22835249.880   120000060.51809  22835247.460    93506537.50447
 15 02 22 00 28 30.0000000  0  7G16G18G21G22G27G29G31
  21431224.940   112621864.41809  21431221.620    87757294.18548
  22731338.480   119454062.30909  22731336.660    93081107.17346
  21555173.440   113273414.87509  21555170.100    88265070.51548
  23769515.540   124909678.12808  23769513.960    97332222.76146
  22430450.380   117872848.63509  22430450.160    91848999.84348
  24529827.660   128905413.30807  24529825.660   100445892.69245
  22852918.000   120092906.77609  22852915.640    93578885.17947
 15 02 22 00 29  0.0000000  0  7G16G18G21G22G27G29G31
  21419070.200   112557991.01509  21419066.880    87707522.71048
  22721092.800   119400220.61109  22721090.840    93039152.64246
  21564074.260   113320189.54909  21564071.020    88301518.31548
  23752536.020   124820451.36708  23752534.500    97262695.67946
  22419672.580   117816211.05809  22419672.380    91804866.68348
  24544186.280   128980868.36308  24544184.320   100504688.81845
  22870621.180   120185937.44709  22870618.800    93651376.56147
 15 02 22 00 29 30.0000000  0  7G16G18G21G22G27G29G31
  21406966.280   112494384.71409  21406962.960    87657959.35948
  22710905.140   119346683.87809  22710903.000    92997435.73647
  21573035.560   113367281.62509  21573032.320    88338213.43748
  23735561.240   124731249.69908  23735559.720    97193188.13846
  22408919.540   117759703.56009  22408919.300    91760834.87648
  24558542.400   129056310.81308  24558540.580   100563475.10945
  22888358.680   120279148.67309  22888356.300    93724008.61847
 15 02 22 00 30  0.0000000  0  6G16G18G21G22G27G31
  21394915.980   112431060.30709  21394912.720    87608615.66548
  22700778.400   119293467.23809  22700776.220    92955968.25646
  21582059.560   113414702.74909  21582056.240    88375164.95748
  23718594.260   124642088.74008  23718592.660    97123712.28246
  22398193.640   117703338.82409  22398193.380    91716914.31148
  22906132.420   120372550.25209  22906130.080    93796789.00747
 15 02 22 00 30 30.0000000  0  6G16G18G21G22G27G31
  21382914.280   112367991.30609  21382911.100    87559471.00148
  22690707.600   119240544.39309  22690705.320    92914729.71147
  21591140.420   113462422.24209  21591136.920    88412348.97548
  23701630.100   124552942.39408  23701628.200    97054247.84146
  22387489.500   117647088.14209  22387489.240    91673082.63748
  22923936.400   120466110.55409  22923934.040    93869693.08347
 15 02 22 00 31  0.0000000  0  6G16G18G21G22G27G31
  21370965.400   112305199.71709  21370962.240    87510542.49348
  22680696.960   119187937.59109  22680694.620    92873737.42546
  21600281.420   113510457.75609  21600277.780    88449779.24248
  23684672.960   124463832.97008  23684670.780    96984812.15446
  22376810.820   117590971.25509  22376810.600    91629355.21548
  22941773.800   120559846.60009  22941771.520    93942734.09547
 15 02 22 00 31 30.0000000  0  7G16G18G19G21G22G27G31
  21359068.020   112242678.53209  21359064.860    87461824.69048
  22670745.140   119135640.16409  22670742.780    92832986.21146
  24553123.660   129027537.20008                                
  21609480.580   113558798.95609  21609476.780    88487447.70148
  23667721.740   124374754.24408  23667719.180    96915400.36846
  22366155.840   117534979.20909  22366155.740    91585725.07048
  22959642.380   120653746.53209  22959640.220    94015902.81247
 15 02 22 00 32  0.0000000  0  7G16G18G19G21G22G27G31
  21347216.500   112180398.53109  21347213.380    87413294.83248
  22660846.520   119083622.40709  22660844.120    92792452.92147
  24538278.420   128949524.72508  24538275.140   100480136.71745
  21618731.400   113607411.88409  21618727.500    88525327.90248
  23650771.020   124285677.89008  23650768.200    96845990.43746
  22355518.540   117479080.14909  22355518.560    91542167.38348
  22977535.500   120747775.72009  22977533.480    94089172.24547
 15 02 22 00 32 30.0000000  0  7G16G18G19G21G22G27G31
  21335425.380   112118436.04309  21335422.300    87365012.38148
  22651015.680   119031961.11309  22651013.260    92752197.40647
  24523459.640   128871650.84308  24523456.280   100419455.80545
  21628047.900   113656370.23309  21628043.980    88563477.25948
  23633835.320   124196680.64108  23633832.340    96776642.13846
  22344913.120   117423348.37209  22344913.200    91498740.04748
  22995466.860   120842005.62109  22995464.920    94162598.07547
 15 02 22 00 33  0.0000000  0  7G16G18G19G21G22G27G31
  21323687.480   112056753.09609  21323684.400    87316947.75048
  22641245.600   118980619.00909  22641243.040    92712190.59046
  24508659.400   128793875.30408  24508656.120   100358851.56645
  21637422.020   113705631.75209  21637418.180    88601862.85448
  23616907.480   124107724.79008  23616904.380    96707326.07946
  22334331.900   117367743.75409  22334331.980    91455411.79848
  23013428.320   120936393.51509  23013426.500    94236147.01647
 15 02 22 00 33 30.0000000  0  7G16G18G19G21G22G27G31
  21312003.080   111995351.21209  21311999.960    87269102.12648
  22631536.500   118929597.65709  22631533.920    92672433.71546
  24493877.700   128716197.03008  24493874.480   100298323.07645
  21646853.220   113755193.55009  21646849.480    88640482.43148
  23599987.940   124018812.83308  23599984.900    96638044.22746
  22323774.640   117312265.28609  22323774.700    91412181.82748
  23031419.160   121030935.68409  23031417.400    94309816.16247
 15 02 22 00 34  0.0000000  0  7G16G18G19G21G22G27G31
  21300373.020   111934234.88409  21300369.820    87221479.02148
  22621889.240   118878901.45709  22621886.740    92632930.22346
  24479115.120   128638619.17808  24479111.920   100237872.84645
  21656341.600   113805055.88809  21656338.000    88679336.19748
  23583077.700   123929949.64909  23583074.680    96568800.37047
  22313241.880   117256915.55309  22313241.880    91369052.19548
  23049439.320   121125631.53109  23049437.460    94383605.08147
 15 02 22 00 34 30.0000000  0  7G16G18G19G21G22G27G31
  21288797.880   111873407.12109  21288794.620    87174080.77848
  22612304.480   118828533.46309  22612302.040    92593682.46546
  24464371.720   128561142.37108  24464368.440   100177501.37245
  21665887.040   113855218.02909  21665883.520    88718423.59248
  23566177.480   123841139.19309  23566174.560    96499597.60546
  22302733.700   117201695.17709  22302733.700    91326023.35648
  23067488.280   121220479.05409  23067486.440    94457512.17647
 15 02 22 00 35  0.0000000  0  7G16G18G19G21G22G27G31
  21277277.840   111812868.73409  21277274.520    87126908.00948
  22602782.360   118778494.58009  22602780.060    92554691.15546
  24449647.220   128483765.09308  24449643.800   100117207.41446
  21675489.080   113905677.22409  21675485.580    88757742.43948
  23549287.500   123752382.66809  23549284.540    96430436.84746
  22292249.900   117146602.82509  22292249.840    91283094.26548
  23085565.340   121315474.10409  23085563.460    94531534.22147
 15 02 22 00 35 30.0000000  0  7G16G18G19G21G22G27G31
  21265813.300   111752622.02009  21265809.940    87079962.52448
  22593323.400   118728787.28009  22593321.200    92515958.22246
  24434941.680   128406487.63708  24434938.220   100056991.27845
  21685147.360   113956431.74909  21685143.840    88797291.41948
  23532408.260   123663682.55908  23532405.260    96361320.04546
  22281790.540   117091638.50709  22281790.360    91240264.94248
  23103669.940   121410613.89109  23103668.000    94605669.05147
 15 02 22 00 36  0.0000000  0  7G16G18G19G21G22G27G31
  21254404.660   111692669.13609  21254401.260    87033245.99748
  22583927.840   118679413.46109  22583925.760    92477485.14847
  24420255.140   128329309.93408  24420251.700    99996852.85546
  21694861.440   114007479.33709  21694857.900    88837068.75448
  23515540.360   123575042.12908  23515537.400    96292249.75246
  22271355.580   117036802.19909  22271355.280    91197535.37248
  23121801.480   121505895.55109  23121799.560    94679914.42647
 15 02 22 00 36 30.0000000  0  7G16G18G19G21G22G27G31
  21243052.620   111633013.78709  21243049.200    86986761.31648
  22574596.560   118630377.66109  22574594.540    92439275.46046
  24405587.980   128252233.66908  24405584.620    99936793.47746
  21704631.280   114058819.68809  21704627.620    88877074.21948
  23498684.640   123486465.56908  23498681.620    96223229.20946
  22260945.280   116982095.30109  22260944.800    91154906.63548
  23139959.760   121601317.63809  23139957.800    94754269.22847
 15 02 22 00 37  0.0000000  0  7G16G18G19G21G22G27G31
  21231757.120   111573655.49109  21231753.640    86940508.10748
  22565329.500   118581679.39109  22565327.520    92401328.80047
  24390939.640   128175256.24408  24390936.320    99876811.11546
  21714456.040   114110448.76709  21714452.320    88917304.67048
  23481841.220   123397953.31409  23481838.160    96154258.77946
  22250559.140   116927515.42009  22250558.560    91112376.87848
  23158143.740   121696874.85909  23158141.820    94828729.32447
 15 02 22 00 37 30.0000000  0  7G16G18G19G21G22G27G31
  21220518.820   111514597.69509  21220515.240    86894489.05548
  22556127.340   118533321.83009  22556125.240    92363647.60846
  24376310.340   128098378.98708  24376307.040    99816906.82246
  21724335.460   114162365.58209  21724331.780    88957759.32948
  23465010.680   123309508.42709  23465007.420    96085340.84446
  22240197.300   116873063.39409  22240196.700    91069946.73448
  23176353.080   121792565.40009  23176351.220    94903293.31447
 15 02 22 00 38  0.0000000  0  7G16G18G19G21G22G27G31
  21209337.640   111455840.37609  21209334.060    86848704.13348
  22546990.040   118485304.72109  22546987.860    92326231.70846
  24361699.700   128021599.61908  24361696.360    99757078.78246
  21734268.960   114214566.63209  21734265.340    88998435.46648
  23448193.260   123221132.44609  23448189.840    96016476.57646
  22229859.360   116818737.11409  22229858.780    91027614.58048
  23194586.820   121888384.10909  23194584.960    94977957.16547
 15 02 22 00 38 30.0000000  0  7G16G18G19G21G22G27G31
  21198215.380   111397392.68409  21198211.820    86803160.48548
  22537919.340   118437637.58709  22537917.080    92289088.51347
  24347108.980   127944925.04908  24347105.640    99697332.41746
  21744257.500   114267057.00809  21744253.920    89039337.06448
  23431390.720   123132834.90709  23431387.260    95947673.44346
  22219546.660   116764543.49909  22219546.100    90985385.80548
  23212845.720   121984335.20209  23212843.940    95052724.17447
 15 02 22 00 39  0.0000000  0  7G16G18G19G21G22G27G31
  21187150.860   111339248.62509  21187147.400    86757853.42448
  22528914.140   118390314.54209  22528911.780    92252213.42946
  24332536.660   127868347.45008  24332533.380    99637661.61246
  21754299.120   114319826.63009  21754295.660    89080456.24948
  23414602.060   123044610.35009  23414598.560    95878927.16147
  22209257.640   116710474.40709  22209257.140    90943254.06048
  23231127.720   122080407.82609  23231126.080    95127585.87147
 15 02 22 00 39 30.0000000  0  7G16G18G19G21G22G27G31
  21176145.140   111281413.42109  21176141.740    86712787.04148
  22519975.340   118343340.91309  22519973.020    92215610.64047
  24317983.340   127791869.78708  24317980.140    99578068.69746
  21764394.120   114372876.69909  21764390.740    89121793.97348
  23397828.300   122956464.53908  23397824.960    95810242.27047
  22198992.840   116656533.01609  22198992.520    90901221.83548
  23249432.900   122176602.07309  23249431.320    95202542.35347
 15 02 22 00 40  0.0000000  0  7G16G18G19G21G22G27G31
  21165198.640   111223889.35109  21165195.280    86667963.08748
  22511103.400   118296718.88709  22511101.240    92179281.80747
  24303449.140   127715492.01408  24303445.960    99518553.62946
  21774542.100   114426205.23709  21774538.800    89163348.67148
  23381070.180   122868400.62908  23381066.960    95741621.16647
  22188752.320   116602719.23009  22188752.160    90859289.02548
  23267760.700   122272915.05709  23267759.140    95277591.33347
 15 02 22 00 40 30.0000000  0  7G16G18G19G21G22G27G31
  21154311.700   111166678.38109  21154308.420    86623383.11348
  22502298.840   118250450.51209  22502296.740    92143228.56347
  24288933.900   127639214.18308  24288930.740    99459116.42646
  21784742.800   114479810.57209  21784739.560    89205119.06548
  23364328.200   122780421.04809  23364324.980    95673065.76747
  22178536.060   116549032.88409  22178536.000    90817455.52548
  23286110.620   122369343.94909  23286109.040    95352730.64947
 15 02 22 00 41  0.0000000  0  7G16G18G19G21G22G27G31
  21143484.540   111109781.65809  21143481.360    86579048.00348
  22493561.760   118204536.68909  22493559.580    92107451.57747
  24274437.440   127563035.30208  24274434.360    99399756.33146
  21794995.740   114533690.23009  21794992.540    89247103.21248
  23347602.560   122692527.23008  23347599.300    95604577.20147
  22168343.820   116495472.88409  22168343.800    90775720.47948
  23304481.860   122465884.87009  23304480.280    95427957.25347
 15 02 22 00 41 30.0000000  0  7G16G18G19G21G22G27G31
  21132717.820   111053202.44109  21132714.720    86534960.31248
  22484892.820   118158980.86309  22484890.560    92071953.56347
  24259960.020   127486956.58008  24259957.000    99340474.28646
  21805300.680   114587843.05509  21805297.520    89289300.22548
  23330894.100   122604723.83009  23330890.880    95536159.08947
  22158175.820   116442040.39809  22158175.860    90734084.79648
  23322873.980   122562535.70609  23322872.420    95503269.50747
 15 02 22 00 42  0.0000000  0  7G16G18G19G21G22G27G31
  21122012.040   110996943.39709  21122009.020    86491122.09248
  22476292.480   118113785.14309  22476290.100    92036736.14647
  24245501.700   127410978.12608  24245498.760    99281270.35746
  21815657.400   114642267.60209  21815654.160    89331708.96548
  23314203.380   122517013.88008  23314200.120    95467813.78247
  22148032.220   116388735.80109  22148032.300    90692548.76748
  23341286.640   122659294.52009  23341285.120    95578665.88547
 15 02 22 00 42 30.0000000  0  7G16G18G19G21G22G27G31
  21111367.720   110941007.10509  21111364.740    86447535.36948
  22467761.160   118068952.52009  22467758.640    92001801.65547
  24231062.600   127335100.47008  24231059.660    99222144.96446
  21826065.540   114696962.35109  21826062.240    89374328.24548
  23297530.880   122429400.26308  23297527.720    95399543.54447
  22137913.120   116335559.44109  22137913.180    90651112.65648
  23359719.400   122756158.82009  23359717.900    95654144.46047
 15 02 22 00 43  0.0000000  0  7G16G18G19G21G22G27G31
  21100785.020   110885394.45509  21100782.040    86404200.84948
  22459299.080   118024484.19209  22459296.540    91967151.04447
  24216642.460   127259322.51408  24216639.460    99163097.26546
  21836524.580   114751924.74309  21836521.240    89417156.09448
  23280876.860   122341884.55708  23280873.900    95331349.61547
  22127818.300   116282510.17009  22127818.260    90609775.58948
  23378171.420   122853124.14909  23378169.920    95729701.76747
 15 02 22 00 43 30.0000000  0  7G16G18G19G21G22G27G31
  21090264.340   110830107.46909  21090261.320    86361120.08348
  22450906.500   117980381.23009  22450904.020    91932785.13147
  24202241.300   127183644.11208  24202238.240    99104127.14646
  21847034.060   114807152.45709  21847030.700    89460190.67648
  23264242.040   122254469.56008  23264239.260    95263234.13447
  22117747.620   116229587.73509  22117747.420    90568537.34748
  23396641.980   122950187.60708  23396640.620    95805335.52647
 15 02 22 00 44  0.0000000  0  7G16G18G19G21G22G27G31
  21079806.100   110775148.49309  21079802.980    86318294.90448
  22442583.840   117936646.08009  22442581.520    91898705.81347
  24187859.160   127108065.45408  24187855.980    99045234.73446
  21857593.580   114862643.19009  21857590.220    89503430.20548
  23247627.020   122167158.10708  23247624.280    95195199.34947
  22107701.100   116176792.38009  22107700.780    90527398.13048
  23415130.760   123047346.63108  23415129.480    95881043.74247
 15 02 22 00 44 30.0000000  0  7G16G18G19G21G22G27G31
  21069410.580   110720519.17809  21069407.340    86275726.61748
  22434331.520   117893280.55709  22434329.360    91864914.52547
  24173495.920   127032586.08408  24173492.760    98986419.71246
  21868202.860   114918395.55109  21868199.540    89546873.61548
  23231032.260   122079952.67708  23231029.540    95127247.18147
  22097678.620   116124123.50109  22097678.240    90486357.46748
  23433637.080   123144597.71808  23433635.740    95956823.70547
 15 02 22 00 45  0.0000000  0  7G16G18G19G21G22G27G31
  21059078.500   110666223.45209  21059075.200    86233418.26048
  22426150.340   117850288.59709  22426148.260    91831414.31947
  24159151.880   126957207.87908  24159148.700    98927683.51446
  21878861.980   114974409.75709  21878858.680    89590521.04848
  23214458.660   121992858.01609  23214455.900    95059381.30947
  22087680.520   116071583.00209  22087680.080    90445416.83348
  23452160.680   123241939.94308  23452159.460    96032674.66847
 15 02 22 00 45 30.0000000  0  7G16G18G19G21G22G27G31
  21048809.520   110612259.71109  21048806.200    86191368.59348
  22418039.920   117807668.64409  22418037.900    91798203.99747
  24144826.280   126881927.05008  24144823.100    98869023.19146
  21889569.800   115030679.51609  21889566.480    89634367.60948
  23197906.040   121905873.06409  23197903.080    94991600.92147
  22077706.120   116019167.25009  22077705.680    90404573.40448
  23470700.380   123339366.82608  23470699.220    96108591.59247
 15 02 22 00 46  0.0000000  0  7G16G18G19G21G22G27G31
  21038604.840   110558634.23909  21038601.620    86149582.52148
  22410001.420   117765426.41909  22409999.340    91765288.01047
  24130520.020   126806747.48508  24130516.820    98810441.76546
  21900326.680   115087207.19409  21900323.380    89678415.15148
  23181375.620   121819004.78108  23181372.440    94923911.43647
  22067756.160   115966880.28809  22067755.780    90363830.33948
  23489256.440   123436879.23008  23489255.220    96184575.17247
 15 02 22 00 46 30.0000000  0  7G16G18G19G21G22G27G31
  21028464.520   110505346.85309  21028461.380    86108059.88748
  22402034.800   117723561.80609  22402032.660    91732666.25647
  24116232.640   126731667.00408  24116229.480    98751937.53946
  21911131.940   115143988.81109  21911128.580    89722660.56548
  23164867.300   121732253.62109  23164864.000    94856313.22647
  22057830.220   115914719.70509  22057829.900    90323185.74348
  23507827.980   123534472.56408  23507826.740    96260621.79547
 15 02 22 00 47  0.0000000  0  7G16G18G19G21G22G27G31
  21018389.440   110452402.31809  21018386.380    86066804.40948
  22394140.840   117682079.13909  22394138.700    91700342.12347
  24101964.640   126656688.66508  24101961.500    98693512.92146
  21921985.660   115201025.24809  21921982.280    89767104.53948
  23148382.240   121645624.88108  23148378.940    94788810.40647
  22047928.820   115862688.15109  22047928.600    90282641.69348
  23526414.860   123632146.42209  23526413.580    96336731.16947
 15 02 22 00 47 30.0000000  0  7G16G18G19G21G22G27G31
  21008379.380   110399799.11909  21008376.360    86025814.90948
  22386319.240   117640977.02909  22386317.140    91668314.53647
  24087715.400   126581808.59508  24087712.240    98635164.87846
  21932886.820   115258311.10409  21932883.460    89811742.86748
  23131920.360   121559118.04808  23131917.100    94721402.57247
  22038051.320   115810782.17609  22038051.180    90242195.50248
  23545015.840   123729894.22708  23545014.480    96412898.16247
 15 02 22 00 48  0.0000000  0  7G16G18G19G21G22G27G31
  20998435.220   110347541.91609  20998432.140    85985095.01548
  22378570.860   117600259.48809  22378568.780    91636586.60047
  24073485.200   126507028.82308  24073482.100    98576894.99146
  21943835.440   115315846.56409  21943832.100    89856575.69548
  23115482.620   121472738.07709  23115479.420    94654093.59447
  22028198.180   115759004.05209  22028198.120    90201848.92848
  23563630.820   123827715.56208  23563629.320    96489122.45847
 15 02 22 00 48 30.0000000  0  7G16G18G19G21G22G27G31
  20988556.760   110295630.02709  20988553.560    85944644.19148
  22370895.640   117559926.36009  22370893.600    91605158.21747
  24059273.740   126432346.86308  24059270.520    98518701.30546
  21954830.640   115373627.11609  21954827.380    89901599.49548
  23099069.200   121386485.21909  23099065.960    94586883.65947
  22018368.900   115707351.07109  22018368.840    90161599.86448
  23582258.700   123925604.66809  23582257.040    96565399.53647
 15 02 22 00 49  0.0000000  0  7G16G18G19G21G22G27G31
  20978744.920   110244068.30509  20978741.620    85904466.23148
  22363294.440   117519982.07609  22363292.380    91574032.83447
  24045081.360   126357765.46008  24045078.100    98460585.99046
  21965872.620   115431653.90909  21965869.480    89946815.18448
  23082681.100   121300364.88609  23082677.680    94519777.00047
  22008564.060   115655826.08909  22008563.880    90121450.55048
  23600899.420   124023561.55809  23600897.700    96641729.45747
 15 02 22 00 49 30.0000000  0  7G16G18G19G21G22G27G31
  20968999.540   110192855.93509  20968996.240    85864560.49548
  22355767.280   117480426.07909  22355765.080    91543210.00747
  24030907.660   126283282.13508  24030904.380    98402547.08846
  21976960.560   115489922.42508  21976957.540    89992219.22748
  23066318.220   121214377.15609  23066314.640    94452773.66647
  21998783.100   115604426.42409  21998782.800    90081398.88048
  23619551.980   124121580.91609  23619550.260    96718108.03647
 15 02 22 00 50  0.0000000  0  7G16G18G19G21G22G27G31
  20959321.200   110141996.20709  20959317.960    85824929.54448
  22348314.380   117441260.02109  22348311.960    91512691.02647
  24016752.760   126208897.29408  24016749.400    98344584.93746
  21988094.160   115548430.85009  21988091.260    90037810.20948
  23049981.320   121128525.70709  23049977.480    94385876.50347
  21989026.160   115553152.63609  21989025.680    90041445.28748
  23638216.000   124219660.33309  23638214.180    96794533.41346
 15 02 22 00 50 30.0000000  0  7G16G18G19G21G22G27G31
  20949710.820   110091493.69209  20949707.640    85785576.94148
  22340936.620   117402489.20209  22340933.980    91482480.01947
  24002617.080   126134613.44008  24002613.700    98286701.45246
  21999273.780   115607180.53309  21999270.900    90083589.19648
  23033671.260   121042815.66609  23033667.300    94319089.54247
  21979293.700   115502007.47209  21979293.020    90001591.92748
  23656891.360   124317799.71208  23656889.620    96871005.51347
 15 02 22 00 51  0.0000000  0  7G16G18G19G21G22G27G31
  20940168.420   110041348.34409  20940165.280    85746502.64248
  22333634.040   117364113.50509  22333631.260    91452576.89647
  23988500.280   126060428.79808  23988496.780    98228895.28146
  22010498.700   115666167.89109  22010495.720    90129553.36948
  23017388.380   120957248.23109  23017384.260    94252413.68647
  21969585.320   115450989.03909  21969584.500    89961837.30648
  23675577.260   124415994.09409  23675575.540    96947520.46047
 15 02 22 00 51 30.0000000  0  7G16G18G19G21G22G27G31
  20930694.980   109991565.40409  20930691.840    85707710.76148
  22326407.460   117326137.44209  22326404.640    91422985.20447
  23974402.780   125986346.42208  23974399.300    98171168.81746
  22021769.000   115725393.49709  22021765.920    90175703.20547
  23001133.620   120871828.87809  23001129.460    94185853.23947
  21959901.500   115400100.25609  21959900.720    89922183.74148
  23694273.680   124514243.94508  23694272.000    97024078.64846
 15 02 22 00 52  0.0000000  0  7G16G18G19G21G22G27G31
  20921290.100   109942142.70909  20921286.980    85669199.56848
  22319256.480   117288558.85909  22319253.620    91393703.21047
  23960324.000   125912362.15108  23960320.340    98113518.76946
  22033083.560   115784851.51109  22033080.300    90222034.11648
  22984906.620   120786556.17409  22984902.580    94119407.05247
  21950241.460   115349336.96309  21950240.840    89882627.94048
  23712979.180   124612541.86908  23712977.660    97100674.26746
 15 02 22 00 52 30.0000000  0  7G16G18G19G21G22G27G31
  20911954.480   109893083.66909  20911951.320    85630971.75148
  22312181.760   117251381.06209  22312178.860    91364733.52047
  23946264.120   125838477.18808  23946260.220    98055946.10646
  22044442.320   115844541.49409  22044438.860    90268545.79047
  22968708.400   120701434.79409  22968704.480    94053078.77847
  21940605.600   115298700.72109  21940605.160    89843171.15548
  23731693.660   124710886.74908  23731692.280    97177306.47046
 15 02 22 00 53  0.0000000  0  7G16G18G19G21G22G27G31
  20902689.260   109844394.31009  20902686.040    85593031.99048
  22305184.240   117214609.15609  22305181.340    91336080.12047
  23932223.680   125764695.00808  23932219.800    97998453.55346
  22055845.640   115904465.58809  22055842.040    90315239.89047
  22952540.080   120616470.90809  22952536.380    93986873.23647
  21930994.620   115248195.26609  21930994.320    89803816.27448
  23750417.200   124809279.22508  23750415.960    97253975.75347
 15 02 22 00 53 30.0000000  0  7G16G18G19G21G22G27G31
  20893493.220   109796068.66209  20893489.940    85555375.64848
  22298262.980   117178237.62709  22298260.000    91307738.68947
  23918201.420   125691008.42308  23918197.600    97941035.48846
  22067291.600   115964613.87009  22067287.860    90362108.68347
  22936400.800   120531659.45709  22936397.260    93920786.46947
  21921407.120   115197812.82309  21921406.860    89764557.24448
  23769147.800   124907708.99508  23769146.800    97330674.08946
 15 02 22 00 54  0.0000000  0  7G16G18G19G21G22G27G31
  20884367.880   109748114.55809  20884364.520    85518008.81448
  22291419.260   117142273.57509  22291416.240    91279714.77347
  23904198.440   125617422.60308  23904194.560    97883695.92246
