     2.11           OBSERVATION DATA    G                   RINEX VERSION / TYPE
SPIDER V4,0,0,3554                      2015 03 24 01:40    PGM / RUN BY / DATE 
OJGS                                                        MARKER NAME         
OJGS                                                        MARKER NUMBER       
                                                            OBSERVER / AGENCY   
496552              LEICA GRX1200+GNSS  8.20/4.007          REC # / TYPE / VERS 
10401003            LEIAR25         NONE                    ANT # / TYPE        
  5198100.9450    88691.2920  3684205.7148                  APPROX POSITION XYZ 
        0.1200        0.0000        0.0000                  ANTENNA: DELTA H/E/N
     1     1                                                WAVELENGTH FACT L1/2
     4    C1    L1    P2    L2                              # / TYPES OF OBSERV 
    30.000                                                  INTERVAL            
  2015    02    22    07    05    0.0000000     GPS         TIME OF FIRST OBS   
  2015    02    22    23    59   30.0000000     GPS         TIME OF LAST OBS    
    16                                                      LEAP SECONDS        
    30                                                      # OF SATELLITES     
   G 1   323   323   323   323                              PRN / # OF OBS      
   G 2   925   924   924   924                              PRN / # OF OBS      
   G 3   459   459   459   459                              PRN / # OF OBS      
   G 4   184   184   184   184                              PRN / # OF OBS      
   G 5   674   674   674   674                              PRN / # OF OBS      
   G 6   730   730   730   730                              PRN / # OF OBS      
   G 7   645   645   645   645                              PRN / # OF OBS      
   G 9   739   739   739   739                              PRN / # OF OBS      
   G10   784   784   784   784                              PRN / # OF OBS      
   G11   225   225   225   225                              PRN / # OF OBS      
   G12   811   811   811   811                              PRN / # OF OBS      
   G13   821   821   821   821                              PRN / # OF OBS      
   G14   520   520   519   519                              PRN / # OF OBS      
   G15   733   732   732   732                              PRN / # OF OBS      
   G16   156   156   156   156                              PRN / # OF OBS      
   G17   781   781   781   781                              PRN / # OF OBS      
   G18   471   471   470   470                              PRN / # OF OBS      
   G19     5     5     5     5                              PRN / # OF OBS      
   G20   811   811   811   811                              PRN / # OF OBS      
   G21   333   328   324   323                              PRN / # OF OBS      
   G22   168   168   167   167                              PRN / # OF OBS      
   G23   555   555   555   555                              PRN / # OF OBS      
   G24   841   841   841   841                              PRN / # OF OBS      
   G25   807   806   806   806                              PRN / # OF OBS      
   G27   109   109   109   109                              PRN / # OF OBS      
   G28   573   573   573   573                              PRN / # OF OBS      
   G29   649   649   649   649                              PRN / # OF OBS      
   G30   691   691   690   690                              PRN / # OF OBS      
   G31   594   594   594   594                              PRN / # OF OBS      
   G32   192   192   192   192                              PRN / # OF OBS      
BIT 2 OF LLI FLAGS DATA COLLECTED UNDER A/S CONDITION       COMMENT             
SNR is mapped to RINEX snr flag value [2-9]                 COMMENT             
Lx:     = 25dBHz -> 1; 26-27dBHz -> 2; 28-31dBHz -> 3       COMMENT             
       32-35dBHz -> 4; 36-38dBHz -> 5; 39-41dBHz -> 6       COMMENT             
       42-44dBHz -> 7; 45-48dBHz -> 8; >=49dBHz -> 9        COMMENT             
                                                            END OF HEADER       
 15 02 22 07 05  0.0000000  0 10G01G03G04G09G11G17G19G23G31G32
  20556126.300   108023172.24609  20556127.180    84173903.89949
  20455943.780   107496709.47109  20455944.220    83763671.54248
  21887501.340   115019594.48609  21887500.460    89625655.23248
  23794487.740   125040876.52608  23794488.800    97434454.47046
  21064482.500   110694602.40409  21064480.200    86255524.54648
  22495453.820   118214406.92009  22495451.800    92115114.79448
  25066948.960   131727703.39108  25066948.920   102644964.96946
  21709994.840   114086792.37309  21709991.240    88898784.37348
  24393351.500   128187927.70008  24393352.140    99886697.81846
  22131824.620   116303522.33208  22131823.380    90626114.51947
 15 02 22 07 05 30.0000000  0 10G01G03G04G09G11G17G19G23G31G32
  20559052.620   108038549.87809  20559053.440    84185886.51649
  20456752.240   107500957.89709  20456752.680    83766982.05148
  21900164.920   115086141.86909  21900164.040    89677510.37148
  23773582.340   124931017.93308  23773583.480    97348850.44246
  21076709.020   110758853.59209  21076706.820    86305590.42348
  22483052.660   118149238.55809  22483050.700    92064334.29948
  25087981.420   131838229.55108  25087981.380   102731089.12746
  21695706.020   114011704.17509  21695702.440    88840274.16348
  24388966.780   128164886.40108  24388967.440    99868743.58046
  22146340.660   116379804.43209  22146339.320    90685555.12347
 15 02 22 07 06  0.0000000  0 10G01G03G04G09G11G17G19G23G31G32
  20562042.660   108054262.42009  20562043.480    84198130.09149
  20457612.200   107505476.85909  20457612.580    83770503.35949
  21912879.400   115152956.88609  21912878.540    89729574.03748
  23752701.600   124821289.15108  23752702.780    97263347.55247
  21089009.700   110823494.26709  21089007.600    86355959.80148
  22470734.760   118084507.88009  22470732.920    92013894.85348
  25109014.960   131948760.72208  25109014.820   102817217.18946
  21681485.920   113936977.07209  21681482.320    88782045.31648
  24384667.800   128142294.74808  24384668.320    99851139.69746
  22160875.320   116456184.09809  22160873.840    90745071.75747
 15 02 22 07 06 30.0000000  0 10G01G03G04G09G11G17G19G23G31G32
  20565097.800   108070317.09009  20565098.620    84210640.25449
  20458524.740   107510271.92409  20458525.040    83774239.81048
  21925646.000   115220045.81709  21925645.160    89781851.13648
  23731847.300   124711699.19108  23731848.480    97177952.83546
  21101385.680   110888530.22109  21101383.580    86406637.17848
  22458501.980   118020224.41509  22458500.220    91963803.88548
  25130050.200   132059301.24707  25130050.120   102903352.51246
  21667336.240   113862619.59409  21667332.540    88724104.47648
  24380455.920   128120160.58408  24380456.320    99833892.28146
  22175429.460   116532666.38808  22175427.840    90804668.35547
 15 02 22 07 07  0.0000000  0 10G01G03G04G09G11G17G19G23G31G32
  20568217.400   108086710.63509  20568218.220    84223414.47649
  20459488.880   107515338.20409  20459489.140    83778187.60048
  21938463.900   115287404.28909  21938463.080    89834338.26748
  23711019.080   124602246.41108  23711020.340    97092665.02246
  21113835.940   110953956.37409  21113833.840    86457618.60448
  22446353.900   117956385.77709  22446352.080    91914059.51648
  25151086.120   132169844.94107  25151086.040   102989490.32046
  21653256.480   113788629.61209  21653252.700    88666450.00248
  24376330.780   128098481.98608  24376330.940    99816999.87645
  22190002.060   116609245.78909  22190000.500    90864340.61447
 15 02 22 07 07 30.0000000  0  9G01G03G04G09G11G17G23G31G32
  20571402.420   108103447.72109  20571403.220    84236456.36549
  20460505.220   107520678.69909  20460505.420    83782349.03949
  21951333.820   115355035.80209  21951333.000    89887038.13348
  23690218.200   124492937.22008  23690219.460    97007489.07846
  21126361.020   111019775.58909  21126358.880    86508906.30148
  22434291.540   117892997.98409  22434289.620    91864666.45448
  21639247.840   113715013.38809  21639244.020    88609086.74248
  24372293.480   128077264.70708  24372293.480    99800466.89446
  22204593.680   116685924.86809  22204592.160    90924090.53947
 15 02 22 07 08  0.0000000  0  9G01G03G04G09G11G17G23G31G32
  20574651.460   108120521.36509  20574652.260    84249760.52249
  20461572.060   107526284.77709  20461572.240    83786717.43348
  21964254.200   115422932.32109  21964253.300    89939944.50748
  23669443.620   124383766.27308  23669444.960    96922420.86946
  21138959.260   111085979.35609  21138957.040    86560493.65448
  22422314.080   117830056.25309  22422312.160    91815620.96748
  21625309.100   113641764.77309  21625305.340    88552009.94248
  24368342.760   128056502.69708  24368342.540    99784288.69946
  22219202.440   116762694.55109  22219200.960    90983911.06347
 15 02 22 07 08 30.0000000  0  9G01G03G04G09G11G17G23G31G32
  20577966.200   108137940.15009  20577966.980    84263333.61749
  20462690.740   107532163.39009  20462690.980    83791298.19449
  21977226.460   115491101.44809  21977225.460    89993063.30747
  23648697.360   124274743.94808  23648698.660    96837468.47047
  21151631.880   111152574.28709  21151629.640    86612385.81148
  22410423.400   117767570.52909  22410421.520    91766930.81248
  21611442.120   113568893.35709  21611438.400    88495227.06048
  24364480.480   128036205.48508  24364480.280    99768472.69346
  22233829.680   116839561.19009  22233828.360    91043807.13947
 15 02 22 07 09  0.0000000  0  9G01G03G04G09G11G17G23G31G32
  20581346.200   108155701.80709  20581346.940    84277173.87449
  20463860.540   107538310.59409  20463860.840    83796088.23749
  21990249.880   115559539.59009  21990248.840    90046391.71647
  23627979.200   124165869.59308  23627980.580    96752631.37347
  21164378.200   111219556.51409  21164375.980    86664579.74148
  22398619.260   117705539.42609  22398617.400    91718594.90048
  21597646.740   113496398.03509  21597643.000    88438737.23248
  24360706.360   128016371.86508  24360706.020    99753017.92446
  22248474.520   116916520.23309  22248473.260    91103775.21347
 15 02 22 07 09 30.0000000  0  9G01G03G04G09G11G17G23G31G32
  20584790.860   108173803.19709  20584791.580    84291278.85549
  20465080.580   107544721.69009  20465080.920    83801083.90649
  22003323.680   115628242.76809  22003322.620    90099926.62947
  23607289.000   124057141.90308  23607290.380    96667908.55347
  21177197.340   111286921.14409  21177195.100    86717071.64348
  22386901.460   117643961.88209  22386899.480    91670612.38848
  21583922.620   113424277.13009  21583918.840    88382539.14748
  24357020.040   127996999.50008  24357019.600    99737922.57746
  22263136.040   116993566.61309  22263134.680    91163811.32047
 15 02 22 07 10  0.0000000  0  9G01G03G04G09G11G17G23G31G32
  20588301.320   108192250.36109  20588302.020    84305653.27449
  20466351.640   107551401.05309  20466351.980    83806288.62148
  22016448.820   115697215.67809  22016447.760    90153671.73147
  23586628.140   123948568.45808  23586629.520    96583305.92646
  21190090.060   111354672.27009  21190087.800    86769864.72048
  22375271.360   117582845.33309  22375269.420    91622989.12248
  21570271.060   113352537.67409  21570267.240    88326638.29948
  24353422.840   127978095.67108  24353422.360    99723192.32146
  22277814.900   117070704.13009  22277813.560    91223918.45247
 15 02 22 07 10 30.0000000  0 10G01G03G04G09G11G17G20G23G31G32
  20591877.440   108211042.83309  20591878.140    84320296.75749
  20467673.360   107558346.64109  20467673.700    83811700.77849
  22029625.060   115766457.06909  22029624.060    90207626.02547
  23565996.860   123840150.65708  23565998.200    96498824.57847
  21203055.960   111422807.93809  21203053.600    86822957.43648
  22363729.120   117522190.77309  22363727.220    91575725.82248
  24544435.400   128981878.34908  24544434.120   100505355.69744
  21556692.280   113281180.40709  21556688.360    88271035.25048
  24349914.780   127959660.32908  24349914.240    99708827.13346
  22292510.540   117147930.33409  22292509.300    91284094.68447
 15 02 22 07 11  0.0000000  0 10G01G03G04G09G11G17G20G23G31G32
  20595517.940   108230173.76609  20595518.680    84335203.98149
  20469044.120   107565549.99209  20469044.560    83817313.78549
  22042850.820   115835958.77809  22042849.900    90261783.16847
  23545394.200   123731883.31608  23545395.580    96414460.46847
  21216093.280   111491319.28809  21216090.900    86876342.89148
  22352273.760   117461992.80209  22352271.840    91528818.31448
  24528553.360   128898415.44307  24528551.640   100440319.61045
  21543185.120   113210199.55709  21543181.140    88215725.52448
  24346494.740   127941687.73408  24346494.280    99694822.54946
  22307221.500   117225236.42009  22307220.280    91344333.17647
 15 02 22 07 11 30.0000000  0 10G01G03G04G09G11G17G20G23G31G32
  20599224.960   108249654.55309  20599225.780    84350383.81549
  20470465.800   107573020.90009  20470466.280    83823135.28648
  22056128.080   115905731.07209  22056127.200    90316151.16047
  23524822.720   123623779.64608  23524824.140    96330223.89447
  21229203.940   111560216.27209  21229201.580    86930028.83448
  22340907.820   117402264.35809  22340905.780    91482276.66348
  24512691.300   128815057.68708  24512689.100   100375365.47244
  21529751.940   113139607.55709  21529747.940    88160718.78848
  24343165.200   127924190.55508  24343164.840    99681188.41046
  22321949.260   117302631.61809  22321948.240    91404641.07147
 15 02 22 07 12  0.0000000  0 10G01G03G04G09G11G17G20G23G31G32
  20602998.280   108269483.78309  20602999.180    84365835.16849
  20471937.820   107580756.36209  20471938.280    83829162.91848
  22069456.300   115975771.37709  22069455.500    90370727.97547
  23504282.420   123515839.86708  23504283.800    96246115.03747
  21242387.380   111629495.54609  21242385.040    86984012.66948
  22329631.260   117343005.35909  22329629.180    91436100.81248
  24496848.680   128731803.28707  24496846.380   100310491.86745
  21516392.740   113069404.32409  21516388.780    88106014.99548
  24339925.920   127907168.10808  24339925.580    99667924.17646
  22336693.420   117380112.41508  22336692.480    91465015.69047
 15 02 22 07 12 30.0000000  0 10G01G03G04G09G11G17G20G23G31G32
  20606838.040   108289662.07609  20606839.040    84381558.49449
  20473459.980   107588755.39809  20473460.420    83835395.93048
  22082835.540   116046079.61609  22082834.820    90425513.56247
  23483773.780   123408066.35708  23483775.140    96162135.71647
  21255643.400   111699156.02509  21255641.040    87038293.53648
  22318444.360   117284217.68509  22318442.340    91390292.23048
  24481025.520   128648652.14608  24481023.500   100245698.70445
  21503107.860   112999591.76909  21503103.920    88051615.61248
  24336777.180   127890621.61208  24336776.880    99655030.81046
  22351453.580   117457677.49809  22351452.700    91525455.95747
 15 02 22 07 13  0.0000000  0 10G01G03G04G09G11G17G20G23G31G32
  20610744.100   108310188.81209  20610745.240    84397553.35249
  20475031.940   107597015.86709  20475032.320    83841832.66348
  22096265.400   116116653.66009  22096264.740    90480506.27447
  23463296.980   123300460.31208  23463298.240    96078286.89347
  21268971.420   111769194.93009  21268969.000    87092869.28248
  22307347.360   117225902.51109  22307345.360    91344851.82948
  24465221.920   128565603.45808  24465220.040   100180985.42244
  21489897.320   112930170.10209  21489893.480    87997520.82748
  24333719.040   127874551.43808  24333718.880    99642508.60146
  22366229.300   117535324.21008  22366228.360    91585959.86447
 15 02 22 07 13 30.0000000  0 10G01G03G04G09G11G17G20G23G31G32
  20614716.180   108331062.41709  20614717.400    84413818.48649
  20476653.080   107605534.62109  20476653.380    83848470.65948
  22109745.420   116187491.26509  22109744.800    90535704.35547
  23442852.040   123193021.87108  23442853.360    95994568.66647
  21282370.920   111839609.33709  21282368.440    87147737.63048
  22296340.200   117168059.82109  22296338.220    91299779.59548
  24449437.600   128482655.45008  24449435.680   100116350.53744
  21476761.140   112861139.02109  21476757.340    87943730.38848
  24330751.420   127858957.08008  24330751.460    99630357.18247
  22381019.840   117613049.04308  22381018.940    91646524.62847
 15 02 22 07 14  0.0000000  0 10G01G03G04G09G11G17G20G23G31G32
  20618754.380   108352283.43309  20618755.680    84430354.32649
  20478323.120   107614310.62509  20478323.400    83855309.10648
  22123275.420   116258591.44509  22123274.800    90591107.04647
  23422439.480   123085753.32808  23422440.840    95910982.82147
  21295841.580   111910397.95109  21295839.140    87202897.56148
  22285423.320   117110691.57609  22285421.420    91255077.06948
  24433672.460   128399808.05607  24433670.500   100051794.04845
  21463699.580   112792499.92109  21463695.760    87890245.38948
  24327874.600   127843839.78108  24327874.880    99618577.48446
  22395824.980   117690850.54308  22395824.100    91707149.13447
 15 02 22 07 14 30.0000000  0 10G01G03G04G09G11G17G20G23G31G32
  20622859.260   108373854.86209  20622860.660    84447163.21449
  20480042.400   107623345.30809  20480042.660    83862349.11248
  22136855.800   116329956.39609  22136855.200    90646716.04147
  23402060.200   122978659.42608  23402061.540    95827533.06047
  21309383.600   111981561.73409  21309381.200    87258349.82648
  22274597.480   117053801.64009  22274595.580    91210747.23648
  24417926.840   128317063.87507  24417925.000    99987317.98145
  21450713.400   112724257.17309  21450709.600    87837069.23148
  24325089.360   127829203.16908  24325089.660    99607172.33547
  22410644.880   117768729.79808  22410644.040    91767834.22547
 15 02 22 07 15  0.0000000  0 10G01G03G04G09G11G17G20G23G31G32
  20627031.440   108395779.81109  20627032.900    84464247.56549
  20481811.200   107632640.30209  20481811.420    83869591.96948
  22150486.900   116401588.13109  22150486.360    90702532.92047
  23381715.120   122871745.07308  23381716.380    95744223.19547
  21322997.240   112053102.14409  21322994.940    87314095.57447
  22263863.680   116997395.08709  22263861.760    91166794.07248
  24402201.320   128234425.86508  24402199.520    99922924.64745
  21437803.400   112656414.88909  21437799.660    87784205.12348
  24322396.320   127815051.38808  24322396.680    99596144.97746
  22425479.860   117846687.96008  22425479.200    91828580.80447
 15 02 22 07 15 30.0000000  0 10G01G03G04G09G11G17G20G23G31G32
  20631269.800   108418052.38509  20631271.260    84481602.80749
  20483628.120   107642188.10209  20483628.320    83877031.81748
  22164167.420   116473479.57309  22164166.900    90758552.17047
  23361403.420   122765006.11108  23361404.640    95661050.00047
  21336681.140   112125011.63709  21336678.900    87370128.91848
  22253221.080   116941467.34209  22253219.000    91123214.00348
  24386494.900   128151887.34808  24386492.940    99858608.84445
  21424968.660   112588968.30109  21424964.960    87731649.35148
  24319794.600   127801379.27508  24319795.040    99585491.39347
  22440328.320   117924717.13908  22440327.760    91889382.72647
 15 02 22 07 16  0.0000000  0 10G01G03G04G09G11G17G20G23G31G32
  20635575.220   108440677.32809  20635576.640    84499232.61249
  20485493.760   107651992.02209  20485493.980    83884671.21948
  22177898.120   116545634.44909  22177897.560    90814776.67347
  23341126.300   122658449.09208  23341127.560    95578018.57347
  21350435.780   112197293.00809  21350433.640    87426452.02147
  22242670.700   116886024.26709  22242668.640    91080011.58548
  24370808.220   128069453.12508  24370806.380    99794374.28045
  21412210.320   112521923.14709  21412206.600    87679406.37648
  24317285.220   127788192.52108  24317285.620    99575215.98146
  22455190.840   118002820.17908  22455190.160    91950242.20247
 15 02 22 07 16 30.0000000  0 10G01G03G04G09G11G17G20G23G31G32
  20639947.800   108463655.43809  20639949.260    84517137.61549
  20487408.000   107662051.25309  20487408.220    83892509.58148
  22191678.820   116618052.19109  22191678.360    90871206.03147
  23320884.300   122552076.58008  23320885.580    95495130.91647
  21364261.080   112269945.33409  21364258.960    87483064.20347
  22232213.080   116831068.67409  22232211.100    91037189.05848
  24355141.360   127987123.18108  24355139.700    99730221.00145
  21399528.720   112455281.23609  21399525.020    87627477.62048
  24314868.460   127775492.39808  24314868.920    99565319.78546
  22470067.180   118080996.06808  22470066.580    92011158.43847
 15 02 22 07 17  0.0000000  0 10G01G03G04G09G11G17G20G23G31G32
  20644387.620   108486986.95509  20644389.100    84535317.99949
  20489370.560   107672364.60709  20489370.860    83900545.94648
  22205509.440   116690732.32709  22205508.940    90927839.83847
  23300677.780   122445890.63208  23300679.040    95412388.62147
  21378156.720   112342967.09509  21378154.580    87539964.23947
  22221848.460   116776601.78509  22221846.460    90994747.31448
  24339494.560   127904898.01408  24339493.080    99666149.34845
  21386924.180   112389044.15509  21386920.520    87575864.31848
  24312544.420   127763280.09208  24312544.960    99555803.70146
  22484957.100   118159243.16008  22484956.520    92072130.16547
 15 02 22 07 17 30.0000000  0 10G01G03G04G09G11G17G20G23G31G32
  20648894.340   108510669.73709  20648895.800    84553772.08649
  20491380.780   107682928.39309  20491381.100    83908777.44948
  22219389.300   116763671.43109  22219388.820    90984675.43247
  23280506.720   122339890.81308  23280507.960    95329791.36147
  21392121.820   112416354.31409  21392119.740    87597149.04247
  22211576.700   116722622.74609  22211574.580    90952685.70748
  24323867.160   127822774.66107  24323865.640    99602157.02944
  21374396.480   112323210.62809  21374392.800    87524565.46048
  24310313.040   127751554.29808  24310313.680    99546666.72547
  22499859.900   118237557.51108  22499859.240    92133154.30047
 15 02 22 07 18  0.0000000  0 10G01G03G04G09G11G17G20G23G31G32
  20653468.980   108534709.31909  20653470.400    84572504.20649
  20493439.440   107693746.68209  20493439.840    83917207.27048
  22233319.280   116836874.00109  22233318.840    91041716.33247
  23260372.480   122234084.53108  23260373.660    95247344.91247
  21406157.160   112490110.41809  21406155.080    87654621.29747
  22201399.180   116669138.96009  22201396.900    90911010.01748
  24308259.920   127740757.92707  24308258.300    99538247.81845
  21361946.840   112257787.43609  21361943.160    87473586.35848
  24308175.320   127740320.99508  24308176.100    99537913.51246
  22514776.160   118315942.74208  22514775.560    92194233.66847
 15 02 22 07 18 30.0000000  0 10G01G03G04G09G11G17G20G23G31G32
  20658110.660   108559101.00309  20658112.020    84591510.69849
  20495545.380   107704813.34009  20495545.820    83925830.62248
  22247298.340   116910334.44709  22247297.920    91098958.16847
  23240274.540   122128468.85908  23240275.640    95165046.98247
  21420261.580   112564229.43809  21420259.540    87712376.33647
  22191315.220   116616146.75409  22191312.840    90869717.37548
  24292672.060   127658843.85608  24292670.660    99474418.63244
  21349574.520   112192770.53209  21349570.860    87422923.84348
  24306130.620   127729576.26808  24306131.520    99529541.00846
  22529704.720   118394392.36608  22529703.980    92255363.20246
 15 02 22 07 19  0.0000000  0 10G01G03G04G09G11G17G20G23G31G32
  20662819.920   108583847.95009  20662821.240    84610794.00149
  20497698.860   107716130.00609  20497699.360    83934648.76548
  22261326.900   116984054.69409  22261326.560    91156402.43047
  23220213.800   122023048.79108  23220214.840    95082901.45847
  21434435.260   112638712.32209  21434433.260    87770414.89348
  22181325.640   116563650.86809  22181323.220    90828811.46348
  24277104.320   127577035.02208  24277103.180    99410671.41145
  21337280.360   112128164.34109  21337276.740    87372581.34848
  24304179.720   127719324.26108  24304180.540    99521552.43746
  22544645.840   118472907.74808  22544644.960    92316543.96047
 15 02 22 07 19 30.0000000  0 10G01G03G04G09G11G17G20G23G31G32
  20667596.400   108608948.38009  20667597.720    84630352.76749
  20499899.340   107727693.49109  20499899.880    83943659.25448
  22275404.360   117058031.68009  22275403.920    91214046.77247
  23200190.200   121917824.27008  23200191.320    95000908.32947
  21448677.500   112713555.41209  21448675.480    87828734.14647
  22171430.300   116511650.31409  22171427.840    90788291.53848
  24261556.280   127495328.71908  24261554.820    99347004.10745
  21325064.300   112063968.49409  21325060.700    87322558.61848
  24302322.220   127709563.55308  24302323.140    99513946.72947
  22559598.760   118551485.26408  22559597.780    92377773.17047
 15 02 22 07 20  0.0000000  0 10G01G03G04G09G11G17G20G23G31G32
  20672441.200   108634407.87609  20672442.520    84650191.30749
  20502147.540   107739507.88809  20502148.160    83952865.24548
  22289531.580   117132270.16509  22289531.140    91271894.88347
  23180205.240   121812802.78108  23180206.400    94919073.39447
  21462989.020   112788762.49509  21462986.980    87887337.01448
  22161630.680   116460152.62909  22161628.240    90748163.44848
  24246028.700   127413730.39908  24246026.920    99283420.93345
  21312927.540   112000189.25309  21312923.920    87272860.50948
  24300559.460   127700300.69907  24300560.460    99506728.94046
  22574564.260   118630128.78708  22574563.420    92439053.78047
 15 02 22 07 20 30.0000000  0 10G01G03G04G09G11G17G20G23G31G32
  20677353.440   108660221.86409  20677354.720    84670306.08049
  20504442.380   107751567.23309  20504443.020    83962262.11448
  22303707.480   117206764.48209  22303707.080    91329942.32047
  23160258.440   121707981.55809  23160259.640    94837394.51647
  21477368.620   112864327.37409  21477366.480    87946218.68747
  22151926.120   116409154.33109  22151923.600    90708424.48848
  24230520.780   127332235.41108  24230519.020    99219918.30445
  21300869.440   111936823.07909  21300865.720    87223484.27548
  24298890.660   127691531.60807  24298891.660    99499895.90246
  22589541.140   118708832.02408  22589540.120    92500380.93346
 15 02 22 07 21  0.0000000  0 10G01G03G04G09G11G17G20G23G31G32
  20682333.920   108686394.17909  20682335.140    84690700.06549
  20506784.300   107763873.91909  20506784.920    83971851.71748
  22317932.460   117281517.22209  22317932.100    91388191.12947
  23140350.840   121603366.26709  23140352.000    94755876.11247
  21491816.700   112940252.14509  21491814.520    88005380.79347
  22142317.600   116358660.64209  22142315.000    90669078.72948
  24215033.160   127250846.97508  24215031.560    99156498.70844
  21288890.900   111873875.01609  21288887.100    87174433.83948
  24297316.600   127683260.54507  24297317.740    99493450.93446
  22604529.740   118787597.04509  22604528.540    92561756.22646
 15 02 22 07 21 30.0000000  0 10G01G03G04G09G11G17G20G23G31G32
  20687382.760   108712925.61809  20687383.920    84711373.88149
  20509173.200   107776427.35509  20509173.740    83981633.58148
  22332206.620   117356528.27609  22332206.240    91446641.22747
  23120482.900   121498959.45608  23120484.080    94674520.15147
  21506333.120   113016535.68009  21506330.880    88064822.44748
  22132805.500   116308673.89109  22132802.860    90630127.98748
  24199565.880   127169565.97208  24199564.280    99093162.83444
  21276992.220   111811346.61809  21276988.380    87125710.42048
  24295837.720   127675489.43307  24295838.900    99487395.53446
  22619529.820   118866422.95008  22619528.680    92623178.94247
 15 02 22 07 22  0.0000000  0 10G01G03G04G09G11G17G20G23G31G32
  20692499.500   108739813.74009  20692500.620    84732325.64049
  20511608.340   107789223.67109  20511608.740    83991604.71448
  22346529.280   117431794.07109  22346528.900    91505289.82447
  23100654.540   121394760.60809  23100655.640    94593326.25447
  21520917.000   113093173.54309  21520914.700    88124540.20748
  22123389.560   116259192.76109  22123386.980    90591571.23248
  24184118.440   127088389.35608  24184116.600    99029908.26244
  21265173.160   111749236.69409  21265169.300    87077313.07948
  24294453.620   127668216.19607  24294454.860    99481728.09946
  22634540.740   118945305.58608  22634539.700    92684645.87847
 15 02 22 07 22 30.0000000  0 10G01G03G04G09G11G17G20G23G31G32
  20697684.560   108767061.09409  20697685.660    84753557.30949
  20514089.920   107802264.03909  20514090.200    84001766.02348
  22360900.760   117507316.18209  22360900.400    91564138.14547
  23080866.560   121290774.07108  23080867.700    94512297.78047
  21535568.400   113170166.62609  21535566.060    88184534.75048
  22114070.420   116210220.33609  22114067.860    90553410.87348
  24168691.400   127007319.34508  24168689.440    98966736.79444
  21253434.360   111687548.78209  21253430.520    87029244.58048
  24293164.860   127661443.94207  24293166.180    99476451.03346
  22649562.640   119024245.92408  22649561.700    92746157.77147
 15 02 22 07 23  0.0000000  0 10G01G03G04G09G11G17G20G23G31G32
  20702937.380   108794664.40009  20702938.460    84775066.34849
  20516617.040   107815543.78409  20516617.260    84012113.84848
  22375320.160   117583090.03109  22375319.880    91623182.61947
  23061118.700   121186998.37909  23061119.800    94431433.60847
  21550286.320   113247509.63409  21550284.020    88244801.96148
  22104847.900   116161755.53509  22104845.340    90515646.06448
  24153283.920   126926352.17108  24153282.100    98903645.42645
  21241775.440   111626280.58109  21241771.580    86981503.13148
  24291971.040   127655169.88208  24291972.260    99471562.18146
  22664594.440   119103238.87108  22664593.620    92807710.64946
 15 02 22 07 23 30.0000000  0 10G01G03G04G09G11G17G20G23G31G32
  20708259.040   108822629.82009  20708260.140    84796857.54849
  20519190.580   107829067.68409  20519190.800    84022651.93948
  22389788.520   117659120.99309  22389788.200    91682427.45347
  23041412.500   121083441.51509  23041413.540    94350739.95247
  21565071.700   113325207.15909  21565069.420    88305345.42047
  22095723.540   116113806.21109  22095720.920    90478282.92148
  24137897.120   126845494.31708  24137895.440    98840639.28645
  21230197.740   111565439.09409  21230193.900    86934094.19048
  24290873.380   127649400.90408  24290874.340    99467066.90746
  22679637.220   119182288.97209  22679636.300    92869308.07547
 15 02 22 07 24  0.0000000  0 10G01G03G04G09G11G17G20G23G31G32
  20713649.060   108850954.22509  20713650.080    84818928.47449
  20521809.680   107842831.29209  20521810.000    84033376.81248
  22404304.940   117735404.61709  22404304.580    91741869.16847
  23021747.720   120980102.28309  23021748.720    94270215.87947
  21579923.620   113403254.31609  21579921.360    88366161.31247
  22086696.820   116066369.90209  22086694.080    90441319.52748
  24122530.360   126764741.95508  24122528.700    98777715.33344
  21218700.840   111505022.23709  21218697.000    86887016.12448
  24289871.300   127644134.48608  24289872.100    99462963.23346
  22694690.040   119261391.56809  22694689.040    92930946.40446
 15 02 22 07 24 30.0000000  0 10G01G03G04G09G11G17G20G23G31G32
  20719107.960   108879640.66709  20719108.940    84841281.51149
  20524474.700   107856836.30609  20524475.140    84044289.79948
  22418869.800   117811942.84809  22418869.320    91801509.27047
  23002125.280   120876985.49709  23002126.260    94189865.13147
  21594842.240   113481651.64109  21594840.000    88427250.06748
  22077768.500   116019451.06109  22077765.800    90404759.35648
  24107184.300   126684098.06008  24107182.840    98714875.87945
  21207285.500   111445034.18109  21207281.700    86840272.19348
  24288965.540   127639374.18308  24288966.200    99459253.92946
  22709753.120   119340548.04908  22709752.160    92992626.71346
 15 02 22 07 25  0.0000000  0 10G01G03G04G09G11G17G20G23G31G32
  20724634.820   108908684.30209  20724635.840    84863912.87649
  20527184.460   107871076.51609  20527185.000    84055386.05948
  22433481.980   117888730.01209  22433481.480    91861343.35247
  22982544.580   120774088.22109  22982545.640    94109685.43747
  21609826.340   113560392.99509  21609824.080    88488606.89748
  22068937.880   115973046.15509  22068935.280    90368599.65748
  24091857.780   126603557.06408  24091856.660    98652116.61844
  21195951.020   111385471.01909  21195947.240    86793859.34748
  24288155.300   127635115.57108  24288155.740    99455935.55646
  22724825.160   119419752.08309  22724824.360    93054344.06446
 15 02 22 07 25 30.0000000  0 10G01G03G04G09G11G17G20G23G31G32
  20730231.020   108938092.54009  20730232.120    84886828.34349
  20529940.160   107885558.01209  20529940.780    84066670.33948
  22448142.700   117965772.42609  22448142.240    91921376.32547
  22963007.400   120671419.68409  22963008.440    94029683.97647
  21624876.960   113639483.93609  21624874.660    88550236.13448
  22060206.620   115927163.57109  22060204.080    90332846.95948
  24076552.420   126523126.59108  24076551.320    98589443.46945
  21184698.960   111326341.13609  21184695.180    86747784.12248
  24287442.040   127631366.77008  24287442.300    99453014.44646
  22739907.360   119499009.30308  22739906.600    93116102.87646
 15 02 22 07 26  0.0000000  0 10G01G03G04G09G11G17G20G23G31G32
  20735895.960   108967862.18709  20735897.160    84910025.42549
  20532740.960   107900276.30509  20532741.620    84078139.13948
  22462851.180   118043065.90309  22462850.820    91981604.93847
  22943513.480   120568978.59809  22943514.500    93949859.75947
  21639993.100   113718919.50609  21639990.820    88612133.91147
  22051574.500   115881801.78909  22051572.080    90297500.08548
  24061267.440   126442803.32208  24061266.240    98526853.86945
  21173528.900   111267642.22209  21173525.100    86702044.71448
  24286825.260   127628124.99108  24286825.440    99450488.38846
  22754998.700   119578315.19508  22754998.100    93177899.59946
 15 02 22 07 26 30.0000000  0 10G01G03G04G09G11G17G20G23G31G32
  20741629.700   108997993.49309  20741630.960    84933504.32049
  20535586.640   107915230.32509  20535587.260    84089791.61948
  22477607.280   118120609.37209  22477607.020    92042028.34646
  22924063.220   120466767.05209  22924064.300    93870214.38647
  21655174.620   113798698.71709  21655172.340    88674299.45247
  22043041.700   115836962.07209  22043039.360    90262560.00748
  24046002.900   126362586.96808  24046001.680    98464347.54844
  21162441.040   111209375.39509  21162437.260    86656641.99048
  24286305.100   127625390.99408  24286305.140    99448358.01546
  22770099.100   119657668.30608  22770098.680    93239733.13146
 15 02 22 07 27  0.0000000  0 10G01G03G04G09G11G17G20G23G31G32
  20747432.160   109028486.03109  20747433.480    84957264.69049
  20538476.860   107930418.33709  20538477.480    84101626.42548
  22492410.720   118198401.65909  22492410.600    92102645.63947
  22904656.960   120364786.48109  22904658.060    93790749.01247
  21670420.860   113878818.12809  21670418.640    88736730.09548
  22034608.400   115792645.17009  22034606.200    90228027.31948
  24030758.600   126282477.04508  24030757.260    98401924.16644
  21151435.540   111151541.36709  21151431.800    86611576.52048
  24285881.540   127623165.08708  24285881.560    99446623.56846
  22785208.140   119737066.80008  22785207.700    93301602.02347
 15 02 22 07 27 30.0000000  0 10G01G03G04G09G11G17G20G23G31G32
  20753303.860   109059342.23309  20753305.240    84981308.43949
  20541411.780   107945841.52209  20541412.460    84113644.48048
  22507261.700   118276443.85109  22507261.560    92163457.66647
  22885295.520   120263041.24309  22885296.640    93711466.99847
  21685732.060   113959278.89809  21685729.920    88799426.73548
  22026275.340   115748854.67109  22026273.220    90193904.82148
  24015535.100   126202475.49908  24015533.600    98339585.24045
  21140513.040   111094143.37409  21140509.260    86566850.81148
  24285555.140   127621449.63308  24285555.100    99445286.84946
  22800326.020   119816511.61208  22800325.640    93363507.00446
 15 02 22 07 28  0.0000000  0 10G01G03G04G09G11G17G20G23G31G32
  20759244.960   109090563.33909  20759246.440    85005636.52549
  20544391.360   107961499.85409  20544392.140    84125845.76448
  22522160.260   118354736.17609  22522160.100    92224464.60046
  22865979.420   120161534.38709  22865980.540    93632370.73647
  21701108.100   114040080.58409  21701106.080    88862389.01847
  22018043.040   115705593.30609  22018040.900    90160194.63448
  24000332.300   126122583.62608  24000330.600    98277331.77944
  21129673.960   111037183.72609  21129670.200    86522466.67048
  24285326.360   127620246.97608  24285326.060    99444349.72646
  22815452.680   119896002.49408  22815452.320    93425447.89646
 15 02 22 07 28 30.0000000  0 10G01G03G04G09G11G17G20G23G31G32
  20765254.520   109122144.26109  20765256.140    85030244.98249
  20547414.520   107977386.91909  20547415.360    84138225.28148
  22537105.340   118433272.83109  22537105.120    92285661.93047
  22846708.100   120060262.76409  22846709.220    93553457.78047
  21716547.620   114121215.89809  21716545.700    88925611.26748
  22009910.700   115662857.12909  22009908.520    90126893.67648
  23985149.300   126042795.93108  23985147.640    98215159.47945
  21118917.480   110980658.14509  21118913.780    86478420.76248
  24285194.180   127619551.94508  24285193.720    99443808.13146
  22830586.940   119975532.85308  22830586.540    93487419.55347
 15 02 22 07 29  0.0000000  0 10G01G03G04G09G11G17G20G23G31G32
  20771334.200   109154093.38109  20771335.980    85055140.34949
  20550482.580   107993509.92209  20550483.460    84150788.64048
  22552098.160   118512060.79509  22552098.040    92347055.06546
  22827483.480   119959236.57809  22827484.600    93474736.06447
  21732051.900   114202691.59209  21732050.060    88989098.74948
  22001880.080   115620655.56309  22001877.880    90094009.29848
  23969987.580   125963120.69408  23969985.840    98153074.81644
  21108245.380   110924576.02309  21108241.760    86434720.40548
  24285160.300   127619373.34008  24285159.700    99443668.94845
  22845730.020   120055109.56108  22845729.460    93549427.31846
 15 02 22 07 29 30.0000000  0 10G01G03G04G09G11G17G20G23G31G32
  20777483.420   109186407.63809  20777485.280    85080320.23849
  20553594.720   108009864.57509  20553595.700    84163532.50948
  22567138.120   118591096.09709  22567137.980    92408640.95147
  22808305.360   119858454.77209  22808306.440    93396204.76847
  21747620.000   114284502.60409  21747618.280    89052847.52247
  21993950.820   115578986.83909  21993948.640    90061540.13848
  23954846.600   125883554.66708  23954844.760    98091075.25344
  21097657.300   110868935.32109  21097653.660    86391364.01048
  24285224.180   127619708.80508  24285223.480    99443930.31545
  22860881.000   120134728.34808  22860880.420    93611467.87246
 15 02 22 07 30  0.0000000  0 10G01G03G04G09G11G17G20G23G31G32
  20783701.760   109219085.10609  20783703.620    85105783.14349
  20556750.340   108026447.74409  20556751.420    84176454.42548
  22582224.640   118670375.85909  22582224.540    92470417.30946
  22789173.760   119757917.22509  22789174.780    93317863.80447
  21763251.260   114366645.33309  21763249.560    89116854.77047
  21986122.840   115537850.21709  21986120.700    90029485.58648
  23939725.920   125804095.72508  23939724.280    98029159.12845
  21087153.000   110813734.79709  21087149.280    86348350.60548
  24285385.580   127620556.55008  24285384.720    99444590.86745
  22876039.280   120214385.72908  22876038.780    93673538.50346
 15 02 22 07 30 30.0000000  0 10G01G03G04G09G11G17G20G23G31G32
  20789989.920   109252129.32309  20789991.700    85131531.84149
  20559949.920   108043261.70809  20559951.020    84189556.18948
  22597358.120   118749902.24909  22597358.100    92532385.85446
  22770089.640   119657629.39809  22770090.660    93239717.43747
  21778945.960   114449121.42209  21778944.280    89181121.78547
  21978396.960   115497250.14409  21978394.880    89997849.13948
  23924626.300   125724747.36608  23924625.140    97967329.18345
  21076733.340   110758979.06109  21076729.580    86305683.79848
  24285645.140   127621920.44208  24285644.060    99445653.60945
  22891205.340   120294083.92209  22891204.900    93735640.93046
 15 02 22 07 31  0.0000000  0 10G01G03G04G09G11G17G20G23G31G32
  20796347.180   109285536.70309  20796348.920    85157563.52249
  20563192.600   108060301.73109  20563193.620    84202834.09448
  22612537.660   118829670.93709  22612537.680    92594543.20347
  22751052.720   119557589.59809  22751053.760    93161764.33647
  21794703.100   114531925.46009  21794701.360    89245644.35047
  21970772.780   115457184.43209  21970770.700    89966629.08148
  23909547.020   125645505.44608  23909546.000    97905582.16945
  21066397.860   110704665.35109  21066394.000    86263361.42248
  24286002.380   127623797.65908  24286001.280    99447116.34945
  22906378.320   120373817.93208  22906377.740    93797771.28246
 15 02 22 07 31 30.0000000  0 10G01G03G04G09G11G17G20G23G31G32
  20802774.520   109319312.20409  20802776.240    85183882.04949
  20566479.000   108077571.57709  20566479.960    84216291.08648
  22627764.020   118909685.77308  22627764.020    92656892.34847
  22732064.300   119457804.75609  22732065.420    93084009.91047
  21810523.280   114615060.70209  21810521.540    89310424.98247
  21963251.460   115417659.24509  21963249.400    89935830.20548
  23894489.060   125566375.08008  23894488.160    97843922.09745
  21056147.640   110650799.60509  21056143.700    86221388.11248
  24286458.260   127626193.35308  24286457.240    99448983.08745
  22921558.760   120453591.37508  22921558.120    93859932.35347
 15 02 22 07 32  0.0000000  0 10G01G03G04G09G11G17G20G23G31G32
  20809271.080   109353451.33109  20809272.780    85210483.93049
  20569808.060   108095065.61409  20569809.040    84229922.76248
  22643036.100   118989941.12609  22643036.180    92719428.92346
  22713123.860   119358272.21909  22713125.080    93006452.09547
  21826405.240   114698520.52409  21826403.500    89375458.54647
  21955832.220   115378670.74209  21955830.220    89905449.54148
  23879451.540   125487351.49608  23879450.420    97782345.20445
  21045981.940   110597378.11609  21045978.000    86179760.97948
  24287012.000   127629103.31108  24287010.980    99451250.55845
  22936745.600   120533398.46408  22936744.900    93922119.62746
 15 02 22 07 32 30.0000000  0 10G01G03G04G09G11G17G20G23G31G32
  20815838.300   109387961.62509  20815839.940    85237375.03149
  20573181.000   108112790.17809  20573181.940    84243734.08348
  22658355.280   119070443.86109  22658355.460    92782158.25746
  22694233.240   119259001.49109  22694234.540    92929098.28747
  21842350.080   114782310.81109  21842348.360    89440749.61248
  21948516.860   115340228.00509  21948514.860    89875494.14648
  23864435.840   125408442.31008  23864434.420    97720857.47945
  21035902.340   110544409.26009  21035898.460    86138486.55048
  24287665.140   127632535.36708  24287664.100    99453924.88345
  22951940.080   120613245.40908  22951939.340    93984337.97346
 15 02 22 07 33  0.0000000  0 10G01G03G04G09G11G17G20G23G31G32
  20822474.580   109422834.78609  20822476.160    85264548.88449
  20576596.000   108130735.91209  20576596.920    84257717.73848
  22673719.720   119151184.40109  22673719.900    92845072.87647
  22675391.220   119159986.17609  22675392.600    92851943.50047
  21858355.820   114866421.28709  21858354.100    89506290.16347
  21941304.060   115302323.96809  21941301.980    89845958.50048
  23849440.160   125329638.71508  23849438.620    97659452.02745
  21025907.420   110491885.80609  21025903.660    86097559.18148
  24288416.120   127636481.78008  24288415.040    99456999.99245
  22967140.200   120693122.72808  22967139.360    94046579.98146
 15 02 22 07 33 30.0000000  0 10G01G03G04G09G11G17G20G23G31G32
  20829180.960   109458076.58309  20829182.520    85292009.99249
  20580053.920   108148907.39109  20580054.860    84271877.29748
  22689130.300   119232167.37209  22689130.500    92908176.41247
  22656599.220   119061233.90909  22656600.700    92774993.70447
  21874423.300   114950856.35409  21874421.640    89572083.65447
  21934195.020   115264965.33509  21934192.880    89816847.86048
  23834465.660   125250946.60508  23834464.060    97598133.47245
  21015998.500   110439814.36109  21015994.820    86056984.03848
  24289266.000   127640948.30508  24289265.100    99460480.36445
  22982346.980   120773034.70808  22982346.180    94108849.00246
 15 02 22 07 34  0.0000000  0 10G01G03G04G09G11G17G20G23G31G32
  20835957.140   109493685.45009  20835958.700    85319757.12849
  20583554.340   108167301.96209  20583555.280    84286210.70548
  22704586.560   119313390.28609  22704586.740    92971466.91447
  22637857.400   118962745.11209  22637858.900    92698249.20747
  21890551.860   115035612.29909  21890550.240    89638127.17147
  21927189.620   115228151.34709  21927187.420    89788161.61748
  23819511.940   125172364.17908  23819510.280    97536900.38444
  21006175.440   110388194.02709  21006171.780    86016760.40548
  24290214.640   127645933.83108  24290213.840    99464365.21244
  22997559.840   120852978.69208  22997559.340    94171142.93747
 15 02 22 07 34 30.0000000  0 10G01G03G04G09G11G17G20G23G31G32
  20842803.020   109529660.59809  20842804.560    85347789.67849
  20587096.860   108185917.76709  20587097.820    84300716.50548
  22720088.220   119394851.52309  22720088.400    93034943.12346
  22619165.960   118864520.91109  22619167.380    92621710.89547
  21906741.020   115120686.54109  21906739.440    89704418.72147
  21920287.900   115191882.61009  21920285.740    89759900.25448
  23804578.960   125093890.48508  23804577.200    97475752.03245
  20996438.280   110337024.98009  20996434.560    85976888.42848
  24291261.900   127651437.84808  24291261.280    99468654.04145
  23012778.480   120932952.56308  23012777.920    94233460.18146
 15 02 22 07 35  0.0000000  0 10G01G03G04G09G11G17G20G23G31G32
  20849719.920   109566008.91309  20849721.380    85376113.01449
  20590682.560   108204760.55109  20590683.500    84315399.16548
  22735636.320   119476556.85909  22735636.500    93098609.53746
  22600526.540   118766570.12409  22600527.940    92545385.62947
  21922991.740   115206084.13409  21922990.140    89770962.23447
  21913491.380   115156166.95609  21913489.280    89732069.86448
  23789667.700   125015532.22808  23789666.240    97414693.66045
  20986788.500   110286314.96209  20986784.680    85937374.14148
  24292409.120   127657467.37807  24292408.820    99473352.38345
  23028003.760   121012962.07308  23028003.200    94295805.18246
 15 02 22 07 35 30.0000000  0 10G01G03G04G09G11G17G20G23G31G32
  20856706.460   109602722.99309  20856707.820    85404721.35149
  20594309.840   108223821.89909  20594310.720    84330252.13748
  22751229.220   119558497.87609  22751229.540    93162459.60046
  22581938.120   118668887.28609  22581939.580    92469269.16347
  21939302.260   115291795.82209  21939300.520    89837750.49547
  21906798.940   115120998.00709  21906796.820    89704665.46548
  23774777.020   124937282.23508  23774775.800    97353719.64444
  20977224.800   110236057.51309  20977220.960    85898212.50448
  24293654.860   127664015.37007  24293654.980    99478454.68245
  23043234.220   121092998.61208  23043233.820    94358171.23046
 15 02 22 07 36  0.0000000  0 10G01G03G04G09G11G17G20G23G31G32
  20863762.980   109639804.68009  20863764.240    85433616.14149
  20597978.880   108243102.55609  20597979.760    84345275.99948
  22766867.080   119640675.25809  22766867.340    93226493.83846
  22563401.400   118571476.17009  22563402.860    92393364.42247
  21955672.580   115377821.97209  21955670.780    89904783.78948
  21900211.140   115086379.00309  21900209.080    89677689.61048
  23759907.380   124859142.21008  23759906.120    97292831.32944
  20967747.640   110186255.11409  20967743.880    85859405.44848
  24294999.620   127671083.87907  24295000.160    99483962.58045
  23058470.000   121173062.76608  23058469.700    94420558.80147
 15 02 22 07 36 30.0000000  0 10G01G03G04G09G11G17G20G23G31G32
  20870889.840   109677256.24909  20870891.080    85462799.15149
  20601689.920   108262603.75609  20601690.760    84360471.71248
  22782550.180   119723090.43709  22782550.360    93290713.37046
  22544917.160   118474340.94609  22544918.640    92317674.65647
  21972102.740   115464162.66409  21972100.960    89972062.17747
  21893728.620   115052312.97309  21893726.600    89651144.63148
  23745059.160   124781114.14008  23745057.820    97232030.24444
  20958357.680   110136910.98209  20958353.960    85820955.48248
  24296443.980   127678675.44307  24296445.020    99489878.01746
  23073711.320   121253155.73708  23073710.780    94482968.84046
 15 02 22 07 37  0.0000000  0 10G01G03G04G09G11G17G20G23G31G32
  20878086.120   109715072.72709  20878087.320    85492266.50649
  20605441.800   108282319.53509  20605442.620    84375834.63348
  22798277.420   119805737.41209  22798277.540    93355113.51846
  22526484.860   118377478.66409  22526486.320    92242197.56947
  21988591.440   115550811.09209  21988589.740    90039580.36547
  21887350.540   115018795.93109  21887348.640    89625027.43948
  23730231.340   124703192.93608  23730230.160    97171312.43145
  20949054.160   110088021.00909  20949050.520    85782859.41148
  24297987.220   127686785.19507  24297988.360    99496197.30846
  23088956.880   121333271.50308  23088956.560    94545396.62046
 15 02 22 07 37 30.0000000  0 10G01G03G04G09G11G17G20G23G31G32
  20885353.280   109753261.81009  20885354.440    85522024.20749
  20609235.780   108302256.52809  20609236.500    84391369.92948
  22814050.100   119888622.74009  22814050.280    93419699.40846
  22508106.300   118280898.91009  22508107.760    92166940.63247
  22005139.860   115637773.25509  22005138.140    90107343.01847
  21881078.580   114985836.61909  21881076.800    89599344.84448
  23715425.340   124625386.37708  23715424.180    97110683.96545
  20939838.700   110039593.51909  20939835.060    85745123.70948
  24299630.620   127695421.28807  24299631.760    99502926.66446
  23104207.960   121413416.47208  23104207.920    94607847.16246
 15 02 22 07 38  0.0000000  0 10G01G03G04G09G11G17G20G23G31G32
  20892690.200   109791817.38609  20892691.360    85552067.47749
  20613070.520   108322407.65209  20613071.120    84407072.08748
  22829866.820   119971739.65509  22829867.040    93484465.74146
  22489780.760   118184597.55509  22489782.240    92091900.62647
  22021746.520   115725041.41209  22021744.780    90175344.10547
  21874911.800   114953429.87109  21874910.100    89574092.81448
  23700639.980   124547688.14408  23700638.800    97050139.89445
  20930710.300   109991623.39809  20930706.640    85707744.40448
  24301373.200   127704577.51807  24301374.340    99510061.36046
  23119463.240   121493583.54708  23119463.160    94670314.92446
 15 02 22 07 38 30.0000000  0 10G01G03G04G09G11G17G20G23G31G32
  20900097.540   109830742.81509  20900098.700    85582398.94449
  20616946.420   108342775.29509  20616946.940    84422942.95948
  22845728.000   120055090.29809  22845728.060    93549414.20446
  22471509.240   118088579.95109  22471510.680    92017081.73247
  22038411.700   115812617.16609  22038409.980    90243584.87948
  21868851.000   114921579.99709  21868849.300    89549274.70848
  23685875.920   124470101.67608  23685874.620    96989682.90444
  20921669.720   109944114.70609  20921666.080    85670724.64448
  24303215.420   127714257.54008  24303216.400    99517604.18546
  23134723.300   121573774.95408  23134722.940    94732801.66546
 15 02 22 07 39  0.0000000  0 11G01G03G04G06G09G11G17G20G23G31G32
  20907575.420   109870038.99809  20907576.560    85613019.31649
  20620863.460   108363359.35809  20620863.960    84438982.46748
  22861633.600   120138674.41509  22861633.560    93614544.61146
  24654059.360   129557954.89708  24654060.020   100954256.06645
  22453292.220   117992848.87009  22453293.600    91942486.09747
  22055135.140   115900499.19209  22055133.500    90312064.29647
  21862896.560   114890289.04909  21862894.860    89524892.13748
  23671133.080   124392627.62908  23671131.840    96929313.51745
  20912717.340   109897069.35309  20912713.700    85634065.92748
  24305157.620   127724462.29308  24305158.320    99525555.93146
  23149988.000   121653990.46908  23149987.480    94795307.16946
 15 02 22 07 39 30.0000000  0 11G01G03G04G06G09G11G17G20G23G31G32
  20915123.900   109909706.26809  20915125.060    85643928.82849
  20624821.540   108384159.19009  20624822.060    84455190.10848
  22877583.600   120222491.64209  22877583.580    93679856.64146
  24635694.420   129461446.43008  24635695.640   100879054.54146
  22435130.200   117897406.68209  22435131.540    91868115.56347
  22071916.600   115988686.06009  22071915.000    90380781.24847
  21857048.680   114859558.28209  21857046.980    89500946.05248
  23656411.680   124315266.64408  23656410.600    96869032.20345
  20903853.320   109850488.23509  20903849.620    85597768.94448
  24307199.760   127735192.30908  24307200.220    99533916.93446
  23165257.040   121734229.55608  23165256.660    94857831.03346
 15 02 22 07 40  0.0000000  0 11G01G03G04G06G09G11G17G20G23G31G32
  20922742.720   109949743.25109  20922743.940    85675126.44249
  20628820.260   108405172.53509  20628820.780    84471564.12048
  22893577.520   120306539.52609  22893577.580    93745348.41146
  24617324.380   129364911.39507  24617326.140   100803832.45647
  22417023.260   117802253.95509  22417024.620    91793970.59947
  22088755.500   116077174.89309  22088754.000    90449733.50347
  21851307.220   114829386.83509  21851305.520    89477435.81548
  23641711.380   124238017.29408  23641710.520    96808837.85145
  20895077.560   109804370.80109  20895073.720    85561833.27748
  24309341.640   127746446.33208  24309341.840    99542686.29146
  23180530.020   121814489.77608  23180529.780    94920371.37646
 15 02 22 07 40 30.0000000  0 11G01G03G04G06G09G11G17G20G23G31G32
  20930431.980   109990150.66409  20930433.280    85706612.69449
  20632859.540   108426399.12609  20632860.060    84488104.30848
  22909615.240   120390817.93209  22909615.260    93811019.81146
  24598949.580   129268351.76007  24598951.760   100728591.10446
  22398971.920   117707393.35709  22398973.320    91720053.26248
  22105651.680   116165964.55109  22105650.240    90518920.16748
  21845672.600   114799777.09809  21845670.960    89454363.27248
  23627032.520   124160880.23908  23627031.880    96748731.00645
  20886390.320   109758718.56809  20886386.320    85526260.11548
  24311583.280   127758225.16108  24311583.280    99551864.57246
  23195807.000   121894770.77108  23195806.880    94982927.91447
 15 02 22 07 41  0.0000000  0 11G01G03G04G06G09G11G17G20G23G31G32
  20938191.580   110030927.89209  20938193.020    85738387.10749
  20636939.140   108447837.48509  20636939.600    84504809.49848
  22925696.480   120475325.20309  22925696.540    93876869.54046
  24580570.080   129171767.97307  24580571.800   100653330.99643
  22380976.420   117612826.25109  22380977.820    91646364.62047
  22122604.640   116255052.62609  22122603.220    90588339.36348
  21840144.880   114770729.17809  21840143.280    89431728.49648
  23612375.080   124083854.79808  23612374.720    96688711.10845
  20877791.640   109713531.67209  20877787.480    85491049.54248
  24313924.660   127770528.41008  24313924.440    99561451.52446
  23211087.620   121975070.97408  23211087.620    95045499.40046
 15 02 22 07 41 30.0000000  0 11G01G03G04G06G09G11G17G20G23G31G32
  20946021.140   110072072.50009  20946022.640    85770447.79949
  20641058.380   108469484.25509  20641058.820    84521677.09848
  22941820.620   120560057.85008  22941820.820    93942894.88946
  24562185.900   129075158.99907  24562186.580   100578051.11245
  22363036.660   117518552.21809  22363038.040    91572904.35947
  22139613.640   116344435.03009  22139612.180    90657987.90948
  21834723.720   114742241.10209  21834722.060    89409529.97148
  23597738.560   124006938.46808  23597737.980    96628776.21345
  20869281.120   109668808.24309  20869276.840    85456200.12148
  24316365.320   127783353.69208  24316365.020    99571445.21746
  23226371.340   122055386.99408  23226371.420    95108083.22246
 15 02 22 07 42  0.0000000  0 11G01G03G04G06G09G11G17G20G23G31G32
  20953921.420   110113588.68609  20953922.980    85802798.01849
  20645217.940   108491342.73809  20645218.300    84538709.66548
  22957988.240   120645019.20809  22957988.560    94009098.45546
  24543798.080   128978530.11908  24543799.160   100502755.84246
  22345153.800   117424577.35109  22345155.120    91499677.21547
  22156679.000   116434113.83709  22156677.520    90727867.42547
  21829410.180   114714318.50309  21829408.480    89387772.07148
  23583123.700   123930135.61208  23583122.760    96568929.73845
  20860859.760   109624553.60609  20860855.480    85421715.98248
  24318906.080   127796705.12608  24318905.820    99581848.91246
  23241658.740   122135722.09308  23241658.760    95170681.92646
 15 02 22 07 42 30.0000000  0 11G01G03G04G06G09G11G17G20G23G31G32
  20961891.920   110155473.95109  20961893.600    85835435.83849
  20649417.140   108513409.56009  20649417.480    84555904.57148
  22974198.780   120730205.82709  22974199.040    94075477.55446
  24525406.380   128881880.14308  24525407.920   100427444.13546
  22327327.800   117330901.20509  22327329.040    91426682.84447
  22173799.980   116524085.04909  22173798.520    90797974.79447
  21824203.940   114686959.43809  21824202.180    89366453.28848
  23568530.000   123853443.74308  23568528.940    96509169.73745
  20852527.220   109580765.83909  20852523.000    85387595.64448
  24321546.420   127810580.45608  24321546.140    99592660.85146
  23256949.060   122216072.85708  23256949.040    95233292.80346
 15 02 22 07 43  0.0000000  0 11G01G03G04G06G09G11G17G20G23G31G32
  20969933.260   110197731.32309  20969935.020    85868363.60549
  20653656.380   108535686.94009  20653656.720    84573263.53748
  22990452.580   120815619.73909  22990452.880    94142033.74146
  24507011.660   128785213.37908  24507013.220   100352119.26846
  22309559.600   117237528.76009  22309560.840    91353925.11348
  22190976.840   116614349.90809  22190975.440    90868310.97048
  21819105.700   114660167.79309  21819103.880    89345576.64948
  23553957.880   123776865.93108  23553956.720    96449498.62145
  20844284.240   109537448.79409  20844280.040    85353842.09948
  24324286.960   127824982.55608  24324286.680    99603883.23645
  23272242.860   122296441.36208  23272242.700    95295917.52646
 15 02 22 07 43 30.0000000  0 11G01G03G04G06G09G11G17G20G23G31G32
  20978045.420   110240360.91209  20978047.180    85901581.40949
  20657935.560   108558174.13309  20657935.900    84590786.00548
  23006749.480   120901260.06109  23006749.700    94208766.36946
  24488613.640   128688531.11606  24488615.420   100276782.40046
  22291849.600   117144462.09009  22291850.840    91281405.66647
  22208209.200   116704906.48709  22208207.880    90938874.46647
  21814115.720   114633944.81909  21814113.840    89325143.11848
  23539407.420   123700402.49808  23539406.360    96389916.65845
  20836130.940   109494603.13909  20836126.760    85320455.87448
