     2.11           OBSERVATION DATA    G                   RINEX VERSION / TYPE
SPIDER V4,0,0,3554                      2015 03 23 00:06    PGM / RUN BY / DATE 
ORAN                                                        MARKER NAME         
ORAN                                                        MARKER NUMBER       
                                                            OBSERVER / AGENCY   
462404              LEICA GRX1200PRO    8.20/2.127          REC # / TYPE / VERS 
103294              LEIAT504                                ANT # / TYPE        
  5184926.0915   -52286.2727  3702001.0151                  APPROX POSITION XYZ 
        0.1860        0.0000        0.0000                  ANTENNA: DELTA H/E/N
     1     1                                                WAVELENGTH FACT L1/2
     4    C1    L1    P2    L2                              # / TYPES OF OBSERV 
    30.000                                                  INTERVAL            
  2015    02    22    00    00    0.0000000     GPS         TIME OF FIRST OBS   
  2015    02    22    06    31   30.0000000     GPS         TIME OF LAST OBS    
    16                                                      LEAP SECONDS        
    19                                                      # OF SATELLITES     
   G 1   378   378   378   378                              PRN / # OF OBS      
   G 3   289   289   289   289                              PRN / # OF OBS      
   G 4   527   527   527   527                              PRN / # OF OBS      
   G 7   130   130   130   130                              PRN / # OF OBS      
   G11   449   449   449   449                              PRN / # OF OBS      
   G14   380   380   380   380                              PRN / # OF OBS      
   G16   517   517   515   515                              PRN / # OF OBS      
   G17    88    88    88    88                              PRN / # OF OBS      
   G18   463   463   463   463                              PRN / # OF OBS      
   G19   696   696   696   696                              PRN / # OF OBS      
   G21   333   333   333   333                              PRN / # OF OBS      
   G22   617   617   617   617                              PRN / # OF OBS      
   G23    94    94    94    94                              PRN / # OF OBS      
   G25    17    17    17    17                              PRN / # OF OBS      
   G27   718   718   718   718                              PRN / # OF OBS      
   G28   266   266   266   266                              PRN / # OF OBS      
   G29    62    62    62    62                              PRN / # OF OBS      
   G31   141   141   141   141                              PRN / # OF OBS      
   G32   472   472   472   472                              PRN / # OF OBS      
BIT 2 OF LLI FLAGS DATA COLLECTED UNDER A/S CONDITION       COMMENT             
SNR is mapped to RINEX snr flag value [2-9]                 COMMENT             
Lx:     = 25dBHz -> 1; 26-27dBHz -> 2; 28-31dBHz -> 3       COMMENT             
       32-35dBHz -> 4; 36-38dBHz -> 5; 39-41dBHz -> 6       COMMENT             
       42-44dBHz -> 7; 45-48dBHz -> 8; >=49dBHz -> 9        COMMENT             
                                                            END OF HEADER       
 15 02 22 00 00  0.0000000  0  7G16G18G21G25G27G29G31
  22107084.180   116173527.01708  22107083.280    90524836.91247
  23494385.420   123463868.29407  23494386.020    96205634.68545
  21147468.960   111130707.85508  21147467.900    86595355.50548
  24518974.060   128848056.79806  24518978.340   100401088.00244
  23067948.300   121222895.93107  23067951.020    94459407.82546
  23655098.500   124308371.37206  23655098.840    96863663.50446
  22013052.440   115679362.00008  22013052.020    90139756.86548
 15 02 22 00 00 30.0000000  0  7G16G18G21G25G27G29G31
  22092820.880   116098573.09608  22092819.980    90466431.26547
  23481247.260   123394827.40107  23481247.800    96151836.64044
  21151867.340   111153821.64608  21151866.280    86613366.25148
  24536674.640   128941073.80805  24536678.880   100473568.71344
  23055299.900   121156428.54507  23055302.600    94407615.08246
  23669860.980   124385948.94406  23669861.440    96924113.56245
  22028351.980   115759761.42108  22028351.500    90202405.73748
 15 02 22 00 01  0.0000000  0  7G16G18G21G25G27G29G31
  22078590.360   116023791.50508  22078589.520    90408159.90447
  23468138.460   123325940.30007  23468138.940    96098158.43744
  21156345.680   111177355.45208  21156344.560    86631704.28448
  24554406.280   129034254.52605  24554410.540   100546176.98144
  23042679.180   121090106.70806  23042681.920    94355935.74846
  23684624.920   124463534.18706  23684625.500    96984569.55546
  22043714.740   115840493.01708  22043714.240    90265313.45048
 15 02 22 00 01 30.0000000  0  7G16G18G21G25G27G29G31
  22064391.800   115949177.66608  22064390.960    90350019.25847
  23455058.260   123257204.06807  23455058.900    96044597.78444
  21160902.640   111201302.43608  21160901.500    86650364.27348
  24572167.920   129127592.32405  24572172.140   100618907.64345
  23030085.080   121023924.68907  23030087.920    94304365.38946
  23699389.260   124541121.36806  23699389.900    97045027.08046
  22059139.120   115921548.31808  22059138.580    90328473.39748
 15 02 22 00 02  0.0000000  0  7G16G18G21G25G27G29G31
  22050225.960   115874735.78708  22050225.140    90292012.60647
  23442007.860   123188623.80307  23442008.480    95991158.67744
  21165538.360   111225663.31208  21165537.200    86669346.77048
  24589959.640   129221088.54405  24589963.600   100691761.74244
  23017518.080   120957884.70507  23017520.900    94252905.66647
  23714154.340   124618712.22106  23714155.020    97105487.46945
  22074625.020   116002927.09108  22074624.480    90391885.39648
 15 02 22 00 02 30.0000000  0  7G16G18G21G25G27G29G31
  22036092.920   115800466.14508  22036092.100    90234140.15947
  23428987.280   123120200.13007  23428987.800    95937841.57744
  21170252.340   111250435.33908  21170251.160    86688649.65448
  24607781.100   129314740.46505  24607785.320   100764737.13745
  23004977.820   120891985.03107  23004980.620    94201555.28546
  23728919.700   124696304.87706  23728920.480    97165949.25846
  22090171.580   116084624.74908  22090171.080    90455545.88948
 15 02 22 00 03  0.0000000  0  7G16G18G21G25G27G29G31
  22021993.600   115726373.84208  22021992.820    90176405.90947
  23415997.700   123051939.39807  23415998.240    95884651.43745
  21175044.900   111275620.37508  21175043.720    86708274.36248
  24625632.540   129408550.11005  24625636.520   100837835.52444
  22992464.880   120826228.59407  22992467.560    94150316.51746
  23743685.880   124773901.89206  23743686.680    97226414.43445
  22105778.900   116166641.73308  22105778.480    90519455.19648
 15 02 22 00 03 30.0000000  0  7G16G18G21G25G27G29G31
  22007928.140   115652459.26708  22007927.320    90118810.14347
  23403039.200   122983842.23907  23403039.880    95831588.78944
  21179915.420   111301215.14808  21179914.240    86728218.34348
  24643513.460   129502514.73704  24643517.640   100911054.60745
  22979978.860   120760613.62707  22979981.440    94099187.99247
  23758452.480   124851500.98906  23758453.300    97286881.24246
  22121446.180   116248973.89208  22121445.820    90583610.09747
 15 02 22 00 04  0.0000000  0  7G16G18G21G25G27G29G31
  21993896.960   115578725.08408  21993896.140    90061354.94147
  23390112.560   122915912.85006  23390113.160    95778656.84044
  21184863.940   111327219.88808  21184862.760    86748481.78148
  24661423.960   129596634.81405  24661428.280   100984394.81444
  22967519.940   120695141.56307  22967522.540    94048170.81947
  23773219.760   124929103.40806  23773220.540    97347350.66245
  22137173.180   116331619.98508  22137172.860    90648009.62547
 15 02 22 00 04 30.0000000  0  7G16G18G21G25G27G29G31
  21979899.980   115505170.60408  21979899.140    90004039.76947
  23377217.660   122848150.57307  23377218.260    95725855.11844
  21189889.660   111353630.12008  21189888.460    86769061.18448
  24679363.340   129690906.18504  24679367.340   101057852.94144
  22955087.640   120629809.24107  22955090.280    93997262.54547
  23787986.980   125006705.75206  23787987.860    97407819.99446
  22152958.820   116414574.15408  22152958.520    90712649.20248
 15 02 22 00 05  0.0000000  0  7G16G18G21G25G27G29G31
  21965938.120   115431800.67108  21965937.300    89946868.39947
  23364355.760   122780561.48907  23364356.380    95673188.34445
  21194992.860   111380447.67008  21194991.680    86789957.98248
  24697331.940   129785331.14805  24697335.880   101131430.73844
  22942682.500   120564619.73807  22942685.120    93946465.56247
  23802754.760   125084310.96206  23802755.700    97468291.58545
  22168803.180   116497836.67308  22168802.860    90777529.07148
 15 02 22 00 05 30.0000000  0  7G16G18G21G25G27G29G31
  21952011.520   115358615.82608  21952010.640    89889841.24947
  23351527.020   122713146.30007  23351527.720    95620657.08744
  21200172.980   111407669.51308  21200171.840    86811169.81448
  24715329.100   129879906.67004  24715333.080   101205125.88945
  22930304.240   120499571.26907  22930306.800    93895778.47747
  23817522.620   125161916.83806  23817523.500    97528763.67945
  22184705.380   116581403.22908  22184705.120    90842645.83148
 15 02 22 00 06  0.0000000  0  7G16G18G21G25G27G29G31
  21938120.700   115285618.84308  21938119.780    89832960.48947
  23338732.060   122645908.60407  23338732.700    95568264.14544
  21205429.900   111435294.92408  21205428.800    86832696.10748
  24733354.860   129974632.87805  24733358.760   101278938.38343
  22917953.020   120434664.58207  22917955.420    93845201.85847
  23832290.800   125239523.74507  23832291.540    97589236.57145
  22200665.080   116665271.83808  22200664.820    90907997.96548
 15 02 22 00 06 30.0000000  0  7G16G18G21G25G27G29G31
  21924265.440   115212808.63708  21924264.480    89776225.27147
  23325971.020   122578848.78907  23325971.640    95516009.78545
  21210762.900   111463320.12608  21210761.820    86854533.93648
  24751408.740   130069506.13805  24751412.780   101352865.50644
  22905628.360   120369897.33107  22905630.580    93794733.90347
  23847058.760   125317129.59706  23847059.460    97649708.65345
  22216681.300   116749437.65008  22216681.080    90973581.67848
 15 02 22 00 07  0.0000000  0  7G16G18G21G25G27G29G31
  21910446.560   115140189.64608  21910445.540    89719639.04547
  23313244.640   122511971.77307  23313245.300    95463897.88645
  21216172.180   111491746.17808  21216171.120    86876684.11048
  24769490.920   130164527.63905  24769495.000   101426908.13444
  22893330.580   120305271.57207  22893332.700    93744376.17946
  23861826.800   125394735.84506  23861827.440    97710181.06045
  22232753.980   116833900.01108  22232753.720    91039396.48447
 15 02 22 00 07 30.0000000  0  7G16G18G21G25G27G29G31
  21896664.620   115067764.74508  21896663.480    89663204.06147
  23300553.780   122445280.94107  23300554.460    95411931.04844
  21221657.600   111520572.36508  21221656.560    86899146.07848
  24787601.180   130259697.17204  24787605.380   101501066.10444
  22881059.840   120240788.06507  22881061.880    93694129.31246
  23876594.960   125472342.91306  23876595.720    97770654.05945
  22248882.700   116918656.86508  22248882.460    91105440.74947
 15 02 22 00 08  0.0000000  0  7G16G18G21G25G27G29G31
  21882919.780   114995535.19708  21882918.620    89606921.30047
  23287898.660   122378778.09107  23287899.420    95360110.69744
  21227218.800   111549796.73208  21227217.760    86921918.31548
  24805739.180   130355013.01905  24805743.560   101575338.10644
  22868816.020   120176446.02807  22868818.000    93643992.66847
  23891363.220   125549950.42506  23891364.100    97831127.43145
  22265066.780   117003704.71608  22265066.580    91171711.76947
 15 02 22 00 08 30.0000000  0  6G16G18G21G27G29G31
  21869212.760   114923504.53108  21869211.600    89550793.51447
  23275280.160   122312467.53107  23275280.980    95308440.18044
  21232855.820   111579419.50908  21232854.780    86945000.99848
  22856599.380   120112247.16707  22856601.360    93593967.60747
  23906131.760   125627559.20306  23906132.620    97891601.79645
  22281306.140   117089042.71708  22281305.860    91238208.89647
 15 02 22 00 09  0.0000000  0  6G16G18G21G27G29G31
  21855543.380   114851671.74808  21855542.220    89494819.92447
  23262698.300   122246349.42907  23262699.240    95256919.64045
  21238567.780   111609436.25808  21238566.800    86968390.67548
  22844409.440   120048188.56107  22844411.440    93544051.85046
  23920899.880   125705166.28406  23920900.760    97952074.81545
  22297599.620   117174665.42208  22297599.360    91304927.84647
 15 02 22 00 09 30.0000000  0  6G16G18G21G27G29G31
  21841912.180   114780039.48708  21841911.020    89439002.58447
  23250153.520   122180426.32507  23250154.480    95205551.03944
  21244354.540   111639845.87408  21244353.560    86992086.48248
  22832246.220   119984270.38207  22832248.220    93494245.49447
  23935667.700   125782771.75806  23935668.620    98012546.59445
  22313946.780   117260570.14608  22313946.480    91371866.56247
 15 02 22 00 10  0.0000000  0  6G16G18G21G27G29G31
  21828319.040   114708607.30408  21828317.920    89383341.15347
  23237646.020   122114699.17907  23237646.800    95154335.12444
  21250215.440   111670645.13008  21250214.440    87016085.90248
  22820109.220   119920490.40508  22820111.300    93444546.83947
  23950434.740   125860372.87706  23950435.700    98073015.01345
  22330346.620   117346751.96808  22330346.360    91439021.20247
 15 02 22 00 10 30.0000000  0  6G16G18G21G27G29G31
  21814765.160   114637381.58608  21814764.120    89327840.60147
  23225176.980   122049174.36307  23225177.740    95103276.88745
  21256150.900   111701836.24608  21256149.900    87040390.66848
  22807999.340   119856852.95307  22808001.480    93394959.23747
  23965201.740   125937973.51306  23965202.680    98133483.00844
  22346799.580   117433212.48108  22346799.300    91506392.99947
 15 02 22 00 11  0.0000000  0  7G16G18G21G22G27G29G31
  21801248.120   114566349.06908  21801247.120    89272490.59247
  23212744.200   121983839.21407  23212744.700    95052366.42245
  21262157.740   111733402.54508  21262156.800    87064987.78448
  24500919.740   128753188.98506  24500922.860   100327183.01345
  22795913.640   119793342.42607  22795915.840    93345470.54347
  23979965.840   126015558.86206  23979966.680    98193939.10444
  22363302.040   117519933.45708  22363301.800    91573967.74247
 15 02 22 00 11 30.0000000  0  7G16G18G21G22G27G29G31
  21787773.640   114495540.24908  21787772.680    89217314.89447
  23200353.520   121918725.67507  23200353.920    95001628.65544
  21268241.140   111765371.18808  21268240.240    87089898.41748
  24483959.080   128664061.11106  24483961.940   100257732.93944
  22783857.600   119729987.78708  22783859.860    93296103.32046
  23994732.420   126093157.24606  23994733.100    98254405.36945
  22379859.100   117606941.01908  22379858.820    91641765.82047
 15 02 22 00 12  0.0000000  0  7G16G18G21G22G27G29G31
  21774338.820   114424940.00608  21774337.940    89162301.72847
  23188002.240   121853819.32607  23188002.640    94951052.33944
  21274397.800   111797724.56808  21274396.920    87115108.84148
  24466983.480   128574855.49205  24466986.580   100188222.24745
  22771828.000   119666772.09608  22771830.240    93246844.37747
  24009498.220   126170751.52006  24009498.780    98314868.43445
  22396466.940   117694215.58308  22396466.640    91709771.94447
 15 02 22 00 12 30.0000000  0  7G16G18G21G22G27G29G31
  21760943.900   114354549.47908  21760943.080    89107451.97147
  23175690.600   121789121.37307  23175691.020    94900638.39544
  21280627.080   111830459.65808  21280626.240    87140616.70148
  24449993.640   128485573.03805  24449996.480   100118651.50844
  22759824.620   119603694.03708  22759826.800    93197692.64947
  24024262.960   126248340.31406  24024263.440    98375327.21845
  22413124.880   117781753.40708  22413124.600    91777983.20447
 15 02 22 00 13  0.0000000  0  7G16G18G21G22G27G29G31
  21747590.100   114284374.96508  21747589.320    89052770.53547
  23163419.840   121724638.39907  23163420.280    94850391.96044
  21286929.440   111863578.77008  21286928.580    87166423.79748
  24432990.500   128396220.71907  24432993.220   100049026.39446
  22747848.220   119540757.53508  22747850.280    93148651.23246
  24039027.360   126325927.48906  24039027.840    98435784.74845
  22429833.020   117869555.08108  22429832.760    91846400.05647
 15 02 22 00 13 30.0000000  0  7G16G18G21G22G27G29G31
  21734277.760   114214418.05908  21734276.960    88998258.66547
  23151190.480   121660372.87807  23151190.860    94800314.97845
  21293304.500   111897079.78108  21293303.620    87192528.48648
  24415974.320   128306800.80905  24415977.140    99979348.76144
  22735898.640   119477962.02107  22735900.660    93099719.66447
  24053791.160   126403511.79206  24053791.760    98496240.06445
  22446590.800   117957617.53608  22446590.500    91915020.12847
 15 02 22 00 14  0.0000000  0  7G16G18G21G22G27G29G31
  21721006.640   114144677.77908  21721005.860    88943915.59847
  23139002.560   121596325.13107  23139002.880    94750407.68244
  21299751.640   111930959.54908  21299750.740    87218928.30148
  24398945.340   128217313.81105  24398948.140    99909619.01644
  22723975.440   119415305.33008  22723977.500    93050896.29747
  24068554.060   126481091.20306  24068554.620    98556691.52045
  22463397.280   118045936.03808  22463396.960    91983839.70147
 15 02 22 00 14 30.0000000  0  7G16G18G21G22G27G29G31
  21707777.560   114075158.39208  21707776.780    88889744.65147
  23126856.900   121532499.23307  23126857.140    94700673.25544
  21306270.780   111965217.75108  21306269.840    87245623.00548
  24381904.400   128127763.76406  24381907.200    99839840.38443
  22712079.000   119352789.12907  22712081.060    93002182.39447
  24083316.220   126558667.10006  24083316.760    98617140.25745
  22480252.240   118134509.37108  22480251.940    92052857.85947
 15 02 22 00 15  0.0000000  0  7G16G18G21G22G27G29G31
  21694590.720   114005861.10108  21694589.980    88835746.76847
  23114753.820   121468896.94007  23114753.960    94651113.06945
  21312861.540   111999852.28908  21312860.580    87272610.95748
  24364851.560   128038151.85106  24364854.200    99770013.38944
  22700209.140   119290412.53508  22700211.160    92953577.27147
  24098077.540   126636238.70206  24098078.180    98677585.64545
  22497154.960   118223333.83308  22497154.720    92122071.68447
 15 02 22 00 15 30.0000000  0  7G16G18G21G22G27G29G31
  21681446.820   113936789.45108  21681446.120    88781924.70747
  23102694.140   121405522.86807  23102694.260    94601730.73945
  21319523.800   112034862.63108  21319522.840    87299891.74748
  24347787.580   127948482.00106  24347789.960    99700141.26444
  22688366.100   119228176.93508  22688368.120    92905082.01947
  24112838.280   126713807.30106  24112839.120    98738028.66545
  22514105.280   118312408.26808  22514105.120    92191480.30247
 15 02 22 00 16  0.0000000  0  7G16G18G21G22G27G29G31
  21668345.740   113867942.42208  21668345.000    88728277.67447
  23090677.720   121342376.18307  23090677.740    94552525.57544
  21326256.780   112070244.89008  21326255.860    87327462.33448
  24330712.480   127858754.24406  24330714.840    99630224.11844
  22676549.340   119166079.38708  22676551.340    92856694.35247
  24127597.940   126791369.68206  24127598.880    98798466.87545
  22531102.060   118401726.89208  22531101.940    92261079.19547
 15 02 22 00 16 30.0000000  0  7G16G18G21G22G27G29G31
  21655288.540   113799326.08908  21655287.780    88674810.40348
  23078705.760   121279463.58707  23078705.780    94503502.81445
  21333061.040   112106001.63808  21333060.140    87355324.73648
  24313627.520   127768975.07106  24313630.200    99560266.91145
  22664759.540   119104123.74008  22664761.500    92808417.23947
  24142357.140   126868929.60706  24142358.080    98858903.17045
  22548145.540   118491290.85808  22548145.440    92330869.26847
 15 02 22 00 17  0.0000000  0  7G16G18G21G22G27G29G31
  21642274.660   113730937.57508  21642273.880    88621520.65447
  23066777.980   121216782.97707  23066777.940    94454660.82345
  21339935.280   112142126.20508  21339934.420    87383473.75148
  24296532.480   127679141.96606  24296535.120    99490267.57844
  22652995.820   119042305.16608  22652997.820    92760246.94647
  24157114.900   126946481.99406  24157115.860    98919333.60345
  22565234.220   118581092.35908  22565234.140    92400844.42047
 15 02 22 00 17 30.0000000  0  7G16G18G21G22G27G29G31
  21629305.140   113662782.09608  21629304.300    88568412.49148
  23054895.400   121154339.83407  23054895.300    94406003.88245
  21346879.700   112178619.59408  21346878.840    87411910.16448
  24279428.360   127589260.39906  24279430.660    99420230.46544
  22641258.700   118980626.49708  22641260.800    92712185.66647
  24171871.720   127024029.63806  24171872.680    98979760.31444
  22582368.140   118671131.61908  22582368.040    92471004.85247
 15 02 22 00 18  0.0000000  0  7G16G18G21G22G27G29G31
  21616380.360   113594861.62408  21616379.440    88515487.45047
  23043058.540   121092136.86007  23043058.420    94357534.08245
  21353894.100   112215480.64408  21353893.280    87440633.06048
  24262315.560   127499333.32606  24262317.420    99350157.90844
  22629548.200   118919087.89607  22629550.440    92664233.52947
  24186627.740   127101572.73106  24186628.560    99040183.47545
  22599546.840   118761406.08408  22599546.720    92541348.55447
 15 02 22 00 18 30.0000000  0  7G16G18G21G22G27G29G31
  21603500.640   113527177.80008  21603499.640    88462746.81648
  23031267.760   121030175.88507  23031267.620    94309252.83845
  21360978.140   112252707.52208  21360977.340    87469641.01348
  24245194.400   127409362.76806  24245196.060    99280051.47744
  22617864.300   118857688.87108  22617866.580    92616390.15847
  24201382.740   127179110.56206  24201383.560    99100602.51645
  22616769.600   118851912.18308  22616769.500    92611872.74647
 15 02 22 00 19  0.0000000  0  7G16G18G21G22G27G29G31
  21590666.560   113459734.18609  21590665.500    88410193.35447
  23019523.820   120968461.23407  23019523.720    94261163.55145
  21368131.700   112290299.64508  21368130.860    87498933.57848
  24228065.480   127319352.88906  24228067.320    99209914.38645
  22606207.280   118796430.83008  22606209.560    92568656.63647
  24216136.860   127256644.45606  24216137.840    99161018.51746
  22634036.140   118942648.67108  22634036.140    92682576.45647
 15 02 22 00 19 30.0000000  0  7G16G18G21G22G27G29G31
  21577877.940   113392529.41408  21577876.840    88357826.00548
  23007826.660   120906992.11207  23007826.500    94213265.58145
  21375353.960   112328252.78008  21375353.100    87528507.44848
  24210929.000   127229302.73006  24210931.100    99139745.82844
  22594576.420   118735310.35108  22594578.700    92521030.30547
  24230889.580   127334170.71506  24230890.660    99221428.56044
  22651345.440   119033609.47508  22651345.460    92753454.97247
 15 02 22 00 20  0.0000000  0  7G16G18G21G22G27G29G31
  21565135.200   113325566.04209  21565134.100    88305646.75947
  22996176.720   120845771.52207  22996176.620    94165561.27045
  21382644.620   112366565.24408  21382643.680    87558361.31848
  24193785.620   127139215.23606  24193787.880    99069548.18445
  22582971.780   118674327.73708  22582974.060    92473511.40047
  24245641.000   127411689.95806  24245642.060    99281833.11645
  22668696.940   119124792.06008  22668696.980    92824506.29647
 15 02 22 00 20 30.0000000  0  7G16G18G21G22G27G29G31
  21552439.000   113258847.22608  21552437.900    88253658.07548
  22984574.740   120784802.89207  22984574.680    94118053.27745
  21390003.580   112405236.71108  21390002.540    87588494.93248
  24176636.020   127049094.14706  24176638.020    98999324.33245
  22571393.620   118613484.13508  22571395.880    92426100.82347
  24260391.280   127489202.98906  24260392.140    99342232.83445
  22686090.360   119216194.73908  22686090.380    92895729.11747
 15 02 22 00 21  0.0000000  0  7G16G18G21G22G27G29G31
  21539789.660   113192374.68709  21539788.560    88201861.29648
  22973021.080   120724088.56607  22973021.080    94070743.45245
  21397430.500   112444265.34408  21397429.420    87618906.85148
  24159480.480   126958941.77806  24159481.960    98929076.12545
  22559841.800   118552779.12707  22559844.060    92378798.23647
  24275140.360   127566709.21906  24275141.020    99402627.26644
  22703525.020   119307814.35408  22703525.040    92967120.99047
 15 02 22 00 21 30.0000000  0  7G16G18G21G22G27G29G31
  21527188.100   113126153.34509  21527187.020    88150260.26248
  22961516.820   120663634.10007  22961516.960    94023636.13546
  21404925.560   112483652.09008  21404924.480    87649597.82348
  24142320.000   126868763.78706  24142321.060    98858807.90545
  22548316.840   118492215.58107  22548319.200    92331605.88547
  24289888.500   127644211.43005  24289889.260    99463018.57946
  22721000.940   119399650.99108  22721001.020    93038681.95547
 15 02 22 00 22  0.0000000  0  7G16G18G21G22G27G29G31
  21514634.220   113060182.33109  21514633.120    88098854.28548
  22950061.940   120603438.79807  22950062.120    93976730.74045
  21412487.800   112523391.99008  21412486.740    87680563.97748
  24125154.380   126778559.60106  24125155.360    98788519.26545
  22536818.200   118431790.37508  22536820.680    92284521.32747
  24304635.340   127721706.71606  24304636.280    99523404.48145
  22738517.020   119491698.57108  22738517.140    93110407.29947
 15 02 22 00 22 30.0000000  0  7G16G18G21G22G27G29G31
  21502128.260   112994463.03309  21502127.100    88047644.45548
  22938656.780   120543504.54107  22938656.980    93930028.76245
  21420116.880   112563483.03908  21420115.800    87711803.75148
  24107984.200   126688331.53806  24107985.240    98718212.02745
  22525345.800   118371502.86807  22525348.360    92237544.07047
  24319380.700   127799194.25306  24319381.720    99583784.33544
  22756072.640   119583953.78208  22756072.760    93182294.42147
 15 02 22 00 23  0.0000000  0  7G16G18G21G22G27G29G31
  21489670.620   112928997.72209  21489669.420    87996632.53148
  22927301.780   120483833.96707  22927302.100    93883532.25145
  21427812.440   112603923.46408  21427811.360    87743315.77348
  24090810.040   126598081.50606  24090811.100    98647887.63645
  22513899.640   118311353.02607  22513902.180    92190674.07547
  24334124.580   127876673.68406  24334125.660    99644157.88944
  22773667.220   119676413.59608  22773667.320    93254340.99247
 15 02 22 00 23 30.0000000  0  7G16G18G21G22G27G29G31
  21477262.160   112863790.96709  21477260.960    87945822.08048
  22915997.960   120424432.04807  22915998.320    93837245.07545
  21435574.720   112644714.60008  21435573.640    87775101.07148
  24073632.780   126507814.75006  24073633.940    98577550.19145
  22502480.080   118251343.26407  22502482.640    92143913.24447
  24348867.400   127954147.63106  24348868.260    99704527.17644
  22791300.640   119769077.79408  22791300.780    93326546.80947
 15 02 22 00 24  0.0000000  0  7G16G18G21G22G27G29G31
  21464903.000   112798843.25609  21464901.820    87895213.48448
  22904745.460   120365299.84807  22904745.740    93791168.06545
  21443403.120   112685853.17508  21443402.020    87807157.10848
  24056452.600   126417533.21205  24056453.820    98507201.23345
  22491086.920   118191472.30607  22491089.540    92097260.57247
  24363608.900   128031614.58906  24363609.520    99764891.03344
  22808972.160   119861942.20008  22808972.340    93398908.63347
 15 02 22 00 24 30.0000000  0  7G16G18G21G22G27G29G31
  21452593.860   112734158.21509  21452592.680    87844809.56048
  22893545.080   120306441.17807  22893545.220    93745304.20145
  21451297.580   112727339.05208  21451296.520    87839483.76848
  24039270.020   126327240.46705  24039271.320    98436843.54745
  22479720.380   118131741.26008  22479723.080    92050716.92447
  24378349.280   128109075.85906  24378349.900    99825250.41944
  22826681.460   119955005.10508  22826681.640    93471425.13047
 15 02 22 00 25  0.0000000  0  7G16G18G21G22G27G29G31
  21440334.260   112669733.56909  21440333.100    87794608.55448
  22882396.460   120247854.36607  22882396.500    93699652.16745
  21459256.880   112769165.70508  21459255.860    87872075.96748
  24022084.980   126236934.95606  24022086.200    98366475.90945
  22468379.780   118072145.80808  22468382.420    92004278.92447
  24393087.780   128186527.12306  24393088.420    99885602.04343
  22844427.200   120048259.42208  22844427.360    93544090.78647
 15 02 22 00 25 30.0000000  0  7G16G18G21G22G27G29G31
  21428125.260   112605574.87009  21428124.100    87744614.76948
  22871300.620   120189545.16507  22871300.580    93654216.45345
  21467281.480   112811335.30508  21467280.460    87904935.38948
  24004898.840   126146622.72006  24004899.760    98296102.98244
  22457065.640   118012689.43307  22457068.260    91957949.30147
  24407824.960   128263971.52905  24407825.840    99945948.29745
  22862209.440   120141705.89508  22862209.660    93616906.17647
 15 02 22 00 26  0.0000000  0  7G16G18G21G22G27G29G31
  21415967.100   112541683.45209  21415965.960    87694829.25548
  22860257.900   120131515.52207  22860257.860    93608998.58345
  21475370.880   112853845.42608  21475369.900    87938060.15748
  23987711.980   126056305.68406  23987712.440    98225726.31245
  22445777.780   117953371.39907  22445780.400    91911727.48448
  24422560.600   128341407.88505  24422561.600   100006288.25545
  22880027.560   120235340.87408  22880027.940    93689868.43647
 15 02 22 00 26 30.0000000  0  7G16G18G21G22G27G29G31
  21403860.020   112478060.24909  21403858.900    87645252.74948
  22849268.680   120073766.79408  22849268.620    93563999.59745
  21483524.580   112896693.16208  21483523.580    87971448.00348
  23970524.600   125965985.54006  23970524.940    98155347.23744
  22434516.040   117894190.69808  22434518.660    91865612.68847
  24437294.800   128418836.00306  24437295.880   100066621.81045
  22897880.820   120329160.23808  22897881.180    93762974.38847
 15 02 22 00 27  0.0000000  0  7G16G18G21G22G27G29G31
  21391804.440   112414707.67209  21391803.340    87595887.10948
  22838333.400   120016301.42608  22838333.300    93519221.41345
  21491742.200   112939876.88108  21491741.200    88005097.65448
  23953336.960   125875664.82506  23953337.540    98084967.67845
  22423280.480   117835147.22408  22423283.020    91819604.80147
  24452027.440   128496255.28506  24452028.200   100126948.51145
  22915768.700   120423161.40408  22915768.980    93836222.01047
 15 02 22 00 27 30.0000000  0  7G16G18G21G22G27G29G31
  21379801.200   112351630.18309  21379800.140    87546735.82748
  22827453.020   119959124.22008  22827452.780    93474667.76645
  21500023.900   112983397.36608  21500022.860    88039009.71848
  23936149.980   125785348.87706  23936151.060    98014591.86745
  22412071.520   117776243.58708  22412074.000    91773705.88748
  24466758.880   128573668.39006  24466759.140   100187270.41544
  22933691.140   120517343.81008  22933691.360    93909610.84147
 15 02 22 00 28  0.0000000  0  7G16G18G21G22G27G29G31
  21367850.500   112288828.75809  21367849.460    87497799.66148
  22816627.620   119902236.39608  22816627.380    93430339.62245
  21508369.100   113027251.71908  21508368.060    88073181.93648
  23918964.160   125695039.24306  23918965.680    97944220.94846
  22400888.900   117717478.30908  22400891.320    91727914.78447
  24481488.760   128651074.22606  24481488.940   100247586.66044
  22951647.280   120611703.32408  22951647.460    93983137.68847
 15 02 22 00 28 30.0000000  0  7G16G18G21G22G27G29G31
  21355953.040   112226307.14609  21355952.040    87449081.53348
  22805858.220   119845642.74108  22805857.940    93386240.69345
  21516777.980   113071440.60908  21516776.920    88107614.83648
  23901780.380   125604739.78206  23901782.060    97873857.95845
  22389732.960   117658853.19608  22389735.260    91682232.87947
  24496217.200   128728473.69405  24496217.580   100307897.92744
  22969636.840   120706238.84008  22969636.940    94056801.67746
 15 02 22 00 29  0.0000000  0  7G16G18G21G22G27G29G31
  21344108.540   112164063.99709  21344107.580    87400580.38248
  22795144.480   119789341.56508  22795144.220    93342369.66745
  21525249.440   113115958.33708  21525248.400    88142303.97548
  23884598.820   125514450.35905  23884600.120    97803502.75745
  22378603.020   117600364.96208  22378605.260    91636657.64747
  24510943.800   128805863.77106  24510944.600   100368201.80445
  22987658.720   120800944.41107  22987658.820    94130598.17747
 15 02 22 00 29 30.0000000  0  7G16G18G21G22G27G29G31
  21332317.280   112102100.52609  21332316.320    87352297.16648
  22784486.720   119733334.48508  22784486.380    93298727.82145
  21533782.860   113160801.76408  21533781.840    88177246.90448
  23867419.560   125424172.42805  23867420.380    97733156.53744
  22367498.860   117542012.30408  22367501.100    91591188.06447
  24525668.680   128883243.47206  24525669.580   100428497.59945
  23005712.140   120895815.99408  23005712.340    94204524.02246
 15 02 22 00 30  0.0000000  0  7G16G18G21G22G27G29G31
  21320580.000   112040420.78209  21320579.020    87304235.03248
  22773885.700   119677625.90908  22773885.360    93255318.56245
  21542378.460   113205971.83708  21542377.440    88212444.36348
  23850243.320   125333910.82705  23850243.800    97662823.01945
  22356420.900   117483797.31608  22356423.120    91545825.75847
  24540392.040   128960614.54406  24540392.960   100488786.74245
  23023797.040   120990852.59908  23023797.280    94278578.47247
 15 02 22 00 30 30.0000000  0  7G16G18G21G22G27G29G31
  21308897.300   111979027.90509  21308896.320    87256396.42548
  22763342.120   119622219.24508  22763341.740    93212144.56745
  21551035.980   113251467.57908  21551035.000    88247895.58948
  23833070.760   125243669.08305  23833071.280    97592504.96946
  22345369.320   117425720.87608  22345371.480    91500571.39847
  24555113.960   129037978.02306  24555114.660   100549069.98444
  23041912.940   121086052.30408  23041913.240    94352759.99747
 15 02 22 00 31  0.0000000  0  6G16G18G21G22G27G31
  21297263.780   111917893.35809  21297262.820    87208759.11948
  22752850.620   119567086.26408  22752850.240    93169183.82345
  21559749.240   113297256.18308  21559748.260    88283575.02048
  23815896.280   125153418.95605  23815897.320    97522180.38546
  22334338.240   117367752.34908  22334340.340    91455401.12547
  23060053.580   121181381.59808  23060053.880    94427042.52547
 15 02 22 00 31 30.0000000  0  6G16G18G21G22G27G31
  21285693.380   111857090.53309  21285692.480    87161380.29848
  22742425.220   119512300.75108  22742424.900    93126493.83345
  21568531.580   113343407.78308  21568530.620    88319537.30648
  23798734.320   125063234.69905  23798736.020    97451907.14146
  22323341.360   117309963.35908  22323343.460    91410370.76247
  23078231.980   121276909.07808  23078232.260    94501479.45947
 15 02 22 00 32  0.0000000  0  6G16G18G21G22G27G31
  21274176.240   111796567.67409  21274175.400    87114219.63848
  22732056.020   119457810.60008  22732055.720    93084033.99845
  21577372.280   113389865.96708  21577371.320    88355738.48648
  23781575.420   124973065.32706  23781577.400    97381645.46645
  22312368.280   117252299.48508  22312370.300    91365437.87747
  23096437.160   121372577.58408  23096437.420    94576026.29247
 15 02 22 00 32 30.0000000  0  6G16G18G21G22G27G31
  21262714.820   111736337.65009  21262714.020    87067287.15148
  22721745.580   119403629.13508  22721745.380    93041814.69946
  21586273.280   113436641.04608  21586272.340    88392186.59948
  23764422.220   124882924.33506  23764424.000    97311405.89244
  22301421.080   117194771.76508  22301423.160    91320611.10547
  23114670.700   121468395.24208  23114670.920    94650689.35247
 15 02 22 00 33  0.0000000  0  6G16G18G21G22G27G31
  21251309.560   111676402.63609  21251308.760    87020584.54748
  22711494.500   119349759.27508  22711494.340    92999838.21146
  21595234.200   113483731.00608  21595233.260    88428880.07548
  23747275.040   124792813.98205  23747276.280    97241190.17845
  22290499.860   117137380.24308  22290501.880    91275890.43847
  23132932.140   121564359.44907  23132932.360    94725466.59547
 15 02 22 00 33 30.0000000  0  6G16G18G21G22G27G31
  21239961.960   111616770.75009  21239961.220    86974118.14548
  22701304.280   119296209.39708  22701304.160    92958111.06245
  21604255.780   113531139.65508  21604254.820    88465821.88448
  23730135.280   124702743.46206  23730135.940    97171005.47443
  22279605.620   117080130.69408  22279607.660    91231280.41247
  23151221.960   121660473.06507  23151222.240    94800360.27746
 15 02 22 00 34  0.0000000  0  6G16G18G21G22G27G31
  21228671.800   111557440.66709  21228671.120    86927886.91348
  22691174.620   119242977.97108  22691174.560    92916632.06045
  21613336.980   113578861.45508  21613335.920    88503007.69748
  23713002.680   124612711.77205  23713002.820    97100851.06845
  22268737.760   117023019.94108  22268739.820    91186778.53747
  23169539.000   121756729.80807  23169539.340    94875365.47546
 15 02 22 00 34 30.0000000  0  6G16G18G21G22G27G31
  21217439.940   111498417.04909  21217439.320    86881894.48548
  22681106.520   119190069.90108  22681106.400    92875405.00845
  21622477.960   113626897.46108  21622476.860    88540438.34948
  23695878.260   124522724.62405  23695878.360    97030731.34346
  22257896.820   116966050.39008  22257898.860    91142386.68647
  23187883.220   121853129.30307  23187883.660    94950481.90446
 15 02 22 00 35  0.0000000  0  6G16G18G21G22G27G31
  21206265.900   111439697.28009  21206265.320    86836138.82148
  22671099.500   119137482.66408  22671099.300    92834427.96545
  21631677.560   113675241.52508  21631676.420    88578109.05348
  23678761.780   124432779.81005  23678762.160    96960644.61445
  22247081.800   116909217.31308  22247083.860    91098101.17947
  23206253.160   121949664.09907  23206253.700    95025703.76047
 15 02 22 00 35 30.0000000  0  6G16G18G21G22G27G31
  21195149.600   111381280.79009  21195149.020    86790619.48248
  22661153.460   119085215.95208  22661153.160    92793700.67446
  21640934.900   113723889.09608  21640933.740    88616016.25148
  23661653.400   124342876.81005  23661654.180    96890590.51146
  22236292.300   116852518.02708  22236294.320    91053919.92547
  23224647.760   122046328.39307  23224648.340    95101026.53747
 15 02 22 00 36  0.0000000  0  6G16G18G21G22G27G31
  21184092.160   111323173.62109  21184091.580    86745341.17148
  22651269.540   119033275.68308  22651269.220    92753227.76845
  21650250.320   113772841.97708  21650249.160    88654161.35148
  23644554.780   124253022.99206  23644555.720    96820574.69246
  22225528.980   116795956.42408  22225531.000    91009845.96447
  23243067.320   122143123.46607  23243067.860    95176451.20647
 15 02 22 00 36 30.0000000  0  6G16G18G21G22G27G31
  21173093.200   111265373.83809  21173092.620    86700302.37948
  22641447.600   118981660.80108  22641447.200    92713008.40646
  21659622.680   113822094.18708  21659621.540    88692539.70348
  23627465.480   124163216.75406  23627466.240    96750595.93045
  22214791.080   116739528.45008  22214793.040    90965876.12047
  23261510.440   122240042.22007  23261510.900    95251972.23546
 15 02 22 00 37  0.0000000  0  6G16G18G21G22G27G31
  21162153.500   111207885.50609  21162152.940    86655506.28048
  22631688.320   118930375.42308  22631687.860    92673045.80046
  21669052.160   113871646.42108  21669051.040    88731151.83348
  23610386.280   124073463.15506  23610386.720    96680658.18545
  22204079.100   116683236.34208  22204081.000    90922012.14547
  23279976.960   122337083.93807  23279977.360    95327589.10146
 15 02 22 00 37 30.0000000  0  6G16G18G21G22G27G31
  21151274.400   111150715.62309  21151273.840    86610958.32548
  22621992.960   118879426.29108  22621992.580    92633345.19446
  21678539.160   113921501.21508  21678538.040    88769999.72748
  23593318.100   123983768.88206  23593318.300    96610766.66645
  22193393.840   116627084.49108  22193395.680    90878257.47047
  23298467.180   122434250.37907  23298467.540    95403303.14546
 15 02 22 00 38  0.0000000  0  6G16G18G21G22G27G31
  21140457.340   111093871.74409  21140456.800    86566664.39648
  22612363.020   118828820.92708  22612362.720    92593912.48246
  21688084.560   113971662.82008  21688083.460    88809086.69848
  23576262.620   123894143.06506  23576262.900    96540928.51445
  22182736.300   116571078.60908  22182738.140    90834616.54047
  23316981.600   122531544.13407  23316982.020    95479116.38747
 15 02 22 00 38 30.0000000  0  6G16G18G21G22G27G31
  21129700.820   111037345.88409  21129700.260    86522618.27548
  22602797.080   118778551.76508  22602796.880    92554741.74746
  21697686.060   114022119.23208  21697685.000    88848403.38748
  23559218.540   123804578.02706  23559218.880    96471137.69645
  22172104.620   116515208.49308  22172106.400    90791081.40147
  23335517.820   122628952.13907  23335518.280    95555018.65546
 15 02 22 00 39  0.0000000  0  6G16G18G21G22G27G31
  21119004.620   110981137.08409  21119004.040    86478819.21248
  22593294.980   118728618.04208  22593294.800    92515832.37746
  21707342.760   114072865.49708  21707341.720    88887945.93048
  23542186.120   123715073.51106  23542186.200    96401394.02245
  22161498.220   116459471.23508  22161499.900    90747649.77648
  23354074.700   122726468.78907  23354075.200    95631005.58946
 15 02 22 00 39 30.0000000  0  6G16G18G21G22G27G31
  21108369.520   110925249.31909  21108368.960    86435270.30748
  22583857.520   118679023.87108  22583857.320    92477187.59746
  21717054.600   114123901.59708  21717053.560    88927714.32648
  23525166.360   123625633.98506  23525166.000    96331700.98945
  22150917.420   116403868.73008  22150919.080    90704323.17947
  23372651.980   122824092.89707  23372652.500    95707076.24746
 15 02 22 00 40  0.0000000  0  6G16G18G21G22G27G31
  21097797.040   110869690.65109  21097796.500    86391977.85048
  22574486.160   118629777.38308  22574485.980    92438813.75046
  21726822.340   114175231.47008  21726821.300    88967711.63048
  23508160.860   123536268.43906  23508160.040    96262065.59945
  22140363.380   116348406.90708  22140365.040    90661106.18847
  23391250.360   122921827.47307  23391250.820    95783233.01346
 15 02 22 00 40 30.0000000  0  6G16G18G21G22G27G31
  21087286.220   110814456.14209  21087285.700    86348937.97648
  22565180.080   118580873.80808  22565179.940    92400707.09646
  21736644.360   114226846.62808  21736643.300    89007931.23148
  23491168.560   123446972.36406  23491167.500    96192484.34645
  22129834.800   116293078.79008  22129836.460    90617993.40147
  23409867.900   123019662.81507  23409868.260    95859468.26846
 15 02 22 00 41  0.0000000  0  6G16G18G21G22G27G31
  21076839.820   110759560.05309  21076839.280    86306161.80648
  22555941.940   118532327.17308  22555941.880    92362878.59046
  21746522.680   114278757.72908  21746521.600    89048381.44448
  23474192.240   123357760.32506  23474191.180    96122968.57645
  22119333.880   116237896.43508  22119335.560    90574994.17947
  23428506.380   123117608.17107  23428506.620    95935789.24346
 15 02 22 00 41 30.0000000  0  6G16G18G21G22G27G31
  21066456.240   110704993.90909  21066455.680    86263642.73948
  22546770.120   118484129.29008  22546770.140    92325321.82646
  21756454.900   114330951.99708  21756453.820    89089052.29648
  23457230.420   123268625.28606  23457229.560    96053512.80046
  22108858.740   116182849.41308  22108860.440    90532100.41247
  23447163.180   123215649.79107  23447163.360    96012185.23346
 15 02 22 00 42  0.0000000  0  6G16G18G21G22G27G31
  21056136.380   110650762.74409  21056135.860    86221384.69748
  22537665.540   118436284.78308  22537665.600    92288040.42046
  21766441.240   114383430.48408  21766440.160    89129944.62548
  23440284.040   123179572.62506  23440283.560    95984121.24245
  22098409.920   116127940.57508  22098411.660    90489314.32747
  23465838.360   123313788.17807  23465838.560    96088656.62146
 15 02 22 00 42 30.0000000  0  6G16G18G21G22G27G31
  21045881.000   110596870.20609  21045880.480    86179390.51748
  22528628.980   118388797.76008  22528629.120    92251037.58446
  21776481.620   114436192.72708  21776480.480    89171058.06848
  23423354.120   123090606.43806  23423353.840    95914797.02946
  22087987.640   116073171.44408  22087989.480    90446637.10748
  23484531.600   123412021.96407  23484531.920    96165202.36146
 15 02 22 00 43  0.0000000  0  6G16G18G21G22G27G31
  21035688.980   110543310.72209  21035688.440    86137655.85648
  22519659.520   118341663.09808  22519659.600    92214309.29246
  21786574.260   114489229.82908  21786573.100    89212385.67448
  23406439.720   123001721.85107  23406439.440    95845536.41046
  22077590.560   116018534.53808  22077592.480    90404062.91948
  23503240.900   123510340.24107  23503241.360    96241813.93145
 15 02 22 00 43 30.0000000  0  6G16G18G21G22G27G31
  21025562.300   110490094.64609  21025561.740    86096188.78648
  22510758.960   118294890.25308  22510758.960    92177862.95846
  21796720.380   114542547.90008  21796719.180    89253932.22248
  23389543.220   122912929.94407  23389542.460    95776348.00245
  22067220.220   115964038.03708  22067222.120    90361598.12548
  23521967.400   123608748.53907  23521967.940    96318495.64046
 15 02 22 00 44  0.0000000  0  7G16G18G19G21G22G27G31
  21015494.460   110437187.57409  21015493.860    86054962.50148
  22501920.740   118248445.03508  22501920.700    92141671.90446
  24168998.240   127008942.53405  24168996.920    98967997.81743
  21806912.520   114596107.95708  21806911.320    89295667.33248
  23372658.020   122824196.90707  23372656.620    95707205.42045
  22056869.640   115909645.57108  22056871.560    90319214.41248
  23540703.660   123707207.58007  23540704.220    96395216.87046
 15 02 22 00 44 30.0000000  0  7G16G18G19G21G22G27G31
  21005501.180   110384672.39709  21005500.560    86014041.58748
  22493160.660   118202410.60708  22493160.580    92105800.95146
  24154220.060   126931282.97305  24154218.480    98907483.89244
  21817165.920   114649989.91108  21817164.740    89337653.27248
  23355799.960   122735606.50307  23355798.160    95638174.01846
  22046554.280   115855437.82308  22046556.160    90276974.62348
  23559464.380   123805795.25907  23559464.920    96472038.34246
 15 02 22 00 45  0.0000000  0  7G16G18G19G21G22G27G31
  20995571.380   110332490.83209  20995570.740    85973380.63248
  22484467.720   118156728.76708  22484467.540    92070204.73146
  24139458.740   126853712.73005  24139457.380    98847039.62243
  21827468.800   114704131.86608  21827467.680    89379841.81548
  23338958.100   122647101.26607  23338956.160    95569208.97945
  22036262.600   115801354.65108  22036264.460    90234831.91448
  23578237.540   123904448.38607  23578238.000    96548910.82546
 15 02 22 00 45 30.0000000  0  7G16G18G19G21G22G27G31
  20985707.740   110280657.07809  20985707.120    85932990.69848
  22475844.600   118111413.87708  22475844.380    92034894.46046
  24124716.860   126776243.84305  24124715.540    98786674.29144
  21837822.960   114758543.42108  21837821.900    89422240.42948
  23322135.060   122558695.97307  23322133.360    95500321.82945
  22025996.880   115747408.33308  22025998.760    90192795.84648
  23597024.920   124003176.40607  23597025.320    96625841.67446
 15 02 22 00 46  0.0000000  0  7G16G18G19G21G22G27G31
  20975911.060   110229175.19809  20975910.420    85892874.94948
  22467291.980   118066469.58408  22467291.780    91999872.96246
  24109994.580   126698878.11005  24109993.180    98726389.31444
  21848228.440   114813224.76108  21848227.420    89464849.26548
  23305331.820   122470395.38607  23305330.540    95431516.26745
  22015757.580   115693600.79708  22015759.520    90150867.91548
  23615826.300   124101978.02807  23615826.660    96702829.86946
 15 02 22 00 46 30.0000000  0  7G16G18G19G21G22G27G31
  20966181.320   110178045.11409  20966180.640    85853033.32348
  22458809.880   118021895.93208  22458809.640    91965140.27046
  24095291.640   126621613.68106  24095290.160    98666183.34345
  21858684.560   114868172.14708  21858683.600    89507665.41048
  23288548.660   122382200.18607  23288547.740    95362792.82345
  22005544.260   115639929.82208  22005546.240    90109046.39048
  23634640.880   124200848.84807  23634641.280    96779871.96646
 15 02 22 00 47  0.0000000  0  7G16G18G19G21G22G27G31
  20956519.380   110127271.38409  20956518.680    85813469.38048
  22450399.080   117977697.17908  22450398.860    91930699.70846
  24080608.540   126544453.44106  24080606.960    98606058.52645
  21869191.500   114923386.31608  21869190.500    89550689.44248
  23271786.560   122294115.41007  23271785.760    95294155.40745
  21995357.420   115586398.01908  21995359.480    90067333.32548
  23653468.500   124299788.33307  23653469.000    96856967.55645
 15 02 22 00 47 30.0000000  0  7G16G18G19G21G22G27G31
  20946925.120   110076853.16809  20946924.400    85774182.46148
  22442059.520   117933872.66408  22442059.240    91896550.75146
  24065944.640   126467394.30006  24065943.120    98546012.50145
  21879748.280   114978862.60108  21879747.260    89593917.71648
  23255045.540   122206141.35307  23255044.680    95225604.28146
  21985196.560   115533002.68308  21985198.640    90025726.58748
  23672308.080   124398790.61607  23672308.620    96934112.09246
 15 02 22 00 48  0.0000000  0  7G16G18G19G21G22G27G31
  20937399.680   110026796.52009  20937398.960    85735177.28448
  22433792.260   117890427.93208  22433791.940    91862697.74146
  24051300.600   126390439.87506  24051299.140    98486048.05245
  21890355.280   115034602.66008  21890354.240    89637351.52448
  23238326.880   122118284.31707  23238325.840    95157144.33545
  21975062.440   115479747.59708  21975064.520    89984229.14248
  23691159.760   124497856.76107  23691160.340    97011306.39645
 15 02 22 00 48 30.0000000  0  7G16G18G19G21G22G27G31
  20927942.960   109977101.06309  20927942.240    85696453.55548
  22425597.300   117847363.22708  22425596.920    91829140.85846
  24036676.120   126313588.04006  24036674.720    98426163.56445
  21901011.680   115090602.39608  21901010.660    89680987.68448
  23221630.520   122030544.88107  23221629.320    95088776.03045
  21964954.560   115426630.47308  21964956.660    89942839.19048
  23710022.620   124596981.40207  23710023.200    97088546.26745
 15 02 22 00 49  0.0000000  0  7G16G18G19G21G22G27G31
  20918555.200   109927768.06409  20918554.440    85658012.26248
  22417474.820   117804679.55808  22417474.460    91795880.87546
  24022071.040   126236838.19206  24022069.660    98366358.52646
  21911717.000   115146859.46308  21911716.040    89724824.36048
  23204956.940   121942924.98907  23204955.480    95020500.83045
  21954872.820   115373650.71708  21954874.940    89901556.27948
  23728895.920   124696160.96807  23728896.500    97165828.94845
 15 02 22 00 49 30.0000000  0  7G16G18G19G21G22G27G31
  20909236.900   109878800.19609  20909236.120    85619855.48348
  22409425.400   117762379.90208  22409425.080    91762920.12446
  24007485.620   126160191.37406  24007484.260    98306633.79445
  21922471.100   115203372.88008  21922470.180    89768860.78847
  23188306.700   121855428.19207  23188305.340    94952321.59846
  21944817.380   115320809.26408  21944819.540    89860381.14048
  23747779.380   124795393.74507  23747780.040    97243153.05246
 15 02 22 00 50  0.0000000  0  7G16G18G19G21G22G27G31
  20899988.320   109830198.82509  20899987.600    85581984.28948
  22401449.060   117720464.11508  22401448.720    91730258.49746
  23992919.580   126083646.31706  23992918.180    98246988.36345
  21933273.360   115260139.01508  21933272.400    89813094.14348
  23171680.200   121768056.35907  23171679.060    94884239.75445
  21934788.020   115268104.82208  21934790.160    89819312.76348
  23766672.160   124894675.48506  23766672.900    97320515.33346
 15 02 22 00 50 30.0000000  0  7G16G18G19G21G22G27G31
  20890810.320   109781968.24809  20890809.680    85544402.02648
  22393546.780   117678937.40108  22393546.360    91697900.04146
  23978373.340   126007205.31006  23978371.940    98187423.98746
  21944123.900   115317159.03008  21944122.940    89857525.32147
  23155078.440   121680814.38507  23155077.420    94816259.04946
  21924785.200   115215540.00508  21924787.380    89778353.18648
  23785574.200   124994005.95506  23785574.940    97397915.55845
 15 02 22 00 51  0.0000000  0  7G16G18G19G21G22G27G31
  20881703.340   109734110.64309  20881702.720    85507110.39148
  22385718.940   117637801.92408  22385718.480    91665846.44546
  23963846.980   125930868.94407  23963845.560    98127941.15846
  21955022.540   115374431.65708  21955021.580    89902153.34047
  23138502.060   121593705.74807  23138501.240    94748382.28946
  21914809.080   115163115.26708  21914811.280    89737502.75948
  23804485.000   125093382.40706  23804485.820    97475351.62546
 15 02 22 00 51 30.0000000  0  7G16G18G19G21G22G27G31
  20872667.360   109686626.17709  20872666.740    85470109.51348
  22377965.420   117597057.23508  22377965.040    91634097.36346
  23949340.160   125854635.33707  23949338.700    98068538.39246
  21965968.400   115431952.46308  21965967.480    89946974.74648
  23121951.300   121506730.87307  23121950.500    94680609.73545
  21904859.260   115110828.57308  21904861.440    89696759.90148
  23823403.680   125192800.28407  23823404.600    97552819.99645
 15 02 22 00 52  0.0000000  0  7G16G18G19G21G22G27G31
  20863702.720   109639516.72309  20863702.080    85433400.85148
  22370286.620   117556705.34408  22370286.320    91602654.35246
  23934852.880   125778504.46607  23934851.440    98009215.67145
  21976961.160   115489719.66808  21976960.220    89991988.15247
  23105426.460   121419892.38607  23105425.560    94612943.42946
  21894935.740   115058679.92608  21894937.880    89656124.61148
  23842329.580   125292256.37306  23842330.660    97630318.10946
 15 02 22 00 52 30.0000000  0  7G16G18G19G21G22G27G31
  20854809.680   109592783.56609  20854809.020    85396985.40948
  22362682.840   117516747.51508  22362682.520    91571518.40446
  23920385.060   125702475.58806  23920383.640    97949972.44646
  21988000.340   115547730.89008  21987999.360    90037191.70548
  23088928.120   121333192.90407  23088927.120    94545385.48046
  21885038.380   115006668.86408  21885040.500    89615596.52948
  23861262.140   125391747.47706  23861263.360    97707843.52146
 15 02 22 00 53  0.0000000  0  7G16G18G19G21G22G27G31
  20845989.220   109546431.84409  20845988.560    85360867.18848
  22355154.980   117477188.19208  22355154.600    91540692.96946
  23905937.160   125626551.41607  23905935.720    97890810.78745
  21999086.220   115605987.38808  21999085.200    90082586.37947
  23072457.300   121246637.80307  23072455.980    94477940.00745
  21875167.740   114954798.34608  21875169.840    89575177.95948
  23880201.460   125491273.49506  23880202.620    97785396.09245
 15 02 22 00 53 30.0000000  0  7G16G18G19G21G22G27G31
  20837241.340   109500461.49809  20837240.680    85325046.14148
  22347702.980   117438027.76408  22347702.560    91510178.37346
  23891508.940   125550730.81907  23891507.500    97831729.85946
  22010218.020   115664485.30808  22010216.980    90128169.16647
  23056014.020   121160227.95207  23056012.480    94410607.71046
  21865323.500   114903066.63608  21865325.580    89534867.55348
  23899146.580   125590830.07606  23899147.620    97862972.48545
 15 02 22 00 54  0.0000000  0  7G16G18G19G21G22G27G31
  20828566.320   109454873.91509  20828565.660    85289523.35348
  22340327.080   117399267.08508  22340326.660    91479975.27146
  23877100.240   125475012.62606  23877098.700    97772728.72746
  22021395.300   115723222.27608  22021394.280    90173938.23848
  23039598.820   121073965.75907  23039597.200    94343390.49346
  21855505.560   114851473.12908  21855507.640    89494664.84048
  23918096.740   125690413.51306  23918097.740    97940569.81345
 15 02 22 00 54 30.0000000  0  7G16G18G19G21G22G27G31
  20819964.820   109409672.63009  20819964.140    85254301.57748
  22333027.960   117360909.78008  22333027.520    91450086.48046
  23862711.360   125399398.59806  23862709.760    97713808.75946
  22032617.920   115782197.56308  22032616.900    90219893.01447
  23023212.360   120987855.07407  23023210.800    94276291.33446
  21845714.220   114800019.49208  21845716.320    89454571.12048
  23937051.840   125790022.56906  23937052.800    98018187.11445
 15 02 22 00 55  0.0000000  0  7G16G18G19G21G22G27G31
  20811437.200   109364859.75809  20811436.540    85219382.46248
  22325805.840   117322957.39408  22325805.480    91420513.21946
  23848342.260   125323888.73106  23848340.700    97654969.97946
  22043885.540   115841409.37208  22043884.520    90266032.08347
  23006855.320   120901898.83707  23006853.840    94209312.50346
  21835949.560   114748705.69508  21835951.600    89414586.35548
  23956011.220   125889654.29706  23956012.260    98095822.09845
 15 02 22 00 55 30.0000000  0  7G16G18G19G21G22G27G31
  20802983.880   109320437.16509  20802983.200    85184767.45848
  22318661.120   117285411.56808  22318660.780    91391256.74646
  23833992.980   125248483.26006  23833991.460    97596212.52846
  22055198.040   115900856.80608  22055196.980    90312354.75747
  22990528.360   120816100.28007  22990526.940    94142456.56546
  21826211.600   114697532.21708  21826213.580    89374710.93448
  23974974.460   125989306.38906  23974975.620    98173472.91845
 15 02 22 00 56  0.0000000  0  7G16G18G19G21G22G27G31
  20794605.140   109276406.59709  20794604.440    85150457.92748
  22311594.080   117248273.99908  22311593.740    91362318.40446
  23819663.540   125173181.93106  23819662.020    97537536.21346
  22066554.780   115960537.09208  22066553.780    90358858.88047
  22974231.760   120730461.37908  22974230.400    94075725.00546
  21816500.260   114646498.47908  21816502.180    89334944.40748
  23993940.940   126088975.35906  23993942.280    98251136.87544
 15 02 22 00 56 30.0000000  0  7G16G18G19G21G22G27G31
  20786300.800   109232766.97209  20786300.080    85116453.02648
  22304604.560   117211543.91008  22304604.240    91333697.57646
  23805353.440   125097982.03706  23805351.920    97478938.95546
  22077955.040   116020445.87408  22077954.040    90405541.04647
  22957965.580   120644982.55707  22957964.280    94009118.19246
  21806815.060   114595602.14708  21806816.920    89295284.94248
  24012909.580   126188655.84905  24012911.080    98328809.78346
 15 02 22 00 57  0.0000000  0  7G16G18G19G21G22G27G31
  20778071.960   109189524.21509  20778071.280    85082757.37448
  22297693.440   117175225.97108  22297693.120    91305397.90247
  23791063.320   125022886.80806  23791061.720    97420423.22845
  22089398.940   116080583.87708  22089397.900    90452401.82547
  22941731.060   120559669.71808  22941729.660    93942640.70046
  21797156.600   114544846.48608  21797158.440    89255735.09748
  24031880.520   126288348.27306  24031882.040    98406491.97345
 15 02 22 00 57 30.0000000  0  7G16G18G19G21G22G27G31
  20769918.940   109146679.89809  20769918.300    85049372.19648
  22290861.060   117139321.89808  22290860.760    91277420.72547
  23776793.100   124947896.24806  23776791.400    97361989.05146
