     2.11           OBSERVATION DATA    G                   RINEX VERSION / TYPE
SPIDER V4,0,0,3554                      2015 03 19 00:46    PGM / RUN BY / DATE 
ABKD                                                        MARKER NAME         
ABKD                                                        MARKER NUMBER       
                                                            OBSERVER / AGENCY   
496503              LEICA GRX1200+GNSS  8.20/4.007          REC # / TYPE / VERS 
10301028            LEIAR25         NONE                    ANT # / TYPE        
  5126847.8297   206786.8373  3776118.0908                  APPROX POSITION XYZ 
        0.0000        0.0000        0.0000                  ANTENNA: DELTA H/E/N
     1     1                                                WAVELENGTH FACT L1/2
     4    C1    L1    P2    L2                              # / TYPES OF OBSERV 
    30.000                                                  INTERVAL            
  2015    03    06    00    00    0.0000000     GPS         TIME OF FIRST OBS   
  2015    03    06    23    59   30.0000000     GPS         TIME OF LAST OBS    
    16                                                      LEAP SECONDS        
    30                                                      # OF SATELLITES     
   G 1   822   822   822   822                              PRN / # OF OBS      
   G 2   931   930   930   930                              PRN / # OF OBS      
   G 3   827   827   827   827                              PRN / # OF OBS      
   G 4   836   836   836   836                              PRN / # OF OBS      
   G 5   665   665   665   665                              PRN / # OF OBS      
   G 6   736   735   734   734                              PRN / # OF OBS      
   G 7   698   697   697   697                              PRN / # OF OBS      
   G 9   783   783   783   783                              PRN / # OF OBS      
   G10   774   774   774   774                              PRN / # OF OBS      
   G11   787   787   787   787                              PRN / # OF OBS      
   G12   808   808   808   808                              PRN / # OF OBS      
   G13   811   811   811   811                              PRN / # OF OBS      
   G14   937   937   936   936                              PRN / # OF OBS      
   G15   725   724   724   724                              PRN / # OF OBS      
   G16   685   685   685   685                              PRN / # OF OBS      
   G17   935   933   933   933                              PRN / # OF OBS      
   G18   933   932   931   930                              PRN / # OF OBS      
   G19   780   779   779   779                              PRN / # OF OBS      
   G20   780   779   779   779                              PRN / # OF OBS      
   G21   679   655   648   644                              PRN / # OF OBS      
   G22   790   790   790   790                              PRN / # OF OBS      
   G23   716   716   715   715                              PRN / # OF OBS      
   G24   825   819   818   816                              PRN / # OF OBS      
   G25   847   847   847   847                              PRN / # OF OBS      
   G27   820   820   820   820                              PRN / # OF OBS      
   G28   910   910   910   910                              PRN / # OF OBS      
   G29   732   732   731   731                              PRN / # OF OBS      
   G30   688   688   687   687                              PRN / # OF OBS      
   G31   794   794   792   792                              PRN / # OF OBS      
   G32   731   731   728   728                              PRN / # OF OBS      
BIT 2 OF LLI FLAGS DATA COLLECTED UNDER A/S CONDITION       COMMENT             
SNR is mapped to RINEX snr flag value [2-9]                 COMMENT             
Lx:     = 25dBHz -> 1; 26-27dBHz -> 2; 28-31dBHz -> 3       COMMENT             
       32-35dBHz -> 4; 36-38dBHz -> 5; 39-41dBHz -> 6       COMMENT             
       42-44dBHz -> 7; 45-48dBHz -> 8; >=49dBHz -> 9        COMMENT             
                                                            END OF HEADER       
 15 03 06 00 00  0.0000000  0  7G16G18G19G21G22G27G31
  20986196.600   110283226.16509  20986192.620    85934976.45848
  22262868.700   116992290.81909  22262865.460    91162863.11047
  24274042.540   127560966.35808  24274039.680    99398145.66846
  21791251.800   114514287.50409  21791247.780    89232109.14748
  23193229.080   121881289.74508  23193225.440    94972443.76247
  22108693.780   116182028.27709  22108693.060    90531464.14948
  23862040.160   125395879.35908  23862039.980    97711076.50046
 15 03 06 00 00 30.0000000  0  7G16G18G19G21G22G27G31
  20976475.280   110232140.31309  20976471.300    85895169.30048
  22254314.540   116947338.41209  22254311.360    91127835.27947
  24258928.460   127481540.27508  24258925.660    99336255.27746
  21801465.600   114567961.63709  21801461.620    89273933.14348
  23176081.220   121791177.74508  23176077.480    94902226.74647
  22097729.500   116124410.86209  22097728.760    90486567.47948
  23880748.160   125494189.82908  23880748.140    97787681.73046
 15 03 06 00 01  0.0000000  0  7G16G18G19G21G22G27G31
  20966827.280   110181439.82509  20966823.280    85855662.42148
  22245835.200   116902779.21409  22245832.020    91093113.84347
  24243830.800   127402200.03108  24243827.640    99274431.74946
  21811728.020   114621891.27308  21811724.060    89315956.22748
  23158958.220   121701196.19308  23158954.300    94832111.38046
  22086790.100   116066924.31109  22086789.340    90441772.78048
  23899463.380   125592538.90308  23899463.560    97864317.04646
 15 03 06 00 01 30.0000000  0  7G16G18G19G21G22G27G31
  20957252.960   110131126.41509  20957248.980    85816457.16948
  22237431.020   116858614.82409  22237427.800    91058700.04647
  24228749.240   127322945.17608  24228745.560    99212674.76445
  21822038.880   114676075.24309  21822034.880    89358177.50048
  23141860.600   121611347.72709  23141856.420    94762099.70746
  22075875.520   116009568.36809  22075874.800    90397079.85448
  23918185.500   125690923.46508  23918185.740    97940980.01746
 15 03 06 00 02  0.0000000  0  7G16G18G19G21G22G27G31
  20947751.720   110081197.17009  20947747.780    85777551.26348
  22229101.500   116814842.73509  22229098.180    91024591.94647
  24213683.020   127243771.23808  24213678.780    99150980.86846
  21832396.820   114730506.45809  21832392.840    89400591.43248
  23124787.900   121521630.46208  23124783.700    94692190.26446
  22064984.940   115952338.60109  22064984.380    90352485.25148
  23936912.940   125789335.92008  23936913.380    98017664.71946
 15 03 06 00 02 30.0000000  0  7G16G18G19G21G22G27G31
  20938324.440   110031656.75509  20938320.560    85738948.33448
  22220847.300   116771466.84509  22220843.960    90990792.56347
  24198632.640   127164680.72808  24198627.620    99089351.94345
  21842801.880   114785185.07909  21842797.880    89443198.15248
  23107741.020   121432049.20208  23107736.960    94622386.80146
  22054118.920   115895237.39409  22054118.400    90307990.80948
  23955645.600   125887775.44108  23955646.120    98094370.48346
 15 03 06 00 03  0.0000000  0  7G16G18G19G21G22G27G31
  20928972.180   109982510.42309  20928968.260    85700652.48948
  22212669.400   116728491.86709  22212666.020    90957305.58147
  24183598.620   127085676.58308  24183593.320    99027790.28346
  21853254.300   114840112.83509  21853250.320    89485998.99348
  23090721.160   121342610.01408  23090717.220    94552694.02646
  22043278.060   115838268.01909  22043277.480    90263599.10548
  23974383.480   125986242.61608  23974384.000    98171097.78846
 15 03 06 00 03 30.0000000  0  7G16G18G19G21G22G27G31
  20919695.140   109933758.93409  20919691.140    85662664.32048
  22204568.160   116685919.58909  22204564.800    90924132.39447
  24168580.600   127006758.01807  24168575.900    98966295.34346
  21863753.660   114895287.22609  21863749.780    89528992.02248
  23073728.660   121253314.73308  23073724.780    94483113.39647
  22032462.200   115781429.89509  22032461.480    90219309.68048
  23993126.020   126084733.72308  23993126.400    98247843.72546
 15 03 06 00 04  0.0000000  0  7G16G18G19G21G22G27G31
  20910493.760   109885405.08709  20910489.800    85624985.99848
  22196543.920   116643751.87409  22196540.520    90891274.44647
  24153578.900   126927925.85407  24153574.900    98904867.74846
  21874299.740   114950707.24008  21874295.900    89572176.43948
  23056764.100   121164166.34808  23056760.200    94413647.23546
  22021671.400   115724723.80309  22021670.640    90175123.12948
  24011872.760   126183246.36008  24011872.800    98324606.45246
 15 03 06 00 04 30.0000000  0  7G16G18G19G21G22G27G31
  20901367.420   109837445.91809  20901363.520    85587615.20248
  22188596.080   116601985.70609  22188592.640    90858729.38747
  24138592.800   126849175.24907  24138589.540    98843503.67046
  21884891.160   115006365.43309  21884887.280    89615546.44948
  23039827.160   121075163.07108  23039823.280    94344294.12247
  22010904.760   115668144.85109  22010903.960    90131035.64348
  24030622.100   126281772.68108  24030621.780    98401379.80746
 15 03 06 00 05  0.0000000  0  7G16G18G19G21G22G27G31
  20892316.340   109789882.30809  20892312.480    85550552.65348
  22180724.580   116560621.15409  22180721.180    90826497.28747
  24123622.380   126770505.04508  24123619.180    98782202.26045
  21895527.440   115062259.22809  21895523.480    89659100.06248
  23022918.200   120986306.26008  23022914.300    94275055.15147
  22000162.200   115611692.15209  22000161.220    90087046.54148
  24049373.400   126380308.87408  24049372.860    98478160.87546
 15 03 06 00 05 30.0000000  0  7G16G18G19G21G22G27G31
  20883341.680   109742720.22009  20883337.820    85513802.97248
  22172930.700   116519664.36909  22172927.400    90794582.92147
  24108668.300   126691919.06608  24108665.020    98720966.47046
  21906208.880   115118390.34609  21906204.840    89702838.58948
  23006038.500   120897602.57009  23006034.520    94205935.48247
  21989444.480   115555369.80909  21989443.440    90043159.01948
  24068126.720   126478855.79208  24068126.220    98554950.27046
 15 03 06 00 06  0.0000000  0  7G16G18G19G21G22G27G31
  20874443.960   109695962.16509  20874440.040    85477368.12648
  22165214.920   116479117.74009  22165211.700    90762988.16247
  24093730.440   126613418.08808  24093727.020    98659796.90546
  21916935.300   115174758.19508  21916931.260    89746761.58247
  22989188.600   120809055.10409  22989184.440    94136937.56147
  21978751.680   115499178.51609  21978750.660    89999373.60648
  24086881.580   126577411.21308  24086881.340    98631746.26246
 15 03 06 00 06 30.0000000  0  7G16G18G19G21G22G27G31
  20865623.600   109649610.64709  20865619.680    85441250.06048
  22157577.700   116438983.90709  22157574.480    90731715.06547
  24078808.680   126535002.92908  24078805.280    98598694.24746
  21927706.480   115231361.22708  21927702.480    89790867.83948
  22972369.100   120720667.69108  22972364.780    94068064.35147
  21968083.940   115443119.29509  21968083.040    89955691.10948
  24105637.660   126675973.03708  24105637.720    98708547.25146
 15 03 06 00 07  0.0000000  0  7G16G18G19G21G22G27G31
  20856881.160   109603668.89109  20856877.300    85405451.28348
  22150019.540   116399265.16409  22150016.260    90700765.41647
  24063903.220   126456674.55808  24063899.720    98537659.18346
  21938522.360   115288199.12909  21938518.320    89835157.10247
  22955580.620   120632443.74609  22955576.140    93999318.51047
  21957441.500   115387193.22909  21957440.720    89912112.37548
  24124394.600   126774539.60408  24124394.900    98785351.90946
 15 03 06 00 07 30.0000000  0  7G16G18G19G21G22G27G31
  20848216.420   109558135.63009  20848212.620    85369970.81848
  22142540.100   116359960.05709  22142536.800    90670138.07747
  24049013.580   126378429.89108  24049009.820    98476689.34646
  21949381.740   115345265.49508  21949377.640    89879624.40148
  22938823.100   120544382.73108  22938818.540    93930699.61747
  21946823.820   115331397.40709  21946823.020    89868635.11748
  24143151.260   126873104.75208  24143151.780    98862155.47446
 15 03 06 00 08  0.0000000  0  7G16G18G19G21G22G27G31
  20839630.240   109513015.09709  20839626.460    85334811.96348
  22135140.200   116321072.90809  22135136.840    90639836.41647
  24034140.300   126300271.46507  24034136.300    98415786.70346
  21960285.000   115402562.61608  21960280.940    89924271.50248
  22922097.540   120456489.92908  22922092.980    93862211.80747
  21936231.380   115275734.45809  21936230.520    89825261.39648
  24161907.580   126971668.09208  24161908.280    98938957.61846
 15 03 06 00 08 30.0000000  0  7G16G18G19G21G22G27G31
  20831123.060   109468309.49609  20831119.180    85299976.43648
  22127820.180   116282605.74609  22127816.780    90609862.02347
  24019283.360   126222199.93607  24019279.060    98354951.78846
  21971231.760   115460088.22308  21971227.740    89969096.64848
  22905404.600   120368768.60508  22905400.040    93793857.61747
  21925664.360   115220204.89509  21925663.480    89781991.62348
  24180663.140   127070227.11508  24180663.880    99015756.37046
 15 03 06 00 09  0.0000000  0  7G16G18G19G21G22G27G31
  20822694.100   109424015.05909  20822690.140    85265461.28248
  22120579.120   116244553.69509  22120575.740    90580211.08947
  24004442.040   126144209.20808  24004437.600    98294179.85246
  21982220.460   115517834.43808  21982216.560    90014093.68548
  22888743.540   120281214.99708  22888739.120    93725634.10047
  21915121.760   115164802.90309  21915120.860    89738821.24648
  24199416.140   127168772.84308  24199416.960    99092544.72346
 15 03 06 00 09 30.0000000  0  7G16G18G19G21G22G27G31
  20814344.360   109380136.89009  20814340.360    85231270.49748
  22113417.980   116206922.17409  22113414.760    90550887.84747
  23989617.000   126066302.23508  23989612.360    98233473.14846
  21993251.400   115575802.67408  21993247.520    90059263.73947
  22872115.680   120193835.51309  22872111.360    93657546.26047
  21904604.120   115109532.03709  21904603.220    89695753.06048
  24218166.660   127267306.02208  24218167.840    99169323.29745
 15 03 06 00 10  0.0000000  0  7G16G18G19G21G22G27G31
  20806074.720   109336679.60709  20806070.760    85197407.67948
  22106337.580   116169715.31609  22106334.560    90521895.50347
  23974808.580   125988482.27808  23974803.900    98172834.26846
  22004324.840   115633994.00509  22004320.940    90104607.62247
  22855521.960   120106635.34909  22855517.780    93589598.15247
  21894111.960   115054395.21209  21894111.020    89652789.31248
  24236914.660   127365826.42008  24236916.100    99246091.90245
 15 03 06 00 10 30.0000000  0  7G16G18G19G21G22G27G31
  20797885.740   109293646.07709  20797881.840    85163875.05648
  22099338.580   116132935.79909  22099335.540    90493236.16447
  23960016.760   125910750.14808  23960012.100    98112263.84446
  22015440.700   115692407.76009  22015436.720    90150124.84047
  22838963.040   120019618.05508  22838959.000    93521792.54047
  21883645.460   114999393.61209  21883644.560    89609930.93748
  24255659.840   127464332.26008  24255661.680    99322849.16945
 15 03 06 00 11  0.0000000  0  7G16G18G19G21G22G27G31
  20789777.140   109251034.65209  20789773.240    85130671.35148
  22092420.560   116096581.51609  22092417.500    90464908.16147
  23945240.940   125833102.75008  23945236.360    98051759.41546
  22026597.880   115751038.70609  22026593.860    90195811.28748
  22822438.780   119932782.99509  22822434.740    93454128.92447
  21873204.040   114944523.95009  21873203.140    89567175.37448
  24274401.360   127562817.14208  24274403.360    99399590.08745
 15 03 06 00 11 30.0000000  0  7G16G18G19G21G22G27G31
  20781749.360   109208848.06809  20781745.440    85097798.68448
  22085584.020   116060655.35009  22085580.880    90436913.74747
  23930481.360   125755540.56308  23930476.940    97991321.36846
  22037796.160   115809885.79109  22037792.120    90241666.15747
  22805949.940   119846133.83909  22805945.780    93386610.17247
  21862787.920   114889787.32209  21862787.180    89524523.47748
  24293138.800   127661279.30508  24293140.600    99476313.27545
 15 03 06 00 12  0.0000000  0  7G16G18G19G21G22G27G31
  20773802.900   109167089.22609  20773798.980    85065259.32248
  22078829.400   116025159.47009  22078826.120    90409254.63747
  23915738.080   125678064.71308  23915733.780    97930950.64346
  22049035.360   115868948.11508  22049031.260    90287688.73947
  22789497.200   119759674.27309  22789492.820    93319239.14047
  21852397.340   114835185.13109  21852396.880    89481976.31348
  24311871.560   127759716.86008  24311873.160    99553017.29645
 15 03 06 00 12 30.0000000  0  7G16G18G19G21G22G27G31
  20765938.360   109125761.30709  20765934.540    85033055.74248
  22072157.160   115990096.61709  22072153.780    90381932.95247
  23901011.500   125600676.78808  23901007.300    97870648.39146
  22060315.340   115928224.96708  22060311.240    90333878.48247
  22773081.180   119673407.56309  22773076.720    93252018.40147
  21842032.640   114780718.62509  21842032.280    89439534.88448
  24330599.180   127858128.16208  24330600.640    99629700.88546
 15 03 06 00 13  0.0000000  0  7G16G18G19G21G22G27G31
  20758155.880   109084864.70009  20758152.200    85001188.25548
  22065567.400   115955467.13409  22065564.000    90354948.95047
  23886301.300   125523375.16908  23886297.340    97810413.42446
  22071635.560   115987713.46409  22071631.520    90380233.15647
  22756702.200   119587335.66609  22756697.780    93184949.45447
  21831693.560   114726386.55809  21831693.200    89397198.21248
  24349321.020   127956509.00008  24349322.540    99706360.70545
 15 03 06 00 13 30.0000000  0  7G16G18G19G21G22G27G31
  20750455.620   109044399.76309  20750452.000    84969657.13548
  22059060.100   115921271.03709  22059056.680    90328302.65847
  23871607.520   125446159.10508  23871603.520    97750245.09546
  22082995.400   116047409.91809  22082991.360    90426749.86247
  22740360.560   119501460.23308  22740356.240    93118033.59347
  21821380.000   114672188.07209  21821379.460    89354965.63648
  24368036.140   128054855.13308  24368037.920    99782993.39946
 15 03 06 00 14  0.0000000  0  7G16G18G19G21G22G27G31
  20742838.240   109004370.08709  20742834.660    84938465.17648
  22052635.840   115887511.33309  22052632.340    90301996.41447
  23856930.260   125369029.81908  23856926.240    97690144.41146
  22094395.020   116107314.98909  22094390.940    90473429.14048
  22724057.000   119415784.90109  22724052.760    93051273.64247
  21811092.300   114618125.01609  21811091.560    89312838.59248
  24386744.400   128153166.03008  24386746.600    99859598.65746
 15 03 06 00 14 30.0000000  0  7G16G18G19G21G22G27G31
  20735304.000   108964777.17909  20735300.380    84907613.56148
  22046294.800   115854189.20309  22046291.260    90276031.12647
  23842269.560   125291987.00008  23842265.320    97630111.12145
  22105833.800   116167425.93409  22105829.700    90520268.83347
  22707792.020   119330312.12009  22707787.800    92984671.53647
  21800830.320   114564197.14509  21800829.440    89270816.89148
  24405445.180   128251438.00208  24405447.840    99936173.56645
 15 03 06 00 15  0.0000000  0  7G16G18G19G21G22G27G31
  20727853.280   108925623.38609  20727849.660    84877104.10848
  22040037.400   115821306.55909  22040033.880    90250408.30647
  23827625.420   125215031.24108  23827621.020    97570145.64446
  22117311.580   116227741.93309  22117307.520    90567268.30148
  22691566.340   119245045.29109  22691562.020    92918229.90447
  21790594.180   114510405.39109  21790593.280    89228901.24648
  24424138.160   128349668.96107  24424141.140   100012716.52646
 15 03 06 00 15 30.0000000  0  7G16G18G19G21G22G27G31
  20720486.460   108886910.61709  20720482.880    84846938.31648
  22033863.940   115788864.59009  22033860.440    90225128.86147
  23812997.920   125138162.87608  23812993.520    97510248.24146
  22128827.900   116288260.59009  22128823.900    90614425.69447
  22675380.340   119159986.96409  22675375.840    92851950.74847
  21780383.960   114456749.93409  21780383.000    89187091.80748
  24442822.900   128447856.19508  24442826.120   100089225.39246
 15 03 06 00 16  0.0000000  0  7G16G18G19G21G22G27G31
  20713204.000   108848641.12109  20713200.440    84817117.93348
  22027774.780   115756865.74909  22027771.320    90200194.71247
  23798387.040   125061382.43608  23798382.800    97450419.38846
  22140382.540   116348980.59409  22140378.520    90661739.98447
  22659234.600   119075140.19709  22659229.980    92785836.44547
  21770199.840   114403231.57309  21770198.780    89145389.19948
  24461499.100   128545997.19408  24461502.340   100165698.23245
 15 03 06 00 16 30.0000000  0  7G16G18G19G21G22G27G31
  20706006.120   108810815.93809  20706002.520    84787643.76548
  22021770.060   115725310.69809  22021766.620    90175606.36947
  23783792.740   124984689.42608  23783788.740    97390658.65446
  22151975.040   116409899.90209  22151971.080    90709209.57547
  22643129.460   118990507.20409  22643124.860    92719888.71647
  21760041.700   114349850.03709  21760040.620    89103793.20748
  24480165.980   128644089.04108  24480168.980   100242132.79145
 15 03 06 00 17  0.0000000  0  7G16G18G19G21G22G27G31
  20698893.400   108773437.85909  20698889.720    84758517.98448
  22015850.180   115694201.53209  22015846.720    90151365.47047
  23769215.400   124908084.37008  23769211.300    97330966.42546
  22163605.400   116471018.07208  22163601.420    90756834.12347
  22627065.580   118906091.43909  22627060.980    92654110.24947
  21749909.740   114296606.35909  21749908.640    89062304.64348
  24498823.000   128742129.68208  24498826.000   100318527.37045
 15 03 06 00 17 30.0000000  0  7G16G18G19G21G22G27G31
  20691865.340   108736504.81209  20691861.620    84729738.97948
  22010014.680   115663535.74109  22010011.180    90127470.06747
  23754654.200   124831564.08008  23754649.860    97271340.25646
  22175272.460   116532329.02309  22175268.540    90804608.87647
  22611042.840   118821891.89509  22611038.240    92588500.26647
  21739803.340   114243497.17409  21739802.220    89020920.87248
  24517469.120   128840112.52208  24517472.200   100394876.90245
 15 03 06 00 18  0.0000000  0  7G16G18G19G21G22G27G31
  20684923.720   108700025.92209  20684919.900    84701313.87048
  22004265.280   115633322.39809  22004261.800    90103927.22347
  23740110.360   124755136.06408  23740106.100    97211786.04746
  22186977.260   116593838.04909  22186973.360    90852537.98148
  22595063.240   118737918.78209  22595058.560    92523066.72347
  21729724.020   114190530.21309  21729722.800    88979647.92848
  24536105.080   128938042.25408  24536108.400   100471185.02945
 15 03 06 00 18 30.0000000  0  7G16G18G19G21G22G27G31
  20678067.960   108663998.16109  20678063.980    84673240.28848
  21998601.300   115603557.69809  21998597.760    90080733.95947
  23725583.180   124678795.26208  23725578.920    97152299.72946
  22198718.560   116655538.90809  22198714.660    90900616.56047
  22579126.240   118654169.71509  22579121.520    92457807.75947
  21719670.860   114137700.70809  21719669.600    88938482.08448
  24554729.440   129035911.31508  24554732.940   100547445.86345
 15 03 06 00 19  0.0000000  0  7G16G18G19G21G22G27G31
  20671298.240   108628422.54309  20671294.140    84645519.02748
  21993022.760   115574242.06309  21993019.120    90057890.62547
  23711072.620   124602541.14508  23711068.020    97092880.99246
  22210495.920   116717429.06808  22210491.920    90948842.64947
  22563232.140   118570646.51308  22563227.540    92392724.79147
  21709643.820   114085008.29909  21709642.540    88897423.07748
  24573341.500   129133716.03008  24573345.140   100623656.50845
 15 03 06 00 19 30.0000000  0  7G16G18G19G21G22G27G31
  20664614.680   108593300.20609  20664610.600    84618150.97048
  21987529.860   115545376.29509  21987526.080    90035397.82547
  23696578.520   124526373.28408  23696573.560    97033529.47346
  22222308.780   116779506.05908  22222304.760    90997214.32847
  22547381.400   118487351.13209  22547376.920    92327819.33847
  21699642.840   114032452.67609  21699641.660    88856470.65048
  24591940.880   129231453.29207  24591944.600   100699814.54646
 15 03 06 00 20  0.0000000  0  7G16G18G19G21G22G27G31
  20658018.880   108558639.29009  20658014.900    84591142.46248
  21982124.020   115516968.21409  21982120.220    90013261.65847
  23682101.920   124450298.15108  23682096.820    96974250.19846
  22234158.080   116841774.43809  22234154.020    91045735.12847
  22531575.840   118404292.72909  22531571.400    92263098.54547
  21689669.120   113980040.64509  21689667.980    88815630.10148
  24610528.240   129329126.78108  24610532.200   100775922.83545
 15 03 06 00 20 30.0000000  0  7G16G18G19G21G22G27G31
  20651509.960   108524435.30509  20651506.100    84564490.01648
  21976804.280   115489013.09409  21976800.500    89991478.47247
  23667641.740   124374309.88908  23667636.740    96915038.58746
  22246042.360   116904226.68709  22246038.280    91094399.22547
  22515814.780   118321467.94709  22515810.320    92198559.80747
  21679721.680   113927766.55809  21679720.480    88774897.06548
  24629101.800   129426727.83208  24629106.220   100851974.61346
 15 03 06 00 21  0.0000000  0  7G16G18G19G21G22G27G31
  20645088.460   108490690.64409  20645084.680    84538195.46748
  21971571.000   115461512.54709  21971567.360    89970049.48547
  23653198.200   124298409.02608  23653193.320    96855895.09146
  22257961.420   116966861.64709  22257957.280    91143205.68347
  22500098.800   118238880.25309  22500094.380    92134205.80647
  21669800.680   113875631.28009  21669799.400    88734272.18148
  24647661.200   129524254.03108  24647665.980   100927968.00745
 15 03 06 00 21 30.0000000  0  7G16G18G19G21G22G27G31
  20638755.220   108457409.78909  20638751.480    84512262.33648
  21966424.960   115434470.67609  21966421.400    89948977.90747
  23638771.900   124222598.56208  23638767.240    96796822.04146
  22269915.420   117029680.29909  22269911.280    91192155.27647
  22484428.960   118156534.86509  22484424.560    92070040.61347
  21659906.600   113823637.74109  21659905.440    88693757.74448
  24666206.340   129621705.63707  24666211.560   101003903.22846
 15 03 06 00 22  0.0000000  0  7G16G18G19G21G22G27G31
  20632510.920   108424596.30709  20632507.260    84486693.38748
  21961366.860   115407890.69909  21961363.380    89928266.24947
  23624363.120   124146880.55108  23624358.660    96737821.03646
  22281904.380   117092682.78809  22281900.280    91241248.11247
  22468806.180   118074436.41509  22468801.720    92006067.83447
  21650039.960   113771788.40009  21650038.880    88653355.66448
  24684737.380   129719082.85508  24684742.800   101079780.61345
 15 03 06 00 22 30.0000000  0  6G16G18G19G21G22G27
  20626353.120   108392237.26809  20626349.600    84461478.54448
  21956394.180   115381759.33309  21956390.780    89907904.16047
  23609969.300   124071240.91308  23609964.740    96678881.08146
  22293925.240   117155852.80709  22293921.160    91290471.49347
  22453228.260   117992573.17009  22453223.540    91942278.33547
  21640198.020   113720068.95109  21640197.020    88613054.79248
 15 03 06 00 23  0.0000000  0  6G16G18G19G21G22G27
  20620286.180   108360355.54609  20620282.680    84436635.64448
  21951511.060   115356098.44109  21951507.680    89887908.67447
  23595594.320   123995700.04408  23595589.600    96620018.10346
  22305981.700   117219209.80909  22305977.640    91339840.58147
  22437699.540   117910968.59709  22437694.460    91878690.40147
  21630384.940   113668500.98509  21630383.920    88572871.97448
 15 03 06 00 23 30.0000000  0  6G16G18G19G21G22G27
  20614308.860   108328944.60409  20614305.360    84412159.57748
  21946716.200   115330901.24509  21946712.760    89868274.50347
  23581236.580   123920250.35208  23581231.680    96561226.17646
  22318071.860   117282744.03109  22318067.880    91389347.75147
  22422218.900   117829617.16109  22422213.680    91815299.70347
  21620599.220   113617076.70309  21620598.140    88532801.10548
 15 03 06 00 24  0.0000000  0  6G16G18G19G21G22G27
  20608420.360   108298000.46109  20608416.880    84388047.26348
  21942008.740   115306163.45209  21942005.320    89848998.32147
  23566895.340   123844886.96008  23566890.260    96502501.47046
  22330194.340   117346448.28509  22330190.480    91438987.41547
  22406785.840   117748516.23309  22406780.720    91752104.22347
  21610839.840   113565790.85709  21610838.740    88492838.12948
 15 03 06 00 24 30.0000000  0  6G16G18G19G21G22G27
  20602622.460   108267532.50409  20602619.060    84364305.99948
  21937390.400   115281894.14009  21937387.060    89830087.17747
  23552571.900   123769617.14008  23552566.800    96443849.66846
  22342350.300   117410328.30209  22342346.500    91488764.05247
  22391402.340   117667676.01009  22391397.460    91689111.88247
  21601108.440   113514651.77109  21601107.260    88452989.49548
 15 03 06 00 25  0.0000000  0  6G16G18G19G21G22G27
  20596914.960   108237539.52309  20596911.600    84340934.83549
  21932860.740   115258090.72309  21932857.440    89811539.07147
  23538265.720   123694437.89108  23538260.720    96385268.46646
  22354538.780   117474379.19408  22354534.980    91538673.82547
  22376068.340   117587095.87409  22376063.540    91626322.19147
  21591404.420   113463656.41609  21591403.140    88413252.86048
 15 03 06 00 25 30.0000000  0  6G16G18G19G21G22G27
  20591298.100   108208022.75609  20591294.760    84317934.75948
  21928420.000   115234754.35609  21928416.760    89793354.90147
  23523976.880   123619349.52708  23523972.220    96326758.07346
  22366759.380   117538598.85909  22366755.540    91588715.11947
  22360784.300   117506778.26609  22360779.580    91563737.08547
  21581727.740   113412805.11909  21581726.480    88373628.47948
 15 03 06 00 26  0.0000000  0  6G16G18G19G21G22G27
  20585772.540   108178985.66909  20585769.180    84295308.45148
  21924068.760   115211888.33609  21924065.540    89775537.23747
  23509705.580   123544353.93908  23509701.180    96268319.96447
  22379012.300   117602988.33908  22379008.400    91638888.73547
  22345551.080   117426727.39909  22345546.380    91501359.81947
  21572078.880   113362100.39309  21572077.740    88334118.30348
 15 03 06 00 26 30.0000000  0  6G16G18G19G21G22G27
  20580338.500   108150429.29909  20580335.060    84273056.73248
  21919806.980   115189492.47309  21919803.740    89758085.92447
  23495451.740   123469450.63608  23495447.720    96209953.78546
  22391296.960   117667544.65209  22391292.960    91689192.35047
  22330369.120   117346946.11809  22330364.500    91439192.62447
  21562457.820   113311541.69709  21562456.840    88294721.91948
 15 03 06 00 27  0.0000000  0  6G16G18G19G21G22G27
  20574996.020   108122354.04909  20574992.520    84251179.91048
  21915634.720   115167567.21209  21915631.460    89741001.31947
  23481215.300   123394638.67208  23481211.440    96151658.75046
  22403612.800   117732264.99909  22403608.800    91739623.78147
  22315238.700   117267435.70509  22315234.180    91377236.48447
  21552864.540   113261128.62309  21552863.620    88255439.00848
 15 03 06 00 27 30.0000000  0  6G16G18G19G21G22G27
  20569744.480   108094756.91209  20569740.980    84229675.65148
  21911551.420   115146109.32009  21911548.100    89724280.89447
  23466995.620   123319913.60208  23466991.620    96093431.45647
  22415958.780   117797143.71708  22415954.840    91790178.61647
  22300159.500   117188194.34009  22300155.080    91315490.01547
  21543298.160   113210857.07809  21543297.240    88216266.38548
 15 03 06 00 28  0.0000000  0  6G16G18G19G21G22G27
  20564585.200   108067644.89909  20564581.720    84208549.40348
  21907558.200   115125124.56809  21907554.760    89707929.16047
  23452793.620   123245280.99408  23452789.240    96035276.21447
  22428335.560   117862184.34708  22428331.660    91840859.62747
  22285133.060   117109229.68109  22285128.620    91253959.15747
  21533759.720   113160732.71809  21533758.860    88177208.45948
 15 03 06 00 28 30.0000000  0  6G16G18G19G21G22G27
  20559518.540   108041019.50509  20559515.060    84187802.33148
  21903655.240   115104614.34109  21903651.760    89691947.16247
  23438609.380   123170741.62408  23438604.700    95977193.60647
  22440742.880   117927385.55408  22440739.100    91891665.75347
  22270159.760   117030544.32909  22270155.220    91192645.92347
  21524249.400   113110756.16209  21524248.660    88138265.68448
 15 03 06 00 29  0.0000000  0  6G16G18G19G21G22G27
  20554544.360   108014879.98409  20554540.900    84167433.86948
  21899842.260   115084577.15409  21899838.840    89676333.78247
  23424442.340   123096293.00608  23424437.740    95919181.72147
  22453179.920   117992742.74008  22453176.200    91942593.42047
  22255239.640   116952138.64009  22255234.980    91131550.62247
  21514766.900   113060925.44309  21514766.220    88099436.56448
 15 03 06 00 29 30.0000000  0  6G16G18G19G21G22G27
  20549664.160   107989234.13909  20549660.640    84147450.09248
  21896120.600   115065019.73009  21896117.140    89661094.24147
  23410293.640   123021941.40408  23410289.320    95861245.43647
  22465647.600   118058260.68508  22465643.900    91993646.35747
  22240374.320   116874021.16709  22240369.580    91070679.89147
  21505313.500   113011247.24109  21505312.760    88060726.26748
 15 03 06 00 30  0.0000000  0  6G16G18G19G21G22G27
  20544876.880   107964076.65809  20544873.300    84127846.85548
  21892489.280   115045937.03009  21892485.760    89646224.61547
  23396162.080   122947679.93308  23396157.960    95803379.37946
  22478144.260   118123930.76908  22478140.500    92044817.84747
  22225563.260   116796188.51009  22225558.440    91010031.10547
  21495887.960   112961715.18909  21495887.100    88022129.86948
 15 03 06 00 30 30.0000000  0  6G16G18G19G21G22G27
  20540182.620   107939408.14509  20540179.060    84108624.63148
  21888948.180   115027328.74209  21888944.700    89631724.65347
  23382047.780   122873508.72308  23382043.720    95745583.64747
  22490669.540   118189751.23408  22490665.640    92096106.51047
  22210806.700   116718642.12009  22210801.820    90949605.37547
  21486490.240   112912329.17009  21486489.220    87983647.26148
 15 03 06 00 31  0.0000000  0  6G16G18G19G21G22G27
  20535582.960   107915236.75809  20535579.380    84089789.78848
  21885498.780   115009202.14909  21885495.360    89617600.05547
  23367951.900   122799434.09508  23367947.780    95687863.20347
  22503224.220   118255725.97609  22503220.240    92147515.41147
  22196106.140   116641390.43909  22196101.320    90889409.31247
  21477121.560   112863095.85209  21477120.400    87945283.65748
 15 03 06 00 31 30.0000000  0  6G16G18G19G21G22G27
  20531076.960   107891557.60709  20531073.420    84071338.50248
  21882140.240   114991552.79409  21882136.880    89603847.33047
  23353873.420   122725450.45508  23353868.860    95630213.64146
  22515807.000   118321848.36909  22515802.980    92199039.34747
  22181461.040   116564430.60509  22181456.400    90829440.63048
  21467780.920   112814010.15009  21467779.640    87907035.05848
 15 03 06 00 32  0.0000000  0  6G16G18G19G21G22G27
  20526665.980   107868377.73509  20526662.480    84053276.25848
  21878873.620   114974386.35909  21878870.200    89590470.89747
  23339813.140   122651563.05108  23339808.100    95572639.07746
  22528418.440   118388121.35609  22528414.340    92250680.62947
  22166873.060   116487770.60209  22166868.560    90769705.60047
  21458469.340   112765077.53209  21458468.020    87868905.74648
 15 03 06 00 32 30.0000000  0  6G16G18G19G21G22G27
  20522349.940   107845696.63909  20522346.400    84035602.67348
  21875698.620   114957701.65009  21875695.160    89577469.83347
  23325770.740   122577770.17508  23325765.580    95515138.15946
  22541057.860   118454541.56508  22541053.680    92302436.63247
  22152342.240   116411410.80909  22152337.780    90710204.48747
  21449186.580   112716296.44109  21449185.240    87830894.51048
 15 03 06 00 33  0.0000000  0  6G16G18G19G21G22G27
  20518128.580   107823513.16109  20518125.000    84018316.84848
  21872615.000   114941497.23109  21872611.540    89564843.02547
  23311746.020   122504069.83208  23311740.920    95457709.33847
  22553724.360   118521104.65008  22553720.160    92354303.96747
  22137868.560   116335351.31509  22137864.080    90650937.38548
  21439932.280   112667665.15809  21439931.020    87793000.00748
 15 03 06 00 33 30.0000000  0  6G16G18G19G21G22G27
  20514002.880   107801832.07309  20513999.220    84001422.48549
  21869623.520   114925777.03909  21869620.080    89552593.53147
  23297739.480   122430465.37708  23297734.620    95400355.23646
  22566418.520   118587813.13708  22566414.320    92406284.59047
  22123453.180   116259597.75609  22123448.600    90591908.67348
  21430707.140   112619187.32209  21430706.060    87755225.06648
 15 03 06 00 34  0.0000000  0  6G16G18G19G21G22G27
  20509972.520   107780652.01009  20509968.860    83984918.54048
  21866723.940   114910539.82209  21866720.560    89540720.38947
  23283750.820   122356954.74108  23283746.060    95343074.24546
  22579139.460   118654662.64008  22579135.300    92458375.11647
  22109096.160   116184150.79609  22109091.540    90533118.87147
  21421510.980   112570861.51409  21421510.020    87717568.60048
 15 03 06 00 34 30.0000000  0  6G16G18G19G21G22G27
  20506038.260   107759977.35709  20506034.640    83968808.41748
  21863916.780   114895787.97909  21863913.340    89529225.46147
  23269780.520   122283540.44208  23269775.860    95285868.34346
  22591887.380   118721654.08008  22591883.300    92510576.22147
  22094798.400   116109015.32909  22094793.780    90474571.78947
  21412344.260   112522690.09909  21412343.300    87680032.43348
 15 03 06 00 35  0.0000000  0  6G16G18G19G21G22G27
  20502200.040   107739807.39409  20502196.420    83953091.55648
  21861201.880   114881520.97809  21861198.380    89518108.33247
  23255828.260   122210220.98408  23255823.520    95228736.30647
  22604661.660   118788784.05208  22604657.760    92562885.28047
  22080559.960   116034191.85109  22080555.320    90416267.80048
  21403206.740   112474672.07809  21403205.800    87642615.79148
 15 03 06 00 35 30.0000000  0  6G16G18G19G21G22G27
  20498458.420   107720145.03209  20498454.780    83937770.22748
  21858579.680   114867741.55709  21858576.220    89507371.12147
  23241894.300   122136998.15508  23241889.620    95171679.58747
  22617462.240   118856051.98708  22617458.420    92615301.84147
  22066381.620   115959684.50209  22066376.940    90358210.15948
  21394098.780   112426809.54609  21394097.780    87605320.31248
 15 03 06 00 36  0.0000000  0  6G16G18G19G21G22G27
  20494813.540   107700990.84009  20494809.840    83922844.87749
  21856050.140   114854448.95809  21856046.740    89497013.25847
  23227978.560   122063871.49908  23227974.120    95114697.80847
  22630288.780   118923456.17808  22630285.020    92667824.58147
  22052263.800   115885495.05209  22052259.020    90300400.23448
  21385020.300   112379102.21109  21385019.340    87568145.77348
 15 03 06 00 36 30.0000000  0  6G16G18G19G21G22G27
  20491265.420   107682345.12309  20491261.720    83908315.74048
  21853613.340   114841643.35109  21853609.900    89487034.87147
  23214081.000   121990840.28708  23214076.840    95057790.39947
  22643140.780   118990994.04408  22643137.160    92720451.47347
  22038206.800   115811625.18909  22038202.000    90242839.32748
  21375971.320   112331549.78909  21375970.400    87531091.93448
 15 03 06 00 37  0.0000000  0  6G16G18G19G21G22G27
  20487814.080   107664208.11409  20487810.420    83894183.00449
  21851269.140   114829324.11909  21851265.600    89477435.48147
  23200201.580   121917903.62108  23200197.480    95000956.65847
  22656017.820   119058663.12008  22656014.300    92773180.62747
  22024210.880   115738076.35409  22024206.140    90185528.58148
  21366951.720   112284151.77609  21366950.820    87494158.43648
 15 03 06 00 37 30.0000000  0  6G16G18G19G21G22G27
  20484459.880   107646581.74009  20484456.220    83880448.15748
  21849017.660   114817492.34909  21849014.100    89468215.92847
  23186340.460   121845062.51908  23186336.240    94944197.35947
  22668919.540   119126461.95308  22668916.080    92826010.87247
  22010276.600   115664851.28909  22010271.840    90128470.11348
  21357961.680   112236909.09609  21357960.780    87457345.95848
 15 03 06 00 38  0.0000000  0  6G16G18G19G21G22G27
  20481203.240   107629468.38109  20481199.660    83867113.07449
  21846859.320   114806150.36309  21846855.800    89459378.02847
  23172497.900   121772318.41008  23172493.560    94887513.66747
  22681845.900   119194390.03608  22681842.320    92878941.84047
  21996404.680   115591953.91809  21996399.920    90071666.99848
  21349001.660   112189823.83209  21349000.780    87420656.15648
 15 03 06 00 38 30.0000000  0  6G16G18G19G21G22G27
  20478044.360   107612868.72509  20478040.860    83854178.26648
  21844794.120   114795297.79309  21844790.640    89450921.49047
  23158673.740   121699670.85108  23158669.160    94830905.21647
  22694796.560   119262445.92508  22694792.860    92931972.40147
  21982595.560   115519386.11109  21982590.720    90015120.68548
  21340071.600   112142895.71809  21340070.700    87384088.79548
 15 03 06 00 39  0.0000000  0  6G16G18G19G21G22G27
  20474984.380   107596788.35609  20474980.880    83841648.11148
  21842822.980   114784939.59509  21842819.480    89442850.18747
  23144868.760   121627124.51808  23144863.900    94774375.64747
  22707771.960   119330631.84408  22707768.100    92985104.28047
  21968850.340   115447154.46609  21968845.440    89958836.32448
  21331172.340   112096129.63409  21331171.460    87347647.69848
 15 03 06 00 39 30.0000000  0  6G16G18G19G21G22G27
  20472022.480   107581223.43709  20472018.980    83829519.59548
  21840945.060   114775071.51109  21840941.580    89435160.77547
  23131082.060   121554674.74008  23131077.080    94717921.30347
  22720770.920   119398941.64608  22720766.980    93038332.69247
  21955168.600   115375256.56909  21955163.700    89902812.01248
  21322303.080   112049521.27109  21322302.120    87311329.49448
 15 03 06 00 40  0.0000000  0  6G16G18G19G21G22G27
  20469159.320   107566177.45609  20469155.840    83817795.44149
  21839160.920   114765696.27809  21839157.520    89427855.40747
  23117314.000   121482323.70808  23117309.080    94661543.89847
  22733793.580   119467375.98908  22733789.540    93091658.13647
  21941551.240   115303697.25309  21941546.380    89847051.52748
  21313464.300   112003073.31609  21313463.320    87275136.28048
 15 03 06 00 40 30.0000000  0  6G16G18G19G21G22G27
  20466395.520   107551653.22909  20466391.980    83806477.85848
  21837471.080   114756816.08509  21837467.680    89420935.78647
  23103565.120   121410073.78108  23103560.400    94605245.27847
  22746839.900   119535934.86108  22746835.840    93145080.63447
  21927999.200   115232480.66309  21927994.240    89791558.10948
  21304656.540   111956788.41709  21304655.580    87239070.12448
 15 03 06 00 41  0.0000000  0  6G16G18G19G21G22G27
  20463730.360   107537647.11709  20463726.680    83795564.00248
  21835874.560   114748426.20609  21835871.120    89414398.23247
  23089834.620   121337920.20708  23089830.000    94549021.72747
  22759908.740   119604612.28608  22759904.720    93198595.51347
  21914511.940   115161604.19709  21914506.880    89736329.72348
  21295879.040   111910662.06709  21295878.020    87203127.52248
 15 03 06 00 41 30.0000000  0  6G16G18G19G21G22G27
  20461165.080   107524166.10109  20461161.360    83785059.31549
  21834372.640   114740533.47909  21834369.160    89408248.06847
  23076123.620   121265869.28108  23076119.300    94492878.19347
  22773000.840   119673412.15908  22772996.940    93252205.79346
  21901091.020   115091076.48709  21901085.840    89681373.08448
  21287132.980   111864700.86209  21287131.960    87167313.59448
 15 03 06 00 42  0.0000000  0  6G16G18G19G21G22G27
  20458698.900   107511205.95709  20458695.200    83774960.49049
  21832964.460   114733133.21909  21832960.920    89402481.63647
  23062431.160   121193915.95308  23062427.040    94436810.69147
  22786115.100   119742328.23608  22786111.260    93305906.62647
  21887735.820   115020894.57609  21887730.660    89626685.89748
  21278417.440   111818900.12209  21278416.400    87131624.69648
 15 03 06 00 42 30.0000000  0  6G16G18G19G21G22G27
  20456332.140   107498768.61509  20456328.460    83765269.04749
  21831650.180   114726226.61009  21831646.660    89397099.87147
  23048757.500   121122061.45908  23048753.440    94380820.18747
  22799251.340   119811359.44908  22799247.520    93359697.16747
  21874446.940   114951061.32209  21874441.800    89572270.40348
  21269732.680   111773261.13509  21269731.560    87096061.84948
 15 03 06 00 43  0.0000000  0  6G16G18G19G21G22G27
  20454065.080   107486855.30209  20454061.480    83755985.93649
  21830429.940   114719813.83509  21830426.360    89392102.90347
  23035102.800   121050305.87608  23035098.760    94324906.75747
  22812409.220   119880504.05208  22812405.280    93413576.07747
  21861224.840   114881579.17209  21861219.740    89518128.48048
  21261078.840   111727784.61509  21261077.660    87060625.59548
 15 03 06 00 43 30.0000000  0  6G16G18G19G21G22G27
  20451898.000   107475467.29109  20451894.500    83747112.15549
  21829303.840   114713895.78309  21829300.200    89387491.44447
  23021467.120   120978649.89408  23021463.040    94269070.93347
  22825588.560   119949761.32308  22825584.540    93467542.78047
  21848070.140   114812451.08509  21848065.120    89464262.46148
  21252456.000   111682471.41409  21252454.860    87025316.60948
 15 03 06 00 44  0.0000000  0  6G16G18G19G21G22G27
  20449831.240   107464606.41709  20449827.780    83738649.13449
  21828272.000   114708473.51409  21828268.340    89383266.31647
  23007850.760   120907094.96608  23007846.580    94213313.87447
  22838789.180   120019130.39308  22838785.100    93521596.59047
  21834983.480   114743680.48309  21834978.540    89410675.00348
  21243864.580   111637323.31509  21243863.460    86990136.27148
 15 03 06 00 44 30.0000000  0  6G16G18G19G21G22G27
  20447864.720   107454272.19309  20447861.240    83730596.48848
  21827334.280   114703546.06409  21827330.640    89379426.75347
  22994253.400   120835639.60608  22994249.160    94157634.40547
  22852010.460   120088608.50208  22852006.340    93575735.38047
  21821964.920   114675267.81209  21821960.000    89357366.45548
  21235304.440   111592339.20809  21235303.300    86955083.73249
 15 03 06 00 45  0.0000000  0  6G16G18G19G21G22G27
  20445999.940   107444472.75309  20445996.400    83722960.55249
  21826492.080   114699120.82209  21826488.600    89375978.52247
  22980676.280   120764291.11208  22980672.040    94102038.19447
  22865253.460   120158201.16708  22865249.400    93629963.42147
  21809016.220   114607222.35909  21809011.300    89304344.05148
  21226776.940   111547526.66709  21226775.780    86920164.86748
 15 03 06 00 45 30.0000000  0  6G16G18G19G21G22G27
  20444235.360   107435199.74309  20444231.780    83715734.82949
  21825743.720   114695188.57109  21825740.360    89372914.43747
  22967117.700   120693040.34008  22967113.380    94046518.11447
  22878516.180   120227897.59908  22878512.160    93684272.32947
  21796136.200   114539537.43409  21796131.240    89251602.56848
  21218280.360   111502877.16309  21218279.280    86885373.05448
 15 03 06 00 46  0.0000000  0  6G16G18G19G21G22G27
  20442572.380   107426460.49309  20442568.760    83708925.01349
  21825090.520   114691756.08409  21825087.100    89370239.77847
  22953579.100   120621894.21208  22953574.720    93991079.58147
  22891799.520   120297702.60508  22891795.580    93738665.83847
  21783326.460   114472221.64409  21783321.460    89199148.72348
  21209816.180   111458397.69209  21209815.100    86850713.73648
 15 03 06 00 46 30.0000000  0  6G16G18G19G21G22G27
  20441010.360   107418251.83109  20441006.740    83702528.64749
  21824531.680   114688819.42309  21824528.200    89367951.47747
  22940059.760   120550849.00708  22940055.100    93935719.69547
  22905102.480   120367610.29208  22905098.620    93793139.34247
  21770586.620   114405273.16709  21770581.560    89146981.09648
  21201383.700   111414084.80509  21201382.620    86816184.22448
 15 03 06 00 47  0.0000000  0  6G16G18G19G21G22G27
  20439550.000   107410577.66409  20439546.360    83696548.76848
  21824067.900   114686382.16409  21824064.420    89366052.31447
  22926560.160   120479908.05108  22926555.440    93880441.03747
  22918425.420   120437622.81208  22918421.580    93847694.54846
  21757917.580   114338697.10709  21757912.560    89095103.67748
  21192983.560   111369942.19209  21192982.520    86781787.39148
 15 03 06 00 47 30.0000000  0  6G16G18G19G21G22G27
  20438191.600   107403439.23109  20438187.900    83690986.34948
  21823699.260   114684444.63309  21823695.700    89364542.55547
  22913080.360   120409072.03108  22913075.820    93825244.15047
  22931768.060   120507738.86608  22931764.260    93902330.41246
  21745319.980   114272496.65609  21745315.060    89043518.92448
  21184616.000   111325970.83009  21184615.040    86747523.98948
 15 03 06 00 48  0.0000000  0  6G16G18G19G21G22G27
  20436934.860   107396834.95809  20436931.160    83685840.15648
  21823425.380   114683004.72409  21823421.720    89363420.56747
  22899620.160   120338338.71208  22899615.680    93770127.28947
  22945129.620   120577954.51408  22945125.940    93957043.90246
  21732793.760   114206671.10909  21732788.880    88992226.32148
  21176280.680   111282168.86609  21176279.820    86713392.59748
 15 03 06 00 48 30.0000000  0  6G16G18G19G21G22G27
  20435780.060   107390766.49009  20435776.360    83681111.47549
  21823246.280   114682063.23509  21823242.520    89362686.94547
  22886179.700   120267708.90708  22886175.300    93715091.08547
  22958509.980   120648268.84108  22958506.340    94011834.26847
  21720339.440   114141223.40509  21720334.500    88941228.12248
  21167977.880   111238537.79609  21167977.140    86679394.36549
 15 03 06 00 49  0.0000000  0  6G16G18G19G21G22G27
  20434726.820   107385231.88109  20434723.180    83676798.78749
  21823161.400   114681617.07209  21823157.640    89362339.28947
  22872758.720   120197180.45108  22872754.240    93660133.87147
  22971908.380   120718677.93208  22971904.720    94066698.47447
  21707956.980   114076153.31509  21707952.000    88890524.17248
  21159707.180   111195075.42109  21159706.540    86645527.58249
 15 03 06 00 49 30.0000000  0  6G16G18G19G21G22G27
  20433776.200   107380236.18709  20433772.580    83672906.03649
  21823171.820   114681671.69009  21823168.040    89362381.86547
  22859357.940   120126758.25108  22859353.420    93605259.45647
  22985325.460   120789184.73508  22985321.660    94121638.83047
  21695647.680   114011467.52009  21695642.660    88840119.68348
  21151469.620   111151786.99009  21151468.980    86611796.34749
 15 03 06 00 50  0.0000000  0  6G16G18G19G21G22G27
  20432928.440   107375781.06509  20432924.800    83669434.49949
  21823277.620   114682227.66709  21823273.800    89362815.09947
  22845977.460   120056443.27508  22845973.020    93550468.59147
  22998761.040   120859788.42708  22998757.020    94176654.69847
  21683412.080   113947168.94509  21683406.980    88790016.92048
  21143265.440   111108673.85409  21143264.820    86578201.70248
 15 03 06 00 50 30.0000000  0  7G04G16G18G19G21G22G27
  24591635.820   129229919.92807  24591641.420   100698656.79744
  20432183.480   107371866.19509  20432179.860    83666383.95248
  21823478.540   114683283.89309  21823474.740    89363638.15047
  22832617.080   119986234.68508  22832612.720    93495760.62947
  23012214.540   120930486.41908  23012210.400    94231744.04747
  21671250.360   113883258.54109  21671245.220    88740216.62648
  21135094.540   111065735.47709  21135093.940    86544743.23048
 15 03 06 00 51  0.0000000  0  7G04G16G18G19G21G22G27
  24572420.480   129128942.85007  24572425.720   100619973.95645
  20431546.280   107368517.73909  20431542.700    83663774.75449
  21823779.500   114684865.95009  21823775.800    89364870.92847
  22819281.920   119916158.09108  22819277.360    93441155.51747
  23025690.580   121001302.99308  23025686.320    94286925.77646
  21659167.660   113819763.80009  21659162.620    88690740.21848
  21126961.940   111022998.10009  21126961.260    86511441.37848
 15 03 06 00 51 30.0000000  0  7G04G16G18G19G21G22G27
  24553226.020   129028076.75307  24553231.200   100541377.51345
  20431006.260   107365680.10409  20431002.660    83661563.61649
  21824169.800   114686917.46309  21824166.220    89366469.51847
  22805961.340   119846157.82308  22805956.580    93386609.88147
  23039178.080   121072180.23708  23039173.800    94342154.79946
  21647153.880   113756630.90709  21647148.920    88641545.78748
  21118857.000   110980406.04509  21118856.300    86478252.77449
 15 03 06 00 52  0.0000000  0  7G04G16G18G19G21G22G27
  24534059.160   128927356.28207  24534064.360   100462894.57944
  20430569.960   107363387.65809  20430566.360    83659777.28849
  21824655.800   114689471.80209  21824652.240    89368459.92647
  22792661.800   119776267.60709  22792656.860    93332150.00547
  23052683.240   121143150.37908  23052678.980    94397456.19946
  21635215.760   113693895.43709  21635210.860    88592661.03248
  21110786.260   110937993.65009  21110785.540    86445204.15448
 15 03 06 00 52 30.0000000  0  7G04G16G18G19G21G22G27
  24514919.740   128826778.65708  24514924.620   100384522.82544
  20430236.800   107361637.16609  20430233.260    83658413.26248
  21825237.000   114692525.86609  21825233.360    89370839.72047
  22779382.580   119706484.23309  22779377.640    93277773.37647
  23066205.020   121214208.10708  23066200.900    94452825.84046
  21623352.920   113631555.53709  21623347.920    88544084.50148
  21102749.060   110895757.78409  21102748.280    86412293.09048
 15 03 06 00 53  0.0000000  0  7G04G16G18G19G21G22G27
  24495808.180   128726347.54607  24495812.640   100306265.24645
  20430007.440   107360431.94709  20430003.980    83657474.12249
  21825913.660   114696081.45709  21825909.920    89373610.30947
  22766124.040   119636810.58408  22766119.280    93223482.24447
  23079743.680   121285354.61108  23079739.640    94508264.66846
  21611566.280   113569616.15309  21611561.200    88495820.05848
  21094746.040   110853701.61709  21094745.220    86379522.04749
 15 03 06 00 53 30.0000000  0  7G04G16G18G19G21G22G27
  24476724.180   128626061.33708  24476728.160   100228120.59045
  20429881.520   107359769.93609  20429877.980    83656958.26448
  21826685.220   114700135.94509  21826681.480    89376769.65647
  22752885.840   119567244.04709  22752881.320    93169274.58547
  23093298.520   121356586.01208  23093294.580    94563769.64846
  21599855.700   113508076.86509  21599850.640    88447867.38748
  21086776.900   110811823.22009  21086776.020    86346889.52748
 15 03 06 00 54  0.0000000  0  7G04G16G18G19G21G22G27
  24457667.880   128525921.05607  24457671.640   100150089.67745
  20429858.940   107359651.16209  20429855.280    83656865.70449
  21827551.680   114704689.37809  21827547.960    89380317.80247
  22739668.100   119497785.04008  22739663.740    93115150.71047
  23106869.140   121427900.65808  23106865.400    94619339.48047
  21588221.580   113446939.36009  21588216.520    88400227.79348
  21078841.720   110770123.14709  21078840.720    86314395.97049
 15 03 06 00 54 30.0000000  0  7G04G16G18G19G21G22G27
  24438640.720   128425934.23208  24438644.480   100072178.34945
  20429941.200   107360083.29209  20429937.460    83657202.42649
  21828514.260   114709747.96509  21828510.600    89384259.56247
  22726472.160   119428440.40108  22726467.740    93061115.95147
  23120456.580   121499303.42708  23120452.880    94674977.98246
  21576665.600   113386212.30709  21576660.540    88352908.03148
  21070941.840   110728608.64009  21070940.700    86282047.01249
 15 03 06 00 55  0.0000000  0  7G04G16G18G19G21G22G27
  24419640.840   128326090.04508  24419644.500    99994378.22345
  20430126.220   107361055.12109  20430122.340    83657959.69049
  21829570.820   114715300.07809  21829567.180    89388585.89047
  22713295.840   119359198.58208  22713291.260    93007161.32047
  23134058.360   121570781.26008  23134054.640    94730674.97746
  21565185.840   113325885.91609  21565180.740    88305900.46648
  21063075.120   110687268.56409  21063074.000    86249833.97149
 15 03 06 00 55 30.0000000  0  7G04G16G18G19G21G22G27
  24400670.540   128226401.82008  24400674.040    99916699.56144
  20430416.260   107362579.06309  20430412.400    83659147.16949
  21830723.600   114721357.99409  21830719.960    89393306.36247
  22700141.580   119290072.15108  22700136.880    92953296.59147
  23147676.620   121642345.38408  23147672.680    94786439.21946
  21553785.020   113265974.59409  21553779.880    88259216.33648
  21055244.080   110646115.97109  21055242.980    86217767.02449
 15 03 06 00 56  0.0000000  0  7G04G16G18G19G21G22G27
  24381728.180   128126861.36608  24381731.500    99839136.06745
  20430809.720   107364646.77209  20430805.920    83660758.36149
  21831970.800   114727912.40209  21831967.160    89398413.69247
  22687007.680   119221052.70209  22687002.900    92899515.23147
  23161309.200   121713984.84708  23161305.140    94842262.16746
  21542461.860   113206471.29609  21542456.700    88212850.14248
  21047447.100   110605142.47309  21047445.980    86185839.62549
 15 03 06 00 56 30.0000000  0  7G04G16G18G19G21G22G27
  24362815.240   128027475.53708  24362818.540    99761693.03845
  20431307.720   107367263.98509  20431304.000    83662797.74348
  21833313.420   114734968.23309  21833309.800    89403911.75447
  22673895.260   119152146.23309  22673890.300    92845821.90147
  23174956.980   121785704.23708  23174952.820    94898147.39946
  21531217.740   113147383.44909  21531212.600    88166807.69048
  21039685.420   110564354.48709  21039684.260    86154056.78649
 15 03 06 00 57  0.0000000  0  7G04G16G18G19G21G22G27
  24343931.300   127928242.07208  24343934.600    99684368.74245
  20431909.860   107370428.47309  20431906.200    83665263.56948
  21834750.920   114742522.34109  21834747.320    89409798.08347
  22660803.720   119083349.71308  22660798.640    92792214.24347
  23188619.060   121857498.73308  23188615.000    94954091.14946
  21520052.460   113088709.90109  21520047.380    88121088.05948
  21031958.480   110523749.28309  21031957.320    86122416.36649
 15 03 06 00 57 30.0000000  0  7G04G16G18G19G21G22G27
  24325077.160   127829165.86907  24325080.200    99607167.03645
  20432616.900   107374144.43709  20432613.340    83668159.12248
  21836283.860   114750578.26409  21836280.380    89416075.43547
  22647733.840   119014667.34508  22647728.760    92738695.55447
  23202295.920   121929370.85508  23202292.100    95010095.38946
  21508967.120   113030456.52409  21508962.140    88075695.83548
  21024267.220   110483331.50509  21024266.060    86090922.00249
 15 03 06 00 58  0.0000000  0  7G04G16G18G19G21G22G27
  24306252.360   127730243.68108  24306255.100    99530085.34245
  20433428.160   107378408.21009  20433424.760    83671481.53448
  21837911.560   114759132.07409  21837908.140    89422740.75047
  22634685.060   118946095.86108  22634680.040    92685263.26047
  23215986.560   122001315.28108  23215982.720    95066155.98947
  21497961.500   112972621.53509  21497956.540    88030629.63148
  21016611.040   110443098.07009  21016609.860    86059571.28249
