     2.11           OBSERVATION DATA    G                   RINEX VERSION / TYPE
SPIDER V4,0,0,3554                      2015 03 17 00:02    PGM / RUN BY / DATE 
ABZH                                                        MARKER NAME         
ABZH                                                        MARKER NUMBER       
                                                            OBSERVER / AGENCY   
462405              LEICA GRX1200PRO    8.20/2.127          REC # / TYPE / VERS 
103261              LEIAT504                                ANT # / TYPE        
  5106694.6829   270584.9059  3799508.1083                  APPROX POSITION XYZ 
        0.0770        0.0000        0.0000                  ANTENNA: DELTA H/E/N
     1     1                                                WAVELENGTH FACT L1/2
     4    C1    L1    P2    L2                              # / TYPES OF OBSERV 
    30.000                                                  INTERVAL            
  2015    03    06    00    00    0.0000000     GPS         TIME OF FIRST OBS   
  2015    03    06    23    59   30.0000000     GPS         TIME OF LAST OBS    
    16                                                      LEAP SECONDS        
    30                                                      # OF SATELLITES     
   G 1   816   816   814   814                              PRN / # OF OBS      
   G 2   905   905   899   899                              PRN / # OF OBS      
   G 3   836   836   836   836                              PRN / # OF OBS      
   G 4   834   834   834   834                              PRN / # OF OBS      
   G 5   662   662   662   662                              PRN / # OF OBS      
   G 6   784   784   784   784                              PRN / # OF OBS      
   G 7   652   652   652   652                              PRN / # OF OBS      
   G 9   783   783   783   783                              PRN / # OF OBS      
   G10   769   769   769   769                              PRN / # OF OBS      
   G11   783   783   782   782                              PRN / # OF OBS      
   G12   805   805   805   805                              PRN / # OF OBS      
   G13   806   806   806   806                              PRN / # OF OBS      
   G14   890   890   872   872                              PRN / # OF OBS      
   G15   721   721   721   721                              PRN / # OF OBS      
   G16   678   678   675   675                              PRN / # OF OBS      
   G17   917   917   913   913                              PRN / # OF OBS      
   G18   890   890   887   887                              PRN / # OF OBS      
   G19   776   776   776   776                              PRN / # OF OBS      
   G20   776   776   776   776                              PRN / # OF OBS      
   G21   648   648   641   641                              PRN / # OF OBS      
   G22   755   755   754   754                              PRN / # OF OBS      
   G23   733   733   733   733                              PRN / # OF OBS      
   G24   805   805   805   805                              PRN / # OF OBS      
   G25   830   830   830   830                              PRN / # OF OBS      
   G27   816   816   816   816                              PRN / # OF OBS      
   G28   879   879   875   875                              PRN / # OF OBS      
   G29   735   735   735   735                              PRN / # OF OBS      
   G30   699   699   699   699                              PRN / # OF OBS      
   G31   818   818   818   818                              PRN / # OF OBS      
   G32   745   745   745   745                              PRN / # OF OBS      
BIT 2 OF LLI FLAGS DATA COLLECTED UNDER A/S CONDITION       COMMENT             
SNR is mapped to RINEX snr flag value [2-9]                 COMMENT             
Lx:     = 25dBHz -> 1; 26-27dBHz -> 2; 28-31dBHz -> 3       COMMENT             
       32-35dBHz -> 4; 36-38dBHz -> 5; 39-41dBHz -> 6       COMMENT             
       42-44dBHz -> 7; 45-48dBHz -> 8; >=49dBHz -> 9        COMMENT             
                                                            END OF HEADER       
 15 03 06 00 00  0.0000000  0  7G16G18G19G21G22G27G31
  20997215.800   110341129.85609  20997214.660    85980102.67946
  22230030.000   116819605.85808  22230029.280    91028263.79944
  24333270.740   127872200.44805  24333269.620    99640682.96643
  21753263.860   114314185.41508  21753262.720    89075988.50245
  23198505.080   121909024.35607  23198504.440    94994058.91243
  22145345.700   116374623.01208  22145347.080    90681557.26445
  23907083.940   125632516.68306  23907084.080    97895449.36643
 15 03 06 00 00 30.0000000  0  7G16G18G19G21G22G27G31
  20987458.440   110289854.91108  20987457.340    85940148.17546
  22221350.400   116773994.68808  22221349.740    90992722.65244
  24318015.320   127792033.33405  24318014.300    99578215.15743
  21763291.820   114366882.39308  21763290.600    89117051.08245
  23181227.180   121818227.69807  23181226.260    94923308.36644
  22134149.740   116315788.57808  22134151.260    90635712.28145
  23925761.240   125730665.40906  23925761.380    97971928.59444
 15 03 06 00 01  0.0000000  0  7G16G18G19G21G22G27G31
  20977774.860   110238967.63108  20977773.860    85900495.75746
  22212745.380   116728775.22908  22212744.700    90957486.72845
  24302774.920   127711944.79605  24302773.800    99515808.54543
  21773368.120   114419833.28908  21773366.900    89158311.51246
  23163973.520   121727558.67507  23163972.460    94852657.30644
  22122977.940   116257080.33608  22122979.560    90589965.60545
  23944444.280   125828845.31306  23944444.740    98048432.11644
 15 03 06 00 01 30.0000000  0  7G16G18G19G21G22G27G31
  20968165.820   110188472.00308  20968164.860    85861148.51446
  22204215.720   116683951.40508  22204215.040    90922559.08244
  24287549.780   127631936.70504  24287548.500    99453464.60943
  21783493.020   114473039.22508  21783491.700    89199770.68145
  23146744.840   121637022.17807  23146743.680    94782109.51744
  22111830.640   116198500.32808  22111832.220    90544318.87245
  23963133.000   125927055.67706  23963134.000    98124959.36643
 15 03 06 00 02  0.0000000  0  7G16G18G19G21G22G27G31
  20958631.660   110138369.89108  20958630.700    85822107.90946
  22195761.620   116639525.41108  22195761.120    90887941.43544
  24272339.940   127552009.35504  24272338.580    99391183.66843
  21793665.960   114526497.88408  21793664.540    89241426.77745
  23129542.020   121546621.17707  23129540.700    94711667.24843
  22100707.760   116140048.93108  22100709.220    90498772.33145
  23981827.040   126025293.44206  23981828.540    98201507.99544
 15 03 06 00 02 30.0000000  0  7G16G18G19G21G22G27G31
  20949173.080   110088664.88809  20949172.140    85783376.74046
  22187383.860   116595500.18808  22187383.340    90853636.07644
  24257145.820   127472161.15905  24257146.440    99328955.64843
  21803886.780   114580208.37408  21803885.260    89283279.11345
  23112365.680   121456359.29507  23112364.380    94641333.40744
  22089609.640   116081727.52808  22089611.020    90453327.09445
  24000526.060   126123556.96906  24000528.160    98278076.62543
 15 03 06 00 03  0.0000000  0  7G16G18G19G21G22G27G31
  20939785.360   110039331.90809  20939784.340    85744935.45146
  22179077.520   116551849.95008  22179077.020    90819622.92644
  24241962.940   127392370.68705  24241961.720    99266781.29943
  21814150.060   114634142.09608  21814148.520    89325305.38046
  23095211.240   121366212.26007  23095210.040    94571089.06643
  22078531.100   116023509.01008  22078532.380    90407962.04045
  24019224.440   126221816.41306  24019226.660    98354642.06744
 15 03 06 00 03 30.0000000  0  7G16G18G19G21G22G27G31
  20930479.720   109990430.37908  20930478.720    85706830.37247
  22170854.060   116508635.24808  22170853.620    90785949.14845
  24226800.500   127312692.98305  24226798.940    99204694.77643
  21824466.560   114688355.23808  21824464.960    89367549.38946
  23078090.160   121276240.57907  23078089.020    94500981.35144
  22067483.200   115965451.52508  22067484.440    90362722.44945
  24037932.600   126320126.64206  24037934.780    98431247.09643
 15 03 06 00 04  0.0000000  0  7G16G18G19G21G22G27G31
  20921247.660   109941915.46309  20921246.640    85669026.53946
  22162704.780   116465810.29008  22162704.340    90752579.06844
  24211650.740   127233081.19505  24211649.220    99142659.72343
  21834826.900   114742799.16408  21834825.280    89409973.22345
  23060993.920   121186399.64407  23060992.820    94430975.51144
  22056456.940   115907508.26908  22056458.220    90317571.87145
  24056640.940   126418437.74806  24056643.000    98507852.80544
 15 03 06 00 04 30.0000000  0  7G16G18G19G21G22G27G31
  20912092.200   109893802.90709  20912091.120    85631536.24046
  22154632.640   116423390.74808  22154632.160    90719524.88944
  24196516.240   127153549.05005  24196514.700    99080686.63843
  21845233.300   114797485.15408  21845231.660    89452585.67745
  23043925.740   121096706.22607  23043924.680    94361084.64744
  22045455.040   115849693.05208  22045456.340    90272521.06246
  24075351.460   126516760.47106  24075353.420    98584467.53541
 15 03 06 00 05  0.0000000  0  7G16G18G19G21G22G27G31
  20903014.020   109846096.31809  20903012.760    85594362.27746
  22146638.160   116381379.44808  22146637.460    90686788.81444
  24181397.220   127074098.35505  24181395.660    99018776.99743
  21855685.800   114852413.42808  21855684.120    89495386.92745
  23026886.500   121007164.58307  23026885.380    94291312.00644
  22034477.860   115792007.74008  22034479.120    90227571.48445
  24094063.920   126615093.85306  24094065.960    98661090.59344
 15 03 06 00 05 30.0000000  0  7G16G18G19G21G22G27G31
  20894013.380   109798797.05809  20894011.920    85557505.69846
  22138721.740   116339777.87308  22138720.820    90654372.02745
  24166293.460   126994728.26705  24166292.140    98956930.23743
  21866183.900   114907581.00908  21866182.220    89538374.65045
  23009876.520   120917776.68507  23009875.280    94221659.16944
  22023525.340   115734451.89308  22023526.580    90182722.79546
  24112777.640   126713434.05406  24112780.040    98737718.94243
 15 03 06 00 06  0.0000000  0  7G16G18G19G21G22G27G31
  20885089.840   109751903.30009  20885088.320    85520965.10946
  22130882.780   116298584.14708  22130881.900    90622273.04444
  24151204.480   126915435.16306  24151203.120    98895143.44643
  21876726.580   114962983.10308  21876724.960    89581545.10345
  22992895.400   120828541.22707  22992894.240    94152125.14344
  22012596.740   115677021.92008  22012598.020    90137972.18546
  24131491.360   126811774.50406  24131494.100    98814347.49843
 15 03 06 00 06 30.0000000  0  7G16G18G19G21G22G27G31
  20876244.640   109705421.39409  20876243.100    85484745.44446
  22123122.780   116257804.69808  22123121.700    90590496.85844
  24136131.040   126836223.80106  24136129.760    98833420.36044
  21887314.260   115018621.96508  21887312.700    89624900.05545
  22975944.820   120739465.96407  22975943.740    94082715.92744
  22001692.980   115619722.67908  22001694.420    90093323.42645
  24150205.560   126910117.00906  24150208.380    98890977.60043
 15 03 06 00 07  0.0000000  0  7G16G18G19G21G22G27G31
  20867477.100   109659347.82609  20867475.580    85448843.96546
  22115440.720   116217435.13208  22115439.600    90559040.06444
  24121072.220   126757088.45306  24121070.780    98771756.50942
  21897945.680   115074490.55208  21897944.140    89668434.01846
  22959024.100   120650547.53507  22959023.080    94013428.92144
  21990813.040   115562548.60208  21990814.680    90048772.21246
  24168918.560   127008453.18506  24168921.300    98967602.74143
 15 03 06 00 07 30.0000000  0  7G16G18G19G21G22G27G31
  20858790.020   109613697.07809  20858788.500    85413271.95346
  22107839.320   116177489.67608  22107838.260    90527913.76344
  24106030.000   126678041.73706  24106028.500    98710161.71944
  21908622.580   115130598.24508  21908621.040    89712154.30545
  22942136.140   120561801.11007  22942135.140    93944275.96344
  21979959.340   115505512.54208  21979961.100    90004328.56146
  24187632.100   127106792.53706  24187634.620    99044230.39843
 15 03 06 00 08  0.0000000  0  7G16G18G19G21G22G27G31
  20850181.220   109568457.94909  20850179.740    85378020.68446
  22100316.580   116137957.29008  22100315.560    90497109.31444
  24091002.300   126599070.82906  24091000.780    98648626.01843
  21919342.460   115186931.95208  21919340.960    89756050.69645
  22925278.980   120473216.64907  22925277.880    93875249.16344
  21969129.560   115448601.72108  21969131.320    89959982.47746
  24206343.400   127205119.31106  24206345.860    99120848.18744
 15 03 06 00 08 30.0000000  0  7G16G18G19G21G22G27G31
  20841651.700   109523635.39009  20841650.360    85343094.01846
  22092873.240   116098842.71308  22092872.360    90466630.44044
  24075989.800   126520179.18406  24075988.200    98587152.02543
  21930105.480   115243492.10908  21930103.980    89800123.54145
  22908453.780   120384799.99407  22908452.660    93806353.14244
  21958324.160   115391819.41008  21958325.840    89915736.53146
  24225052.440   127303433.69406  24225054.880    99197456.32242
 15 03 06 00 09  0.0000000  0  7G16G18G19G21G22G27G31
  20833202.980   109479237.27409  20833201.780    85308498.07847
  22085510.640   116060152.67208  22085509.980    90436482.37644
  24060993.320   126441372.22806  24060991.700    98525744.04143
  21940912.420   115300282.50708  21940910.940    89844375.78945
  22891662.060   120296559.11507  22891660.840    93737594.08344
  21947544.320   115335171.45208  21947546.020    89871595.27546
  24243759.740   127401738.50206  24243761.960    99274056.99041
 15 03 06 00 09 30.0000000  0  7G16G18G19G21G22G27G31
  20824834.440   109435260.46709  20824833.300    85274230.43247
  22078228.380   116021884.41608  22078227.780    90406662.97244
  24046011.960   126362644.80506  24046010.240    98464398.03443
  21951761.820   115357296.37608  21951760.420    89888802.17945
  22874903.440   120208492.14107  22874902.180    93668970.53244
  21936789.160   115278653.25408  21936790.940    89827555.15846
  24262463.760   127500026.11906  24262465.920    99350644.26444
 15 03 06 00 10  0.0000000  0  7G16G18G19G21G22G27G31
  20816547.520   109391712.12309  20816546.300    85240296.65347
  22071027.640   115984044.57708  22071027.060    90377177.39844
  24031046.740   126284002.69506  24031044.820    98403118.52743
  21962654.360   115414537.33308  21962653.060    89933405.52045
  22858179.340   120120606.84107  22858178.040    93600488.55044
  21926059.720   115222270.26308  21926061.600    89783620.36846
  24281164.960   127598298.82606  24281167.300    99427219.86143
 15 03 06 00 10 30.0000000  0  7G16G18G19G21G22G27G31
  20808340.820   109348585.44409  20808339.560    85206691.45347
  22063907.060   115946626.14908  22063906.480    90348020.19244
  24016096.280   126205437.09006  24016094.080    98341898.60943
  21973588.180   115471995.04308  21973586.920    89978177.76345
  22841488.600   120032897.08007  22841487.280    93532143.34844
  21915354.480   115166014.07008  21915356.420    89739784.38046
  24299861.120   127696545.21206  24299863.780    99503774.99143
 15 03 06 00 11  0.0000000  0  7G16G18G19G21G22G27G31
  20800216.400   109305891.05609  20800215.080    85173423.09047
  22056868.740   115909639.34408  22056868.100    90319199.32145
  24001162.000   126126957.17906  24001159.720    98280745.44643
  21984564.520   115529676.57208  21984563.360    90023124.39646
  22824833.460   119945374.42507  22824832.120    93463943.92543
  21904675.180   115109893.68108  21904677.060    89696054.22046
  24318553.120   127794771.21306  24318556.180    99580314.21042
 15 03 06 00 11 30.0000000  0  7G16G18G19G21G22G27G31
  20792173.480   109263625.26309  20792172.220    85140488.70847
  22049911.820   115873080.54608  22049911.200    90290711.98745
  23986242.920   126048557.01106  23986240.760    98219654.45142
  21995582.040   115587574.47408  21995580.880    90068239.64545
  22808213.400   119858036.19307  22808212.060    93395888.24445
  21894020.740   115053903.77208  21894022.520    89652425.73246
  24337239.740   127892968.60006  24337243.460    99656831.06344
 15 03 06 00 12  0.0000000  0  7G16G18G19G21G22G27G31
  20784213.360   109221794.43709  20784212.120    85107893.25547
  22043037.380   115836955.46408  22043036.800    90262562.57444
  23971339.720   125970241.22005  23971337.880    98158629.19244
  22006641.180   115645691.33308  22006640.040    90113525.50545
  22791629.920   119770889.50907  22791628.460    93327981.79644
  21883392.020   114998049.29808  21883393.680    89608902.77946
  24355921.280   127991138.86606  24355925.400    99733326.78843
 15 03 06 00 12 30.0000000  0  7G16G18G19G21G22G27G31
  20776335.520   109180396.41009  20776334.340    85075635.05747
  22036245.080   115801261.51608  22036244.500    90234749.11444
  23956451.760   125892006.09105  23956450.160    98097666.83243
  22017740.960   115704021.10408  22017739.800    90158977.27545
  22775082.540   119683932.26707  22775080.920    93260222.98044
  21872788.220   114942326.20508  21872789.900    89565482.20046
  24374596.400   128089275.10306  24374600.560    99809796.00042
 15 03 06 00 13  0.0000000  0  7G16G18G19G21G22G27G31
  20768540.520   109139433.52409  20768539.340    85043715.91947
  22029535.200   115766000.91308  22029534.640    90207273.32644
  23941579.280   125813851.90505  23941577.960    98036767.51841
  22028881.140   115762562.89108  22028879.860    90204594.24946
  22758572.020   119597168.39407  22758570.260    93192614.81544
  21862209.620   114886735.16808  21862211.260    89522164.52146
  24393264.720   128187375.18606  24393268.620    99886236.95944
 15 03 06 00 13 30.0000000  0  7G16G18G19G21G22G27G31
  20760829.640   109098912.29509  20760828.420    85012140.92947
  22022908.980   115731179.85808  22022908.320    90180140.06144
  23926723.080   125735784.09405  23926722.300    97975935.57444
  22040062.100   115821319.15608  22040060.800    90250378.35445
  22742099.760   119510605.64707  22742097.880    93125163.37744
  21851657.200   114831281.55108  21851658.840    89478953.92946
  24411926.740   128285440.96306  24411930.340    99962651.22643
 15 03 06 00 14  0.0000000  0  7G16G18G19G21G22G27G31
  20753201.460   109058825.98109  20753200.260    84980904.84247
  22016365.140   115696791.07708  22016364.260    90153343.60644
  23911881.840   125657793.73205  23911881.360    97915163.91241
  22051282.040   115880280.29108  22051280.720    90296322.09445
  22725664.420   119424237.41607  22725662.360    93057863.53844
  21841129.340   114775956.97608  21841130.960    89435843.86346
  24430580.080   128383461.49306  24430583.380   100039030.19643
 15 03 06 00 14 30.0000000  0  7G16G18G19G21G22G27G31
  20745658.040   109019185.05709  20745656.940    84950015.81347
  22009905.360   115662844.63308  22009904.480    90126891.85045
  23897056.780   125579889.32105  23897056.460    97854459.19744
  22062542.200   115939452.50508  22062540.840    90342430.31745
  22709268.180   119338075.05307  22709266.100    92990724.05544
  21830627.660   114720770.11808  21830629.320    89392841.11646
  24449225.700   128481442.18306  24449228.740   100115378.08243
 15 03 06 00 15  0.0000000  0  7G16G18G19G21G22G27G31
  20738199.100   108979988.18109  20738197.980    84919472.78847
  22003529.460   115629338.85008  22003528.520    90100783.47044
  23882247.520   125502067.97605  23882247.600    97793819.22743
  22073841.600   115998831.35308  22073840.320    90388699.53245
  22692911.100   119252118.29607  22692909.080    92923744.83144
  21820151.720   114665718.32708  21820153.300    89349943.63946
  24467862.600   128579377.14706  24467865.540   100191690.37443
 15 03 06 00 15 30.0000000  0  7G16G18G19G21G22G27G31
  20730824.460   108941234.24709  20730823.360    84889274.91747
  21997237.120   115596271.84908  21997235.940    90075016.97844
  23867453.920   125424326.80205  23867454.060    97733241.76743
  22085179.300   116058411.40608  22085178.020    90435125.54545
  22676593.060   119166366.68007  22676591.080    92856925.45244
  21809700.920   114610798.77608  21809702.380    89307149.19246
  24486489.420   128677260.73005  24486493.040   100267962.65444
 15 03 06 00 16  0.0000000  0  7G16G18G19G21G22G27G31
  20723534.800   108902926.84109  20723533.620    84859424.99247
  21991028.880   115563647.39608  21991027.680    90049595.34344
  23852676.160   125346667.89406  23852675.840    97672728.37243
  22096555.380   116118192.69208  22096553.940    90481708.36045
  22660314.900   119080824.57607  22660312.920    92790269.29844
  21799275.640   114556013.63108  21799276.980    89264459.47946
  24505106.160   128775091.79405  24505110.440   100344193.93243
 15 03 06 00 16 30.0000000  0  7G16G18G19G21G22G27G31
  20716330.900   108865070.22209  20716329.780    84829926.32747
  21984905.640   115531469.45608  21984904.500    90024521.64344
  23837914.460   125269093.92206  23837913.940    97612281.15244
  22107970.020   116178176.49608  22107968.360    90528448.97845
  22644077.640   118995497.40707  22644075.720    92723780.65644
  21788876.540   114501365.87408  21788877.740    89221876.81946
  24523713.240   128872870.60506  24523717.780   100420384.52143
 15 03 06 00 17  0.0000000  0  7G16G18G19G21G22G27G31
  20709212.500   108827662.95409  20709211.440    84800777.81247
  21978866.960   115499735.86808  21978865.900    89999794.18544
  23823168.320   125191601.25906  23823167.620    97551897.27744
  22119422.300   116238358.10608  22119420.500    90575343.73345
  22627881.240   118910384.43508  22627879.240    92657458.90145
  21778503.000   114446852.37908  21778504.200    89179398.78146
  24542309.320   128970591.00305  24542314.180   100496529.53641
 15 03 06 00 17 30.0000000  0  7G16G18G19G21G22G27G31
  20702181.320   108790713.53509  20702180.180    84771986.05547
  21972914.240   115468454.65908  21972913.280    89975419.23244
  23808438.840   125114197.25606  23808438.180    97491582.50643
  22130913.060   116298742.05308  22130911.100    90622396.15745
  22611727.380   118825495.19407  22611725.180    92591311.48144
  21768156.360   114392480.39608  21768157.580    89137031.00046
  24560895.220   129068256.91006  24560899.980   100572632.07843
 15 03 06 00 18  0.0000000  0  7G16G18G19G21G22G27G31
  20695235.800   108754214.67109  20695234.700    84743545.38847
  21967046.220   115437618.53208  21967045.360    89951391.09844
  23793724.640   125036873.10007  23793723.840    97431329.95943
  22142440.200   116359317.27508  22142438.060    90669597.62745
  22595614.900   118740823.50808  22595612.580    92525333.60844
  21757834.980   114338241.25908  21757836.220    89094766.75046
  24579468.700   129165856.63106  24579472.940   100648683.02743
 15 03 06 00 18 30.0000000  0  7G16G18G19G21G22G27G31
  20688377.320   108718173.21809  20688376.180    84715461.13447
  21961264.100   115407233.54608  21961263.280    89927714.50544
  23779026.580   124959633.50707  23779025.660    97371143.32644
  22154004.440   116420087.35608  22154002.200    90716950.92245
  22579545.260   118656376.83007  22579542.940    92459531.06144
  21747539.880   114284140.12208  21747540.920    89052610.01646
  24598030.040   129263392.38606  24598034.060   100724684.17541
 15 03 06 00 19  0.0000000  0  7G16G18G19G21G22G27G31
  20681606.700   108682593.34309  20681605.500    84687736.55147
  21955568.460   115377303.32108  21955567.740    89904392.24944
  23764345.020   124882481.24107  23764344.060    97311024.74343
  22165605.900   116481053.00608  22165603.620    90764456.62045
  22563519.420   118572160.17308  22563516.940    92393907.72444
  21737271.600   114230179.85508  21737272.560    89010563.06946
  24616578.960   129360863.87705  24616583.160   100800635.14743
 15 03 06 00 19 30.0000000  0  7G16G18G19G21G22G27G31
  20674923.760   108647474.00109  20674922.560    84660370.83247
  21949959.140   115347826.47408  21949958.420    89881423.29044
  23749679.620   124805413.75206  23749678.600    97250972.17044
  22177243.700   116542209.57708  22177241.380    90812111.08745
  22547537.280   118488173.28708  22547534.640    92328463.43744
  21727029.700   114176357.99408  21727030.580    88968623.95246
  24635114.480   129458265.76005  24635119.040   100876531.83342
 15 03 06 00 20  0.0000000  0  7G16G18G19G21G22G27G31
  20668329.280   108612819.74609  20668328.140    84633367.52047
  21944436.940   115318807.20408  21944436.240    89858810.88645
  23735030.780   124728433.88006  23735029.960    97190987.89844
  22188917.840   116603558.08608  22188915.620    90859915.11745
  22531599.960   118404421.75308  22531597.200    92263202.54044
  21716814.660   114122677.78308  21716815.700    88926795.22746
  24653636.560   129555597.96605  24653641.780   100952374.26944
 15 03 06 00 20 30.0000000  0  7G16G18G19G21G22G27G31
  20661822.720   108578627.43509  20661821.600    84606724.15947
  21939001.180   115290242.16608  21939000.520    89836552.43945
  23720397.840   124651537.14106  23720396.980    97131068.38144
  22200627.320   116665092.33908  22200625.220    90907863.86945
  22515706.960   118320903.56408  22515704.280    92198123.47645
  21706625.720   114069135.02608  21706626.920    88885073.60446
  24672143.940   129652853.42505  24672150.100   101028156.80041
 15 03 06 00 21  0.0000000  0  7G16G18G19G21G22G27G31
  20655404.260   108544898.33409  20655403.140    84580441.74547
  21933652.020   115262131.87708  21933651.380    89814648.33145
  23705780.580   124574723.02406  23705779.620    97071213.24344
  22212371.760   116726810.14508  22212369.840    90955955.66245
  22499858.720   118237621.05808  22499856.160    92133228.06844
  21696462.840   114015729.42208  21696464.300    88843458.85646
  24690636.320   129750028.66305  24690643.420   101103876.83343
 15 03 06 00 21 30.0000000  0  6G16G18G19G21G22G27
  20649072.940   108511626.53709  20649071.700    84554515.65947
  21928388.160   115234469.97808  21928387.520    89793093.61245
  23691177.520   124497984.14006  23691176.640    97011416.76844
  22224149.320   116788702.02908  22224147.600    91004183.09245
  22484054.400   118154569.07408  22484051.880    92068512.26944
  21686324.700   113962453.57608  21686326.280    88801945.21346
 15 03 06 00 22  0.0000000  0  6G16G18G19G21G22G27
  20642834.100   108478841.06109  20642832.860    84528968.53747
  21923215.100   115207285.22708  21923214.400    89771910.70644
  23676594.140   124421347.97406  23676593.260    96951700.31444
  22235964.900   116850793.69408  22235963.280    91052566.20645
  22468299.700   118071777.68808  22468297.140    92003999.54045
  21676216.600   113909335.44608  21676218.220    88760554.47346
 15 03 06 00 22 30.0000000  0  6G16G18G19G21G22G27
  20636684.680   108446525.42809  20636683.340    84503787.52047
  21918129.640   115180560.76008  21918128.860    89751086.46045
  23662026.820   124344797.00805  23662025.980    96892050.18644
  22247814.640   116913065.30008  22247813.300    91101089.51445
  22452591.660   117989231.62508  22452589.160    91939677.98145
  21666135.160   113856357.28908  21666136.760    88719272.79946
 15 03 06 00 23  0.0000000  0  6G16G18G19G21G22G27
  20630624.400   108414678.35509  20630623.000    84478971.61947
  21913131.300   115154294.31108  21913130.460    89730619.11245
  23647474.980   124268327.47606  23647474.140    96832463.59543
  22259697.820   116975512.16608  22259696.580    91149749.41445
  22436930.220   117906930.22608  22436927.700    91875547.06445
  21656079.900   113803516.52308  21656081.440    88678098.17946
 15 03 06 00 23 30.0000000  0  6G16G18G19G21G22G27
  20624654.120   108383304.63209  20624652.720    84454524.55847
  21908220.940   115128490.41608  21908220.040    89710512.18445
  23632939.500   124191943.19206  23632938.680    96772943.41044
  22271614.660   117038135.84308  22271613.400    91198547.08045
  22421316.300   117824879.20008  22421313.900    91811611.25144
  21646051.460   113750816.69708  21646053.040    88637033.40046
 15 03 06 00 24  0.0000000  0  6G16G18G19G21G22G27
  20618774.440   108352406.80009  20618773.060    84430448.31947
  21903399.100   115103151.33908  21903398.180    89690767.45545
  23618420.580   124115645.83706  23618419.760    96713490.93644
  22283565.020   117100935.73208  22283563.780    91247482.05945
  22405750.840   117743082.51808  22405748.480    91747873.61444
  21636050.120   113698259.20608  21636051.740    88596079.52346
 15 03 06 00 24 30.0000000  0  6G16G18G19G21G22G27
  20612985.200   108321984.30409  20612983.840    84406742.47647
  21898665.620   115078276.21908  21898664.620    89671384.25745
  23603917.840   124039432.78506  23603916.840    96654104.15544
  22295548.100   117163907.66008  22295546.900    91296551.08145
  22390233.860   117661540.46708  22390231.580    91684334.38644
  21626075.500   113645842.42108  21626077.220    88555235.29246
 15 03 06 00 25  0.0000000  0  6G16G18G19G21G22G27
  20607288.240   108292046.65309  20607286.900    84383414.43647
  21894021.940   115053873.18508  21894020.780    89652368.93044
  23589432.360   123963311.76005  23589431.340    96594789.10344
  22307565.020   117227057.46608  22307563.880    91345758.71445
  22374767.220   117580263.07408  22374765.000    91621001.39445
  21616129.120   113593574.13508  21616130.840    88514506.75646
 15 03 06 00 25 30.0000000  0  6G16G18G19G21G22G27
  20601682.140   108262586.52509  20601680.820    84360458.48447
  21889466.680   115029934.87208  21889465.400    89633715.70445
  23574963.040   123887274.48606  23574961.780    96535539.33344
  22319613.840   117290374.53208  22319612.740    91395096.67945
  22359349.740   117499244.27408  22359347.660    91557869.89845
  21606209.460   113541446.09108  21606211.100    88473887.50946
 15 03 06 00 26  0.0000000  0  6G16G18G19G21G22G27
  20596168.200   108233610.67709  20596166.860    84337879.89747
  21885000.980   115006467.83808  21884999.780    89615429.72045
  23560510.500   123811326.27806  23560509.180    96476358.89844
  22331695.380   117353863.20608  22331694.280    91444568.37645
  22343982.940   117418491.54708  22343980.780    91494945.73645
  21596317.740   113489464.18108  21596319.140    88433382.13546
 15 03 06 00 26 30.0000000  0  6G16G18G19G21G22G27
  20590746.340   108205118.62908  20590745.000    84315678.30147
  21880624.620   114983470.42608  21880623.460    89597509.67745
  23546074.660   123735465.11206  23546073.320    96417246.34444
  22343808.760   117417519.04508  22343807.640    91494170.31645
  22328667.040   117338006.31208  22328664.900    91432229.99745
  21586453.420   113437626.44408  21586454.740    88392989.08846
 15 03 06 00 27  0.0000000  0  6G16G18G19G21G22G27
  20585416.820   108177112.12808  20585415.560    84293855.04947
  21876338.000   114960944.43508  21876336.980    89579956.95745
  23531655.480   123659691.47306  23531653.780    96358201.94043
  22355953.680   117481340.58108  22355952.560    91543901.38745
  22313402.480   117257791.07608  22313400.400    91369724.65544
  21576616.720   113385933.80508  21576617.960    88352709.11246
 15 03 06 00 27 30.0000000  0  6G16G18G19G21G22G27
  20580180.580   108149595.49008  20580179.340    84272413.50847
  21872141.860   114938893.91308  21872140.980    89562774.74345
  23517253.400   123584008.21306  23517251.580    96299228.00844
  22368130.420   117545329.51408  22368129.320    91593762.88745
  22298190.460   117177851.44508  22298188.280    91307434.06445
  21566808.220   113334389.53008  21566809.440    88312544.75646
 15 03 06 00 28  0.0000000  0  6G16G18G19G21G22G27
  20575036.880   108122565.24808  20575035.700    84251350.98147
  21868035.300   114917314.22008  21868034.520    89545959.40945
  23502867.700   123508410.50507  23502865.900    96240320.73644
  22380337.660   117609478.93808  22380336.540    91643749.44945
  22283030.400   117098184.59408  22283028.100    91245356.03244
  21557027.040   113282988.86708  21557028.240    88272492.29546
 15 03 06 00 28 30.0000000  0  6G16G18G19G21G22G27
  20569986.500   108096025.25709  20569985.340    84230670.46047
  21864019.100   114896209.10108  21864018.260    89529513.86844
  23488498.940   123432901.56807  23488497.220    96181482.63443
  22392575.720   117673789.94608  22392574.600    91693861.92745
  22267923.100   117018795.43408  22267920.860    91183494.38345
  21547273.720   113231734.86108  21547275.000    88232554.11546
 15 03 06 00 29  0.0000000  0  6G16G18G19G21G22G27
  20565029.860   108069977.73508  20565028.720    84210373.69047
  21860093.540   114875580.01608  21860092.620    89513439.27445
  23474147.140   123357481.85807  23474145.140    96122713.99644
  22404844.200   117738260.91308  22404843.160    91744099.03445
  22252869.260   116939687.33308  22252867.000    91121851.75444
  21537548.440   113180628.54308  21537549.880    88192731.02246
 15 03 06 00 29 30.0000000  0  6G16G18G19G21G22G27
  20560167.200   108044424.11109  20560166.060    84190461.77347
  21856258.600   114855427.37008  21856257.700    89497735.93044
  23459812.340   123282151.28007  23459810.060    96064014.88344
  22417142.800   117802890.26908  22417141.860    91794459.56345
  22237869.420   116860862.45308  22237867.080    91060429.80245
  21527851.280   113129670.29308  21527852.840    88153023.29346
 15 03 06 00 30  0.0000000  0  6G16G18G19G21G22G27
  20555399.240   108019368.26508  20555398.100    84170937.72947
  21852515.120   114835755.30208  21852514.320    89482407.04445
  23445494.820   123206912.24107  23445492.620    96005387.07944
  22429471.680   117867678.61608  22429470.660    91844943.98345
  22222924.520   116782326.62508  22222922.200    90999233.08844
  21518182.920   113078862.96008  21518184.440    88113433.17046
 15 03 06 00 30 30.0000000  0  6G16G18G19G21G22G27
  20550725.080   107994805.60408  20550723.980    84151797.99747
  21848862.040   114816558.33708  21848861.340    89467448.37645
  23431193.880   123131759.66907  23431191.560    95946826.67244
  22441829.500   117932619.04608  22441828.240    91895546.90744
  22208033.880   116704076.09408  22208031.560    90938258.67545
  21508542.360   113028201.31008  21508543.780    88073956.54946
 15 03 06 00 31  0.0000000  0  6G16G18G19G21G22G27
  20546146.300   107970744.06008  20546145.200    84133048.73447
  21845300.700   114797843.50608  21845300.040    89452865.40945
  23416910.520   123056699.73807  23416908.160    95888338.43444
  22454216.940   117997715.23308  22454215.500    91946271.21544
  22193199.120   116626119.10408  22193196.800    90877512.98945
  21498930.820   112977691.79508  21498932.040    88034598.48246
 15 03 06 00 31 30.0000000  0  6G16G18G19G21G22G27
  20541662.740   107947182.56708  20541661.620    84114689.11947
  21841831.060   114779610.27508  21841830.240    89438657.70945
  23402644.380   122981730.69207  23402642.280    95829921.01344
  22466633.440   118062964.48908  22466631.940    91997114.78344
  22178420.360   116548456.61908  22178418.060    90816996.80045
  21489347.960   112927333.23708  21489349.120    87995358.04346
 15 03 06 00 32  0.0000000  0  6G16G18G19G21G22G27
  20537274.960   107924124.59108  20537273.900    84096721.86347
  21838453.420   114761860.68508  21838452.560    89424826.86645
  23388395.620   122906854.24306  23388393.920    95771575.78144
  22479078.960   118128366.10908  22479077.420    92048077.08244
  22163698.540   116471093.05608  22163696.180    90756713.54145
  21479794.140   112877127.58208  21479795.340    87956236.76146
 15 03 06 00 32 30.0000000  0  6G16G18G19G21G22G27
  20532982.600   107901568.01609  20532981.580    84079145.30947
  21835167.260   114744591.96908  21835166.360    89411370.73645
  23374163.880   122832067.15306  23374162.440    95713300.15144
  22491552.560   118193915.15908  22491550.920    92099154.25845
  22149033.400   116394027.18308  22149030.940    90696662.23845
  21470268.820   112827071.73708  21470270.140    87917232.19946
 15 03 06 00 33  0.0000000  0  6G16G18G19G21G22G27
  20528786.020   107879514.68408  20528784.980    84061960.89147
  21831972.920   114727805.68608  21831972.100    89398290.53244
  23359949.480   122757370.37406  23359948.000    95655094.92044
  22504053.960   118259610.37308  22504052.340    92150345.32145
  22134425.420   116317262.09508  22134423.020    90636845.31945
  21460772.160   112777166.98808  21460773.680    87878345.39846
 15 03 06 00 33 30.0000000  0  6G16G18G19G21G22G27
  20524685.540   107857966.31208  20524684.440    84045169.94747
  21828870.620   114711502.73708  21828869.700    89385586.93345
  23345752.400   122682764.35906  23345751.080    95596960.35344
  22516583.140   118325451.22408  22516581.380    92201649.87544
  22119875.220   116240800.41508  22119872.780    90577264.82445
  21451304.380   112727414.00508  21451305.960    87839576.84546
 15 03 06 00 34  0.0000000  0  6G16G18G19G21G22G27
  20520681.420   107836924.26208  20520680.260    84028773.53847
  21825860.560   114695684.63308  21825859.580    89373261.15245
  23331572.720   122608249.77206  23331571.320    95538897.09944
  22529139.720   118391436.09308  22529137.860    92253066.64545
  22105383.420   116164645.47408  22105380.980    90517923.33845
  21441865.740   112677814.11308  21441867.320    87800927.58546
 15 03 06 00 34 30.0000000  0  6G16G18G19G21G22G27
  20516774.080   107816391.07208  20516772.900    84012773.64047
  21822942.880   114680351.94508  21822941.840    89361313.61445
  23317410.600   122533827.30306  23317408.880    95480905.59044
  22541723.520   118457564.08208  22541721.600    92304594.94544
  22090950.560   116088800.40608  22090948.160    90458823.32645
  21432456.500   112628367.93408  21432457.900    87762398.10646
 15 03 06 00 35  0.0000000  0  6G16G18G19G21G22G27
  20512963.520   107796366.50508  20512962.360    83997170.08147
  21820117.480   114665504.64108  21820116.460    89349744.31145
  23303265.880   122459496.07206  23303263.980    95422985.18644
  22554334.020   118523832.34708  22554332.000    92356232.55244
  22076576.880   116013266.19208  22076574.500    90399965.52345
  21423076.500   112579074.99508  21423077.720    87723988.02746
 15 03 06 00 35 30.0000000  0  6G16G18G19G21G22G27
  20509250.540   107776854.76308  20509249.400    83981966.12047
  21817385.220   114651146.75708  21817384.300    89338556.34745
  23289139.080   122385259.07606  23289137.080    95365138.18344
  22566971.320   118590241.61308  22566969.260    92407980.01944
  22062263.360   115938048.25008  22062261.040    90341354.17245
  21413726.300   112529938.72408  21413727.360    87685700.01946
 15 03 06 00 36  0.0000000  0  6G16G18G19G21G22G27
  20505634.940   107757854.75908  20505633.840    83967160.91847
  21814745.700   114637275.89908  21814744.840    89327747.90045
  23275029.780   122311114.33006  23275027.740    95307363.12444
  22579634.860   118656788.57808  22579632.800    92459834.78344
  22048010.060   115863146.73108  22048007.720    90282989.36945
  21404405.460   112480957.19808  21404406.460    87647532.60946
 15 03 06 00 36 30.0000000  0  6G16G18G19G21G22G27
  20502117.240   107739369.41508  20502116.220    83952756.75247
  21812199.400   114623894.87608  21812198.460    89317321.13545
  23260938.360   122237063.74706  23260936.140    95249661.38944
  22592324.600   118723473.26308  22592322.500    92511796.87244
  22033817.760   115788565.94908  22033815.500    90224874.50545
  21395114.480   112432132.84708  21395115.480    87609487.65846
 15 03 06 00 37  0.0000000  0  6G16G18G19G21G22G27
  20498697.380   107721398.23408  20498696.360    83938753.23047
  21809746.040   114611002.34908  21809745.000    89307275.02045
  23246864.600   122163105.74707  23246862.360    95192031.80144
  22605039.780   118790292.54408  22605037.820    92563863.84344
  22019686.640   115714306.60908  22019684.460    90167010.11545
  21385853.220   112383464.47908  21385854.260    87571564.24446
 15 03 06 00 37 30.0000000  0  6G16G18G19G21G22G27
  20495375.760   107703943.13008  20495374.700    83925151.84447
  21807385.880   114598599.41608  21807384.800    89297610.40845
  23232808.720   122089241.41007  23232806.480    95134475.19344
  22617780.260   118857244.95708  22617778.400    92616034.55044
  22005617.200   115640371.46608  22005615.120    90109398.33545
  21376621.820   112334953.07608  21376622.960    87533763.15546
 15 03 06 00 38  0.0000000  0  6G16G18G19G21G22G27
  20492153.420   107687009.49009  20492152.300    83911956.79447
  21805119.860   114586691.44308  21805118.800    89288331.47845
  23218771.260   122015475.21307  23218769.020    95076995.07944
  22630546.540   118924333.07808  22630544.800    92668311.00444
  21991610.860   115566767.47908  21991608.780    90052044.60845
  21367421.200   112286603.76008  21367422.500    87496088.38246
 15 03 06 00 38 30.0000000  0  6G16G18G19G21G22G27
  20489028.960   107670590.24708  20489027.820    83899162.57347
  21802946.440   114575270.30708  21802945.440    89279431.89745
  23204751.100   121941799.00307  23204748.680    95019585.05644
  22643336.940   118991547.74008  22643335.260    92720686.04744
  21977666.520   115493488.76808  21977664.140    89994944.33445
  21358249.900   112238408.60008  21358251.400    87458533.71846
 15 03 06 00 39  0.0000000  0  6G16G18G19G21G22G27
  20486003.020   107654688.85708  20486001.900    83886771.87747
  21800866.220   114564338.85808  21800865.260    89270913.88945
  23190748.720   121868215.33507  23190746.180    94962247.14544
  22656151.600   119058889.05508  22656150.000    92773159.79044
  21963784.860   115420539.86108  21963782.360    89938101.05445
  21349108.500   112190370.41308  21349110.080    87421101.36846
 15 03 06 00 39 30.0000000  0  6G16G18G19G21G22G27
  20483076.980   107639312.16309  20483075.780    83874790.02547
  21798880.420   114553903.50308  21798879.480    89262782.45645
  23176765.120   121794730.33307  23176762.600    94904986.12944
  22668991.240   119126361.60508  22668989.660    92825735.80244
  21949967.460   115347928.96308  21949964.920    89881521.15845
  21339998.220   112142495.57408  21339999.760    87383796.30146
 15 03 06 00 40  0.0000000  0  6G16G18G19G21G22G27
  20480250.920   107624460.74708  20480249.680    83863217.48947
  21796989.040   114543964.17108  21796988.100    89255037.54145
  23162799.900   121721343.27607  23162797.720    94847801.43844
  22681855.360   119193963.18008  22681853.760    92878412.35844
  21936214.760   115275658.05508  21936212.200    89825206.18845
  21330919.000   112094783.98708  21330920.440    87346618.44646
 15 03 06 00 40 30.0000000  0  6G16G18G19G21G22G27
  20477523.960   107610130.03908  20477522.660    83852050.70047
  21795191.080   114534515.60408  21795190.120    89247675.02745
  23148852.540   121648049.17407  23148850.540    94790689.15444
  22694742.660   119261686.44107  22694741.080    92931183.73044
  21922526.060   115203723.90308  21922523.580    89769153.62645
  21321869.940   112047230.94008  21321871.360    87309564.12346
 15 03 06 00 41  0.0000000  0  6G16G18G19G21G22G27
  20474896.880   107596324.44408  20474895.560    83841293.08547
  21793487.140   114525561.18408  21793486.200    89240697.57745
  23134923.560   121574851.45107  23134921.480    94733651.97244
  22707653.500   119329533.43408  22707651.860    92984051.49844
  21908902.420   115132131.93808  21908900.120    89713367.71045
  21312851.740   111999840.03208  21312853.180    87272636.14746
 15 03 06 00 41 30.0000000  0  6G16G18G19G21G22G27
  20472369.520   107583043.14808  20472368.200    83830944.02747
  21791877.060   114517099.97508  21791876.060    89234104.43645
  23121012.620   121501748.60807  23121010.560    94676688.75845
  22720587.240   119397500.32608  22720585.500    93037012.71744
  21895344.080   115060883.10808  21895341.920    89657849.16046
  21303864.160   111952610.11408  21303865.620    87235833.60946
 15 03 06 00 42  0.0000000  0  6G16G18G19G21G22G27
  20469942.740   107570290.43008  20469941.440    83821006.83947
  21790361.560   114509135.81108  21790360.520    89227898.60844
  23107120.420   121428744.14707  23107118.280    94619802.16544
  22733544.240   119465589.46108  22733542.520    93090069.18644
  21881852.040   114989982.86308  21881850.060    89602602.24245
  21294907.940   111905545.08908  21294909.400    87199159.56246
 15 03 06 00 42 30.0000000  0  6G16G18G19G21G22G27
  20467616.320   107558065.29508  20467615.100    83811480.75347
  21788940.280   114501666.96908  21788939.220    89222078.73145
  23093246.580   121355836.51807  23093244.300    94562991.04844
  22746523.680   119533796.87608  22746522.040    93143217.80644
  21868426.460   114919431.26608  21868424.520    89547626.99945
  21285982.840   111858643.40108  21285984.300    87162612.79446
 15 03 06 00 43  0.0000000  0  6G16G18G19G21G22G27
  20465390.760   107546369.81908  20465389.560    83802367.38747
  21787613.420   114494694.50408  21787612.380    89216645.65744
  23079391.360   121283026.57707  23079389.040    94506256.06345
  22759525.500   119602121.68807  22759524.020    93196457.90744
  21855067.960   114849231.57808  21855065.860    89492925.95945
  21277089.220   111811906.65009  21277090.620    87126194.55647
 15 03 06 00 43 30.0000000  0  6G16G18G19G21G22G27
  20463266.640   107535207.23009  20463265.380    83793669.26047
  21786381.580   114488221.26108  21786380.480    89211601.57545
  23065555.140   121210317.02607  23065553.020    94449599.29245
  22772549.860   119670565.11207  22772548.560    93249790.44144
  21841777.240   114779388.67508  21841775.100    89438502.94545
  21268227.480   111765337.66908  21268228.800    87089907.04146
 15 03 06 00 44  0.0000000  0  6G16G18G19G21G22G27
  20461243.380   107524574.60108  20461242.080    83785384.09247
  21785244.000   114482243.62208  21785243.040    89206943.67445
  23051737.420   121137704.73807  23051735.440    94393018.31545
  22785595.720   119739121.66107  22785594.720    93303211.11944
  21828554.160   114709901.30408  21828552.060    89384356.96645
  21259397.040   111718933.55908  21259398.300    87053748.00447
 15 03 06 00 44 30.0000000  0  6G16G18G19G21G22G27
  20459321.300   107514473.74308  20459319.920    83777513.28547
  21784201.020   114476762.89808  21784200.160    89202672.99045
  23037938.320   121065190.43307  23037936.420    94336513.69044
  22798663.040   119807790.83307  22798662.220    93356719.56544
  21815399.300   114640772.23008  21815397.260    89330490.17945
  21250598.220   111672695.59708  21250599.480    87017718.42846
 15 03 06 00 45  0.0000000  0  6G16G18G19G21G22G27
  20457501.020   107504907.82009  20457499.580    83770059.31747
  21783253.060   114471781.51608  21783252.220    89198791.41045
  23024158.220   120992776.56406  23024156.380    94280087.32844
  22811751.880   119876573.29307  22811751.040    93410316.28344
  21802313.500   114572005.80208  21802311.320    89276905.97545
  21241831.520   111626626.46208  21241832.920    86981820.40247
 15 03 06 00 45 30.0000000  0  6G16G18G19G21G22G27
  20455782.460   107495876.62908  20455780.980    83763022.02247
  21782399.920   114467298.45108  21782399.020    89195298.12945
  23010397.080   120920462.21606  23010395.400    94223738.51945
  22824861.700   119945466.35707  22824860.840    93463999.18544
  21789296.980   114503603.43608  21789294.720    89223605.44845
  21233096.840   111580725.77108  21233098.420    86946053.64747
 15 03 06 00 46  0.0000000  0  6G16G18G19G21G22G27
  20454165.400   107487378.94508  20454163.960    83756400.43947
  21781641.300   114463311.96208  21781640.340    89192191.77445
  22996654.640   120848245.72407  22996653.000    94167465.95144
  22837991.860   120014466.34907  22837990.960    93517765.41144
  21776349.800   114435565.27008  21776347.560    89170588.71645
  21224393.960   111534992.04408  21224395.620    86910416.97847
 15 03 06 00 46 30.0000000  0  6G16G18G19G21G22G27
  20452650.620   107479418.74609  20452649.220    83750197.68347
  21780977.820   114459825.29108  21780976.840    89189474.89845
  22982931.480   120776130.68307  22982929.760    94111272.44744
  22851142.580   120083574.62207  22851141.640    93571616.01344
  21763472.960   114367896.66708  21763470.680    89117859.95145
  21215723.680   111489429.11009  21215725.280    86874913.39346
 15 03 06 00 47  0.0000000  0  6G16G18G19G21G22G27
  20451237.780   107471994.17208  20451236.360    83744412.29647
  21780409.020   114456836.23508  21780408.080    89187145.77945
  22969227.280   120704114.64107  22969225.420    94055156.07044
  22864313.300   120152787.55607  22864312.300    93625548.15344
  21750666.340   114300596.92608  21750663.940    89065418.61045
  21207085.560   111444034.87609  21207087.000    86839541.26546
 15 03 06 00 47 30.0000000  0  6G16G18G19G21G22G27
  20449927.220   107465107.33808  20449925.900    83739045.92447
  21779935.140   114454346.01308  21779934.220    89185205.34545
  22955542.340   120632199.22907  22955540.380    93999118.09444
  22877503.940   120222104.77107  22877502.920    93679561.56844
  21737930.560   114233670.10808  21737928.220    89013267.88045
  21198479.840   111398811.31509  21198481.120    86804302.13546
 15 03 06 00 48  0.0000000  0  6G16G18G19G21G22G27
  20448718.980   107458758.43808  20448717.760    83734098.72347
  21779556.140   114452354.37508  21779555.300    89183653.44645
  22941876.460   120560384.06407  22941874.360    93943158.24644
  22890714.100   120291524.10007  22890713.080    93733654.53744
  21725266.040   114167117.37708  21725263.640    88961408.63245
  21189906.500   111353758.40108  21189907.720    86769195.97646
 15 03 06 00 48 30.0000000  0  6G16G18G19G21G22G27
  20447614.180   107452952.59308  20447612.980    83729574.68647
  21779272.840   114450865.55808  21779272.040    89182493.32745
  22928230.420   120488673.46107  22928228.280    93887279.87444
  22903944.180   120361048.20907  22903943.100    93787829.15744
  21712673.920   114100945.12708  21712671.400    88909845.86645
  21181366.600   111308881.12309  21181367.800    86734226.66946
 15 03 06 00 49  0.0000000  0  6G16G18G19G21G22G27
  20446612.200   107447687.15808  20446611.000    83725471.74147
  21779084.520   114449875.86108  21779083.700    89181722.14945
  22914603.740   120417064.66707  22914601.480    93831480.82044
  22917193.340   120430672.53407  22917192.360    93842081.88044
  21700154.040   114035152.50908  21700151.420    88858578.91346
  21172859.580   111264176.71508  21172860.860    86699392.07547
 15 03 06 00 49 30.0000000  0  6G16G18G19G21G22G27
  20445713.200   107442962.93408  20445712.000    83721790.52147
  21778991.440   114449386.44208  21778990.480    89181340.78145
  22900996.580   120345558.30308  22900994.180    93775761.61344
  22930461.280   120500395.79207  22930460.400    93896411.67344
  21687706.820   113969741.90008  21687704.100    88807609.62045
  21164385.680   111219646.17008  21164386.980    86664692.95346
 15 03 06 00 50  0.0000000  0  6G16G18G19G21G22G27
  20444917.220   107438780.06008  20444916.020    83718531.13147
  21778993.320   114449396.40808  21778992.260    89181348.55545
  22887408.820   120274153.91708  22887406.240    93720121.85144
  22943747.600   120570215.64107  22943746.620    93950816.73444
  21675332.640   113904714.78008  21675329.780    88756939.15146
  21155944.860   111175289.40909  21155946.220    86630129.24547
 15 03 06 00 50 30.0000000  0  6G16G18G19G21G22G27
  20444224.880   107435141.82808  20444223.640    83715696.14747
  21779090.680   114449908.30108  21779089.560    89181747.45345
  22873841.020   120202854.34908  22873838.460    93664563.75544
  22957052.580   120640133.19707  22957051.340    94005297.95744
  21663032.200   113840075.73108  21663029.360    88706571.08245
  21147537.700   111131109.60308  21147539.080    86595703.42346
 15 03 06 00 51  0.0000000  0  6G16G18G19G21G22G27
  20443636.420   107432049.30208  20443635.120    83713286.37247
  21779283.700   114450922.63608  21779282.600    89182537.84645
  22860293.260   120131660.16408  22860290.500    93609087.78344
  22970375.920   120710147.66707  22970374.560    94059854.69244
  21650806.060   113775827.15008  21650803.220    88656507.27345
  21139164.420   111087107.94309  21139165.840    86561416.42347
 15 03 06 00 51 30.0000000  0  6G16G18G19G21G22G27
  20443151.780   107429502.49108  20443150.460    83711301.84047
  21779572.200   114452438.62708  21779571.060    89183719.15045
  22846765.440   120060571.35507  22846762.640    93553693.94744
  22983717.260   120780256.80307  22983715.780    94114485.15144
  21638654.540   113711970.86008  21638651.800    88606749.15145
  21130825.140   111043284.39409  21130826.420    86527268.21047
 15 03 06 00 52  0.0000000  0  6G16G18G19G21G22G27
  20442770.700   107427500.14408  20442769.460    83709741.56247
  21779955.760   114454454.12708  21779954.600    89185289.67645
  22833257.340   119989586.17907  22833254.540    93498380.85344
  22997076.160   120850457.24807  22997074.380    94169186.78844
  21626577.600   113648506.84208  21626574.980    88557296.69245
  21122519.520   110999637.80408  21122520.680    86493257.88347
 15 03 06 00 52 30.0000000  0  7G04G16G18G19G21G22G27
  24584097.900   129190308.22505  24584101.380   100667772.20643
  20442493.840   107426045.40908  20442492.700    83708607.99747
  21780434.920   114456972.35308  21780433.780    89187251.93645
  22819769.580   119918707.65807  22819766.920    93443150.87244
  23010452.700   120920750.08707  23010450.760    94223960.41844
  21614576.260   113585439.63208  21614573.660    88508153.42845
  21114248.100   110956171.39309  21114249.280    86459387.96547
 15 03 06 00 53  0.0000000  0  7G04G16G18G19G21G22G27
  24564967.100   129089776.93905  24564970.980   100589436.54542
  20442321.160   107425138.03708  20442320.020    83707900.94747
  21781009.440   114459991.62908  21781008.280    89189604.62245
  22806301.940   119847935.35007  22806299.500    93388003.62944
  23023846.280   120991133.02307  23023844.320    94278804.24144
  21602650.700   113522770.66508  21602648.140    88459320.49145
  21106010.960   110912884.89309  21106012.140    86425658.22347
 15 03 06 00 53 30.0000000  0  7G04G16G18G19G21G22G27
  24545862.600   128989383.37806  24545866.880   100511208.20442
  20442252.120   107424775.29508  20442250.960    83707618.28247
  21781678.720   114463508.69008  21781677.480    89192345.21045
  22792853.920   119777265.98007  22792851.640    93332936.61444
  23037255.960   121061601.53307  23037254.080    94333714.75544
  21590800.760   113460498.87808  21590798.140    88410797.03545
  21097807.560   110869775.78509  21097808.740    86392066.72047
 15 03 06 00 54  0.0000000  0  7G04G16G18G19G21G22G27
  24526785.760   128889134.65606  24526790.360   100433092.82841
  20442287.880   107424963.28108  20442286.720    83707764.75947
  21782443.820   114467529.64308  21782442.620    89195478.42244
  22779426.740   119706706.05107  22779424.460    93277954.87645
  23050682.720   121132160.10007  23050680.960    94388695.45544
  21579027.860   113398632.03908  21579025.160    88362589.12546
  21089639.180   110826850.71608  21089640.240    86358618.61346
 15 03 06 00 54 30.0000000  0  7G04G16G18G19G21G22G27
  24507736.160   128789029.00206  24507741.060   100355088.96541
  20442428.140   107425700.33708  20442426.980    83708339.08647
  21783304.260   114472051.42508  21783303.080    89199001.88345
  22766019.940   119636253.25907  22766017.620    93223056.62144
  23064125.740   121202804.30907  23064124.120    94443742.87244
  21567331.900   113337169.54908  21567329.160    88314696.28845
  21081505.360   110784107.71608  21081506.420    86325312.38947
 15 03 06 00 55  0.0000000  0  7G04G16G18G19G21G22G27
  24488714.120   128689068.91806  24488719.400   100277198.52542
  20442673.360   107426988.88708  20442672.220    83709343.14347
  21784260.360   114477076.05408  21784259.340    89202917.19645
  22752633.900   119565909.60407  22752631.440    93168243.42644
  23077585.220   121273534.78207  23077583.660    94498857.53144
  21555713.560   113276115.19908  21555710.860    88267121.48845
  21073406.680   110741549.28908  21073407.860    86292149.98047
 15 03 06 00 55 30.0000000  0  7G04G16G18G19G21G22G27
  24469719.500   128589252.57606  24469724.940   100199419.93842
  20443022.920   107428825.91408  20443021.820    83710774.58247
  21785311.580   114482600.40708  21785310.700    89207221.89545
  22739268.100   119495672.37107  22739265.700    93113513.13544
  23091060.340   121344347.33407  23091058.980    94554036.14044
  21544172.740   113215468.06908  21544170.080    88219863.99945
  21065342.780   110699173.14009  21065344.040    86259129.60847
 15 03 06 00 56  0.0000000  0  7G04G16G18G19G21G22G27
  24450752.920   128489584.54605  24450758.660   100121757.14243
  20443477.640   107431215.61508  20443476.520    83712636.68447
  21786458.560   114488627.75408  21786457.720    89211918.53745
  22725923.360   119425545.75107  22725921.120    93058869.07445
  23104551.440   121415243.63207  23104550.240    94609279.97244
  21532710.400   113155233.65708  21532707.860    88172928.10446
  21057314.380   110656983.54509  21057315.720    86226254.60347
 15 03 06 00 56 30.0000000  0  7G04G16G18G19G21G22G27
  24431814.120   128390062.96505  24431819.700   100044208.35643
  20444037.040   107434155.26608  20444035.940    83714927.31747
  21787700.600   114495154.60808  21787699.720    89217004.40245
  22712599.400   119355527.39107  22712597.160    93004309.33744
  23118057.740   121486219.86007  23118056.540    94664586.12243
  21521326.440   113095410.98208  21521324.060    88126313.05345
  21049321.140   110614978.48509  21049322.520    86193523.40347
 15 03 06 00 57  0.0000000  0  7G04G16G18G19G21G22G27
  24412903.700   128290692.03405  24412909.540    99966777.02644
  20444701.920   107437648.99508  20444700.800    83717649.69147
  21789038.340   114502184.17208  21789037.420    89222481.98845
  22699296.700   119285620.57107  22699294.440    92949836.50844
  23131579.440   121557277.60607  23131578.320    94719955.77844
  21510021.880   113036005.23408  21510019.540    88080022.86846
  21041363.700   110573161.68809  21041365.040    86160938.89947
 15 03 06 00 57 30.0000000  0  7G04G16G18G19G21G22G27
  24394021.660   128191469.25805  24394027.560    99889461.19644
  20445471.600   107441693.55108  20445470.400    83720801.28847
  21790471.040   114509712.55908  21790470.020    89228348.27445
  22686014.540   119215822.17307  22686012.260    92895448.16545
  23145115.760   121628411.93607  23145114.600    94775385.11644
  21498796.340   112977014.86508  21498794.040    88034056.38546
  21033441.580   110531530.39309  21033442.900    86128498.93447
 15 03 06 00 58  0.0000000  0  7G04G16G18G19G21G22G27
  24375168.840   128092400.62205  24375174.700    99812265.51843
  20446347.200   107446294.52608  20446345.940    83724386.45547
  21791999.660   114517745.15708  21791998.560    89234607.45145
  22672754.040   119146138.26707  22672751.820    92841149.06645
  23158667.320   121699626.85307  23158666.080    94830877.25044
  21487651.440   112918447.41908  21487648.940    87988419.42246
  21025555.940   110490090.82509  21025557.220    86096208.37047
 15 03 06 00 58 30.0000000  0  7G04G16G18G19G21G22G27
  24356344.240   127993479.10706  24356349.800    99735184.31543
  20447327.180   107451444.30308  20447325.960    83728399.26047
  21793622.580   114526273.56208  21793621.500    89241252.97645
  22659513.800   119076560.64807  22659511.600    92786932.77345
  23172232.480   121770913.17207  23172231.160    94886425.05844
  21476585.880   112860296.75408  21476583.220    87943107.22646
