     2.11           OBSERVATION DATA    G                   RINEX VERSION / TYPE
SPIDER V4,0,0,3554                      2015 03 13 06:14    PGM / RUN BY / DATE 
ADJF                                                        MARKER NAME         
ADJF                                                        MARKER NUMBER       
                                                            OBSERVER / AGENCY   
496631              LEICA GRX1200+GNSS  8.20/4.007          REC # / TYPE / VERS 
103293              LEIAT504                                ANT # / TYPE        
  5273000.2084   285396.0090  3566759.2257                  APPROX POSITION XYZ 
        0.0480        0.0000        0.0000                  ANTENNA: DELTA H/E/N
     1     1                                                WAVELENGTH FACT L1/2
     4    C1    L1    P2    L2                              # / TYPES OF OBSERV 
    30.000                                                  INTERVAL            
  2015    03    06    00    00    0.0000000     GPS         TIME OF FIRST OBS   
  2015    03    06    23    59   30.0000000     GPS         TIME OF LAST OBS    
    16                                                      LEAP SECONDS        
    30                                                      # OF SATELLITES     
   G 1   833   833   833   833                              PRN / # OF OBS      
   G 2   933   933   933   933                              PRN / # OF OBS      
   G 3   853   853   853   853                              PRN / # OF OBS      
   G 4   851   851   851   851                              PRN / # OF OBS      
   G 5   667   666   666   666                              PRN / # OF OBS      
   G 6   761   761   761   761                              PRN / # OF OBS      
   G 7   658   658   658   658                              PRN / # OF OBS      
   G 9   798   798   798   798                              PRN / # OF OBS      
   G10   780   780   779   779                              PRN / # OF OBS      
   G11   797   797   797   797                              PRN / # OF OBS      
   G12   828   827   827   827                              PRN / # OF OBS      
   G13   821   821   821   821                              PRN / # OF OBS      
   G14   926   926   924   924                              PRN / # OF OBS      
   G15   727   727   727   727                              PRN / # OF OBS      
   G16   686   685   685   685                              PRN / # OF OBS      
   G17   936   936   936   936                              PRN / # OF OBS      
   G18   929   929   928   928                              PRN / # OF OBS      
   G19   787   787   787   787                              PRN / # OF OBS      
   G20   787   787   787   787                              PRN / # OF OBS      
   G21   652   636   631   627                              PRN / # OF OBS      
   G22   730   730   729   729                              PRN / # OF OBS      
   G23   740   740   740   740                              PRN / # OF OBS      
   G24   823   804   800   800                              PRN / # OF OBS      
   G25   862   862   862   862                              PRN / # OF OBS      
   G27   830   830   830   830                              PRN / # OF OBS      
   G28   897   897   897   897                              PRN / # OF OBS      
   G29   757   757   756   756                              PRN / # OF OBS      
   G30   705   705   705   705                              PRN / # OF OBS      
   G31   815   813   813   813                              PRN / # OF OBS      
   G32   754   753   753   753                              PRN / # OF OBS      
BIT 2 OF LLI FLAGS DATA COLLECTED UNDER A/S CONDITION       COMMENT             
SNR is mapped to RINEX snr flag value [2-9]                 COMMENT             
Lx:     = 25dBHz -> 1; 26-27dBHz -> 2; 28-31dBHz -> 3       COMMENT             
       32-35dBHz -> 4; 36-38dBHz -> 5; 39-41dBHz -> 6       COMMENT             
       42-44dBHz -> 7; 45-48dBHz -> 8; >=49dBHz -> 9        COMMENT             
                                                            END OF HEADER       
 15 03 06 00 00  0.0000000  0  7G16G18G19G21G22G27G31
  21117490.860   110973180.50809  21117488.180    86472606.05349
  22119411.620   116238398.99509  22119409.300    90575416.89747
  24376559.380   128099691.76606  24376557.240    99817935.35046
  21863756.860   114895182.03609  21863754.020    89528867.47848
  22953246.880   120620130.88508  22953245.760    93989711.72147
  22250002.360   116924651.23708  22250002.580    91110137.82848
  23652402.440   124294199.87408  23652403.200    96852619.90446
 15 03 06 00 00 30.0000000  0  7G16G18G19G21G22G27G31
  21106897.020   110917509.34009  21106894.280    86429225.91649
  22111782.500   116198307.32109  22111780.060    90544176.65647
  24362118.940   128023806.69207  24362116.780    99758804.21045
  21874456.620   114951409.45009  21874453.780    89572681.03948
  22936540.260   120532338.24408  22936539.080    93921302.19847
  22239358.800   116868718.96708  22239358.940    91066554.24748
  23670614.140   124389901.30808  23670615.040    96927192.05546
 15 03 06 00 01  0.0000000  0  7G16G18G19G21G22G27G31
  21096371.360   110862196.76809  21096368.600    86386125.20849
  22104230.100   116158618.97309  22104227.660    90513250.68947
  24347692.100   127947993.17006  24347689.880    99699728.80245
  21885199.620   115007864.11409  21885196.760    89616671.68348
  22919862.080   120444695.01808  22919860.840    93853009.00246
  22228734.880   116812890.21708  22228735.040    91023051.35148
  23688835.700   124485654.86308  23688836.680    97001804.82146
 15 03 06 00 01 30.0000000  0  7G16G18G19G21G22G27G31
  21085915.400   110807250.47709  21085912.640    86343309.91749
  22096755.840   116119341.28209  22096753.460    90482644.72547
  24333279.760   127872256.47206  24333277.540    99640713.26045
  21895986.720   115064550.70209  21895983.860    89660843.05248
  22903213.980   120357210.05408  22903212.620    93784839.27447
  22218131.720   116757170.52608  22218131.960    90979633.44148
  23707067.760   124581463.32708  23707068.740    97076460.37246
 15 03 06 00 02  0.0000000  0  7G16G18G19G21G22G27G31
  21075528.060   110752664.62109  21075525.280    86300775.47749
  22089358.620   116080468.59209  22089356.300    90452354.33747
  24318880.580   127796588.94006  24318878.380    99581751.61545
  21906815.980   115121458.99709  21906813.160    89705187.17648
  22886595.100   120269878.50908  22886593.680    93716789.23747
  22207547.980   116701552.29208  22207548.120    90936294.56248
  23725308.260   124677315.80408  23725309.220    97151150.20746
 15 03 06 00 02 30.0000000  0  7G16G18G19G21G22G27G31
  21065211.100   110698448.61509  21065208.300    86258529.23649
  22082040.060   116042009.31009  22082037.820    90422386.08447
  24304495.940   127720997.62206  24304493.680    99522849.31845
  21917688.300   115178593.80009  21917685.500    89749707.79548
  22870006.980   120182708.84308  22870005.520    93648864.99147
  22196984.860   116646042.48308  22196984.900    90893040.17948
  23743557.860   124773216.29708  23743559.040    97225877.44846
 15 03 06 00 03  0.0000000  0  7G16G18G19G21G22G27G31
  21054964.880   110644604.37809  21054962.100    86216572.68649
  22074800.320   116003964.57909  22074798.180    90392740.86247
  24290125.660   127645481.77706  24290123.500    99464005.87845
  21928603.420   115235953.34309  21928600.620    89794403.54148
  22853450.260   120095704.18908  22853448.720    93581069.23847
  22186442.240   116590640.84608  22186442.300    90849870.09548
  23761815.900   124869161.85408  23761817.420    97300639.77246
 15 03 06 00 03 30.0000000  0  7G16G18G19G21G22G27G31
  21044787.440   110591121.65409  21044784.740    86174897.83949
  22067637.660   115966324.90209  22067635.640    90363411.26647
  24275767.600   127570029.43706  24275765.260    99405211.95146
  21939558.740   115293523.91909  21939555.920    89839263.73248
  22836923.320   120008855.26908  22836921.640    93513394.78747
  22175917.920   116535335.53108  22175918.040    90806775.07348
  23780079.720   124965137.40208  23780081.560    97375425.46946
 15 03 06 00 04  0.0000000  0  7G16G18G19G21G22G27G31
  21034681.180   110538012.83409  21034678.500    86133514.34049
  22060554.220   115929101.56009  22060552.240    90334406.08047
  24261423.680   127494650.78007  24261421.200    99346475.38646
  21950555.840   115351314.03609  21950552.960    89884294.99048
  22820428.560   119922174.82808  22820426.760    93445851.63947
  22165413.880   116480136.75208  22165414.060    90763763.06048
  23798350.580   125061150.22407  23798352.500    97450240.18246
 15 03 06 00 04 30.0000000  0  7G16G18G19G21G22G27G31
  21024646.160   110485278.35109  21024643.460    86092422.52949
  22053549.980   115892294.60509  22053548.080    90305725.35347
  24247093.420   127419344.09607  24247090.740    99287794.92346
  21961593.900   115409319.43009  21961591.000    89929493.99248
  22803966.160   119835664.24308  22803964.280    93378440.84547
  22154929.780   116425042.75208  22154929.920    90720832.68348
  23816627.720   125157195.55308  23816629.480    97525080.22746
 15 03 06 00 05  0.0000000  0  7G16G18G19G21G22G27G31
  21014683.140   110432922.12209  21014680.440    86051625.46849
  22046625.540   115855906.94509  22046623.720    90277371.35947
  24232777.040   127344110.98707  24232774.300    99229171.81145
  21972673.000   115467540.44409  21972670.080    89974861.01848
  22787536.900   119749328.07208  22787534.940    93311166.11447
  22144466.060   116370055.49808  22144466.200    90677985.48448
  23834910.980   125253272.53408  23834912.600    97599944.95846
 15 03 06 00 05 30.0000000  0  7G16G18G19G21G22G27G31
  21004792.520   110380946.54009  21004789.820    86011125.01049
  22039781.360   115819940.88109  22039779.500    90249345.87348
  24218474.580   127268951.42306  24218471.680    99170605.97546
  21983792.760   115525975.06109  21983789.860    90020394.48648
  22771141.320   119663169.21708  22771139.340    93244029.64447
  22134022.740   116315175.33108  22134022.840    90635221.73248
  23853199.780   125349378.26208  23853201.360    97674832.07446
 15 03 06 00 06  0.0000000  0  7G16G18G19G21G22G27G31
  20994974.180   110329350.74909  20994971.440    85970920.49749
  22033017.220   115784395.24309  22033015.300    90221648.00047
  24204185.460   127193862.52906  24204182.520    99112095.23646
  21994952.420   115584619.19709  21994949.500    90066091.21748
  22754779.420   119577187.61208  22754777.360    93177031.58447
  22123599.200   116260399.38808  22123599.360    90592539.20348
  23871492.780   125445506.93107  23871494.760    97749737.01246
 15 03 06 00 06 30.0000000  0  7G16G18G19G21G22G27G31
  20985228.760   110278138.22409  20985226.000    85931014.63249
  22026333.700   115749273.31809  22026331.780    90194280.28747
  24189910.120   127118846.00106  24189907.160    99053640.84645
  22006151.800   115643472.07909  22006148.840    90111950.59748
  22738451.780   119491386.75008  22738449.600    93110174.01847
  22113195.800   116205729.38608  22113195.960    90549939.21648
  23889789.900   125541657.31407  23889792.120    97824658.84047
 15 03 06 00 07  0.0000000  0  7G16G18G19G21G22G27G31
  20975556.620   110227310.81709  20975553.880    85891408.85849
  22019731.000   115714575.80909  22019729.060    90167243.28348
  24175648.380   127043901.00306  24175645.520    98995242.22446
  22017390.540   115702531.90609  22017387.560    90157971.24248
  22722159.040   119405769.28708  22722156.860    93043459.41947
  22102812.460   116151164.88408  22102812.700    90507421.43848
  23908090.620   125637826.15508  23908093.000    97899595.06147
 15 03 06 00 07 30.0000000  0  7G16G18G19G21G22G27G31
  20965958.420   110176872.00109  20965955.700    85852105.88049
  22013209.680   115680305.72309  22013207.580    90140539.33848
  24161400.640   126969028.98906  24161397.860    98936900.42646
  22028668.300   115761796.84309  22028665.320    90204151.70648
  22705901.980   119320339.05908  22705899.660    92976890.63147
  22092449.540   116096707.50008  22092449.780    90464987.13048
  23926394.600   125734011.86807  23926396.840    97974544.44146
 15 03 06 00 08  0.0000000  0  7G16G18G19G21G22G27G31
  20956434.160   110126821.74009  20956431.420    85813105.66949
  22006769.660   115646462.85909  22006767.460    90114168.29748
  24147166.460   126894227.93707  24147163.580    98878613.95145
  22039984.660   115821264.78209  22039981.700    90250490.35648
  22689680.760   119235097.14708  22689678.400    92910468.59347
  22082106.720   116042355.37208  22082106.940    90422634.83748
  23944700.800   125830209.68307  23944703.080    98049503.22246
 15 03 06 00 08 30.0000000  0  7G16G18G19G21G22G27G31
  20946984.180   110077161.65709  20946981.420    85774409.50149
  22000411.180   115613048.41309  22000408.880    90088131.08447
  24132945.840   126819497.81906  24132943.040    98820382.75846
  22051339.020   115880932.68809  22051336.120    90296984.82448
  22673495.820   119150046.07408  22673493.460    92844195.29047
  22071783.860   115988108.20408  22071784.060    90380364.33948
  23963008.620   125926416.36307  23963011.120    98124468.88946
 15 03 06 00 09  0.0000000  0  7G16G18G19G21G22G27G31
  20937609.680   110027898.41909  20937607.000    85736022.56049
  21994135.200   115580067.64009  21994132.800    90062431.79447
  24118739.360   126744842.47107  24118736.440    98762209.83745
  22062731.920   115940802.98708  22062729.060    90343636.99948
  22657348.580   119065192.99008  22657346.220    92778076.56547
  22061481.740   115933970.42108  22061481.920    90338179.07048
  23981318.500   126022633.15107  23981321.240    98199442.41846
 15 03 06 00 09 30.0000000  0  7G16G18G19G21G22G27G31
  20928310.240   109979029.66609  20928307.620    85697943.01449
  21987941.240   115547518.25509  21987938.880    90037068.65847
  24104546.320   126670257.26407  24104543.420    98704091.54546
  22074162.180   116000869.46909  22074159.300    90390442.05048
  22641238.480   118980535.31408  22641236.020    92712109.75047
  22051199.620   115879937.87608  22051199.780    90296075.80648
  23999629.020   126118853.10808  23999631.960    98274418.42846
 15 03 06 00 10  0.0000000  0  7G16G18G19G21G22G27G31
  20919086.660   109930559.41009  20919084.020    85660173.98449
  21981829.940   115515403.51209  21981827.660    90012044.20148
  24090367.120   126595744.51807  24090364.180    98646029.70846
  22085629.840   116061132.44709  22085626.900    90437400.20948
  22625166.580   118896078.25008  22625164.000    92646299.22247
  22040937.940   115826012.68808  22040938.080    90254056.19048
  24017940.020   126215075.29307  24017943.060    98349396.17146
 15 03 06 00 10 30.0000000  0  7G16G18G19G21G22G27G31
  20909939.600   109882491.21509  20909936.980    85622718.24949
  21975801.900   115483726.52309  21975799.720    89987360.85748
  24076201.900   126521305.60307  24076199.040    98588025.42046
  22097134.880   116121591.78809  22097131.920    90484511.38148
  22609133.720   118811825.88008  22609131.060    92580648.19647
  22030697.060   115772196.52708  22030697.200    90212121.54148
  24036251.120   126311298.35607  24036254.320    98424374.58146
 15 03 06 00 11  0.0000000  0  7G16G18G19G21G22G27G31
  20900868.960   109834824.58509  20900866.400    85585575.41849
  21969856.900   115452486.03909  21969854.900    89963017.63547
  24062050.240   126446938.15407  24062047.400    98530076.79646
  22108676.500   116182243.25309  22108673.500    90531772.25348
  22593139.900   118727778.55308  22593137.200    92515156.92247
  22020476.540   115718487.03209  22020476.660    90170269.99548
  24054561.380   126407516.96707  24054564.520    98499349.52446
 15 03 06 00 11 30.0000000  0  7G16G18G19G21G22G27G31
  20891875.680   109787564.45109  20891873.080    85548749.34049
  21963995.920   115421686.84609  21963994.060    89939018.28348
  24047912.480   126372644.61706  24047909.640    98472185.79546
  22120254.920   116243087.87709  22120251.860    90579183.65448
  22577186.220   118643942.07108  22577183.560    92449829.94147
  22010276.880   115664887.28108  22010277.040    90128503.97648
  24072870.800   126503731.26207  24072874.300    98574321.03246
 15 03 06 00 12  0.0000000  0  7G16G18G19G21G22G27G31
  20882959.740   109740710.85709  20882957.080    85512240.04049
  21958218.780   115391328.01509  21958216.940    89915362.06347
  24033788.400   126298423.09007  24033785.820    98414350.89746
  22131869.340   116304121.70609  22131866.240    90626742.47448
  22561272.800   118560317.05008  22561270.080    92384667.72847
  22000097.740   115611395.59708  22000097.960    90086822.16448
  24091178.480   126599936.39207  24091182.180    98649285.42246
 15 03 06 00 12 30.0000000  0  7G16G18G19G21G22G27G31
  20874120.960   109694262.79709  20874118.280    85476046.74449
  21952525.200   115361407.82709  21952523.260    89892047.63747
  24019677.620   126224270.61707  24019675.020    98356569.77946
  22143518.800   116365339.68209  22143515.660    90674444.78748
  22545399.480   118476902.46608  22545396.580    92319669.47247
  21989938.540   115558008.89809  21989938.720    90045222.15448
  24109483.240   126696126.19807  24109487.060    98724237.82746
 15 03 06 00 13  0.0000000  0  7G16G18G19G21G22G27G31
  20865360.540   109648226.55209  20865357.860    85440174.35049
  21946916.220   115331932.14909  21946914.140    89869079.60748
  24005580.800   126150191.24107  24005578.180    98298845.66046
  22155203.820   116426744.69009  22155200.660    90722292.84348
  22529567.600   118393705.97908  22529564.660    92254841.17447
  21979800.160   115504731.50709  21979800.240    90003707.32648
  24127785.480   126792302.45407  24127789.320    98799179.67746
 15 03 06 00 13 30.0000000  0  7G16G18G19G21G22G27G31
  20856678.700   109602603.34609  20856676.000    85404623.79549
  21941392.020   115302901.65609  21941389.700    89846458.45848
  23991497.900   126076184.73207  23991495.220    98241178.27746
  22166923.840   116488333.71309  22166920.720    90770284.28648
  22513777.660   118310729.97008  22513774.800    92190184.66647
  21969682.600   115451563.26209  21969682.560    89962277.52948
  24146084.300   126888461.53107  24146088.500    98874108.10945
 15 03 06 00 14  0.0000000  0  7G16G18G19G21G22G27G31
  20848075.780   109557394.77309  20848073.040    85369396.33549
  21935952.640   115274317.04109  21935950.140    89824184.75047
  23977428.620   126002250.16407  23977425.760    98183567.00346
  22178678.580   116550105.30509  22178675.500    90818417.98148
  22498030.020   118227975.93108  22498027.160    92125701.11847
  21959585.780   115398503.81309  21959585.680    89920932.51448
  24164379.520   126984600.44507  24164383.580    98949020.83845
 15 03 06 00 14 30.0000000  0  7G16G18G19G21G22G27G31
  20839552.420   109512604.20809  20839549.680    85334494.59749
  21930598.600   115246181.04209  21930595.960    89802260.61047
  23963373.180   125928388.70607  23963370.280    98126012.67446
  22190467.820   116612058.38408  22190464.720    90866693.10848
  22482325.420   118145448.02508  22482322.520    92061393.76147
  21949509.840   115345554.53308  21949509.840    89879673.34248
  24182670.540   127080717.44007  24182674.920    99023916.45946
 15 03 06 00 15  0.0000000  0  7G16G18G19G21G22G27G31
  20831109.100   109468234.07009  20831106.360    85299920.46449
  21925330.220   115218495.40809  21925327.540    89780687.40547
  23949331.760   125854600.80907  23949328.880    98068515.66846
  22202291.420   116674192.10808  22202288.360    90915108.99248
  22466664.520   118063149.53708  22466661.440    91997265.16947
  21939454.960   115292716.22808  21939455.180    89838500.66448
  24200956.820   127176810.22007  24200961.660    99098793.17346
 15 03 06 00 15 30.0000000  0  7G16G18G19G21G22G27G31
  20822745.640   109424283.65709  20822742.920    85265673.38049
  21920147.140   115191258.34909  21920144.540    89759463.73348
  23935303.740   125780883.83607  23935300.960    98011073.92446
  22214148.440   116736501.27108  22214145.420    90963661.57948
  22451047.200   117981080.27408  22451044.040    91933315.19047
  21929420.740   115239986.26709  21929421.060    89797412.38948
  24219237.560   127272873.21907  24219242.640    99173646.69145
 15 03 06 00 16  0.0000000  0  7G16G18G19G21G22G27G31
  20814462.960   109380757.81209  20814460.260    85231757.13149
  21915050.360   115164474.64709  21915047.820    89738593.33048
  23921289.800   125707240.75407  23921287.080    97953689.76846
  22226039.060   116798986.98009  22226036.040    91012351.73748
  22435474.460   117899245.68508  22435471.360    91869548.08147
  21919407.800   115187367.77609  21919408.040    89756410.97748
  24237512.500   127368906.48307  24237517.780    99248477.03445
 15 03 06 00 16 30.0000000  0  7G16G18G19G21G22G27G31
  20806260.880   109337655.68009  20806258.260    85198171.05449
  21910039.560   115138142.78109  21910037.060    89718074.99748
  23907289.360   125633668.80207  23907286.680    97896361.01146
  22237962.520   116861645.20109  22237959.460    91061176.31748
  22419946.440   117817645.94908  22419943.380    91805963.96148
  21909415.680   115134858.38409  21909415.700    89715494.56848
  24255780.880   127464905.00107  24255786.100    99323280.34145
 15 03 06 00 17  0.0000000  0  7G16G18G19G21G22G27G31
  20798140.320   109294981.99109  20798137.760    85164918.83949
  21905115.440   115112266.47409  21905112.920    89697911.66548
  23893302.940   125560170.22907  23893300.240    97839089.43246
  22249919.060   116924477.23208  22249915.980    91110136.35148
  22404464.140   117736286.30708  22404461.080    91742566.93447
  21899444.780   115082460.84009  21899444.600    89674665.32648
  24274042.680   127560868.43807  24274048.080    99398056.30246
 15 03 06 00 17 30.0000000  0  7G16G18G19G21G22G27G31
  20790100.660   109252733.41909  20790098.080    85131997.87049
  21900277.200   115086841.66109  21900274.760    89678100.13948
  23879329.680   125486740.24407  23879327.020    97781871.31546
  22261907.280   116987475.58208  22261904.180    91159225.96548
  22389027.040   117655164.29808  22389023.960    91679355.06147
  21889494.180   115030170.31309  21889493.980    89633919.46448
  24292296.320   127656788.74507  24292302.020    99472798.61845
 15 03 06 00 18  0.0000000  0  7G16G18G19G21G22G27G31
  20782143.560   109210918.62609  20782140.980    85099414.91049
  21895526.460   115061876.65109  21895524.040    89658646.90148
  23865370.760   125413385.69507  23865368.080    97724711.97246
  22273928.000   117050644.94808  22273924.920    91208448.83948
  22373636.980   117574289.50708  22373633.960    91616335.83547
  21879565.300   114977993.88009  21879565.200    89593262.51448
  24310542.360   127752669.96007  24310548.400    99547510.48745
 15 03 06 00 18 30.0000000  0  7G16G18G19G21G22G27G31
  20774269.280   109169539.02109  20774266.720    85067171.06649
  21890863.260   115037371.74809  21890860.960    89639552.19448
  23851426.020   125340105.62107  23851423.480    97667610.66446
  22285980.880   117113983.33308  22285977.860    91257803.42548
  22358294.320   117493663.79508  22358291.240    91553510.69147
  21869658.060   114925930.96709  21869658.100    89552694.02748
  24328780.280   127848508.72207  24328786.740    99622189.28546
 15 03 06 00 19  0.0000000  0  7G16G18G19G21G22G27G31
  20766477.440   109128592.45509  20766474.840    85035264.64949
  21886287.040   115013323.90409  21886284.820    89620813.62448
  23837494.700   125266896.02907  23837492.160    97610564.28346
  22298064.820   117177484.88508  22298061.820    91307285.14948
  22342998.840   117413285.63608  22342995.740    91490878.43548
  21859771.720   114873977.79709  21859771.780    89512211.05248
  24347008.900   127944297.92607  24347015.280    99696829.45545
 15 03 06 00 19 30.0000000  0  7G16G18G19G21G22G27G31
  20758768.900   109088083.64809  20758766.240    85003699.34349
  21881798.580   114989737.20609  21881796.460    89602434.38748
  23823577.300   125193759.84807  23823574.600    97553575.10046
  22310179.980   117241150.59108  22310177.060    91356894.77648
  22327751.480   117333160.40509  22327748.280    91428443.26448
  21849906.820   114822137.47109  21849906.840    89471816.00148
  24365228.120   128040038.19607  24365234.740    99771431.49545
 15 03 06 00 20  0.0000000  0  7G16G18G19G21G22G27G31
  20751143.820   109048013.53809  20751141.140    84972475.88349
  21877397.920   114966611.93109  21877395.920    89584414.70448
  23809673.660   125120695.99507  23809671.000    97496642.26846
  22322325.880   117304977.62308  22322322.960    91406630.12048
  22312552.580   117253289.85908  22312549.300    91366206.54648
  21840063.240   114770409.30609  21840063.200    89431508.35448
  24383437.460   128135725.47607  24383444.080    99845992.31445
 15 03 06 00 20 30.0000000  0  7G16G18G19G21G22G27G31
  20743602.860   109008385.51509  20743600.200    84941596.90649
  21873085.640   114943950.93809  21873083.660    89566756.80148
  23795784.200   125047706.28807  23795781.500    97439767.20846
  22334502.520   117368966.19608  22334499.580    91456491.33348
  22297402.980   117173678.33209  22297399.680    91304171.66448
  21830241.400   114718795.41009  21830241.380    89391289.73948
  24401636.380   128231359.01607  24401643.200    99920511.23446
 15 03 06 00 21  0.0000000  0  7G16G18G19G21G22G27G31
  20736145.560   108969197.08109  20736142.880    84911060.46649
  21868861.060   114921750.62109  21868859.060    89549457.87048
  23781907.900   124974786.04107  23781905.060    97382946.28046
  22346708.720   117433110.08708  22346705.780    91506473.58148
  22282302.320   117094324.23509  22282299.120    91242337.37648
  21820440.500   114667291.41709  21820440.520    89351156.76448
  24419823.740   128326931.23207  24419830.780    99994982.41146
 15 03 06 00 21 30.0000000  0  7G16G18G19G21G22G27G31
  20728773.080   108930454.45809  20728770.380    84880871.40949
  21864725.220   114900016.46409  21864723.100    89532522.18248
  23768045.720   124901939.69707  23768042.940    97326182.94046
  22358944.920   117497411.86508  22358942.020    91556578.85948
  22267251.940   117015234.31409  22267248.720    91180708.94048
  21810661.380   114615901.83409  21810661.480    89311112.93948
  24437999.700   128422443.89807  24438006.880   100069407.15545
 15 03 06 00 22  0.0000000  0  7G16G18G19G21G22G27G31
  20721485.520   108892158.16209  20721482.820    84851030.14549
  21860678.080   114878748.38909  21860675.860    89515949.68348
  23754197.400   124829165.98207  23754194.400    97269476.17546
  22371210.620   117561868.48208  22371207.680    91606804.79448
  22252252.120   116936409.95709  22252248.880    91119287.43948
  21800903.880   114564625.82009  21800904.020    89271157.62248
  24456163.700   128517893.45607  24456171.180   100143782.78146
 15 03 06 00 22 30.0000000  0  7G16G18G19G21G22G27G31
  20714283.460   108854311.04109  20714280.760    84821538.88349
  21856720.060   114857948.52009  21856717.680    89499742.00748
  23740363.040   124756466.29407  23740360.080    97212827.13846
  22383505.660   117626479.21708  22383502.660    91657150.81947
  22237303.560   116857854.99609  22237300.280    91058075.84448
  21791168.240   114513464.66809  21791168.300    89231291.79748
  24474315.320   128613277.82507  24474322.920   100218107.68645
 15 03 06 00 23  0.0000000  0  7G16G18G19G21G22G27G31
  20707167.340   108816915.63109  20707164.640    84792399.59849
  21852851.360   114837618.06009  21852848.860    89483900.10248
  23726542.740   124683840.43007  23726539.800    97156235.61346
  22395829.820   117691243.04908  22395826.800    91707616.12947
  22222406.820   116779572.42709  22222403.540    90997076.50448
  21781454.640   114462419.35809  21781454.620    89191516.23748
  24492453.780   128708594.63306  24492461.760   100292379.81546
 15 03 06 00 23 30.0000000  0  7G16G18G19G21G22G27G31
  20700137.260   108779972.29509  20700134.560    84763612.59149
  21849071.940   114817756.81309  21849069.340    89468423.82748
  23712736.320   124611287.36107  23712733.420    97099700.80547
  22408182.520   117756156.94108  22408179.500    91758198.38547
  22207562.140   116701563.34409  22207558.900    90936290.27748
  21771762.860   114411488.76509  21771762.820    89151830.07248
  24510578.880   128803840.26707  24510587.020   100366596.58846
 15 03 06 00 24  0.0000000  0  7G16G18G19G21G22G27G31
  20693192.960   108743479.73909  20693190.260    84735176.83149
  21845381.360   114798362.80809  21845378.780    89453311.62548
  23698943.240   124538804.64907  23698940.380    97043220.81246
  22420562.920   117821216.19308  22420559.880    91808893.90448
  22192769.480   116623827.60409  22192766.200    90875717.03048
  21762092.420   114360670.12409  21762092.340    89112231.13048
  24528689.520   128899009.24907  24528697.900   100440753.77946
 15 03 06 00 24 30.0000000  0  7G16G18G19G21G22G27G31
  20686335.860   108707445.37009  20686333.140    84707098.10249
  21841780.960   114779442.83609  21841778.420    89438568.80648
  23685164.560   124466397.29607  23685161.680    96986799.54846
  22432971.620   117886424.46208  22432968.660    91859705.54047
  22178030.360   116546373.25809  22178027.060    90815363.06048
  21752444.420   114309969.54709  21752444.400    89072724.19948
  24546785.900   128994104.56507  24546794.960   100514853.52446
 15 03 06 00 25  0.0000000  0  7G16G18G19G21G22G27G31
  20679566.240   108671870.81609  20679563.520    84679377.66649
  21838270.740   114760996.83909  21838268.240    89424195.31248
  23671400.080   124394064.82607  23671397.080    96930436.61346
  22445408.260   117951779.51808  22445405.280    91910631.55547
  22163345.200   116469202.28709  22163341.880    90755229.89948
  21742818.780   114259386.60609  21742818.820    89033308.92948
  24564867.440   129089122.44806  24564876.660   100588892.99945
 15 03 06 00 25 30.0000000  0  7G16G18G19G21G22G27G31
  20672884.080   108636755.71809  20672881.360    84652015.25249
  21834850.520   114743024.01609  21834848.180    89410190.52948
  23657649.480   124321805.58407  23657646.460    96874130.77346
  22457872.080   118017277.48608  22457869.100    91961668.92347
  22148714.060   116392315.37109  22148710.660    90695318.07248
  21733215.260   114208919.82609  21733215.300    88993984.17348
  24582933.360   129184058.31106  24582942.700   100662868.66345
 15 03 06 00 26  0.0000000  0  7G16G18G19G21G22G27G31
  20666288.940   108602098.12109  20666286.240    84625009.32649
  21831519.900   114725521.88709  21831517.640    89396552.51948
  23643912.140   124249615.83707  23643909.280    96817879.07646
  22470362.280   118082913.81508  22470359.320    92012814.11247
  22134136.700   116315711.04809  22134133.220    90635626.45148
  21723633.240   114158566.05809  21723633.280    88954747.48548
  24600982.880   129278906.32507  24600992.020   100736775.93845
 15 03 06 00 26 30.0000000  0  7G16G18G19G21G22G27G31
  20659782.120   108567904.59809  20659779.440    84598365.02749
  21828279.840   114708495.48809  21828277.620    89383285.21348
  23630188.980   124177500.31007  23630186.080    96761685.18846
  22482879.260   118148690.91708  22482876.260    92064068.99747
  22119614.640   116239397.51509  22119611.140    90576161.41848
  21714073.680   114108330.09709  21714073.640    88915602.58948
  24619015.940   129373668.36206  24619025.080   100810616.28946
 15 03 06 00 27  0.0000000  0  7G16G18G19G21G22G27G31
  20653364.760   108534181.24909  20653362.080    84572087.08849
  21825131.460   114691950.58909  21825129.260    89370393.09548
  23616480.860   124105463.49307  23616477.840    96705552.62546
  22495423.520   118214611.50108  22495420.540    92115435.68047
  22105149.200   116163381.49609  22105145.740    90516928.21348
  21704537.460   114058216.94609  21704537.420    88876553.39348
  24637032.540   129468346.05006  24637042.160   100884390.72046
 15 03 06 00 27 30.0000000  0  7G16G18G19G21G22G27G31
  20647035.580   108500921.24909  20647032.900    84546170.20549
  21822073.340   114675879.80509  21822071.080    89357870.42248
  23602786.040   124033496.75007  23602782.820    96649474.67646
  22507993.240   118280665.94708  22507990.340    92166906.67247
  22090739.320   116087657.16209  22090735.740    90457922.29348
  21695023.040   114008218.48909  21695023.000    88837593.56248
  24655031.200   129562928.36507  24655040.760   100958090.89145
 15 03 06 00 28  0.0000000  0  7G16G18G19G21G22G27G31
  20640795.500   108468129.46809  20640792.840    84520618.16649
  21819106.080   114660286.42809  21819103.720    89345719.75548
  23589105.160   123961603.27107  23589101.900    96593453.80446
  22520588.680   118346855.48808  22520585.840    92218482.93047
  22076385.980   116012229.81509  22076382.320    90399147.79148
  21685531.100   113958338.03409  21685531.020    88798725.68448
  24673011.900   129657415.67307  24673021.260   101031717.07545
 15 03 06 00 28 30.0000000  0  6G16G18G19G21G22G27
  20634642.440   108435794.74309  20634639.760    84495422.27049
  21816227.440   114645158.83609  21816225.020    89333932.03448
  23575435.920   123889770.88107  23575432.820    96537480.55446
  22533207.180   118413165.95408  22533204.280    92270153.41047
  22062087.160   115937089.13709  22062083.460    90340596.66348
  21676059.260   113908563.27109  21676059.200    88759940.15448
 15 03 06 00 29  0.0000000  0  6G16G18G19G21G22G27
  20628582.320   108403948.42709  20628579.600    84470606.95349
  21813443.160   114630527.29909  21813440.740    89322530.84048
  23561783.860   123818028.81807  23561780.840    96481577.68546
  22545853.900   118479624.70608  22545850.920    92321939.44747
  22047849.020   115862267.39109  22047845.280    90282294.04848
  21666613.260   113858924.13809  21666613.220    88721260.31448
 15 03 06 00 29 30.0000000  0  6G16G18G19G21G22G27
  20622611.920   108372573.70809  20622609.220    84446159.12049
  21810749.760   114616373.57509  21810747.380    89311501.98548
  23548145.440   123746358.44307  23548142.340    96425730.66446
  22558525.000   118546211.71708  22558521.980    92373825.42347
  22033668.480   115787748.25209  22033664.720    90224227.23948
  21657189.620   113809402.47509  21657189.520    88682672.01248
 15 03 06 00 30  0.0000000  0  6G16G18G19G21G22G27
  20616732.560   108341677.32109  20616729.860    84422084.00949
  21808148.520   114602704.31109  21808146.160    89300850.61648
  23534521.580   123674764.70407  23534518.360    96369943.35946
  22571221.120   118612930.26808  22571218.140    92425813.89447
  22019547.100   115713540.17309  22019543.360    90166402.81248
  21647789.360   113760003.71209  21647789.200    88644179.47748
 15 03 06 00 30 30.0000000  0  6G16G18G19G21G22G27
  20610943.680   108311256.53809  20610940.960    84398379.50349
  21805638.720   114589515.49409  21805636.380    89290573.62848
  23520911.640   123603244.07107  23520908.360    96314213.01646
  22583941.300   118679775.08908  22583938.260    92477900.75947
  22005484.520   115639641.01909  22005480.820    90108819.10548
  21638411.760   113710724.17109  21638411.600    88605779.84148
 15 03 06 00 31  0.0000000  0  6G16G18G19G21G22G27
  20605245.520   108281312.53109  20605242.780    84375046.50449
  21803220.360   114576807.08709  21803218.060    89280670.97948
  23507315.480   123531795.59707  23507311.960    96258538.89746
  22596684.880   118746742.95908  22596681.840    92530083.50147
  21991480.960   115566052.03709  21991477.300    90051477.08248
  21629056.780   113661563.31409  21629056.620    88567472.67548
 15 03 06 00 31 30.0000000  0  6G16G18G19G21G22G27
  20599638.980   108251850.02309  20599636.260    84352088.71349
  21800894.400   114564583.89509  21800892.040    89271146.43748
  23493733.720   123460422.92207  23493730.240    96202923.86046
  22609452.380   118813836.69508  22609449.380    92582364.33947
  21977537.660   115492779.71209  21977533.960    89994381.81748
  21619725.140   113612525.41209  21619725.060    88529261.33948
 15 03 06 00 32  0.0000000  0  6G16G18G19G21G22G27
  20594124.560   108222871.69409  20594121.880    84329508.19049
  21798660.940   114552846.88409  21798658.580    89262000.72048
  23480166.420   123389126.70707  23480162.900    96147368.38546
  22622243.540   118881054.66308  22622240.540    92634741.96247
  21963655.240   115419827.43609  21963651.520    89937535.92448
  21610417.100   113563611.37109  21610417.040    88491146.50048
 15 03 06 00 32 30.0000000  0  6G16G18G19G21G22G27
  20588702.280   108194377.54709  20588699.600    84307304.95849
  21796519.780   114541594.98309  21796517.420    89253233.01948
  23466613.320   123317905.39507  23466609.880    96091871.29246
  22635057.720   118948393.86708  22635054.840    92687214.06347
  21949833.840   115347195.85409  21949830.120    89880939.93048
  21601132.400   113514819.92509  21601132.300    88453127.20248
 15 03 06 00 33  0.0000000  0  6G16G18G19G21G22G27
  20583372.300   108166368.38409  20583369.600    84285479.63049
  21794470.920   114530828.34509  21794468.560    89244843.44048
  23453074.420   123246758.60307  23453071.260    96036432.27746
  22647894.520   119015851.75708  22647891.660    92739778.63747
  21936073.880   115274886.74209  21936070.120    89824595.20648
  21591871.040   113466151.05509  21591870.880    88415203.40948
 15 03 06 00 33 30.0000000  0  6G16G18G19G21G22G27
  20578134.760   108138845.00709  20578132.100    84264032.84149
  21792514.260   114520546.60109  21792512.000    89236831.70548
  23439549.660   123175685.50408  23439546.580    95981050.67747
  22660753.600   119083426.70708  22660750.720    92792434.43347
  21922375.520   115202901.58209  21922371.760    89768502.91848
  21582632.880   113417604.20409  21582632.740    88377374.70748
 15 03 06 00 34  0.0000000  0  6G16G18G19G21G22G27
  20572990.020   108111809.35009  20572987.420    84242966.09349
  21790650.200   114510751.42509  21790648.000    89229199.11148
  23426039.220   123104687.01907  23426036.000    95925727.20946
  22673634.720   119151117.48408  22673631.880    92845180.48447
  21908739.540   115131244.03909  21908735.760    89712665.91548
  21573418.240   113369181.00209  21573418.160    88339642.34349
 15 03 06 00 34 30.0000000  0  6G16G18G19G21G22G27
  20567939.000   108085266.11309  20567936.420    84222283.04749
  21788879.200   114501445.17509  21788877.060    89221947.49548
  23412543.420   123033765.60907  23412540.120    95870463.80346
  22686538.120   119218925.14308  22686535.300    92898017.61147
  21895166.820   115059919.08209  21895163.040    89657088.07248
  21564227.600   113320883.92109  21564227.520    88302008.25849
 15 03 06 00 35  0.0000000  0  6G16G18G19G21G22G27
  20562981.780   108059215.72209  20562979.200    84201984.03949
  21787201.340   114492628.09509  21787199.220    89215077.05848
  23399062.040   122962920.75007  23399058.740    95815260.06047
  22699463.320   119286847.28608  22699460.420    92950943.94647
  21881657.660   114988928.11909  21881653.840    89601770.48148
  21555060.960   113272712.89209  21555060.880    88264472.40048
 15 03 06 00 35 30.0000000  0  6G16G18G19G21G22G27
  20558118.520   108033659.03209  20558115.960    84182069.73349
  21785616.680   114484300.47409  21785614.500    89208588.01748
  23385595.020   122892151.67307  23385591.560    95760115.35946
  22712409.760   119354881.08508  22712406.760    93003957.28347
  21868212.400   114918272.94109  21868208.560    89546714.54548
  21545918.240   113224667.71009  21545918.140    88227034.60048
 15 03 06 00 36  0.0000000  0  6G16G18G19G21G22G27
  20553349.260   108008596.21709  20553346.700    84162540.25749
  21784124.920   114476460.80709  21784122.600    89202479.19248
  23372142.260   122821457.35207  23372138.640    95705028.89446
  22725377.020   119423024.28808  22725373.920    93057055.87147
  21854831.260   114847954.70409  21854827.420    89491921.15548
  21536799.300   113176747.41809  21536799.180    88189694.10848
 15 03 06 00 36 30.0000000  0  6G16G18G19G21G22G27
  20548674.500   107984030.06209  20548671.940    84143397.79849
  21782726.480   114469111.38809  21782724.080    89196752.38848
  23358704.020   122750839.18707  23358700.420    95650001.79547
  22738365.000   119491276.64708  22738361.920    93110239.52347
  21841514.980   114777977.29909  21841511.140    89437393.35148
  21527704.540   113128954.03409  21527704.400    88152452.51949
 15 03 06 00 37  0.0000000  0  6G16G18G19G21G22G27
  20544094.420   107959961.50009  20544091.840    84124643.07549
  21781421.240   114462251.90609  21781418.780    89191407.35648
  23345280.260   122680296.69208  23345276.760    95595033.64847
  22751373.420   119559636.21308  22751370.360    93163506.71647
  21828263.920   114708342.58709  21828260.000    89383132.57848
  21518633.900   113081287.49109  21518633.840    88115309.76849
 15 03 06 00 37 30.0000000  0  6G16G18G19G21G22G27
  20539609.380   107936392.42909  20539606.780    84106277.55749
  21780209.340   114455883.04809  21780206.780    89186444.61148
  23331871.000   122609830.52607  23331867.620    95540124.98247
  22764401.920   119628101.30608  22764398.820    93216856.11747
  21815078.500   114639053.05809  21815074.600    89329140.77448
  21509587.520   113033748.47309  21509587.500    88078266.37748
 15 03 06 00 38  0.0000000  0  6G16G18G19G21G22G27
  20535220.440   107913328.29409  20535217.840    84088305.49149
  21779091.680   114450009.84109  21779089.120    89181868.09548
  23318477.060   122539444.91207  23318473.680    95485279.08246
  22777450.940   119696674.35108  22777447.860    93270289.64347
  21801960.020   114570115.39309  21801956.180    89275423.14648
  21500566.320   112986341.90209  21500566.280    88041326.19848
 15 03 06 00 38 30.0000000  0  6G16G18G19G21G22G27
  20530926.660   107890764.25709  20530924.040    84070723.11249
  21778067.140   114444626.00209  21778064.580    89177672.90648
  23305097.200   122469133.54408  23305093.760    95430491.04247
  22790519.140   119765348.22108  22790516.060    93323801.74447
  21788907.800   114501525.70009  21788903.960    89221976.66548
  21491569.180   112939061.74609  21491569.080    88004484.52049
 15 03 06 00 39  0.0000000  0  6G16G18G19G21G22G27
  20526728.760   107868704.02809  20526726.100    84053533.31749
  21777136.200   114439734.25009  21777133.700    89173861.15748
  23291732.000   122398898.91208  23291728.520    95375762.77847
  22803606.560   119834123.07508  22803603.540    93377392.52547
  21775922.660   114433288.43709  21775918.780    89168804.80648
  21482596.640   112891910.78509  21482596.540    87967743.51449
 15 03 06 00 39 30.0000000  0  6G16G18G19G21G22G27
  20522626.960   107847148.89209  20522624.260    84036737.10749
  21776298.980   114435335.02609  21776296.580    89170433.20848
  23278381.520   122328741.19308  23278377.900    95321094.44646
  22816712.940   119902997.73208  22816709.980    93431061.08747
  21763005.020   114365405.99609  21763001.140    89115909.44148
  21473648.780   112844889.58409  21473648.720    87931103.63449
 15 03 06 00 40  0.0000000  0  6G16G18G19G21G22G27
  20518622.040   107826102.81109  20518619.340    84020337.55849
  21775556.080   114431431.20709  21775553.720    89167391.28448
  23265046.020   122258662.68607  23265042.400    95266487.85046
  22829838.520   119971973.16308  22829835.600    93484808.16547
  21750155.840   114297883.43309  21750152.000    89063294.48948
  21464726.180   112798001.09109  21464726.160    87894567.15449
 15 03 06 00 40 30.0000000  0  6G16G18G19G21G22G27
  20514713.980   107805565.69409  20514711.280    84004334.59749
  21774907.260   114428021.69309  21774904.920    89164734.52048
  23251725.300   122188662.56607  23251721.960    95211942.35947
  22842982.700   120041046.30808  22842979.760    93538631.37747
  21737375.300   114230721.70709  21737371.540    89010960.70748
  21455828.800   112751244.80709  21455828.720    87858133.67649
 15 03 06 00 41  0.0000000  0  6G16G18G19G21G22G27
  20510902.920   107785538.30209  20510900.220    83988728.83549
  21774352.400   114425105.76609  21774350.040    89162462.38348
  23238419.340   122118740.15207  23238416.160    95157457.40646
  22856145.120   120110215.31608  22856142.280    93592529.29947
  21724663.760   114163922.33109  21724660.040    88958909.28748
  21446956.480   112704620.39909  21446956.380    87821802.97149
 15 03 06 00 41 30.0000000  0  6G16G18G19G21G22G27
  20507188.860   107766020.79009  20507186.140    83973520.38249
  21773891.400   114422683.05809  21773888.980    89160574.57348
  23225128.140   122048894.64508  23225124.900    95103032.37746
  22869325.200   120179477.19808  22869322.460    93646499.59147
  21712021.520   114097486.84909  21712017.780    88907141.41148
  21438109.120   112658127.40209  21438109.040    87785574.66949
 15 03 06 00 42  0.0000000  0  6G16G18G19G21G22G27
  20503571.800   107747012.91209  20503569.080    83958709.03449
  21773524.040   114420752.46809  21773521.620    89159070.22348
  23211851.440   121979124.61608  23211847.960    95048666.13747
  22882522.520   120248829.47508  22882519.800    93700540.31447
  21699448.660   114031415.98909  21699444.900    88855657.65148
  21429286.620   112611764.88609  21429286.540    87749448.03749
 15 03 06 00 42 30.0000000  0  6G16G18G19G21G22G27
  20500052.740   107728520.02709  20500050.000    83944298.99249
  21773251.160   114419318.24509  21773248.720    89157952.66248
  23198589.980   121909434.48508  23198586.240    94994362.14347
  22895737.440   120318274.36908  22895734.600    93754653.21247
  21686946.300   113965715.77309  21686942.520    88804462.71648
  21420489.880   112565537.37709  21420489.760    87713426.60149
 15 03 06 00 43  0.0000000  0  6G16G18G19G21G22G27
  20496631.960   107710543.93509  20496629.280    83930291.64349
  21773072.760   114418380.74209  21773070.320    89157222.15248
  23185343.640   121839824.48808  23185339.940    94940120.61547
  22908969.740   120387810.53008  22908966.880    93808837.21847
  21674515.000   113900388.89809  21674511.220    88753558.69148
  21411718.960   112519445.86609  21411718.860    87677511.13649
 15 03 06 00 43 30.0000000  0  6G16G18G19G21G22G27
  20493309.520   107693084.49709  20493306.860    83916686.88349
  21772988.700   114417939.05109  21772986.260    89156877.98548
  23172112.280   121770293.69507  23172108.700    94885940.81547
  22922218.940   120457435.62308  22922216.120    93863090.52447
  21662154.960   113835436.64109  21662151.160    88702946.56948
  21402973.760   112473489.59009  21402973.680    87641701.04949
 15 03 06 00 44  0.0000000  0  6G16G18G19G21G22G27
  20490085.540   107676142.57309  20490082.920    83903485.37349
  21772998.940   114417992.87009  21772996.480    89156919.93348
  23158895.960   121700842.16907  23158892.680    94831822.79247
  22935484.720   120527147.66508  22935481.900    93917411.58347
  21649866.680   113770861.15209  21649862.780    88652628.04148
  21394254.400   112427669.15209  21394254.340    87605996.81749
 15 03 06 00 44 30.0000000  0  6G16G18G19G21G22G27
  20486959.880   107659717.25009  20486957.320    83890686.41249
  21773103.120   114418540.44209  21773100.660    89157346.61848
  23145694.440   121631467.76308  23145691.120    94777764.84847
  22948766.400   120596943.29808  22948763.580    93971797.78146
  21637650.020   113706662.16509  21637646.080    88602602.88348
  21385560.600   112381982.78809  21385560.500    87570397.05349
 15 03 06 00 45  0.0000000  0  6G16G18G19G21G22G27
  20483933.000   107643811.10109  20483930.500    83878292.00649
  21773301.560   114419583.18109  21773299.060    89158159.15648
  23132507.940   121562171.90708  23132504.400    94723768.08946
  22962064.000   120666822.33708  22962061.080    94026248.96446
  21625505.680   113642843.10909  21625501.680    88552873.78148
  21376892.620   112336432.24809  21376892.520    87534903.12449
 15 03 06 00 45 30.0000000  0  6G16G18G19G21G22G27
  20481005.920   107628429.23409  20481003.440    83866306.13149
  21773594.960   114421124.92909  21773592.440    89159360.52948
  23119337.100   121492958.52608  23119333.360    94669835.61147
  22975377.900   120736787.24408  22975375.040    94080767.06547
  21613434.840   113579410.44309  21613430.840    88503445.75948
  21368251.360   112291022.27009  21368251.280    87499518.73449
 15 03 06 00 46  0.0000000  0  6G16G18G19G21G22G27
  20478178.420   107613570.64209  20478175.940    83854728.01249
  21773982.920   114423163.78009  21773980.380    89160949.26048
  23106181.620   121423825.96708  23106177.840    94615966.11447
  22988707.440   120806834.32808  22988704.600    94135349.20846
  21601437.520   113516364.14609  21601433.500    88454318.81448
  21359636.540   112245751.24309  21359636.480    87464242.62149
 15 03 06 00 46 30.0000000  0  6G16G18G19G21G22G27
  20475450.500   107599235.07609  20475447.980    83843557.42749
  21774465.180   114425698.29509  21774462.640    89162924.20848
  23093041.300   121354773.10408  23093037.500    94562158.69647
  23002052.040   120876960.49908  23002049.160    94189992.96346
  21589513.880   113453705.02909  21589509.840    88405493.54748
  21351048.060   112200618.46009  21351048.000    87429074.21949
 15 03 06 00 47  0.0000000  0  6G16G18G19G21G22G27
  20472822.400   107585424.25709  20472819.860    83832795.75049
  21775041.920   114428729.47009  21775039.460    89165286.18048
  23079916.320   121285800.77608  23079912.540    94508414.05647
  23015411.620   120947165.49708  23015408.660    94244698.15547
  21577664.380   113391435.69109  21577660.340    88356972.02048
  21342486.140   112155625.16709  21342486.040    87394014.52249
 15 03 06 00 47 30.0000000  0  6G16G18G19G21G22G27
  20470294.820   107572141.46709  20470292.220    83822445.50749
  21775713.560   114432259.29309  21775711.180    89168036.68748
  23066807.060   121216911.33708  23066803.400    94454733.98747
  23028786.320   121017449.92008  23028783.360    94299465.21747
  21565889.960   113329561.06109  21565885.900    88308758.04548
  21333951.240   112110774.18809  21333951.160    87359065.70549
 15 03 06 00 48  0.0000000  0  6G16G18G19G21G22G27
  20467867.400   107559385.09909  20467864.760    83812505.48049
  21776479.580   114436285.24709  21776477.300    89171173.81048
  23053713.000   121148102.23108  23053709.460    94401116.54147
  23042175.300   121087809.61908  23042172.500    94354290.94446
  21554190.440   113268080.12309  21554186.440    88260850.85648
  21325443.060   112066063.41909  21325442.980    87324226.15749
 15 03 06 00 48 30.0000000  0  7G04G16G18G19G21G22G27
  24595301.640   129249169.41207  24595306.280   100713653.92044
  20465540.700   107547158.29509  20465538.060    83802978.08849
  21777340.400   114440809.22309  21777338.180    89174698.99248
  23040634.640   121079375.53708  23040631.140    94347563.28147
  23055578.680   121158245.05608  23055575.920    94409175.68046
  21542566.620   113206996.98409  21542562.700    88213253.62648
  21316962.080   112021495.59409  21316962.000    87289497.98449
 15 03 06 00 49  0.0000000  0  7G04G16G18G19G21G22G27
  24576604.180   129150915.23107  24576609.700   100637092.47245
  20463316.040   107535467.59609  20463313.400    83793868.44449
  21778297.000   114445836.20509  21778294.820    89178616.12648
  23027573.180   121010737.22508  23027569.700    94294078.88447
  23068997.360   121228760.61108  23068994.500    94464122.85546
  21531020.040   113146319.58509  21531016.100    88165972.55748
  21308509.440   111977076.79509  21308509.340    87254885.93149
 15 03 06 00 49 30.0000000  0  7G04G16G18G19G21G22G27
  24557933.560   129052801.89506  24557939.420   100560640.89344
  20461190.480   107524297.77109  20461187.900    83785164.68149
  21779346.480   114451350.97109  21779344.260    89182913.35648
  23014525.640   120942171.57908  23014521.960    94240651.12547
  23082427.940   121299338.75408  23082425.080    94519118.80947
  21519548.060   113086034.02109  21519544.120    88118996.81948
  21300082.280   111932791.72809  21300082.160    87220378.09549
 15 03 06 00 50  0.0000000  0  7G04G16G18G19G21G22G27
  24539292.560   128954845.85306  24539298.500   100484311.93345
  20459167.180   107513665.29509  20459164.640    83776879.62849
  21780491.640   114457368.52009  21780489.380    89187602.37048
  23001494.800   120873694.03408  23001491.100    94187292.01847
  23095873.060   121369993.36308  23095870.260    94574174.32447
  21508153.920   113026157.70009  21508150.000    88072339.97548
  21291683.600   111888656.36909  21291683.480    87185986.90649
 15 03 06 00 50 30.0000000  0  7G04G16G18G19G21G22G27
  24520680.220   128857041.17406  24520686.480   100408100.96844
  20457245.060   107503564.51009  20457242.540    83769008.87849
  21781731.200   114463882.03109  21781728.840    89192677.83748
  22988479.500   120805298.17408  22988475.780    94133996.56247
  23109331.160   121440716.27608  23109328.420    94629283.06746
  21496836.820   112966685.94609  21496832.880    88025998.37348
  21283312.260   111844664.61809  21283312.160    87151707.62349
 15 03 06 00 51  0.0000000  0  7G04G16G18G19G21G22G27
  24502096.960   128759388.84506  24502103.560   100332008.60245
  20455424.300   107493996.40909  20455421.760    83761553.20749
  21783065.120   114470891.49509  21783062.680    89198139.76948
  22975479.700   120736984.10508  22975476.020    94080764.84947
  23122802.080   121511506.49908  23122799.300    94684444.26746
  21485597.120   112907620.75009  21485593.100    87979973.57248
  21274968.420   111800817.33209  21274968.320    87117540.91349
 15 03 06 00 51 30.0000000  0  7G04G16G18G19G21G22G27
  24483542.920   128661888.56707  24483549.580   100256034.73645
  20453704.780   107484960.26809  20453702.260    83754512.05249
  21784493.020   114478395.02609  21784490.520    89203986.68648
  22962495.300   120668750.68808  22962491.640    94027595.97247
  23136285.220   121582360.79708  23136282.400    94739655.40246
  21474434.920   112848962.84609  21474430.840    87934266.14748
  21266651.880   111757113.45909  21266651.780    87083485.95249
 15 03 06 00 52  0.0000000  0  7G04G16G18G19G21G22G27
  24465019.020   128564546.03907  24465025.840   100180183.82845
  20452087.640   107476461.97709  20452085.120    83747889.99349
  21786015.760   114486397.13409  21786013.220    89210222.09748
  22949527.240   120600602.94408  22949523.740    93974493.84247
  23149781.280   121653282.77608  23149778.460    94794919.26846
  21463351.500   112790719.01809  21463347.380    87888881.36848
  21258363.680   111713558.66409  21258363.600    87049547.15249
 15 03 06 00 52 30.0000000  0  7G04G16G18G19G21G22G27
  24446524.820   128467359.72606  24446531.480   100104454.68145
  20450572.500   107468499.76809  20450569.960    83741685.67049
  21787632.960   114494895.74509  21787630.420    89216844.40048
  22936575.100   120532538.72108  22936571.460    93921456.81747
  23163289.440   121724268.39708  23163286.700    94850232.72946
  21452346.700   112732888.53509  21452342.580    87843818.68148
  21250103.460   111670151.02209  21250103.380    87015723.02249
 15 03 06 00 53  0.0000000  0  7G04G16G18G19G21G22G27
  24428060.720   128370332.02606  24428067.180   100028849.14445
  20449159.840   107461076.02709  20449157.220    83735900.92449
  21789344.740   114503891.35709  21789342.180    89223853.97448
  22923639.140   120464559.74008  22923635.340    93868486.19747
  23176809.700   121795317.77208  23176807.000    94905595.87046
  21441421.280   112675475.08409  21441417.140    87799080.95348
  21241871.620   111626892.57909  21241871.540    86982015.14449
 15 03 06 00 53 30.0000000  0  7G04G16G18G19G21G22G27
  24409626.520   128273462.92206  24409633.000    99953367.20944
  20447849.660   107454190.70909  20447846.960    83730535.73349
  21791150.900   114513382.99909  21791148.360    89231250.06548
  22910719.140   120396665.03908  22910715.260    93815581.26446
  23190341.720   121866428.90708  23190338.940    94961007.12946
  21430575.500   112618480.00209  21430571.340    87754669.21948
  21233668.180   111583783.24309  21233668.080    86948423.45649
 15 03 06 00 54  0.0000000  0  7G04G16G18G19G21G22G27
  24391222.920   128176754.52306  24391229.240    99878010.51444
  20446642.180   107447845.22209  20446639.460    83725591.19449
  21793051.660   114523371.65209  21793049.100    89239033.44948
  22897815.440   120328856.11608  22897811.580    93762743.17347
  23203885.380   121937601.28408  23203882.560    95016466.12046
  21419809.800   112561905.95009  21419805.680    87710585.56948
  21225493.440   111540824.65709  21225493.360    86914949.24149
 15 03 06 00 54 30.0000000  0  7G04G16G18G19G21G22G27
  24372849.660   128080204.16606  24372855.840    99802776.85944
  20445537.040   107442037.49309  20445534.320    83721065.67449
  21795046.260   114533853.38309  21795043.640    89247201.03248
  22884927.520   120261129.78708  22884923.620    93709969.42447
  23217439.720   122008829.92908  23217436.900    95071968.95046
  21409123.940   112505751.56409  21409119.880    87666828.92148
  21217346.840   111498014.14609  21217346.780    86881590.40149
 15 03 06 00 55  0.0000000  0  7G04G16G18G19G21G22G27
  24354507.620   127983816.80707  24354513.400    99727670.25244
  20444535.120   107436772.32309  20444532.400    83716962.93549
  21797135.440   114544832.20009  21797132.840    89255755.96348
  22872056.140   120193490.19408  22872052.300    93657263.28347
  23231005.300   122080117.63008  23231002.460    95127517.79446
  21398519.040   112450022.70909  21398515.060    87623403.86448
  21209229.320   111455356.36109  21209229.320    86848350.57549
 15 03 06 00 55 30.0000000  0  7G04G16G18G19G21G22G27
  24336196.200   127887590.39406  24336201.860    99652689.03744
  20443635.920   107432047.04309  20443633.220    83713280.89449
  21799318.600   114556304.90209  21799316.040    89264695.74248
  22859200.740   120125934.47208  22859196.960    93604622.48347
  23244581.360   122151460.34108  23244578.620    95183109.50446
  21387994.940   112394718.37909  21387991.000    87580309.60348
  21201140.440   111412849.03109  21201140.400    86815227.99249
 15 03 06 00 56  0.0000000  0  7G04G16G18G19G21G22G27
  24317916.400   127791531.05507  24317922.040    99577838.04845
  20442840.640   107427867.80809  20442837.940    83710024.34149
  21801596.640   114568276.25109  21801594.100    89274024.07248
  22846362.400   120058468.43708  22846358.720    93552051.59047
  23258168.600   122222861.46208  23258165.860    95238746.73346
  21377552.980   112339845.71909  21377549.060    87537551.71148
  21193081.300   111370498.09009  21193081.240    86782227.25749
 15 03 06 00 56 30.0000000  0  7G04G16G18G19G21G22G27
  24299667.740   127695635.99906  24299673.560    99503115.03945
  20442148.620   107424231.22809  20442145.940    83707190.62849
  21803968.720   114580741.68109  21803966.220    89283737.40548
  22833540.400   119991088.69108  22833536.700    93499547.92147
  23271766.040   122294316.31308  23271763.260    95294425.82346
  21367192.760   112285402.67409  21367188.840    87495128.58248
  21185051.360   111328300.58109  21185051.300    86749346.08849
 15 03 06 00 57  0.0000000  0  7G04G16G18G19G21G22G27
  24281450.800   127599908.80106  24281456.980    99428522.88045
  20441560.600   107421141.13609  20441557.920    83704782.75849
  21806435.320   114593703.71509  21806432.840    89293837.70148
  22820735.340   119923797.88508  22820731.620    93447113.56247
  23285373.920   122365825.99508  23285371.140    95350147.65146
  21356915.200   112231393.81809  21356911.260    87453043.78148
