     2.11           OBSERVATION DATA    G                   RINEX VERSION / TYPE
SPIDER V4,0,0,3554                      2015 03 17 00:07    PGM / RUN BY / DATE 
AKET                                                        MARKER NAME         
AKET                                                        MARKER NUMBER       
                                                            OBSERVER / AGENCY   
496661              LEICA GRX1200+GNSS  8.20/4.007          REC # / TYPE / VERS 
10271023            LEIAR25         NONE                    ANT # / TYPE        
  5151584.4739   350346.6892  3733756.9574                  APPROX POSITION XYZ 
        0.0480        0.0000        0.0000                  ANTENNA: DELTA H/E/N
     1     1                                                WAVELENGTH FACT L1/2
     4    C1    L1    P2    L2                              # / TYPES OF OBSERV 
    30.000                                                  INTERVAL            
  2015    03    06    08    00    0.0000000     GPS         TIME OF FIRST OBS   
  2015    03    06    23    59   30.0000000     GPS         TIME OF LAST OBS    
    16                                                      LEAP SECONDS        
    27                                                      # OF SATELLITES     
   G 1    52    52    52    52                              PRN / # OF OBS      
   G 2   860   859   858   858                              PRN / # OF OBS      
   G 3   251   251   251   251                              PRN / # OF OBS      
   G 5   589   589   588   588                              PRN / # OF OBS      
   G 6   598   598   598   598                              PRN / # OF OBS      
   G 7   573   573   573   573                              PRN / # OF OBS      
   G 9   548   548   548   548                              PRN / # OF OBS      
   G10   621   621   621   621                              PRN / # OF OBS      
   G12   780   780   780   780                              PRN / # OF OBS      
   G13   757   757   752   752                              PRN / # OF OBS      
   G14   468   468   468   468                              PRN / # OF OBS      
   G15   647   647   644   644                              PRN / # OF OBS      
   G16   241   241   241   241                              PRN / # OF OBS      
   G17   513   511   511   511                              PRN / # OF OBS      
   G18   468   467   467   467                              PRN / # OF OBS      
   G19    16    16    15    15                              PRN / # OF OBS      
   G20   592   592   591   591                              PRN / # OF OBS      
   G21   350   348   348   346                              PRN / # OF OBS      
   G22    97    97    96    96                              PRN / # OF OBS      
   G23   363   363   363   363                              PRN / # OF OBS      
   G24   774   774   772   772                              PRN / # OF OBS      
   G25   768   768   768   768                              PRN / # OF OBS      
   G27   190   189   189   189                              PRN / # OF OBS      
   G28   521   521   521   521                              PRN / # OF OBS      
   G29   659   658   658   658                              PRN / # OF OBS      
   G30   624   624   624   624                              PRN / # OF OBS      
   G31   521   521   521   521                              PRN / # OF OBS      
BIT 2 OF LLI FLAGS DATA COLLECTED UNDER A/S CONDITION       COMMENT             
SNR is mapped to RINEX snr flag value [2-9]                 COMMENT             
Lx:     = 25dBHz -> 1; 26-27dBHz -> 2; 28-31dBHz -> 3       COMMENT             
       32-35dBHz -> 4; 36-38dBHz -> 5; 39-41dBHz -> 6       COMMENT             
       42-44dBHz -> 7; 45-48dBHz -> 8; >=49dBHz -> 9        COMMENT             
                                                            END OF HEADER       
 15 03 06 08 00  0.0000000  0  8G01G03G06G09G10G17G20G23
  22524195.340   118365444.30709  22524198.860    92232827.80747
  21323499.620   112055746.15809  21323501.080    87316170.91148
  22297948.660   117176511.96008  22297951.680    91306384.62448
  20688558.560   108719107.52609  20688559.320    84716193.13748
  23331887.520   122609889.75308  23331889.620    95540175.98745
  22315969.580   117271211.72709  22315969.700    91380163.38947
  22916700.640   120428075.08508  22916700.160    93840053.61346
  20517526.600   107820329.70609  20517522.480    84015824.61848
 15 03 06 08 00 30.0000000  0  8G01G03G06G09G10G17G20G23
  22541114.960   118454357.26009  22541118.460    92302110.47947
  21331336.180   112096927.66309  21331337.640    87348260.29148
  22281847.100   117091897.52308  22281850.100    91240451.28848
  20680588.060   108677222.45209  20680588.960    84683555.38249
  23316718.840   122530178.03508  23316720.440    95478062.92845
  22325054.440   117318953.30409  22325054.640    91417364.50548
  22902480.080   120353346.07708  22902479.860    93781823.19846
  20520555.780   107836248.31909  20520551.700    84028228.66348
 15 03 06 08 01  0.0000000  0  8G01G03G06G09G10G17G20G23
  22558089.460   118543558.76208  22558093.040    92371618.01047
  21339206.440   112138286.47709  21339207.980    87380487.84248
  22265794.520   117007540.41708  22265797.500    91174718.47048
  20672703.600   108635789.18809  20672704.480    84651269.67549
  23301568.760   122450564.28508  23301570.120    95416026.23945
  22334226.540   117367153.49309  22334226.840    91454922.98748
  22888275.480   120278700.64708  22888275.340    93723657.90746
  20523664.300   107852583.89709  20523660.220    84040957.62148
 15 03 06 08 01 30.0000000  0  8G01G03G06G09G10G17G20G23
  22575117.700   118633042.73609  22575121.420    92441345.64847
  21347109.520   112179818.05509  21347111.160    87412850.01648
  22249790.480   116923438.57708  22249793.480    91109184.56148
  20664904.260   108594803.36709  20664905.240    84619332.64749
  23286436.740   122371044.45008  23286437.760    95354062.73745
  22343484.600   117415805.10808  22343484.960    91492833.22648
  22874086.140   120204134.87008  22874085.760    93665554.69746
  20526850.980   107869330.34909  20526847.040    84054006.75648
 15 03 06 08 02  0.0000000  0  8G01G03G06G09G10G17G20G23
  22592199.700   118722808.85809  22592203.500    92511293.15747
  21355045.740   112221523.56709  21355047.480    87445347.74248
  22233835.680   116839595.66808  22233838.740    91043852.42048
  20657190.300   108554266.37009  20657191.380    84587745.35049
  23271323.000   122291620.07008  23271324.180    95292173.61446
  22352828.400   117464906.95009  22352828.720    91531094.31248
  22859912.340   120129650.31508  22859911.600    93607514.76146
  20530115.760   107886487.73809  20530112.080    84067376.10648
 15 03 06 08 02 30.0000000  0  8G01G03G06G09G10G17G20G23
  22609335.760   118812858.94309  22609339.560    92581461.93648
  21363015.740   112263406.42509  21363017.560    87477983.67848
  22217931.220   116756017.57908  22217934.300    90978726.63448
  20649562.420   108514181.73709  20649563.460    84556510.54049
  23256228.120   122212294.93308  23256229.480    95230361.85746
  22362258.120   117514460.21409  22362258.320    91569707.15348
  22845754.660   120055250.68708  22845753.600    93549541.02546
  20533459.200   107904058.22009  20533455.740    84081067.35648
 15 03 06 08 03  0.0000000  0  8G01G03G06G09G10G17G20G23
  22626525.800   118903192.75608  22626529.580    92651851.78348
  21371019.700   112305467.90809  21371021.720    87510758.78448
  22202077.940   116672708.14408  22202080.980    90913810.17148
  20642020.840   108474550.92409  20642021.960    84525629.37149
  23241152.540   122133071.00108  23241153.380    95168628.89646
  22371773.660   117564463.83109  22371773.840    91608670.91848
  22831613.540   119980937.82809  22831612.120    93491634.89046
  20536881.340   107922041.71109  20536877.920    84095080.42548
 15 03 06 08 03 30.0000000  0  8G01G03G06G09G10G17G20G23
  22643768.960   118993805.82108  22643772.780    92722459.24548
  21379057.020   112347705.19709  21379059.280    87543670.89248
  22186275.720   116589666.94908  22186278.720    90849102.75648
  20634565.100   108435371.17909  20634566.240    84495099.67949
  23226095.740   122053945.47808  23226096.180    95106972.63845
  22381374.020   117614912.85009  22381374.020    91647981.76048
  22817488.460   119906709.18208  22817486.580    93433794.36946
  20540381.340   107940433.92209  20540377.740    84109411.99248
 15 03 06 08 04  0.0000000  0  8G01G03G06G09G10G17G20G23
  22661065.720   119084700.63808  22661069.580    92793286.24848
  21387128.620   112390122.31709  21387131.080    87576723.12148
  22170525.820   116506900.51308  22170528.660    90784609.41948
  20627196.040   108396646.67609  20627197.240    84464924.73549
  23211058.480   121974922.78708  23211059.320    95045396.55045
  22391059.340   117665808.47009  22391059.100    91687640.60748
  22803380.080   119832569.48408  22803378.280    93376023.21346
  20543959.640   107959237.64509  20543955.900    84124064.21148
 15 03 06 08 04 30.0000000  0  8G01G03G06G09G10G17G20G23
  22678414.480   119175868.52709  22678418.400    92864326.03948
  21395233.260   112432712.22809  21395235.740    87609910.00348
  22154827.420   116424404.28609  22154830.020    90720326.64748
  20619912.320   108358370.41909  20619913.480    84435099.07449
  23196039.300   121895996.20608  23196040.400    94983895.33046
  22400827.820   117717141.14109  22400827.360    91727640.01348
  22789287.240   119758511.96908  22789285.460    93318316.08346
  20547614.680   107978444.63409  20547610.720    84139030.66348
 15 03 06 08 05  0.0000000  0  8G01G03G06G09G10G17G20G23
  22695815.360   119267310.05209  22695819.260    92935579.05248
  21403371.320   112475477.06509  21403373.740    87643233.20048
  22139181.320   116342182.89809  22139183.760    90656258.03548
  20612714.320   108320544.61309  20612715.420    84405624.41049
  23181038.940   121817168.48008  23181039.640    94922471.09746
  22410679.400   117768910.62109  22410678.880    91767979.77548
  22775210.500   119684539.11008  22775208.980    93260674.90646
  20551346.580   107998055.48309  20551342.520    84154311.81148
 15 03 06 08 05 30.0000000  0  8G01G03G06G09G10G17G20G23
  22713268.640   119359027.20009  22713272.580    93007046.85347
  21411543.300   112518420.47909  21411545.720    87676695.55248
  22123588.660   116260242.47008  22123591.020    90592408.35748
  20605602.700   108283172.92209  20605603.720    84376503.61848
  23166058.180   121738443.48008  23166058.660    94861126.96445
  22420614.240   117821118.32109  22420613.840    91808661.00247
  22761150.800   119610655.38508  22761149.600    93203103.19346
  20555155.740   108018072.60209  20555151.620    84169909.54748
 15 03 06 08 06  0.0000000  0  8G01G03G06G09G10G17G20G23
  22730773.060   119451013.15108  22730776.980    93078724.10347
  21419748.320   112561537.29109  21419750.540    87710293.02048
  22108048.900   116178580.35409  22108051.300    90528775.54548
  20598576.600   108246250.19909  20598577.480    84347732.65949
  23151095.980   121659816.52208  23151097.220    94799859.26846
  22430630.940   117873756.36409  22430630.720    91849677.59748
  22747107.080   119536855.78208  22747106.080    93145597.01346
  20559040.900   108038489.47609  20559036.760    84185818.76748
 15 03 06 08 06 30.0000000  0  8G01G03G06G09G10G17G20G23
  22748329.560   119543272.69809  22748333.460    93150614.54447
  21427987.540   112604833.92809  21427989.560    87744030.61848
  22092563.740   116097205.41208  22092566.260    90465366.50048
  20591637.120   108209782.88309  20591637.880    84319316.56649
  23136153.620   121581294.32408  23136155.260    94738673.14446
  22440730.280   117926828.77209  22440730.180    91891032.61848
  22733080.740   119463147.12008  22733079.740    93088161.69646
  20563003.080   108059310.98809  20562998.980    84202043.29148
 15 03 06 08 07  0.0000000  0  8G01G03G06G09G10G17G20G23
  22765936.420   119635796.84309  22765940.300    93222711.16747
  21436259.580   112648303.00909  21436261.360    87777902.57448
  22077132.300   116016112.74209  22077134.860    90402177.43148
  20584782.920   108173763.59309  20584783.620    84291249.58749
  23121229.860   121502869.84108  23121231.240    94677563.13846
  22450910.300   117980325.62408  22450910.200    91932718.39947
  22719070.500   119389522.64609  22719069.560    93030791.98646
  20567040.580   108080528.41709  20567036.580    84218576.32248
 15 03 06 08 07 30.0000000  0  8G01G03G06G09G10G17G20G23
  22783593.780   119728586.26109  22783597.700    93295014.49647
  21444564.880   112691946.89309  21444566.520    87811910.75448
  22061755.460   115935307.18408  22061758.040    90339212.07748
  20578014.320   108138194.62309  20578015.100    84263533.51049
  23106325.080   121424545.76008  23106326.220    94616531.41646
  22461171.040   118034246.51909  22461170.900    91974734.60347
  22705076.860   119315985.39008  22705075.880    92973490.22446
  20571153.540   108102142.37509  20571149.640    84235418.33748
 15 03 06 08 08  0.0000000  0  8G01G03G06G09G10G17G20G23
  22801302.320   119821644.71708  22801306.300    93367527.46847
  21452904.400   112735771.09809  21452906.000    87846059.43448
  22046434.780   115854796.73509  22046437.400    90276476.68348
  20571332.420   108103081.42909  20571333.140    84236172.57749
  23091440.500   121346328.10908  23091441.700    94555582.63445
  22471513.080   118088594.49709  22471512.940    92017083.57347
  22691100.860   119242541.10908  22691099.880    92916260.90246
  20575342.740   108124157.04609  20575338.940    84252572.59348
 15 03 06 08 08 30.0000000  0  8G01G03G06G09G10G17G20G23
  22819059.900   119914961.12808  22819063.980    93440241.44647
  21461276.360   112779766.15809  21461278.040    87880341.25448
  22031168.860   115774574.39608  22031171.580    90213965.78848
  20564735.380   108068414.48309  20564736.180    84209159.37849
  23076574.620   121268208.02108  23076576.200    94494709.88145
  22481934.140   118143357.39509  22481934.060    92059755.90348
  22677140.760   119169180.66708  22677139.800    92859096.95246
  20579606.160   108146561.82909  20579602.460    84270030.84948
 15 03 06 08 09  0.0000000  0  8G01G03G06G09G10G17G20G23
  22836867.180   120008538.86108  22836871.320    93513159.03147
  21469681.780   112823937.13009  21469683.440    87914760.13248
  22015959.180   115694647.67708  22015962.040    90151685.23248
  20558224.240   108034198.75509  20558225.100    84182497.76449
  23061728.500   121190190.87908  23061729.840    94433917.31146
  22492434.700   118198537.89509  22492434.600    92102753.61448
  22663197.780   119095909.73408  22663196.700    92802002.69646
  20583944.500   108169360.53009  20583940.860    84287796.04248
 15 03 06 08 09 30.0000000  0  8G01G03G06G09G10G17G20G23
  22854724.600   120102379.95308  22854728.740    93586281.82947
  21478121.360   112868287.81909  21478123.040    87949319.05148
  22000807.000   115615022.87709  22000809.880    90089639.94848
  20551799.700   108000437.94609  20551800.580    84156190.63949
  23046902.580   121112280.50908  23046903.260    94373207.94646
  22503014.940   118254137.16109  22503014.920    92146077.62548
  22649272.660   119022732.83408  22649271.620    92744981.74546
  20588358.200   108192554.94509  20588354.640    84305869.59248
 15 03 06 08 10  0.0000000  0  8G01G03G06G09G10G17G20G23
  22872630.920   120196478.06008  22872635.040    93659604.90947
  21486594.300   112912813.54809  21486596.060    87984014.36748
  21985711.960   115535697.76509  21985714.640    90027828.20148
  20545460.840   107967127.24509  20545461.700    84130234.25649
  23032096.180   121034472.91108  23032096.620    94312578.71745
  22513673.600   118310147.80409  22513673.420    92189722.20648
  22635364.560   118949645.38608  22635363.680    92688030.48047
  20592846.080   108216139.21909  20592842.580    84324246.93848
 15 03 06 08 10 30.0000000  0  8G01G03G06G09G10G17G20G23
  22890585.560   120290830.32008  22890589.760    93733126.01547
  21495100.420   112957513.20809  21495102.320    88018845.19948
  21970674.320   115456673.71909  21970676.720    89966251.02848
  20539207.380   107934265.41409  20539208.240    84104627.64449
  23017309.340   120956767.21908  23017309.600    94252028.85145
  22524409.800   118366565.75509  22524409.440    92233684.17448
  22621473.300   118876646.70508  22621472.500    92631148.36546
  20597407.640   108240110.54109  20597404.160    84342925.87448
 15 03 06 08 11  0.0000000  0  8G01G03G06G09G10G17G20G23
  22908589.060   120385439.40308  22908593.440    93806847.22147
  21503640.480   113002391.20609  21503642.540    88053815.00648
  21955695.280   115377957.56809  21955697.460    89904913.79248
  20533040.220   107901856.72309  20533040.980    84079374.12049
  23002542.860   120879168.23608  23002543.020    94191562.16346
  22535223.860   118423393.22209  22535223.480    92277965.23948
  22607599.940   118803742.23508  22607599.180    92574339.70147
  20602043.500   108264472.15309  20602040.140    84361908.93148
 15 03 06 08 11 30.0000000  0  8G01G03G06G09G10G17G20G23
  22926640.620   120480300.85508  22926645.140    93880765.08848
  21512213.880   113047444.87109  21512216.160    88088921.68148
  21940774.760   115299549.15109  21940776.860    89843816.33348
  20526958.740   107869898.25909  20526959.660    84054471.44649
  22987796.280   120801673.70508  22987796.480    94131176.85046
  22546114.720   118480624.47609  22546114.240    92322560.94448
  22593744.000   118730929.34308  22593743.300    92517602.38746
  20606752.860   108289219.54909  20606749.520    84381192.59648
 15 03 06 08 12  0.0000000  0  8G01G03G06G09G10G17G20G23
  22944740.000   120575413.20808  22944744.560    93954878.47048
  21520820.700   113092674.49109  21520823.160    88124165.47148
  21925913.200   115221451.15309  21925915.480    89782960.75348
  20520963.000   107838390.13009  20520963.840    84029919.66749
  22973069.680   120724284.34308  22973069.880    94070873.50246
  22557081.920   118538257.24408  22557081.640    92367469.51647
  22579905.720   118658208.79608  22579905.140    92460937.03446
  20611535.360   108314351.54609  20611532.020    84400775.95048
 15 03 06 08 12 30.0000000  0  8G01G03G06G09G10G17G20G23
  22962886.980   120670775.80808  22962891.560    94029186.84148
  21529461.220   113138081.14509  21529463.740    88159547.22448
  21911111.280   115143667.19209  21911113.760    89722349.88148
  20515053.100   107807333.20409  20515053.980    84005719.48849
  22958363.340   120647001.65508  22958363.400    94010653.26746
  22568125.140   118596289.74608  22568124.980    92412689.55147
  22566085.380   118585582.25408  22566084.880    92404344.93546
  20616390.960   108339867.85709  20616387.600    84420658.77348
 15 03 06 08 13  0.0000000  0  8G01G03G06G09G10G17G20G23
  22981080.700   120766383.84008  22981085.300    94103686.47748
  21538134.940   113183661.88309  21538137.440    88195064.61748
  21896369.140   115066196.70009  21896371.560    89661983.26848
  20509228.460   107776724.30409  20509229.220    83981868.40149
  22943676.820   120569823.14508  22943676.840    93950514.19346
  22579243.440   118654716.53109  22579243.300    92458216.85747
  22552282.600   118513047.36708  22552282.020    92347824.26146
  20621318.860   108365763.96209  20621315.400    84440837.52848
 15 03 06 08 13 30.0000000  0  8G01G03G06G09G10G17G20G23
  22999321.260   120862238.09908  22999325.900    94178377.95148
  21546842.360   113229419.18709  21546844.780    88230719.58948
  21881687.700   114989044.67109  21881689.920    89601864.82448
  20503489.480   107746565.66909  20503490.240    83958368.18249
  22929010.580   120492751.61808  22929010.520    93890458.51946
  22590436.680   118713537.27508  22590436.560    92504051.12847
  22538497.800   118440606.98409  22538497.100    92291377.23446
  20626319.160   108392040.74009  20626315.700    84461312.91148
 15 03 06 08 14  0.0000000  0  8G01G03G06G09G10G17G20G23
  23017608.720   120958338.62008  23017613.360    94253261.33748
  21555583.760   113275355.00009  21555586.200    88266513.65948
  21867067.660   114912215.43809  21867069.740    89541997.91848
  20497836.400   107716858.91909  20497837.240    83935220.07849
  22914365.160   120415789.40308  22914364.840    93830487.98346
  22601704.720   118772751.24409  22601704.680    92550191.79847
  22524731.460   118368263.68008  22524730.540    92235005.84046
  20631391.980   108418698.65709  20631388.560    84482085.29348
 15 03 06 08 14 30.0000000  0  8G01G03G06G09G10G17G20G23
  23035941.480   121054677.19608  23035946.120    94328330.21247
  21564357.920   113321462.82609  21564360.240    88302441.77848
  21852508.140   114835704.95409  21852510.160    89482379.37548
  20492268.040   107687597.30509  20492269.000    83912418.82649
  22899739.280   120338930.39508  22899739.000    93770597.87746
  22613045.780   118832348.79309  22613045.800    92596631.36748
  22510982.260   118296011.34608  22510981.340    92178705.35546
  20636535.760   108445729.38809  20636532.380    84503148.17848
 15 03 06 08 15  0.0000000  0  8G01G03G06G09G10G17G20G23
  23054321.260   121151263.02108  23054325.860    94403591.76147
  21573166.920   113367753.75809  21573169.140    88338512.59148
  21838011.760   114759526.80909  21838013.920    89423019.79848
  20486786.520   107658791.63409  20486787.380    83889972.85049
  22885135.220   120262186.23508  22885135.000    93710797.26645
  22624461.540   118892338.57509  22624461.600    92643376.57647
  22497252.400   118223861.64108  22497251.660    92122484.80946
  20641752.420   108473142.86609  20641749.060    84524509.30348
 15 03 06 08 15 30.0000000  0  8G01G03G06G09G10G17G20G23
  23072746.240   121248086.46408  23072750.860    94479038.46047
  21582009.260   113414219.95909  21582011.400    88374719.96548
  21823577.520   114683675.51109  21823579.980    89363914.90348
  20481390.240   107630433.71009  20481391.020    83867875.76349
  22870551.620   120185549.36008  22870551.480    93651080.21446
  22635949.860   118952709.95709  22635949.920    92690419.13347
  22483540.640   118151807.18208  22483540.060    92066338.49947
  20647040.040   108500929.32909  20647036.700    84546161.05948
 15 03 06 08 16  0.0000000  0  8G01G03G06G09G10G17G20G23
  23091216.080   121345145.50608  23091220.720    94554668.74947
  21590884.900   113460861.23409  21590886.980    88411063.76948
  21809206.020   114608153.37009  21809208.680    89305066.49048
  20476079.040   107602523.09209  20476079.820    83846127.22949
  22855988.360   120109020.02108  22855988.360    93591446.98145
  22647510.160   119013459.78809  22647510.220    92737756.57248
  22469847.080   118079848.32408  22469846.660    92010266.68346
  20652398.400   108529087.13309  20652394.980    84568102.18348
 15 03 06 08 16 30.0000000  0  8G01G03G06G09G10G17G20G23
  23109731.240   121442442.76008  23109735.940    94630484.65947
  21599794.580   113507682.03909  21599796.840    88447547.46448
  21794898.540   114532967.26109  21794901.240    89246479.92648
  20470853.680   107575063.77909  20470854.520    83824730.37249
  22841446.440   120032603.08708  22841446.820    93531901.36646
  22659142.840   119074589.45309  22659142.800    92785389.99448
  22456172.800   118007990.06808  22456172.380    91954273.27047
  20657827.960   108557619.17709  20657824.440    84590334.92048
 15 03 06 08 17  0.0000000  0  8G01G03G06G09G10G17G20G23
  23128290.340   121539970.94008  23128295.080    94706480.50447
  21608737.420   113554676.93809  21608739.760    88484166.80048
  21780654.480   114458114.15409  21780657.060    89188152.84248
  20465713.060   107548050.04809  20465713.940    83803680.71049
  22826925.060   119956293.61108  22826926.020    93472439.47346
  22670846.340   119136091.09309  22670846.140    92833313.27247
  22442516.880   117936227.42908  22442516.300    91898354.34747
  20663327.320   108586518.24409  20663323.720    84612853.64348
 15 03 06 08 17 30.0000000  0  8G01G03G06G09G10G17G20G23
  23146893.660   121637731.46108  23146898.440    94782657.38547
  21617714.060   113601849.25509  21617716.440    88520924.39548
  21766474.780   114383599.84809  21766477.280    89130089.74248
  20460657.780   107521484.77709  20460658.720    83782980.50349
  22812424.860   119880095.01108  22812426.180    93413063.93846
  22682620.620   119197964.79309  22682620.300    92881526.45447
  22428880.000   117864564.35308  22428879.320    91842513.04047
  20668896.820   108615786.06409  20668893.180    84635659.70348
 15 03 06 08 18  0.0000000  0  8G01G03G06G09G10G17G20G23
  23165540.380   121735720.13108  23165545.200    94859012.05846
  21626723.980   113649196.58909  21626726.400    88557818.35348
  21752359.580   114309424.36309  21752362.000    89072290.66748
  20455687.340   107495365.23309  20455688.320    83762627.62449
  22797945.480   119804005.51308  22797946.900    93353773.40446
  22694464.660   119260205.58009  22694464.460    92930025.66447
  22415261.720   117792999.11008  22415260.920    91786747.92046
  20674535.800   108645419.02209  20674532.220    84658750.30248
 15 03 06 08 18 30.0000000  0  8G01G03G06G09G10G17G20G23
  23184231.200   121833940.61208  23184236.040    94935547.36546
  21635768.300   113696724.57009  21635770.660    88594853.09448
  21738310.420   114235595.69209  21738312.900    89014761.83048
  20450802.760   107469696.57409  20450803.680    83742626.08349
  22783487.960   119728030.90908  22783489.300    93294572.43846
  22706379.020   119322816.03808  22706379.040    92978812.94047
  22401663.100   117721537.58208  22401662.300    91731063.64346
  20680245.000   108675420.79209  20680241.400    84682128.28248
 15 03 06 08 19  0.0000000  0  8G01G03G06G09G10G17G20G23
  23202965.880   121932391.49908  23202970.760    95012262.19345
  21644846.980   113744433.63609  21644849.360    88632028.92548
  21724327.800   114162116.72009  21724330.420    88957505.48448
  20446004.060   107444478.79609  20446004.820    83722975.85949
  22769052.500   119652172.36208  22769053.960    93235461.91946
  22718363.280   119385793.74908  22718363.400    93027886.37947
  22388084.260   117650180.77508  22388083.460    91675460.95246
  20686024.220   108705790.28409  20686020.540    84705792.79848
 15 03 06 08 19 30.0000000  0  8G01G03G06G09G10G17G20G23
  23221742.680   122031063.59508  23221747.600    95089149.39745
  21653958.700   113792316.51809  21653961.240    88669340.20248
  21710410.820   114088982.62009  21710413.640    88900517.88048
  20441289.640   107419704.20209  20441290.360    83703670.99749
  22754637.780   119576423.00408  22754639.480    93176436.47446
  22730415.420   119449128.53008  22730415.740    93077238.06047
  22374524.000   117578922.00808  22374523.320    91619934.63447
  20691871.680   108736518.48109  20691867.940    84729736.82348
 15 03 06 08 20  0.0000000  0  8G01G03G06G09G10G17G20G23
  23240561.860   122129958.53607  23240566.760    95166210.22845
  21663104.140   113840376.70009  21663106.860    88706789.60648
  21696560.640   114016199.27709  21696563.520    88843803.58548
  20436660.080   107395375.82309  20436660.800    83684713.83149
  22740244.640   119500786.77708  22740246.200    93117499.16046
  22742535.600   119512820.86808  22742536.140    93126868.34347
  22360983.180   117507765.45908  22360982.700    91564487.99147
  20697787.720   108767607.08909  20697783.880    84753961.68848
 15 03 06 08 20 30.0000000  0  8G01G03G06G09G10G17G20G23
  23259422.880   122229073.20307  23259427.920    95243442.31344
  21672283.200   113888612.97809  21672285.880    88744376.23948
  21682777.500   113943767.90709  21682780.260    88787363.58148
  20432115.140   107371492.00809  20432115.840    83666103.08249
  22725872.900   119425262.91208  22725874.300    93058649.42146
  22754723.100   119576866.63408  22754723.820    93176774.03047
  22347461.740   117436710.33209  22347461.280    91509120.37547
  20703771.820   108799053.71009  20703768.040    84778465.53048
 15 03 06 08 21  0.0000000  0  8G01G03G06G09G10G17G20G23
  23278325.660   122328407.31207  23278330.580    95320845.37245
  21681496.280   113937027.01809  21681498.760    88782101.39748
  21669062.040   113871692.57809  21669064.700    88731200.99948
  20427654.980   107348053.86909  20427655.700    83647839.61149
  22711522.800   119349853.56308  22711524.300    92999888.91346
  22766977.700   119641264.62908  22766978.460    93226954.16747
  22333960.120   117365758.85408  22333959.600    91453833.52946
  20709823.900   108830858.09409  20709820.320    84803248.14348
 15 03 06 08 21 30.0000000  0  8G01G03G06G09G10G17G20G23
  23297269.800   122427958.55407  23297274.680    95398417.60244
  21690743.120   113985618.42309  21690745.500    88819964.74248
  21655414.660   113799975.24609  21655417.320    88675317.37248
  20423279.460   107325060.50609  20423280.240    83629922.71549
  22697194.380   119274558.37208  22697196.000    92941217.40746
  22779298.780   119706011.42208  22779299.480    93277406.10947
  22320478.320   117294911.24808  22320477.640    91398627.63546
  20715943.620   108863017.99709  20715940.160    84828307.77048
 15 03 06 08 22  0.0000000  0  8G01G03G06G09G10G17G20G23
  23316255.520   122527728.49806  23316260.480    95476160.25444
  21700024.260   114034390.71509  21700026.680    88857969.04348
  21641836.600   113728621.81009  21641839.240    88619717.32548
  20418989.220   107302514.85609  20418989.960    83612354.68949
  22682888.700   119199381.70508  22682890.180    92882638.19746
  22791686.320   119771107.45408  22791687.000    93328130.19547
  22307017.040   117224171.62108  22307016.220    91343505.85847
  20722131.400   108895535.29409  20722127.960    84853645.90448
 15 03 06 08 22 30.0000000  0  8G01G03G06G09G10G17G20G23
  23335281.400   122627709.50506  23335286.440    95554067.36644
  21709338.680   114083338.19109  21709341.180    88896109.83748
  21628327.220   113657629.00509  21628329.800    88564398.28148
  20414783.000   107280410.72709  20414783.580    83595130.69649
  22668604.680   119124318.42408  22668605.840    92824147.35346
  22804138.720   119836544.39008  22804139.300    93379119.92447
  22293575.360   117153534.88709  22293574.480    91288464.27246
  20728385.860   108928402.76909  20728382.380    84879256.89048
 15 03 06 08 23  0.0000000  0  8G01G03G06G09G10G17G20G23
  23354347.800   122727903.46406  23354352.440    95632140.42743
  21718687.140   114132464.77709  21718689.720    88934390.18448
  21614887.640   113587003.05809  21614890.160    88509365.09948
  20410661.340   107258751.40709  20410661.940    83578253.30649
  22654343.140   119049372.77708  22654344.000    92765748.18846
  22816656.020   119902322.63408  22816656.480    93430375.60247
  22280154.000   117083005.38008  22280153.200    91233506.20846
  20734707.420   108961622.62309  20734703.900    84905142.45448
 15 03 06 08 23 30.0000000  0  8G01G03G06G09G10G17G20G23
  23373453.920   122828306.24005  23373458.540    95710376.19745
  21728069.260   114181768.18509  21728071.860    88972808.34948
  21601517.760   113516744.09309  21601520.300    88454617.87948
  20406623.840   107237534.10909  20406624.420    83561720.35549
  22640103.720   118974542.86108  22640104.460    92707439.19446
  22829237.340   119968437.29409  22829237.680    93481893.43347
  22266752.660   117012581.22808  22266751.840    91178630.28847
  20741095.240   108995191.10609  20741091.860    84931299.69148
 15 03 06 08 24  0.0000000  0  8G01G03G06G09G10G17G20G23
  23392599.640   122928916.75805  23392604.040    95788773.80743
  21737485.260   114231249.27009  21737487.840    89011364.95648
  21588218.240   113446855.39009  21588220.880    88400159.17748
  20402670.540   107216759.07509  20402671.000    83545532.01549
  22625886.600   118899830.01408  22625887.160    92649221.42446
  22841882.280   120034886.28408  22841882.380    93533671.77947
  22253371.660   116942264.17908  22253370.860    91123837.77946
  20747549.100   109029106.90809  20747545.860    84957727.54848
 15 03 06 08 24 30.0000000  0  8G01G03G06G09G10G17G20G23
  23411784.820   123029735.11005  23411788.580    95867333.41042
  21746935.520   114280910.18609  21746938.180    89050061.69348
  21574990.060   113377341.42609  21574992.680    88345992.48748
  20398801.660   107196427.86909  20398802.080    83529689.51849
  22611692.180   118825236.70608  22611692.520    92591096.79346
  22854590.520   120101668.36609  22854590.700    93585709.67247
  22240011.580   116872057.00208  22240010.820    91069130.89647
  20754069.280   109063370.72709  20754066.140    84984426.58948
 15 03 06 08 25  0.0000000  0  8G01G03G06G09G10G17G20G23
  23431008.200   123130779.94405  23431015.480    95946078.79043
  21756419.360   114330747.60209  21756422.080    89088895.94348
  21561833.040   113308201.20509  21561835.580    88292117.00748
  20395016.460   107176536.50309  20395016.840    83514189.75149
  22597519.820   118750760.03708  22597520.240    92533063.05146
  22867361.060   120168777.52009  22867361.360    93638002.43647
  22226671.860   116801956.77408  22226671.160    91014507.35347
  20760654.800   109097977.38309  20760651.600    85011392.77948
 15 03 06 08 25 30.0000000  0  7G03G06G09G10G17G20G23
  21765937.880   114380767.25009  21765940.660    89127872.20648
  21548748.780   113239442.88909  21548751.340    88238539.11748
  20391315.900   107157090.08409  20391316.300    83499036.69549
  22583370.760   118676406.34808  22583371.280    92475125.11846
  22880194.280   120236216.05209  22880194.640    93690551.84747
  22213353.740   116731970.00908  22213353.100    90959972.24547
  20767306.280   109132930.72809  20767303.020    85038629.11348
 15 03 06 08 26  0.0000000  0  8G01G03G06G09G10G17G20G23
  23469573.460   123333438.88404  23469577.220    96104003.83743
  21775489.920   114430963.39909  21775492.900    89166985.99448
  21535736.620   113171062.95709  21535739.180    88185256.08148
  20387698.760   107138082.21909  20387699.260    83484225.38649
  22569244.000   118602170.25108  22569244.840    92417278.82547
  22893088.540   120303975.39709  22893088.860    93743351.24647
  22200056.180   116662091.51108  22200055.700    90905521.50247
  20774022.320   109168223.70909  20774019.140    85066130.11148
 15 03 06 08 26 30.0000000  0  7G03G06G09G10G17G20G23
  21785077.160   114481344.61909  21785080.280    89206243.97548
  21522798.520   113103072.45909  21522801.040    88132276.47948
  20384166.580   107119520.82409  20384167.180    83469761.96149
  22555141.320   118528060.80408  22555142.420    92359531.22247
  22906044.960   120372061.20508  22906045.200    93796405.02947
  22186780.980   116592330.37908  22186780.680    90851162.20147
  20780804.360   109203863.51209  20780801.220    85093901.35348
 15 03 06 08 27  0.0000000  0  7G03G06G09G10G17G20G23
  21794697.580   114531899.87309  21794700.720    89245637.59048
  21509932.800   113035462.62009  21509935.260    88079593.50048
  20380717.160   107101394.18909  20380717.780    83455637.31249
  22541060.780   118454067.40608  22541061.900    92301874.04546
  22919060.740   120440459.41408  22919060.980    93849702.21847
  22173526.140   116522676.30008  22173525.840    90796886.33047
  20787649.860   109239836.57109  20787646.660    85121932.26548
 15 03 06 08 27 30.0000000  0  7G03G06G09G10G17G20G23
  21804352.320   114582635.28609  21804355.300    89285171.60048
  21497141.080   112968241.87809  21497143.500    88027213.72348
  20377351.540   107083707.70509  20377352.180    83441855.64749
  22527003.660   118380196.75708  22527004.740    92244312.50546
  22932136.500   120509172.81008  22932136.800    93903245.02247
  22160293.060   116453135.91908  22160292.760    90742699.05547
  20794559.640   109276147.54509  20794556.360    85150226.49748
 15 03 06 08 28  0.0000000  0  7G03G06G09G10G17G20G23
  21814040.660   114633547.33109  21814043.520    89324843.25148
  21484423.140   112901409.09609  21484425.640    87975136.24348
  20374068.920   107066457.17809  20374069.540    83428413.67249
  22512969.260   118306445.80308  22512970.320    92186844.25346
  22945270.920   120578194.67708  22945271.320    93957028.18447
  22147081.080   116383706.43308  22147080.820    90688598.18147
  20801532.720   109312791.30109  20801529.420    85178780.02648
 15 03 06 08 28 30.0000000  0  7G03G06G09G10G17G20G23
  21823763.720   114684641.70209  21823766.480    89364656.99648
  21471780.500   112834972.26509  21471783.060    87923367.29048
  20370870.180   107049647.54709  20370870.800    83415315.25849
  22498958.980   118232820.73008  22498959.820    92129474.07346
  22958464.640   120647527.87008  22958465.120    94011053.96347
  22133891.460   116314394.18908  22133891.180    90634588.68747
  20808569.820   109349771.56609  20808566.540    85207595.79548
 15 03 06 08 29  0.0000000  0  7G03G06G09G10G17G20G23
  21833520.340   114735912.68409  21833523.180    89404608.34748
  21459212.640   112768927.99909  21459215.160    87871904.23648
  20367754.100   107033272.37609  20367754.740    83402555.38449
  22484971.680   118159316.54908  22484972.300    92072198.09646
  22971715.860   120717163.43608  22971716.600    94065315.33447
  22120723.100   116245193.85608  22120722.760    90580666.38347
  20815669.600   109387081.10409  20815666.220    85236668.13448
 15 03 06 08 29 30.0000000  0  7G03G06G09G10G17G20G23
  21843311.680   114787366.00009  21843314.500    89444701.78048
  21446721.020   112703284.32709  21446723.500    87820753.33548
  20364721.660   107017336.64109  20364722.280    83390137.92449
  22471008.440   118085939.29608  22471009.000    92015021.03647
  22985025.100   120787104.12708  22985026.060    94119814.46547
  22107577.280   116176112.06108  22107576.740    90526836.44547
  20822832.820   109424723.85109  20822829.360    85266000.11548
 15 03 06 08 30  0.0000000  0  7G03G06G09G10G17G20G23
  21853137.520   114839001.16909  21853140.460    89484936.92448
  21434306.060   112638043.01909  21434308.360    87769915.96548
  20361772.640   107001839.03409  20361773.240    83378061.86549
  22457069.360   118012689.04409  22457069.880    91957942.93646
  22998391.720   120857346.12308  22998392.800    94174548.35147
  22094454.040   116107148.71208  22094453.280    90473098.78547
  20830059.060   109462697.47009  20830055.580    85295589.92048
 15 03 06 08 30 30.0000000  0  7G03G06G09G10G17G20G23
  21862996.540   114890810.32209  21862999.440    89525307.63548
  21421966.640   112573198.57209  21421968.780    87719387.83848
  20358905.280   106986770.97709  20358905.860    83366320.51849
  22443153.020   117939558.29908  22443153.560    91900957.95547
  23011813.760   120927878.58208  23011814.740    94229508.60447
  22081352.020   116038296.94008  22081351.140    90419448.09347
  20837346.380   109500992.36709  20837342.940    85325430.07048
 15 03 06 08 31  0.0000000  0  7G03G06G09G10G17G20G23
  21872890.280   114942801.53109  21872892.980    89565820.23048
  21409704.740   112508761.33309  21409706.820    87669177.02948
  20356121.020   106972139.76509  20356121.640    83354919.57149
  22429261.020   117866555.62508  22429261.520    91844072.80346
  23025292.100   120998706.35208  23025292.860    94284698.96947
  22068272.820   115969565.28008  22068271.940    90365890.98247
  20844696.020   109539614.85109  20844692.620    85355525.48448
 15 03 06 08 31 30.0000000  0  7G03G06G09G10G17G20G23
  21882818.160   114994972.55309  21882820.860    89606472.93248
  21397520.260   112444731.33709  21397522.480    87619283.54048
  20353419.340   106957942.29409  20353420.020    83343856.60249
  22415393.040   117793679.44208  22415393.620    91787286.20247
  23038825.680   121069824.16008  23038826.200    94340115.35047
  22055216.080   115900951.99008  22055215.360    90312426.10947
  20852107.240   109578561.13809  20852103.900    85385873.21048
 15 03 06 08 32  0.0000000  0  7G03G06G09G10G17G20G23
  21892780.480   115047324.57809  21892783.240    89647266.66048
  21385413.880   112381112.01809  21385416.220    87569710.05548
  20350800.240   106944178.95109  20350800.920    83333131.90149
  22401549.320   117720931.29808  22401550.060    91730599.37546
  23052413.960   121141229.96608  23052414.460    94395756.12247
  22042182.300   115832459.29508  22042181.740    90259055.18247
  20859579.900   109617830.43709  20859576.620    85416472.63648
 15 03 06 08 32 30.0000000  0  7G03G06G09G10G17G20G23
  21902777.580   115099859.41709  21902780.440    89688202.84548
  21373386.440   112317907.52309  21373388.780    87520459.80548
  20348263.980   106930850.77509  20348264.600    83322746.29649
  22387730.420   117648313.67908  22387731.400    91674014.27546
  23066056.660   121212922.42008  23066057.320    94451620.24047
  22029171.980   115764089.57808  22029171.460    90205780.10747
  20867114.020   109657422.67309  20867110.840    85447323.70748
 15 03 06 08 33  0.0000000  0  7G03G06G09G10G17G20G23
  21912808.960   115152574.59809  21912811.900    89729279.55348
  21361437.860   112255117.56309  21361440.240    87471532.57048
  20345809.900   106917954.36109  20345810.440    83312697.12149
  22373936.040   117575824.59208  22373937.060    91617529.30346
  23079752.680   121284895.81209  23079753.540    94507703.28947
  22016184.720   115695840.85609  22016184.140    90152599.29747
  20874708.820   109697333.66309  20874705.740    85478423.14548
 15 03 06 08 33 30.0000000  0  7G03G06G09G10G17G20G23
  21922874.340   115205468.64009  21922877.360    89770495.62448
  21349568.260   112192742.97009  21349570.620    87422928.99548
  20343437.500   106905487.43309  20343438.040    83302982.61249
  22360165.940   117503462.94608  22360166.940    91561143.60047
  23093501.300   121357145.71809  23093502.240    94564001.80947
  22003220.400   115627712.33809  22003219.660    90099512.14547
  20882363.700   109737560.16109  20882360.660    85509768.43748
 15 03 06 08 34  0.0000000  0  8G03G06G07G09G10G17G20G23
  21932973.740   115258541.30109  21932976.640    89811850.89948
  21337778.020   112130785.72309  21337780.440    87374650.63148
  23028838.860   121017358.22005  23028839.240    94299249.05743
  20341146.540   106893448.84609  20341147.220    83293601.88849
  22346420.240   117431229.32808  22346421.160    91504857.69746
  23107302.000   121429668.68409  23107302.900    94620513.10247
  21990279.020   115559704.59309  21990278.200    90046519.11647
  20890078.260   109778100.36609  20890075.240    85541358.16948
 15 03 06 08 34 30.0000000  0  8G03G06G07G09G10G17G20G23
  21943108.000   115311796.96009  21943110.840    89853348.76648
  21326068.540   112069252.46309  21326071.020    87326702.64548
  23010262.540   120919749.43105  23010266.320    94223177.49543
  20338937.800   106881842.15709  20338938.580    83284557.70949
  22332699.940   117359128.59108  22332700.720    91448675.33147
  23121154.880   121502465.72809  23121155.760    94677237.98247
  21977361.620   115491822.80409  21977360.620    89993624.24847
  20897852.920   109818956.60409  20897849.980    85573194.16748
 15 03 06 08 35  0.0000000  0  8G03G06G07G09G10G17G20G23
  21953276.020   115365230.14009  21953278.940    89894984.92648
  21314439.260   112008139.87409  21314441.700    87279082.44748
  22991716.840   120822289.38505  22991719.900    94147234.68643
  20336810.000   106870660.90509  20336810.820    83275845.02849
  22319004.040   117287155.65208  22319004.680    91392592.55046
  23135058.320   121575528.38908  23135059.200    94734169.80447
  21964467.220   115424061.77309  21964466.040    89940823.44947
  20905686.380   109860121.47509  20905683.380    85605270.64348
 15 03 06 08 35 30.0000000  0  8G03G06G07G09G10G17G20G23
  21963478.880   115418846.32309  21963481.820    89936763.69248
  21302891.500   111947455.76009  21302893.960    87231796.11448
  22973201.780   120724990.72405  22973203.920    94071417.65844
  20334764.120   106859909.76509  20334764.960    83267467.50249
  22305333.720   117215316.73908  22305334.220    91336614.21346
  23149012.720   121648858.92708  23149013.620    94791310.36947
  21951596.920   115356427.83409  21951595.800    89888121.69347
  20913579.420   109901599.22809  20913576.300    85637590.92348
 15 03 06 08 36  0.0000000  0  8G03G06G07G09G10G17G20G23
  21973716.620   115472645.33209  21973719.420    89978684.93648
  21291425.640   111887202.10109  21291428.160    87184845.22448
  22954717.720   120627856.11006  22954719.360    93995728.46744
  20332799.900   106849587.59509  20332800.780    83259424.24949
  22291688.900   117143612.00908  22291689.420    91280740.44447
  23163017.340   121722453.82308  23163018.420    94848656.92447
  21938750.960   115288921.84809  21938749.980    89835519.65547
  20921531.600   109943387.73009  20921528.320    85670153.34948
 15 03 06 08 36 30.0000000  0  8G03G06G07G09G10G17G20G23
  21983988.900   115526625.89509  21983991.520    90020747.65548
  21280041.940   111827379.87309  21280044.400    87138230.50548
  22936265.060   120530887.11605  22936266.520    93920168.31144
  20330916.920   106839692.20609  20330917.780    83251713.55449
  22278069.400   117072040.86908  22278070.020    91224970.76047
  23177071.500   121796308.66908  23177072.760    94906206.04547
  21925929.220   115221543.42809  21925928.360    89783017.01647
  20929542.340   109985483.85109  20929538.920    85702955.46848
 15 03 06 08 37  0.0000000  0  8G03G06G07G09G10G17G20G23
  21994295.500   115580786.88909  21994297.980    90062950.96848
  21268740.580   111767990.12709  21268742.840    87091952.78648
  22917844.120   120434085.43206  22917845.920    93844738.52344
  20329114.760   106830221.54209  20329115.560    83244333.80749
  22264475.080   117000602.55108  22264475.800    91169304.57747
  23191174.360   121870419.02108  23191175.620    94963954.25647
  21913131.620   115154291.82609  21913130.760    89730613.18947
  20937611.060   110027884.52809  20937607.480    85735994.90548
 15 03 06 08 37 30.0000000  0  8G03G06G07G09G10G17G20G23
  22004637.140   115635132.07209  22004639.660    90105297.79448
  21257522.720   111709038.82109  21257524.720    87046016.72048
  22899456.220   120337457.47206  22899457.920    93769444.08044
  20327393.920   106821178.39309  20327394.700    83237287.20449
  22250906.920   116929301.66508  22250907.660    91113745.48047
  23205326.040   121944785.73408  23205327.000    95021902.24047
  21900359.020   115087171.58808  21900358.080    89678311.72747
  20945738.160   110070591.93309  20945734.460    85769273.36048
 15 03 06 08 38  0.0000000  0  8G03G06G07G09G10G17G20G23
  22015012.740   115689656.01609  22015015.460    90147783.90848
  21246387.620   111650522.60809  21246389.440    87000419.67848
  22881100.880   120241000.36506  22881102.400    93694282.85044
  20325753.140   106812556.28309  20325753.980    83230568.68549
  22237363.960   116858133.20008  22237364.700    91058289.56447
  23219524.860   122019399.99108  23219525.580    95080043.10146
  21887610.460   115020177.86809  21887609.580    89626108.85347
  20953922.140   110113598.48909  20953918.360    85802784.91948
 15 03 06 08 38 30.0000000  0  8G03G06G07G09G10G17G20G23
  22025423.240   115744363.32309  22025426.120    90190412.92048
  21235336.660   111592448.37609  21235338.420    86955167.04948
  22862779.520   120144721.36006  22862780.880    93619260.31044
  20324193.180   106804358.96309  20324194.140    83224181.17049
  22223847.220   116787102.44108  22223848.020    91002940.95547
  23233771.080   122094263.32608  23233771.680    95138378.05846
  21874887.040   114953316.41309  21874886.360    89574009.04847
  20962163.540   110156907.19409  20962159.680    85836531.91148
 15 03 06 08 39  0.0000000  0  8G03G06G07G09G10G17G20G23
  22035867.780   115799249.79609  22035870.780    90233181.51648
  21224369.340   111534814.04509  21224371.080    86910257.18748
  22844491.800   120048619.07907  22844493.200    93544375.49045
  20322713.120   106796581.17209  20322714.100    83218120.55349
  22210356.140   116716205.96709  22210356.820    90947696.98047
  23248063.220   122169368.17508  23248063.860    95196901.19246
  21862188.220   114886583.59509  21862187.640    89522009.46647
  20970461.260   110200512.21409  20970457.420    85870509.80448
 15 03 06 08 39 30.0000000  0  8G03G06G07G09G10G17G20G23
  22046347.560   115854321.50409  22046350.620    90276094.46948
  21213487.140   111477627.84009  21213488.920    86865696.50648
  22826239.440   119952702.27807  22826240.940    93469635.25044
  20321313.940   106789227.99809  20321314.780    83212390.81149
  22196891.840   116645450.26708  22196892.180    90892562.69947
  23262401.880   122244717.49908  23262402.680    95255614.85946
  21849515.220   114819986.23109  21849514.640    89470115.45547
  20978816.160   110244417.88609  20978812.440    85904721.97248
 15 03 06 08 40  0.0000000  0  8G03G06G07G09G10G17G20G23
  22056861.980   115909575.52209  22056865.160    90319149.47548
  21202689.960   111420889.02709  21202691.820    86821484.44648
  22808022.300   119856970.76607  22808023.520    93395039.35645
  20319994.800   106782295.51809  20319995.440    83206988.88749
  22183453.780   116574833.07408  22183453.880    90837536.35647
  23276785.820   122320304.99108  23276786.740    95314514.09047
  21836867.520   114753522.23409  21836866.980    89418325.36147
  20987227.340   110288619.42109  20987223.920    85939164.67848
 15 03 06 08 40 30.0000000  0  8G03G06G07G09G10G17G20G23
  22067411.440   115965013.62609  22067414.760    90362347.92848
  21191978.580   111364601.45209  21191980.520    86777623.99248
  22789841.200   119761428.78207  22789842.280    93320591.17645
  20318755.920   106775784.49809  20318756.400    83201915.35649
  22170042.460   116504356.63508  22170042.540    90782619.67747
  23291214.700   122396129.19108  23291215.840    95373597.73947
  21824245.460   114687193.73408  21824245.020    89366640.82747
  20995694.860   110333116.88809  20995691.720    85973837.99248
 15 03 06 08 41  0.0000000  0  8G03G06G07G09G10G17G20G23
  22077995.520   116020633.22409  22077998.920    90405687.80248
  21181353.040   111308764.64309  21181354.960    86734114.79248
  22771696.340   119666076.71507  22771697.220    93246290.95445
  20317596.500   106769691.26809  20317596.900    83197167.37549
  22156657.500   116434018.87308  22156657.760    90727811.04647
  23305687.560   122472184.68308  23305689.000    95432861.61847
  21811648.840   114620999.35209  21811648.620    89315060.80647
  21004217.860   110377905.81109  21004214.880    86008738.41048
 15 03 06 08 41 30.0000000  0  9G02G03G06G07G09G10G17G20G23
  24874041.740                                                  
  22088614.200   116076434.32709  22088617.520    90449169.12548
  21170813.660   111253380.82009  21170815.700    86690958.56048
  22753588.100   119570917.36608  22753588.940    93172140.92745
  20316516.380   106764014.86809  20316516.780    83192744.20049
  22143299.200   116363820.75109  22143299.540    90673111.25146
  23320203.660   122548467.76908  23320205.420    95492302.83447
  21799077.920   114554939.73808  21799077.940    89263585.81147
  21012795.960   110422984.27209  21012793.080    86043864.46648
 15 03 06 08 42  0.0000000  0  9G02G03G06G07G09G10G17G20G23
  24854451.940   130611032.38507  24854454.600   101774832.48945
  22099268.740   116132423.81609  22099272.020    90492797.22648
  21160362.100   111198458.88909  21160364.440    86648162.24248
  22735518.300   119475959.93708  22735519.140    93098148.23346
  20315516.640   106758761.06809  20315517.080    83188650.32149
  22129968.920   116293769.52508  22129969.280    90618525.91347
  23334763.680   122624982.02608  23334765.620    95551924.18647
  21786534.260   114489022.70409  21786534.280    89212221.91347
  21021430.080   110468357.20209  21021427.320    86079219.96748
 15 03 06 08 42 30.0000000  0  9G02G03G06G07G09G10G17G20G23
  24834877.980   130508169.50308  24834879.940   101694679.65245
  22109956.960   116188590.54509  22109960.200    90536563.43648
  21149996.640   111143989.80309  21149999.400    86605718.78048
  22717485.320   119381196.03208  22717486.100    93024306.31646
  20314595.000   106753917.65409  20314595.460    83184876.22549
  22116664.580   116223854.59909  22116665.020    90564046.78547
  23349365.180   122701713.28908  23349367.120    95611714.65047
  21774015.800   114423237.74208  21774015.780    89160960.92247
  21030117.880   110514011.90209  21030115.180    86114795.02348
 15 03 06 08 43  0.0000000  0  9G02G03G06G07G09G10G17G20G23
  24815318.480   130405383.15607  24815320.220   101614586.45846
  22120679.060   116244935.30608  22120682.320    90580468.35948
  21139718.140   111089976.47809  21139721.020    86563630.46648
  22699489.880   119286629.67508  22699490.600    92950618.34546
  20313751.380   106749484.37709  20313751.880    83181421.71349
  22103386.240   116154077.57608  22103387.000    90509675.10547
  23364007.820   122778659.36908  23364009.520    95671672.51147
  21761522.780   114357586.61108  21761522.820    89109804.21747
  21038859.200   110559947.53309  21038856.520    86150588.99248
 15 03 06 08 43 30.0000000  0  9G02G03G06G07G09G10G17G20G23
  24795775.640   130302685.66408  24795777.220   101534562.53046
  22131437.000   116301468.36509  22131440.340    90624520.01448
  21129528.860   111036431.28209  21129531.740    86521906.92748
  22681534.360   119192273.26608  22681535.060    92877093.99246
  20312987.460   106745470.43209  20312988.100    83178293.95749
  22090136.260   116084449.47608  22090137.200    90455419.47147
  23378692.660   122855827.00508  23378694.180    95731803.02247
  21749057.300   114292080.43908  21749057.420    89058760.45747
  21047655.640   110606172.35709  21047652.840    86186608.30348
 15 03 06 08 44  0.0000000  0  9G02G03G06G07G09G10G17G20G23
  24776249.220   130200075.49207  24776250.880   101454606.65445
  22142230.100   116358186.28909  22142233.440    90668715.71248
  21119428.480   110983352.74609  21119431.280    86480547.01948
  22663618.680   119098126.42608  22663619.480    92803732.94546
  20312302.500   106741871.27309  20312303.200    83175489.39449
  22076914.040   116014967.47008  22076915.160    90401277.68247
  23393418.380   122933209.57508  23393419.700    95792100.96947
  21736618.880   114226716.37708  21736619.040    89007827.42347
  21056506.120   110652681.17109  21056503.160    86222848.90848
 15 03 06 08 44 30.0000000  0  9G02G03G06G07G09G10G17G20G23
  24756739.160   130097550.68507  24756740.660   101374717.25246
  22153057.600   116415084.99109  22153060.920    90713052.27547
  21109416.600   110930738.96809  21109419.240    86439549.26848
  22645742.580   119004187.33308  22645743.380    92730533.73147
  20311695.520   106738681.73009  20311696.220    83173004.01449
  22063719.060   115945628.05508  22063720.180    90347246.98347
  23408183.560   123010799.79608  23408184.820    95852560.74647
  21724206.960   114161491.14409  21724207.000    88957002.57547
  21065409.500   110699468.23409  21065406.440    86259306.33148
 15 03 06 08 45  0.0000000  0  9G02G03G06G07G09G10G17G20G23
  24737246.160   129995116.16607  24737247.500   101294898.22846
  22163920.000   116472167.01709  22163923.320    90757531.68048
  21099494.040   110878594.44909  21099496.500    86398917.15748
  22627907.080   118910461.45008  22627907.880    92657500.67846
  20311166.780   106735903.27909  20311167.400    83170838.95749
  22050551.880   115876434.30708  22050553.020    90293329.80947
  23422987.940   123088596.79408  23422989.260    95913181.62347
  21711822.160   114096408.24009  21711822.060    88906288.65247
  21074365.920   110746534.00509  21074362.720    86295980.91748
 15 03 06 08 45 30.0000000  0  9G02G03G06G07G09G10G17G20G23
  24717771.280   129892776.17308  24717772.380   101215152.87545
  22174817.840   116529434.63309  22174821.120    90802155.71148
  21089661.540   110826923.54309  21089663.820    86358654.10748
  22610113.120   118816954.07408  22610113.920    92584637.90546
  20310716.480   106733537.00009  20310717.080    83168995.07749
  22037413.180   115807389.56209  22037414.220    90239528.72847
  23437831.320   123166599.77108  23437832.860    95973963.00447
  21699465.040   114031470.83309  21699464.780    88855688.08847
  21083375.460   110793879.20009  21083372.120    86332873.23448
 15 03 06 08 46  0.0000000  0  9G02G03G06G07G09G10G17G20G23
  24698313.860   129790527.22507  24698314.620   101135478.43345
  22185749.920   116586881.87409  22185753.160    90846919.70248
  21079918.340   110775722.29309  21079920.540    86318757.02948
  22592359.980   118723661.50308  22592360.760    92511942.48747
  20310343.240   106731575.84709  20310343.880    83167466.88349
  22024301.820   115738488.25408  22024302.760    90185839.39947
  23452712.080   123244799.48908  23452713.820    96034897.66547
  21687134.640   113966673.91009  21687134.240    88805196.98747
  21092436.640   110841496.20109  21092433.320    86369977.34148
 15 03 06 08 46 30.0000000  0  9G02G03G06G07G09G10G17G20G23
  24678875.000   129688374.85807  24678875.560   101055879.25845
  22196716.900   116644512.38209  22196720.000    90891826.50448
  21070265.480   110724996.33109  21070267.740    86279230.29948
  22574648.900   118630590.19008  22574649.760    92439419.52347
  20310047.640   106730022.31709  20310048.300    83166256.30749
  22011218.500   115669734.71708  22011219.420    90132265.22747
  23467630.440   123323196.27308  23467632.280    96095985.90747
  21674831.660   113902021.53209  21674831.160    88754818.51547
  21101549.880   110889386.65009  21101546.580    86407294.52148
 15 03 06 08 47  0.0000000  0  9G02G03G06G07G09G10G17G20G23
  24659455.160   129586322.61307  24659456.040   100976358.12546
  22207719.100   116702327.73609  22207721.900    90936877.35348
  21060703.740   110674749.27209  21060706.080    86240076.74248
  22556980.740   118537744.45508  22556981.640    92367072.30946
  20309829.700   106728876.82109  20309830.320    83165363.68349
  21998163.680   115601131.35108  21998164.520    90078808.06147
  23482586.060   123401788.11608  23482588.060    96157226.14447
  21662556.820   113837516.80509  21662556.220    88704555.09547
  21110715.140   110937550.44009  21110711.980    86444824.70048
 15 03 06 08 47 30.0000000  0  9G02G03G06G07G09G10G17G20G23
  24640054.900   129484372.34507  24640055.460   100896916.39045
  22218756.200   116760327.30209  22218758.960    90982071.73248
  21051233.400   110624982.42509  21051235.900    86201297.37948
  22539355.900   118445126.15707  22539356.820    92294902.34246
  20309689.120   106728137.56109  20309689.640    83164787.60549
  21985137.480   115532678.12209  21985138.180    90025467.90047
  23497578.240   123480571.64208  23497580.320    96218615.77047
  21650310.100   113773159.55709  21650309.480    88654406.59747
  21119931.920   110985985.02509  21119928.940    86482565.87848
 15 03 06 08 48  0.0000000  0  9G02G03G06G07G09G10G17G20G23
  24620674.420   129382526.83308  24620675.080   100817556.36445
  22229828.420   116818511.90909  22229831.240    91027410.29448
  21041854.880   110575698.66409  21041857.600    86162894.44048
  22521775.000   118352738.98707  22521776.000    92222912.46246
  20309625.780   106727804.26309  20309626.240    83164527.86649
  21972140.140   115464376.33909  21972140.720    89972245.73247
  23512606.480   123559544.62208  23512608.480    96280152.97147
  21638091.860   113708951.67609  21638091.160    88604374.49047
  21129200.080   111034689.62409  21129197.200    86520517.46448
 15 03 06 08 48 30.0000000  0  9G02G03G06G07G09G10G17G20G23
  24601313.900   129280786.38307  24601314.640   100738278.15846
  22240935.320   116876879.30909  22240938.380    91072891.27548
