     2.11           OBSERVATION DATA    G                   RINEX VERSION / TYPE
SPIDER V4,0,0,3554                      2015 03 24 00:46    PGM / RUN BY / DATE 
CAEK                                                        MARKER NAME         
CAEK                                                        MARKER NUMBER       
                                                            OBSERVER / AGENCY   
496550              LEICA GRX1200+GNSS  8.10/4.007          REC # / TYPE / VERS 
                    LEIAR25         NONE                    ANT # / TYPE        
  5175865.2406   441308.6117  3689278.4577                  APPROX POSITION XYZ 
        0.0720        0.0000        0.0000                  ANTENNA: DELTA H/E/N
     1     1                                                WAVELENGTH FACT L1/2
     4    C1    L1    P2    L2                              # / TYPES OF OBSERV 
    30.000                                                  INTERVAL            
  2015    03    06    00    00    0.0000000     GPS         TIME OF FIRST OBS   
  2015    03    06    23    59   30.0000000     GPS         TIME OF LAST OBS    
    16                                                      LEAP SECONDS        
    30                                                      # OF SATELLITES     
   G 1   819   819   819   819                              PRN / # OF OBS      
   G 2   937   937   937   937                              PRN / # OF OBS      
   G 3   848   848   848   848                              PRN / # OF OBS      
   G 4   840   839   839   839                              PRN / # OF OBS      
   G 5   656   656   656   656                              PRN / # OF OBS      
   G 6   805   805   805   805                              PRN / # OF OBS      
   G 7   663   663   663   663                              PRN / # OF OBS      
   G 9   800   800   800   800                              PRN / # OF OBS      
   G10   767   766   766   766                              PRN / # OF OBS      
   G11   783   783   783   783                              PRN / # OF OBS      
   G12   826   826   826   826                              PRN / # OF OBS      
   G13   806   806   806   806                              PRN / # OF OBS      
   G14   909   908   908   908                              PRN / # OF OBS      
   G15   692   692   692   692                              PRN / # OF OBS      
   G16   676   676   676   676                              PRN / # OF OBS      
   G17   940   938   938   938                              PRN / # OF OBS      
   G18   915   910   910   909                              PRN / # OF OBS      
   G19   772   772   772   772                              PRN / # OF OBS      
   G20   773   772   772   772                              PRN / # OF OBS      
   G21   695   685   678   672                              PRN / # OF OBS      
   G22   654   647   643   642                              PRN / # OF OBS      
   G23   744   744   744   744                              PRN / # OF OBS      
   G24   823   810   802   802                              PRN / # OF OBS      
   G25   854   854   853   853                              PRN / # OF OBS      
   G27   816   816   816   816                              PRN / # OF OBS      
   G28   891   891   890   890                              PRN / # OF OBS      
   G29   752   752   751   751                              PRN / # OF OBS      
   G30   710   710   710   710                              PRN / # OF OBS      
   G31   847   846   845   845                              PRN / # OF OBS      
   G32   758   758   758   758                              PRN / # OF OBS      
BIT 2 OF LLI FLAGS DATA COLLECTED UNDER A/S CONDITION       COMMENT             
SNR is mapped to RINEX snr flag value [2-9]                 COMMENT             
Lx:     = 25dBHz -> 1; 26-27dBHz -> 2; 28-31dBHz -> 3       COMMENT             
       32-35dBHz -> 4; 36-38dBHz -> 5; 39-41dBHz -> 6       COMMENT             
       42-44dBHz -> 7; 45-48dBHz -> 8; >=49dBHz -> 9        COMMENT             
                                                            END OF HEADER       
 15 03 06 00 00  0.0000000  0  7G16G18G19G21G22G27G31
  21112451.560   110946700.03509  21112448.160    86451969.96748
  22067654.720   115966453.00909  22067651.600    90363517.44147
  24512445.060   128813768.90808  24512441.280   100374351.61045
  21738707.660   114238152.26109  21738703.760    89016942.10848
  23034921.380   121049425.65208  23034917.700    94324267.88447
  22312913.000   117255181.90309  22312912.200    91367718.44748
  23836727.460   125262848.31208  23836726.960    97607397.81646
 15 03 06 00 00 30.0000000  0  7G16G18G19G21G22G27G31
  21101998.480   110891769.01509  21101995.120    86409166.57548
  22059419.100   115923174.54209  22059415.940    90329793.98247
  24497425.380   128734839.61808  24497421.460   100312848.28745
  21748753.440   114290943.06809  21748749.500    89058077.80748
  23017727.080   120959069.66909  23017723.300    94253860.73447
  22301539.480   117195413.87009  22301538.700    91321145.98448
  23854987.720   125358805.95908  23854987.380    97682169.71646
 15 03 06 00 01  0.0000000  0  7G16G18G19G21G22G27G31
  21091618.800   110837223.72009  21091615.460    86366663.74948
  22051261.520   115880306.10409  22051258.300    90296390.01347
  24482418.800   128655979.26607  24482415.100   100251398.71046
  21758845.680   114343977.87409  21758841.700    89099403.62848
  23000561.280   120868863.51109  23000557.600    94183570.33347
  22290187.200   117135757.47309  22290186.460    91274660.49648
  23873255.940   125454804.73108  23873255.680    97756973.65146
 15 03 06 00 01 30.0000000  0  7G16G18G19G21G22G27G31
  21081312.540   110783064.10609  21081309.200    86324461.45448
  22043181.920   115837847.35609  22043178.720    90263305.29747
  24467424.740   128577185.46707  24467421.400   100190001.07546
  21768983.740   114397253.66309  21768979.760    89140917.22848
  22983424.140   120778808.01009  22983420.520    94113397.33246
  22278855.760   117076210.64509  22278855.160    91228260.38948
  23891531.020   125550839.69508  23891530.860    97831805.79546
 15 03 06 00 02  0.0000000  0  7G16G18G19G21G22G27G31
  21071078.820   110729285.75409  21071075.520    86282556.24948
  22035179.460   115795794.06609  22035176.160    90230536.51247
  24452442.280   128498452.16007  24452439.060   100128650.52446
  21779165.980   114450761.71109  21779162.020    89182611.80848
  22966315.080   120688899.62409  22966311.340    94043338.93147
  22267544.040   117016767.33709  22267543.420    91181940.95348
  23909811.160   125646901.50708  23909811.280    97906658.81546
 15 03 06 00 02 30.0000000  0  7G16G18G19G21G22G27G31
  21060918.840   110675894.56809  21060915.520    86240952.72148
  22027255.120   115754151.21809  22027251.700    90198087.54247
  24437471.940   128419782.90008  24437468.400   100067349.84146
  21789392.660   114504503.39509  21789388.740    89224488.43748
  22949235.140   120599144.32309  22949231.520    93973399.85247
  22256252.700   116957431.16809  22256252.100    91135704.98748
  23928096.500   125742990.57708  23928096.720    97981533.06546
 15 03 06 00 03  0.0000000  0  7G16G18G19G21G22G27G31
  21050832.600   110622890.69309  21050829.220    86199651.00748
  22019408.760   115712918.20309  22019405.300    90165957.94147
  24422513.480   128341175.41508  24422509.740   100006097.28246
  21799663.160   114558475.27909  21799659.260    89266544.45148
  22932184.500   120509542.90209  22932180.740    93903580.65347
  22244981.360   116898200.22609  22244980.800    91089551.02548
  23946386.220   125839102.23308  23946386.400    98056424.98446
 15 03 06 00 03 30.0000000  0  7G16G18G19G21G22G27G31
  21040820.400   110570275.65609  21040816.920    86158652.27148
  22011640.840   115672097.45009  22011637.320    90134149.57147
  24407566.840   128262629.54308  24407563.080    99944892.76846
  21809977.080   114612675.53609  21809973.240    89308778.40948
  22915163.620   120420097.87609  22915159.780    93833883.31847
  22233730.060   116839074.58409  22233729.540    91043479.10248
  23964679.580   125935233.43508  23964679.800    98131332.02146
 15 03 06 00 04  0.0000000  0  7G16G18G19G21G22G27G31
  21030883.360   110518055.78309  21030879.800    86117961.46348
  22003952.300   115631694.09909  22003948.800    90102666.45947
  24392632.660   128184149.52908  24392628.840    99883739.58845
  21820334.940   114667106.63909  21820331.120    89351192.24748
  22898173.680   120330815.68209  22898169.860    93764312.87447
  22222499.620   116780058.52609  22222499.120    90997492.58048
  23982976.880   126031385.19708  23982977.120    98206255.11046
 15 03 06 00 04 30.0000000  0  7G16G18G19G21G22G27G31
  21021021.100   110466228.80209  21021017.420    86077576.80048
  21996342.700   115591705.66009  21996339.200    90071506.65247
  24377710.240   128105731.01008  24377706.120    99822634.23944
  21830735.460   114721761.76709  21830731.620    89393780.65748
  22881214.480   120241695.07309  22881210.580    93694868.32947
  22211289.280   116721147.75509  22211288.740    90951588.10348
  24001276.820   126127550.18908  24001277.160    98281188.50346
 15 03 06 00 05  0.0000000  0  7G16G18G19G21G22G27G31
  21011235.520   110414804.79609  21011231.760    86037506.14648
  21988813.780   115552141.19409  21988810.360    90040677.21748
  24362800.460   128027381.76306  24362796.400    99761582.96946
  21841179.860   114776647.48609  21841176.060    89436548.74948
  22864288.100   120152746.57708  22864284.260    93625557.90947
  22200100.600   116662350.54209  22200100.000    90905772.11048
  24019580.200   126223733.79108  24019580.780    98356136.36046
 15 03 06 00 05 30.0000000  0  7G16G18G19G21G22G27G31
  21001525.200   110363776.55209  21001521.420    85997743.88648
  21981364.140   115512993.49209  21981360.820    90010172.52847
  24347902.260   127949092.59408  24347898.280    99700578.50445
  21851665.960   114831752.23909  21851662.160    89479487.51848
  22847393.120   120063963.48909  22847389.300    93556376.38247
  22188931.820   116603657.73709  22188931.100    90860037.47148
  24037884.840   126319923.42408  24037885.340    98431088.94146
 15 03 06 00 06  0.0000000  0  7G16G18G19G21G22G27G31
  20991890.360   110313145.02609  20991886.580    85958290.74948
  21973993.980   115474263.23909  21973990.680    89979993.11947
  24333015.660   127870862.44208  24333011.540    99639619.94645
  21862193.340   114887073.85009  21862189.500    89522595.25948
  22830530.020   119975347.28209  22830526.140    93487324.86647
  22177782.700   116545068.44509  22177781.900    90814383.49448
  24056189.880   126416115.25408  24056190.400    98506043.19646
 15 03 06 00 06 30.0000000  0  7G16G18G19G21G22G27G31
  20982333.100   110262921.39609  20982329.360    85919155.46648
  21966705.420   115435961.51709  21966702.160    89950147.63347
  24318141.800   127792700.54207  24318138.020    99578714.69445
  21872763.320   114942619.36509  21872759.460    89565877.48048
  22813700.960   119886910.32109  22813697.080    93418413.05147
  22166655.060   116486592.27409  22166654.180    90768817.66648
  24074496.560   126512315.76908  24074497.060    98581004.23846
 15 03 06 00 07  0.0000000  0  7G16G18G19G21G22G27G31
  20972852.500   110213100.77809  20972848.800    85880334.20248
  21959497.240   115398082.35609  21959493.980    89920631.42747
  24303279.840   127714599.87408  24303275.920    99517857.02246
  21883374.320   114998380.31509  21883370.420    89609327.56748
  22796905.140   119798647.83109  22796901.100    93349637.16447
  22155547.560   116428222.13009  22155546.700    90723334.45848
  24092802.980   126608515.11108  24092803.640    98655964.28046
 15 03 06 00 07 30.0000000  0  7G16G18G19G21G22G27G31
  20963449.420   110163687.45309  20963445.760    85841830.31548
  21952370.180   115360629.59509  21952367.020    89891447.47147
  24288429.940   127636562.50807  24288425.940    99457048.72246
  21894026.080   115054355.75709  21894022.160    89652944.78748
  22780143.420   119710564.66809  22780139.420    93281001.02047
  22144460.700   116369960.62909  22144459.860    90677935.89248
  24111109.100   126704712.43208  24111109.720    98730922.77546
 15 03 06 00 08  0.0000000  0  7G16G18G19G21G22G27G31
  20954125.400   110114689.25009  20954121.720    85803649.89948
  21945325.760   115323611.02109  21945322.660    89862601.84548
  24273592.880   127558594.43708  24273589.280    99396294.48846
  21904719.760   115110551.53309  21904715.860    89696733.69948
  22763417.500   119622669.67809  22763413.420    93212511.49347
  22133395.660   116311813.85309  22133394.900    90632626.73248
  24129415.440   126800910.94008  24129416.040    98805882.18346
 15 03 06 00 08 30.0000000  0  7G16G18G19G21G22G27G31
  20944878.520   110066096.71009  20944874.880    85765785.58848
  21938362.080   115287016.75609  21938358.940    89834086.85047
  24258767.220   127480684.80808  24258763.100    99335585.63345
  21915452.740   115166953.64209  21915448.820    89740683.38848
  22746725.760   119534954.25009  22746721.660    93144161.88447
  22122350.340   116253770.63109  22122349.640    90587398.25948
  24147719.340   126897096.28208  24147719.980    98880831.32746
 15 03 06 00 09  0.0000000  0  7G16G18G19G21G22G27G31
  20935710.800   110017920.00609  20935707.180    85728245.30348
  21931480.840   115250855.69309  21931477.720    89805909.41147
  24243953.960   127402841.00607  24243949.880    99274928.17846
  21926226.120   115223568.09109  21926222.180    89784798.54148
  22730070.140   119447428.49409  22730066.060    93075960.07947
  22111326.320   116195839.02309  22111325.620    90542256.75948
  24166021.600   126993273.46608  24166022.400    98955774.08546
 15 03 06 00 09 30.0000000  0  7G16G18G19G21G22G27G31
  20926623.000   109970163.35209  20926619.380    85691032.32448
  21924682.840   115215132.15109  21924679.680    89778072.89347
  24229153.520   127325065.14608  24229149.880    99214323.71246
  21937040.000   115280395.34809  21937036.060    89829079.51548
  22713451.600   119360097.79509  22713447.500    93007910.24947
  22100324.020   116138021.67209  22100323.300    90497204.28848
  24184322.200   127089442.05208  24184323.240    99030710.13046
 15 03 06 00 10  0.0000000  0  7G16G18G19G21G22G27G31
  20917613.580   109922818.63609  20917609.960    85654140.34248
  21917966.460   115179837.37509  21917963.320    89750570.49547
  24214364.420   127247347.58608  24214360.800    99153764.61546
  21947892.160   115337423.67609  21947888.180    89873517.17748
  22696868.740   119272954.52509  22696864.720    92940006.48547
  22089341.600   116080308.65209  22089340.880    90452233.12048
  24202618.700   127185589.01408  24202619.860    99105629.33146
 15 03 06 00 10 30.0000000  0  7G16G18G19G21G22G27G31
  20908685.080   109875899.11709  20908681.440    85617579.68048
  21911334.100   115144984.17809  21911330.940    89723412.17348
  24199588.360   127169699.35808  24199584.720    99093259.58046
  21958784.400   115394662.77409  21958780.440    89918119.06548
  22680324.180   119186012.48809  22680320.060    92872259.51348
  22078381.240   116022711.51409  22078380.520    90407352.24548
  24220912.600   127281722.78008  24220914.120    99180538.19646
 15 03 06 00 11  0.0000000  0  7G16G18G19G21G22G27G31
  20899835.860   109829396.43109  20899832.260    85581343.82648
  21904784.060   115110563.55609  21904780.960    89696590.94047
  24184823.800   127092110.57508  24184820.060    99032800.81946
  21969714.480   115452100.60509  21969710.540    89962875.81547
  22663816.500   119099264.22509  22663812.420    92804663.54547
  22067441.020   115965220.20409  22067440.240    90362553.83948
  24239201.580   127377830.21408  24239203.300    99255426.56346
 15 03 06 00 11 30.0000000  0  7G16G18G19G21G22G27G31
  20891067.980   109783321.15709  20891064.420    85545441.00448
  21898318.320   115076586.06009  21898315.280    89670114.97647
  24170071.880   127014589.28007  24170068.160    98972394.68045
  21980683.620   115509743.93309  21980679.720    90007792.68547
  22647347.840   119012721.16109  22647343.740    92737227.45047
  22056522.600   115907843.56709  22056521.780    90317844.76748
  24257486.660   127473917.30308  24257488.500    99330299.01946
 15 03 06 00 12  0.0000000  0  7G16G18G19G21G22G27G31
  20882381.800   109737674.93409  20882378.240    85509872.52448
  21891937.020   115043052.38909  21891933.980    89643984.85847
  24155332.760   126937135.41708  24155328.840    98912041.05446
  21991691.460   115567590.52009  21991687.560    90052867.95048
  22630918.680   118926385.54809  22630914.500    92669953.02647
  22045626.020   115850581.73709  22045625.220    90273225.17148
  24275767.260   127569980.68008  24275769.360    99405152.99746
 15 03 06 00 12 30.0000000  0  7G16G18G19G21G22G27G31
  20873776.320   109692452.79409  20873772.760    85474634.48548
  21885639.160   115009956.93209  21885636.120    89618196.21347
  24140605.340   126859742.18708  24140601.420    98851734.68645
  22002736.280   115625631.39609  22002732.420    90098094.59648
  22614528.020   118840252.41309  22614523.840    92602836.36547
  22034749.980   115793427.73409  22034749.180    90228689.59548
  24294041.560   127666010.42308  24294043.820    99479980.74446
 15 03 06 00 13  0.0000000  0  7G16G18G19G21G22G27G31
  20865252.720   109647661.14509  20865249.200    85439731.90748
  21879425.860   114977305.83109  21879422.820    89592753.81548
  24125890.260   126782413.83808  24125886.280    98791478.91145
  22013818.640   115683869.74609  22013814.820    90143475.12547
  22598177.380   118754329.60909  22598173.100    92535883.60047
  22023895.280   115736386.25809  22023894.600    90184241.70848
  24312309.820   127762008.45008  24312312.000    99554783.81546
 15 03 06 00 13 30.0000000  0  7G16G18G19G21G22G27G31
  20856810.880   109603299.22609  20856807.400    85405164.17648
  21873296.860   114945097.77409  21873293.840    89567656.63848
  24111187.280   126705148.35508  24111182.840    98731272.01546
  22024937.680   115742300.65609  22024933.880    90189005.69248
  22581866.820   118668617.51609  22581862.560    92469095.02247
  22013061.660   115679455.30609  22013060.980    90139879.93348
  24330571.000   127857969.19908  24330573.560    99629557.72547
 15 03 06 00 14  0.0000000  0  7G16G18G19G21G22G27G31
  20848452.500   109559375.91609  20848449.060    85370938.22448
  21867253.700   114913340.85609  21867250.640    89542911.01048
  24096497.320   126627952.17108  24096493.100    98671119.24046
  22036094.520   115800930.03109  22036090.680    90234690.92747
  22565598.080   118583124.99109  22565593.780    92402477.53047
  22002250.360   115622641.93809  22002249.780    90095609.79448
  24348826.100   127953897.13108  24348828.620    99704306.12446
 15 03 06 00 14 30.0000000  0  7G16G18G19G21G22G27G31
  20840176.740   109515886.82109  20840173.380    85337050.61848
  21861295.440   114882030.18509  21861292.380    89518513.10447
  24081819.460   126550818.94908  24081815.360    98611015.47446
  22047287.460   115859749.17509  22047283.580    90280524.01847
  22549370.440   118497848.40709  22549366.140    92336028.30447
  21991460.320   115565939.98709  21991459.760    90051426.46848
  24367073.040   128049782.76008  24367075.580    99779021.46446
 15 03 06 00 15  0.0000000  0  7G16G18G19G21G22G27G31
  20831983.540   109472831.64809  20831980.280    85303501.13748
  21855421.940   114851164.83209  21855418.880    89494462.19147
  24067153.020   126473746.44708  24067148.800    98550959.01246
  22058515.820   115918754.56009  22058511.900    90326502.23448
  22533184.020   118412788.45009  22533179.700    92269747.87647
  21980691.160   115509347.67709  21980690.600    90007328.57748
  24385311.160   128145621.02308  24385313.840    99853699.92947
 15 03 06 00 15 30.0000000  0  7G16G18G19G21G22G27G31
  20823875.740   109430224.99309  20823872.520    85270301.14748
  21849635.740   114820758.40009  21849632.660    89470768.88247
  24052500.520   126396747.56008  24052496.540    98490959.95146
  22069781.520   115977956.41009  22069777.660    90372633.54248
  22517041.680   118327960.19109  22517037.400    92203647.99147
  21969945.340   115452877.82509  21969944.720    89963326.10348
  24403542.020   128241421.88608  24403544.740    99928349.20546
 15 03 06 00 16  0.0000000  0  7G16G18G19G21G22G27G31
  20815852.200   109388061.13409  20815848.960    85237446.19148
  21843935.800   114790805.18209  21843932.740    89447428.73447
  24037860.480   126319814.78707  24037856.720    98431012.39545
  22081082.860   116037345.39809  22081079.020    90418910.66548
  22500942.460   118243358.58909  22500938.240    92137724.72147
  21959221.400   115396523.16109  21959220.740    89919413.38848
  24421763.660   128337174.84608  24421766.420   100002961.13646
 15 03 06 00 16 30.0000000  0  7G16G18G19G21G22G27G31
  20807912.440   109346337.23809  20807909.120    85204934.06648
  21838321.500   114761301.83609  21838318.400    89424439.12547
  24023232.240   126242943.60308  24023228.440    98371112.78146
  22092418.680   116096915.57109  22092414.840    90465328.97147
  22484886.060   118158981.90109  22484881.840    92071976.70947
  21948518.600   115340279.55409  21948517.880    89875587.21548
  24439975.080   128432872.92808  24439978.200   100077530.31646
 15 03 06 00 17  0.0000000  0  7G16G18G19G21G22G27G31
  20800058.380   109305063.62209  20800055.000    85172772.80648
  21832794.580   114732257.71709  21832791.420    89401807.35847
  24008617.240   126166141.90608  24008613.620    98311267.37246
  22103790.320   116156673.97909  22103786.500    90511893.96447
  22468874.540   118074840.95509  22468870.280    92006412.39347
  21937838.560   115284155.48709  21937837.840    89831854.18648
  24458177.020   128528521.60208  24458180.440   100152060.89146
 15 03 06 00 17 30.0000000  0  7G16G18G19G21G22G27G31
  20792289.480   109264237.23809  20792286.040    85140960.04048
  21827354.360   114703669.11609  21827351.100    89379530.54647
  23994014.680   126089405.42608  23994011.040    98251472.74446
  22115196.420   116216613.51809  22115192.640    90558600.09047
  22452907.480   117990933.63609  22452903.220    91941030.13047
  21927180.420   115228146.58509  21927179.720    89788210.90548
  24476368.060   128624113.08007  24476371.440   100226546.97745
 15 03 06 00 18  0.0000000  0  7G16G18G19G21G22G27G31
  20784605.900   109223859.59509  20784602.460    85109496.93748
  21822001.060   114675537.28509  21821997.740    89357609.64347
  23979424.540   126012733.98308  23979420.960    98191728.79746
  22126636.560   116276731.80409  22126632.760    90605445.49448
  22436985.380   117907262.43809  22436981.000    91875831.83747
  21916544.220   115172252.92509  21916543.520    89744657.40348
  24494547.720   128719644.36208  24494551.020   100300986.10346
 15 03 06 00 18 30.0000000  0  7G16G18G19G21G22G27G31
  20777008.200   109183933.31509  20777004.720    85078385.54848
  21816734.980   114647863.87909  21816731.640    89336045.95847
  23964846.920   125936127.92308  23964843.400    98132035.82046
  22138110.620   116337028.15509  22138106.760    90652429.65748
  22421108.780   117823830.45009  22421104.380    91810819.95147
  21905930.080   115116475.28209  21905929.340    89701194.30848
  24512715.440   128815113.35608  24512718.880   100375376.60246
 15 03 06 00 19  0.0000000  0  7G16G18G19G21G22G27G31
  20769497.120   109144462.12009  20769493.560    85047628.76948
  21811556.700   114620651.82609  21811553.400    89314841.77247
  23950282.080   125859589.34607  23950278.240    98072395.39946
  22149618.580   116397502.79009  22149614.660    90699552.74648
  22405278.500   117740642.10109  22405274.040    91745997.90647
  21895338.480   115060816.03009  21895337.740    89657823.46948
  24530871.200   128910519.01908  24530875.000   100449717.80346
 15 03 06 00 19 30.0000000  0  7G16G18G19G21G22G27G31
  20762072.920   109105447.47309  20762069.300    85017227.74648
  21806466.320   114593902.04009  21806463.120    89293997.80147
  23935730.060   125783118.10908  23935726.320    98012807.49646
  22161160.020   116458153.44609  22161156.040    90746812.99347
  22389495.040   117657699.55109  22389490.620    91681367.40147
  21884769.400   115005275.12609  21884768.620    89614544.85348
  24549014.260   129005858.73908  24549018.700   100524007.46246
 15 03 06 00 20  0.0000000  0  7G16G18G19G21G22G27G31
  20754736.000   109066891.51209  20754732.340    84987184.13348
  21801464.240   114567616.11609  21801461.060    89273515.27347
  23921190.900   125706714.47608  23921187.120    97953272.25345
  22172734.700   116518978.65309  22172730.700    90794209.26247
  22373758.900   117575005.81909  22373754.400    91616930.77147
  21874223.000   114949853.28909  21874222.220    89571359.01248
  24567144.460   129101129.71008  24567149.280   100598243.64045
 15 03 06 00 20 30.0000000  0  7G16G18G19G21G22G27G31
  20747485.980   109028792.14009  20747482.260    84957496.31348
  21796549.980   114541791.51309  21796546.780    89253392.21047
  23906664.040   125630374.93308  23906660.140    97893786.89546
  22184341.580   116579973.25309  22184337.620    90841737.51747
  22358069.880   117492559.80409  22358065.460    91552687.17047
  21863698.640   114894547.29909  21863697.820    89528263.44148
  24585260.440   129196325.75308  24585265.400   100672421.41245
 15 03 06 00 21  0.0000000  0  7G16G18G19G21G22G27G31
  20740324.480   108991158.02209  20740320.720    84928171.02448
  21791725.000   114516435.88309  21791721.740    89233634.59147
  23892150.380   125554106.03108  23892146.480    97834356.68245
  22195981.660   116641142.27809  22195977.720    90889401.69147
  22342429.860   117410371.09309  22342425.400    91488644.06747
  21853197.640   114839364.16309  21853196.760    89485263.60448
  24603362.780   129291450.71508  24603367.900   100746543.76444
 15 03 06 00 21 30.0000000  0  7G16G18G19G21G22G27G31
  20733250.100   108953981.81709  20733246.320    84899202.55148
  21786987.720   114491541.28009  21786984.440    89214236.20247
  23877648.820   125477899.04608  23877644.700    97774974.55446
  22207652.860   116702474.88209  22207648.920    90937193.32747
  22326837.520   117328432.97809  22326833.040    91424796.22547
  21842718.340   114784294.99909  21842717.440    89442352.57348
  24621449.480   129386492.72408  24621454.700   100820601.51746
 15 03 06 00 22  0.0000000  0  7G16G18G19G21G22G27G31
  20726264.980   108917274.86409  20726261.260    84870599.73048
  21782340.200   114467118.52909  21782336.960    89195205.50447
  23863160.540   125401763.38008  23863156.580    97715648.17646
  22219356.660   116763978.92409  22219352.740    90985118.55047
  22311295.200   117246757.72409  22311290.760    91361153.22248
  21832262.640   114729349.95709  21832261.720    89399538.26648
  24639521.840   129481459.33908  24639527.460   100894600.37746
 15 03 06 00 22 30.0000000  0  7G16G18G19G21G22G27G31
  20719368.060   108881031.14709  20719364.340    84842357.87348
  21777781.200   114443161.01109  21777778.000    89176537.31847
  23848684.800   125325692.06008  23848680.620    97656371.77546
  22231091.340   116825644.94709  22231087.440    91033169.99647
  22295801.940   117165340.33509  22295797.460    91297711.15047
  21821829.160   114674521.66009  21821828.240    89356814.93048
  24657577.740   129576339.54108  24657583.120   100968532.02944
 15 03 06 00 23  0.0000000  0  7G16G18G19G21G22G27G31
  20712561.000   108845259.70509  20712557.300    84814484.01448
  21773312.220   114419676.57009  21773309.080    89158237.76047
  23834222.180   125249691.26908  23834218.220    97597150.44847
  22242857.860   116887478.56909  22242854.020    91081352.02947
  22280359.580   117084190.38209  22280355.080    91234477.46148
  21811419.320   114619817.79109  21811418.380    89314188.55148
  24675618.220   129671137.70108  24675623.740   101042399.64846
 15 03 06 00 23 30.0000000  0  7G16G18G19G21G22G27G31
  20705843.080   108809956.67109  20705839.360    84786975.15448
  21768932.480   114396660.88109  21768929.360    89140303.46948
  23819772.300   125173756.08607  23819768.100    97537980.14847
  22254654.940   116949472.61409  22254651.120    91129659.07947
  22264967.540   117003304.80009  22264962.960    91171449.77647
  21801032.160   114565233.16509  21801031.280    89271655.08748
  24693641.500   129765846.09708  24693647.120   101116197.30745
 15 03 06 00 24  0.0000000  0  6G16G18G19G21G22G27
  20699214.020   108775120.92309  20699210.380    84759830.41148
  21764641.640   114374112.27009  21764638.520    89122733.13147
  23805334.500   125097884.38008  23805330.400    97478859.40847
  22266481.720   117011622.71009  22266477.860    91178087.71547
  22249625.840   116922683.68009  22249621.200    91108628.16348
  21790667.240   114510765.37909  21790666.380    89229212.66948
 15 03 06 00 24 30.0000000  0  6G16G18G19G21G22G27
  20692676.460   108740765.85509  20692672.820    84733060.22648
  21760442.140   114352043.58909  21760438.980    89105536.76847
  23790910.720   125022087.29908  23790906.520    97419796.80345
  22278340.020   117073938.56209  22278336.160    91226645.51447
  22234337.160   116842341.16209  22234332.520    91046023.64048
  21780326.900   114456426.71809  21780326.100    89186870.86248
 15 03 06 00 25  0.0000000  0  6G16G18G19G21G22G27
  20686229.000   108706884.29309  20686225.380    84706659.00948
  21756332.280   114330446.13109  21756329.140    89088707.59548
  23776499.600   124946355.89508  23776495.180    97360785.29346
  22290227.840   117136409.31309  22290223.940    91275324.02347
  22219100.180   116762270.47309  22219095.560    90983630.93847
  21770009.420   114402208.16309  21770008.680    89144622.65248
 15 03 06 00 25 30.0000000  0  6G16G18G19G21G22G27
  20679873.060   108673483.75509  20679869.460    84680632.60748
  21752313.440   114309327.05009  21752310.260    89072251.17247
  23762101.960   124870696.31708  23762097.720    97301829.85346
  22302145.880   117199039.06209  22302142.020    91324126.41247
  22203916.560   116682480.18709  22203911.940    90921456.73048
  21759716.060   114348116.28309  21759715.340    89102473.14148
 15 03 06 00 26  0.0000000  0  6G16G18G19G21G22G27
  20673607.900   108640560.09809  20673604.320    84654977.80048
  21748384.780   114288681.84709  21748381.580    89056164.00747
  23747716.960   124795103.04908  23747712.580    97242925.98646
  22314092.940   117261821.23309  22314089.060    91373047.57747
  22188785.600   116602966.81009  22188781.020    90859498.29248
  21749445.800   114294145.93109  21749445.100    89060418.32048
 15 03 06 00 26 30.0000000  0  6G16G18G19G21G22G27
  20667434.780   108608120.23909  20667431.220    84629699.98148
  21744547.360   114268516.01109  21744544.120    89040450.38348
  23733345.620   124719581.20808  23733341.420    97184077.84146
  22326069.560   117324758.67309  22326065.620    91422089.72947
  22173708.980   116523738.89009  22173704.420    90797762.29548
  21739199.680   114240302.44309  21739199.000    89018462.36348
 15 03 06 00 27  0.0000000  0  6G16G18G19G21G22G27
  20661353.860   108576164.70209  20661350.280    84604799.56148
  21740801.180   114248829.85209  21740797.940    89025110.53548
  23718987.480   124644129.85808  23718983.320    97125284.63946
  22338075.160   117387848.67109  22338071.200    91471250.75947
  22158686.940   116444797.70709  22158682.400    90736249.72648
  21728977.640   114186585.47809  21728977.020    88976604.99448
 15 03 06 00 27 30.0000000  0  6G16G18G19G21G22G27
  20655364.500   108544690.60209  20655360.960    84580274.28048
  21737145.660   114229620.04909  21737142.460    89010141.86648
  23704642.160   124568744.71408  23704638.180    97066542.98046
  22350108.760   117451085.64709  22350104.840    91520526.31747
  22143719.100   116366141.42209  22143714.580    90674959.15548
  21718778.940   114132991.01909  21718778.300    88934843.08048
 15 03 06 00 28  0.0000000  0  6G16G18G19G21G22G27
  20649467.580   108513702.35709  20649464.100    84556127.59048
  21733581.360   114210889.60209  21733578.160    88995546.72148
  23690309.940   124493428.49208  23690305.740    97007855.01746
  22362170.520   117514470.50309  22362166.600    91569917.10347
  22128806.420   116287774.97209  22128801.900    90613894.42848
  21708604.160   114079522.13909  21708603.500    88893179.01648
 15 03 06 00 28 30.0000000  0  6G16G18G19G21G22G27
  20643663.700   108483202.91709  20643660.260    84532361.78648
  21730108.820   114192641.11909  21730105.660    88981327.13348
  23675991.200   124418183.38908  23675987.360    96949222.54347
  22374260.440   117578003.34309  22374256.500    91619423.20647
  22113949.620   116209702.28209  22113945.100    90553058.60248
  21698453.680   114026180.87309  21698452.960    88851614.39948
 15 03 06 00 29  0.0000000  0  6G16G18G19G21G22G27
  20637952.440   108453190.13809  20637949.020    84508975.20548
  21726727.400   114174871.45809  21726724.240    88967480.66348
  23661685.440   124343005.38008  23661681.080    96890642.27046
  22386377.380   117641678.13809  22386373.440    91669039.92547
  22099148.520   116131922.11309  22099144.020    90492450.72148
  21688326.840   113972963.82009  21688326.080    88810146.57848
 15 03 06 00 29 30.0000000  0  6G16G18G19G21G22G27
  20632335.900   108423674.98709  20632332.500    84485976.37948
  21723438.920   114157590.31109  21723435.740    88954014.84448
  23647393.900   124267903.72908  23647390.040    96832121.57247
  22398522.840   117705502.78209  22398518.900    91718773.40847
  22084405.300   116054446.05809  22084400.760    90432079.80548
  21678225.500   113919880.77509  21678224.700    88768783.16448
 15 03 06 00 30  0.0000000  0  6G16G18G19G21G22G27
  20626812.140   108394647.35809  20626808.740    84463357.44448
  21720241.500   114140787.62109  21720238.280    88940921.84748
  23633114.820   124192866.75708  23633110.420    96773651.20046
  22410694.220   117769463.82409  22410690.260    91768613.17247
  22069718.380   115977265.79909  22069713.800    90371939.37648
  21668147.540   113866920.57809  21668146.680    88727515.48248
 15 03 06 00 30 30.0000000  0  6G16G18G19G21G22G27
  20621382.760   108366115.66609  20621379.320    84441124.95348
  21717136.440   114124470.67309  21717133.300    88928207.35748
  23618849.560   124117902.22008  23618845.600    96715237.33747
  22422892.720   117833567.30609  22422888.800    91818563.92947
  22055089.480   115900390.43409  22055084.880    90312036.52748
  21658094.420   113814090.88709  21658093.520    88686349.48748
 15 03 06 00 31  0.0000000  0  6G16G18G19G21G22G27
  20616048.640   108338084.50309  20616045.180    84419282.48248
  21714124.480   114108642.92609  21714121.340    88915874.05848
  23604598.400   124043012.76008  23604594.180    96656881.92846
  22435118.360   117897813.50109  22435114.480    91868625.88547
  22040519.540   115823824.73009  22040514.860    90252374.97448
  21648066.780   113761394.77309  21648065.780    88645287.58248
 15 03 06 00 31 30.0000000  0  6G16G18G19G21G22G27
  20610807.900   108310543.91809  20610804.360    84397822.28048
  21711203.800   114093294.70209  21711200.620    88903914.41548
  23590359.760   123968187.72108  23590355.880    96598576.74546
  22447368.940   117962190.76009  22447365.040    91918789.97947
  22026006.960   115747560.58109  22026002.240    90192948.39948
  21638062.600   113708822.07609  21638061.520    88604321.84948
 15 03 06 00 32  0.0000000  0  6G16G18G19G21G22G27
  20605663.220   108283508.24509  20605659.640    84376755.52248
  21708376.840   114078438.70609  21708373.600    88892338.32448
  23576135.560   123893439.44208  23576131.240    96540331.32546
  22459646.400   118026709.19809  22459642.500    91969064.08047
  22011554.620   115671613.13309  22011549.900    90133768.60448
  21628084.300   113656385.50909  21628083.180    88563462.19448
 15 03 06 00 32 30.0000000  0  6G16G18G19G21G22G27
  20600613.600   108256972.11909  20600609.960    84356078.02048
  21705642.340   114064068.68009  21705639.040    88881140.91648
  23561924.680   123818761.29708  23561920.780    96482140.65746
  22471949.180   118091360.58009  22471945.320    92019441.77347
  21997161.660   115595977.75909  21997156.960    90074831.99048
  21618130.680   113604078.68109  21618129.500    88522703.63448
 15 03 06 00 33  0.0000000  0  6G16G18G19G21G22G27
  20595658.300   108230931.70009  20595654.640    84335786.77648
  21702999.480   114050180.28109  21702996.120    88870318.79148
  23547726.440   123744148.47408  23547722.120    96424000.77146
  22484275.940   118156137.90709  22484272.040    92069917.59847
  21982827.540   115520651.69209  21982822.840    90016136.38048
  21608200.820   113551897.12409  21608199.660    88482042.68648
 15 03 06 00 33 30.0000000  0  6G16G18G19G21G22G27
  20590800.280   108205402.60109  20590796.640    84315893.96848
  21700451.020   114036788.07509  21700447.680    88859883.31648
  23533543.220   123669615.05608  23533539.200    96365922.82547
  22496629.180   118221054.43209  22496625.260    92120501.89547
  21968555.420   115445651.31309  21968550.720    89957694.56148
  21598297.540   113499855.32309  21598296.400    88441490.63748
 15 03 06 00 34  0.0000000  0  6G16G18G19G21G22G27
  20586037.840   108180375.75209  20586034.220    84296392.52748
  21697995.220   114023882.89109  21697991.900    88849827.33848
  23519373.200   123595151.25808  23519368.900    96307899.10746
  22509006.640   118286098.11109  22509002.680    92171185.27747
  21954343.900   115370969.40809  21954339.160    89899500.90248
  21588419.140   113447944.09909  21588418.000    88401040.33848
 15 03 06 00 34 30.0000000  0  6G16G18G19G21G22G27
  20581372.100   108155857.05709  20581368.480    84277287.04048
  21695632.820   114011468.39009  21695629.480    88840153.70948
  23505217.160   123520760.92608  23505213.020    96249932.65046
  22521408.700   118351271.28709  22521404.760    92221969.55947
  21940194.180   115296612.19109  21940189.440    89841560.24448
  21578566.380   113396167.33809  21578565.200    88360694.80648
 15 03 06 00 35  0.0000000  0  6G16G18G19G21G22G27
  20576803.060   108131846.68709  20576799.460    84258577.66148
  21693363.820   113999544.78009  21693360.440    88830862.59348
  23491074.980   123446443.43208  23491070.660    96192022.93846
  22533834.860   118416571.48509  22533830.940    92272852.82447
  21926106.520   115222581.00409  21926101.760    89783873.63548
  21568739.160   113344524.93309  21568737.980    88320453.97348
 15 03 06 00 35 30.0000000  0  6G16G18G19G21G22G27
  20572330.880   108108345.35609  20572327.320    84240264.92848
  21691188.240   113988112.29509  21691184.860    88821954.17648
  23476946.600   123372198.21508  23476942.300    96134169.52547
  22546284.680   118481995.87709  22546280.780    92323832.85447
  21912081.220   115148877.56009  21912076.460    89726442.40948
  21558937.480   113293016.76409  21558936.320    88280317.73248
 15 03 06 00 36  0.0000000  0  6G16G18G19G21G22G27
  20567956.180   108085356.17409  20567952.640    84222351.27148
  21689106.440   113977172.54609  21689103.060    88813429.71048
  23462832.280   123298027.26208  23462828.000    96076374.00647
  22558758.260   118547545.33008  22558754.440    92374910.34347
  21898119.040   115075506.06409  21898114.360    89669269.84548
  21549161.740   113241645.03809  21549160.640    88240287.81748
 15 03 06 00 36 30.0000000  0  6G16G18G19G21G22G27
  20563679.000   108062879.59109  20563675.500    84204837.04948
  21687118.460   113966725.61709  21687115.060    88805289.25248
  23448732.040   123223929.93208  23448727.860    96018635.86047
  22571255.160   118613217.30809  22571251.420    92426083.30347
  21884220.340   115002468.15209  21884215.680    89612357.21148
  21539411.920   113190409.60909  21539410.900    88200364.10648
 15 03 06 00 37  0.0000000  0  6G16G18G19G21G22G27
  20559499.820   108040917.98609  20559496.340    84187724.10348
  21685224.480   113956772.80109  21685221.100    88797533.82548
  23434645.960   123149907.31908  23434641.780    95960955.93847
  22583775.380   118679011.51409  22583771.580    92477351.51547
  21870385.740   114929767.26909  21870381.140    89555707.20748
  21529688.340   113139312.09009  21529687.380    88160547.86248
 15 03 06 00 37 30.0000000  0  6G16G18G19G21G22G27
  20555418.720   108019471.85509  20555415.280    84171012.82848
  21683424.420   113947313.53709  21683421.080    88790162.98147
  23420573.960   123075958.99308  23420569.880    95903333.90147
  22596318.300   118744924.99809  22596314.500    92528712.66247
  21856615.480   114857404.64209  21856610.980    89499320.77248
  21519990.920   113088352.00409  21519990.000    88120838.70448
 15 03 06 00 38  0.0000000  0  6G16G18G19G21G22G27
  20551435.620   107998540.57809  20551432.180    84154702.73148
  21681718.120   113938346.93609  21681714.760    88783176.02748
  23406515.900   123002083.33108  23406511.780    95845768.46847
  22608883.260   118810954.28709  22608879.540    92580164.04247
  21842909.780   114785380.97909  21842905.300    89443198.46348
  21510319.460   113037528.41209  21510318.600    88081235.90748
 15 03 06 00 38 30.0000000  0  6G16G18G19G21G22G27
  20547551.200   107978127.54509  20547547.700    84138796.46348
  21680105.960   113929875.10409  21680102.660    88776574.60848
  23392472.120   122928282.37008  23392467.920    95788261.25446
  22621470.500   118877100.58309  22621466.780    92631706.60347
  21829269.460   114713700.70809  21829264.960    89387343.73548
  21500674.460   112986843.72309  21500673.660    88041741.34748
 15 03 06 00 39  0.0000000  0  6G16G18G19G21G22G27
  20543766.180   107958236.74009  20543762.600    84123297.12148
  21678588.560   113921901.17409  21678585.280    88770361.16548
  23378443.060   122854559.10208  23378438.740    95730814.57046
  22634080.140   118943364.49609  22634076.400    92683340.81047
  21815695.460   114642368.66709  21815690.860    89331760.34748
  21491056.520   112936301.20509  21491055.760    88002357.55848
 15 03 06 00 39 30.0000000  0  6G16G18G19G21G22G27
  20540079.700   107938864.12209  20540076.120    84108201.57548
  21677165.040   113914420.44409  21677161.740    88764532.03848
  23364427.820   122780908.69208  23364423.540    95673424.67947
  22646710.960   119009739.69609  22646707.180    92735061.74247
  21802187.220   114571382.11409  21802182.500    89276446.17648
  21481464.760   112885896.35509  21481464.060    87963081.06448
 15 03 06 00 40  0.0000000  0  6G16G18G19G21G22G27
  20536492.900   107920015.31409  20536489.300    84093514.18448
  21675836.260   113907437.59809  21675832.920    88759090.86948
  23350427.240   122707335.24508  23350423.120    95616094.74347
  22659363.500   119076228.89809  22659359.660    92786871.50047
  21788746.000   114500747.83709  21788741.180    89221406.50248
  21471900.120   112835633.98209  21471899.460    87923915.58448
 15 03 06 00 40 30.0000000  0  6G16G18G19G21G22G27
  20533005.420   107901688.31209  20533001.780    84079233.40148
  21674601.700   113900949.79709  21674598.300    88754035.45048
  23336440.900   122633836.30108  23336436.640    95558822.85147
  22672036.780   119142827.33409  22672032.960    92838766.38347
  21775371.620   114430465.02409  21775366.800    89166640.70348
  21462362.180   112785511.93209  21462361.540    87884859.45848
 15 03 06 00 41  0.0000000  0  6G16G18G19G21G22G27
  20529618.400   107883889.37009  20529614.780    84065364.08849
  21673462.260   113894961.95209  21673458.840    88749369.60948
  23322469.680   122560416.87308  23322465.440    95501612.96347
  22684731.580   119209538.80109  22684727.740    92890749.33447
  21762065.460   114360540.78709  21762060.660    89112154.30548
  21452851.960   112735535.54409  21452851.340    87845916.82848
 15 03 06 00 41 30.0000000  0  6G16G18G19G21G22G27
  20526330.700   107866612.44509  20526327.100    84051901.54148
  21672416.740   113889467.64109  21672413.280    88745088.33448
  23308512.300   122487070.18108  23308507.880    95444459.70647
  22697446.140   119276354.21508  22697442.320    92942813.28347
  21748826.640   114290970.60709  21748821.880    89057943.80448
  21443368.260   112685698.38209  21443367.640    87807082.68048
 15 03 06 00 42  0.0000000  0  6G16G18G19G21G22G27
  20523143.660   107849864.39009  20523140.040    84038851.10648
  21671466.300   113884473.07909  21671462.860    88741196.47448
  23294569.860   122413802.16408  23294565.380    95387367.75747
  22710181.400   119343278.38908  22710177.640    92994961.98247
  21735656.680   114221762.43109  21735651.940    89004015.38048
  21433912.300   112636006.87209  21433911.640    87768362.02948
 15 03 06 00 42 30.0000000  0  6G16G18G19G21G22G27
  20520057.360   107833645.96509  20520053.800    84026213.36748
  21670610.880   113879978.04609  21670607.460    88737693.85248
  23280642.300   122340612.76008  23280637.880    95330337.06947
  22722936.920   119410309.06809  22722933.140    93047193.66747
  21722555.920   114152917.81409  21722551.220    88950370.24648
  21424484.100   112586461.12109  21424483.420    87729754.94848
 15 03 06 00 43  0.0000000  0  6G16G18G19G21G22G27
  20517071.540   107817955.67209  20517068.040    84013987.16448
  21669850.000   113875979.75209  21669846.600    88734578.30947
  23266729.240   122267499.28608  23266724.680    95273365.55646
  22735711.820   119477441.76509  22735708.020    93099504.85647
  21709524.300   114084436.28309  21709519.580    88897008.04548
  21415083.220   112537059.09709  21415082.520    87691259.87748
 15 03 06 00 43 30.0000000  0  6G16G18G19G21G22G27
  20514186.960   107802797.35409  20514183.560    84002175.48448
  21669184.280   113872481.44609  21669180.880    88731852.36547
  23252831.200   122194464.96608  23252826.760    95216455.72047
  22748506.500   119544678.33008  22748502.660    93151896.97647
  21696562.820   114016323.26509  21696558.060    88843932.98648
  21405710.360   112487804.24309  21405709.600    87652879.47348
 15 03 06 00 44  0.0000000  0  6G16G18G19G21G22G27
  20511403.620   107788170.95609  20511400.280    83990778.29049
  21668613.480   113869482.11609  21668610.120    88729515.24348
  23238948.080   122121509.16708  23238943.760    95159607.07847
  22761320.380   119612015.97108  22761316.600    93204367.86347
  21683671.720   113948580.09509  21683666.920    88791146.12748
  21396365.480   112438696.44909  21396364.640    87614613.67648
 15 03 06 00 44 30.0000000  0  6G16G18G19G21G22G27
  20508721.420   107774076.02609  20508718.120    83979795.22049
  21668137.440   113866980.60909  21668134.100    88727566.02048
  23225079.700   122048630.43508  23225075.380    95102818.47147
  22774152.960   119679451.98408  22774149.280    93256915.39547
  21670851.060   113881207.10409  21670846.240    88738647.71348
  21387048.360   112389734.64509  21387047.480    87576461.62548
 15 03 06 00 45  0.0000000  0  6G16G18G19G21G22G27
  20506141.380   107760517.70609  20506138.100    83969230.28549
  21667756.900   113864981.02609  21667753.540    88726007.91448
  23211226.740   121975832.97508  23211222.560    95046093.18847
  22787004.780   119746988.86708  22787001.080    93309541.51947
  21658101.980   113814210.43109  21658097.120    88686442.53448
  21377759.900   112340923.39309  21377759.000    87538426.88148
 15 03 06 00 45 30.0000000  0  6G16G18G19G21G22G27
  20503663.100   107747494.22809  20503659.820    83959082.11849
  21667471.360   113863480.60509  21667467.980    88724838.76847
  23197388.760   121903114.18108  23197384.600    94989429.22247
  22799874.960   119814622.37908  22799871.340    93362242.95047
  21645424.480   113747589.80009  21645419.600    88634530.38348
  21368499.720   112292260.79209  21368498.840    87500507.98048
 15 03 06 00 46  0.0000000  0  6G16G18G19G21G22G27
  20501286.920   107735007.24409  20501283.660    83949351.99349
  21667281.000   113862480.19909  21667277.620    88724059.23648
  23183566.020   121830475.21808  23183561.800    94932827.43547
  22812763.400   119882351.70708  22812759.780    93415019.03747
  21632819.060   113681348.00209  21632814.220    88582913.41648
  21359268.080   112243748.16809  21359267.200    87462705.94148
 15 03 06 00 46 30.0000000  0  6G16G18G19G21G22G27
  20499013.260   107723058.99109  20499009.960    83940041.66149
  21667186.040   113861981.03409  21667182.680    88723670.28748
  23169758.720   121757917.67208  23169754.460    94876289.12247
  22825670.000   119950176.29508  22825666.380    93467869.36147
  21620286.360   113615488.46109  21620281.580    88531594.31148
  21350065.360   112195387.45109  21350064.480    87425022.26748
 15 03 06 00 47  0.0000000  0  6G16G18G19G21G22G27
  20496841.440   107711645.79809  20496838.120    83931148.25049
  21667185.620   113861978.91909  21667182.280    88723668.64548
  23155966.100   121685437.25608  23155961.860    94819810.88547
  22838593.700   120018090.75808  22838590.040    93520789.70947
  21607825.900   113550008.51709  21607821.120    88480571.00548
  21340890.800   112147174.75709  21340889.920    87387453.94548
 15 03 06 00 47 30.0000000  0  6G16G18G19G21G22G27
  20494772.860   107700775.06809  20494769.500    83922677.55349
  21667280.980   113862480.10709  21667277.640    88724059.19148
  23142189.440   121613040.70808  23142185.320    94763398.03347
  22851535.420   120086099.92108  22851531.760    93573783.86247
  21595439.460   113484917.39909  21595434.680    88429850.68548
  21331745.740   112099117.27409  21331744.860    87350006.57248
 15 03 06 00 48  0.0000000  0  6G16G18G19G21G22G27
  20492806.780   107690443.34809  20492803.420    83914626.85249
  21667471.340   113863480.44009  21667468.000    88724838.67548
  23128427.980   121540723.87908  23128423.860    94707047.28847
  22864494.120   120154197.94708  22864490.380    93626847.24547
  21583126.540   113420212.37809  21583121.680    88379431.20348
  21322629.520   112051211.30409  21322628.640    87312677.24848
 15 03 06 00 48 30.0000000  0  6G16G18G19G21G22G27
  20490943.700   107680652.89609  20490940.360    83906997.92149
  21667756.920   113864981.03409  21667753.540    88726007.97848
  23114682.020   121468488.12708  23114677.760    94650759.69547
  22877469.660   120222384.56308  22877465.860    93679979.66347
  21570887.700   113355896.80609  21570882.820    88329315.18948
  21313542.560   112003458.89609  21313541.620    87275467.58248
 15 03 06 00 49  0.0000000  0  6G16G18G19G21G22G27
  20489183.960   107671405.41109  20489180.580    83899792.08648
  21668137.760   113866982.26909  21668134.340    88727567.39648
  23100951.740   121396334.86608  23100947.260    94594536.41847
  22890462.000   120290659.50509  22890458.180    93733180.89847
  21558723.580   113291973.95509  21558718.680    88279505.20248
  21304485.100   111955861.56509  21304484.120    87238378.76348
 15 03 06 00 49 30.0000000  0  6G16G18G19G21G22G27
  20487527.120   107662698.50809  20487523.720    83893007.47649
  21668613.440   113869481.91609  21668610.020    88729515.18148
  23087236.660   121324261.46108  23087232.280    94538375.35047
  22903470.320   120359018.25208  22903466.460    93786447.44647
  21546634.020   113228442.90409  21546629.100    88230000.50648
  21295456.740   111908417.06609  21295455.700    87201409.03148
 15 03 06 00 50  0.0000000  0  6G16G18G19G21G22G27
  20485974.500   107654539.42209  20485971.140    83886649.74449
  21669185.120   113872485.98109  21669181.700    88731856.01948
  23073537.980   121252274.40708  23073533.560    94482281.57647
  22916495.460   120427465.60908  22916491.600    93839783.04247
  21534620.580   113165312.01409  21534615.680    88180807.62348
  21286458.760   111861132.43309  21286457.740    87164563.86748
 15 03 06 00 50 30.0000000  0  6G16G18G19G21G22G27
  20484525.860   107646926.73809  20484522.500    83880717.77549
  21669852.280   113875991.99909  21669848.860    88734587.98948
  23059855.360   121180371.70308  23059850.900    94426253.52647
  22929536.700   120495997.82408  22929532.900    93893184.75247
  21522683.240   113102580.92909  21522678.360    88131926.28348
  21277490.900   111814005.96809  21277489.920    87127841.95348
 15 03 06 00 51  0.0000000  0  6G16G18G19G21G22G27
  20483181.040   107639859.59309  20483177.640    83875210.90449
  21670614.640   113879998.31709  21670611.180    88737709.80248
  23046188.480   121108551.92208  23046184.040    94370290.09147
  22942593.540   120564612.20008  22942589.820    93946650.49346
  21510822.040   113040249.99209  21510817.140    88083356.75248
  21268553.000   111767036.97409  21268552.020    87091242.74448
 15 03 06 00 51 30.0000000  0  6G16G18G19G21G22G27
  20481940.460   107633340.30109  20481937.060    83870130.92949
  21671472.440   113884506.24909  21671468.980    88741222.47648
  23032537.800   121036817.19008  23032533.340    94314392.91847
  22955665.980   120633308.69808  22955662.340    94000180.21247
  21499037.740   112978323.12509  21499032.840    88035102.06648
  21259645.480   111720227.64809  21259644.500    87054767.94548
 15 03 06 00 52  0.0000000  0  6G16G18G19G21G22G27
  20480803.720   107627366.52909  20480800.260    83865476.03749
  21672425.040   113889512.27009  21672421.560    88745123.27848
  23018902.760   120965164.52208  23018898.240    94258559.71147
  22968753.240   120702082.87108  22968749.580    94053770.46947
  21487330.080   112916799.05109  21487325.200    87987161.25448
  21250767.900   111673575.67409  21250766.940    87018415.76248
 15 03 06 00 52 30.0000000  0  6G16G18G19G21G22G27
  20479771.980   107621944.51809  20479768.480    83861251.08949
  21673473.580   113895022.50009  21673470.100    88749416.97648
  23005284.420   120893600.00108  23005279.920    94202795.18447
  22981856.140   120770938.87108  22981852.440    94107424.49047
  21475700.500   112855685.20609  21475695.580    87939540.09748
  21241921.440   111627087.38609  21241920.500    86982191.13648
 15 03 06 00 53  0.0000000  0  6G16G18G19G21G22G27
  20478844.280   107617069.31409  20478840.780    83857452.22748
  21674616.820   113901030.28509  21674613.320    88754098.37348
  22991681.900   120822118.31508  22991677.420    94147095.21047
  22994973.260   120839869.63908  22994969.500    94161136.77247
  21464148.280   112794978.10909  21464143.360    87892235.88848
  21233105.200   111580757.74809  21233104.220    86946090.13048
 15 03 06 00 53 30.0000000  0  6G16G18G19G21G22G27
  20478021.460   107612745.34209  20478017.960    83854082.89049
  21675855.460   113907539.29809  21675851.960    88759170.33548
  22978095.900   120750723.23808  22978091.340    94091462.68447
  23008105.060   120908877.73408  23008101.320    94214909.30647
  21452674.600   112734683.70509  21452669.700    87845253.25448
  21224320.000   111534591.35009  21224319.020    86910116.32548
 15 03 06 00 54  0.0000000  0  6G16G18G19G21G22G27
  20477303.720   107608973.35609  20477300.180    83851143.67248
  21677189.540   113914550.04409  21677186.060    88764633.26447
  22964526.540   120679415.80908  22964521.940    94035898.48747
  23021251.420   120977962.29608  23021247.700    94268741.40847
  21441279.880   112674804.17609  21441275.020    87798593.89548
  21215566.040   111488589.43409  21215565.100    86874270.68948
 15 03 06 00 54 30.0000000  0  7G04G16G18G19G21G22G27
  24583421.620                                                  
  20476690.580   107605751.07309  20476687.020    83848632.79849
  21678618.360   113922058.61409  21678614.880    88770484.10348
  22950973.300   120608192.93409  22950968.680    93980400.17147
  23034411.380   121047118.25608  23034407.640    94322629.16447
  21429963.860   112615338.13709  21429958.980    87752256.74248
  21206842.880   111442749.38109  21206842.040    86838551.18348
 15 03 06 00 55  0.0000000  0  7G04G16G18G19G21G22G27
  24564836.000   129089085.97808  24564839.040   100588897.61445
  20476186.460   107603101.72909  20476182.880    83846568.37448
  21680146.160   113930087.60509  21680142.760    88776740.46748
  22937440.480   120537077.45908  22937435.800    93924985.54247
  23047589.000   121116366.97908  23047585.260    94376589.20747
  21418731.160   112556310.03409  21418726.320    87706260.84248
  21198154.980   111397094.48209  21198154.180    86802975.94748
 15 03 06 00 55 30.0000000  0  7G04G16G18G19G21G22G27
  24546273.720   128991541.70007  24546276.860   100512889.39943
  20475783.760   107600985.46609  20475780.160    83844919.32749
  21681765.380   113938596.81509  21681762.020    88783371.02148
  22923920.520   120466029.54208  22923915.700    93869623.54747
  23060776.480   121185667.41808  23060772.740    94430589.53447
  21407574.600   112497681.85509  21407569.760    87660576.56648
  21189494.900   111351585.52309  21189494.120    86767514.42948
 15 03 06 00 56  0.0000000  0  7G04G16G18G19G21G22G27
  24527739.160   128894144.11107  24527742.620   100436995.25144
  20475486.600   107599424.07609  20475483.020    83843702.65648
  21683479.920   113947606.85809  21683476.580    88790391.84348
  22910417.540   120395070.96408  22910412.680    93814331.16547
  23073977.460   121255038.78908  23073973.720    94484645.14846
  21396498.500   112439476.54109  21396493.640    87615221.79648
  21180866.780   111306244.37009  21180865.960    86732183.66948
 15 03 06 00 56 30.0000000  0  7G04G16G18G19G21G22G27
  24509233.320   128796897.14907  24509237.100   100361218.62545
  20475295.480   107598420.01009  20475291.920    83842920.26549
  21685290.060   113957119.19209  21685286.700    88797804.06248
  22896932.020   120324204.35608  22896927.220    93759110.45247
  23087192.200   121324482.47208  23087188.420    94538757.10147
  21385503.640   112381698.06409  21385498.760    87570199.63148
  21172271.180   111261074.11309  21172270.360    86696986.07649
 15 03 06 00 57  0.0000000  0  7G04G16G18G19G21G22G27
  24490755.680   128699797.71208  24490759.580   100285556.89245
  20475209.900   107597970.53609  20475206.380    83842570.01949
  21687195.060   113967129.92109  21687191.660    88805604.63848
  22883463.300   120253426.07809  22883458.520    93703958.57047
  23100419.660   121393993.06208  23100415.840    94592921.19547
  21374589.660   112324344.59709  21374584.760    87525508.63448
  21163707.460   111216071.56309  21163706.660    86661919.16749
 15 03 06 00 57 30.0000000  0  7G04G16G18G19G21G22G27
  24472306.220   128602845.20308  24472310.140   100210009.63445
  20475229.660   107598074.63309  20475226.200    83842651.13249
  21689194.540   113977637.18309  21689191.120    88813792.12348
  22870011.240   120182735.16009  22870006.420    93648874.76447
  23113659.280   121463567.87208  23113655.480    94647135.33447
  21363756.660   112267416.62209  21363751.720    87481149.18948
  21155175.500   111171236.20509  21155174.800    86626982.53449
 15 03 06 00 58  0.0000000  0  7G04G16G18G19G21G22G27
  24453885.460   128506043.23308  24453889.320   100134579.82846
  20475355.340   107598735.27309  20475351.940    83843165.90648
  21691288.980   113988643.46109  21691285.540    88822368.45248
  22856576.400   120112134.91209  22856571.700    93593861.59847
  23126911.360   121533208.25908  23126907.560    94701400.56146
  21353005.500   112210918.84209  21353000.520    87437124.96548
  21146676.060   111126571.59609  21146675.420    86592178.94949
 15 03 06 00 58 30.0000000  0  7G04G16G18G19G21G22G27
  24435493.920   128409395.42108  24435497.720   100059270.19145
  20475587.540   107599955.62909  20475584.200    83844116.82248
  21693478.760   114000150.92709  21693475.360    88831335.31548
  22843159.280   120041627.76408  22843154.580    93538920.97847
  23140176.240   121602915.77108  23140172.520    94755718.09846
