     2.11           OBSERVATION DATA    G                   RINEX VERSION / TYPE
SPIDER V4,0,0,3554                      2015 03 24 00:16    PGM / RUN BY / DATE 
CBCK                                                        MARKER NAME         
CBCK                                                        MARKER NUMBER       
                                                            OBSERVER / AGENCY   
496514              LEICA GRX1200+GNSS  8.10/4.007          REC # / TYPE / VERS 
10301041            LEIAR25         NONE                    ANT # / TYPE        
  5163537.3641   764112.0288  3655122.6807                  APPROX POSITION XYZ 
        0.0720        0.0000        0.0000                  ANTENNA: DELTA H/E/N
     1     1                                                WAVELENGTH FACT L1/2
     4    C1    L1    P2    L2                              # / TYPES OF OBSERV 
    30.000                                                  INTERVAL            
  2015    03    06    00    00    0.0000000     GPS         TIME OF FIRST OBS   
  2015    03    06    23    59   30.0000000     GPS         TIME OF LAST OBS    
    16                                                      LEAP SECONDS        
    30                                                      # OF SATELLITES     
   G 1   808   807   807   807                              PRN / # OF OBS      
   G 2   942   940   941   940                              PRN / # OF OBS      
   G 3   856   855   856   855                              PRN / # OF OBS      
   G 4   836   836   836   836                              PRN / # OF OBS      
   G 5   695   693   694   693                              PRN / # OF OBS      
   G 6   842   840   841   840                              PRN / # OF OBS      
   G 7   679   676   678   676                              PRN / # OF OBS      
   G 9   816   813   814   813                              PRN / # OF OBS      
   G10   753   749   751   749                              PRN / # OF OBS      
   G11   769   769   769   769                              PRN / # OF OBS      
   G12   839   839   839   839                              PRN / # OF OBS      
   G13   787   786   787   786                              PRN / # OF OBS      
   G14   925   921   916   916                              PRN / # OF OBS      
   G15   666   666   665   665                              PRN / # OF OBS      
   G16   661   661   661   661                              PRN / # OF OBS      
   G17   944   941   942   941                              PRN / # OF OBS      
   G18   896   896   896   896                              PRN / # OF OBS      
   G19   749   748   748   748                              PRN / # OF OBS      
   G20   758   756   758   756                              PRN / # OF OBS      
   G21   709   704   703   703                              PRN / # OF OBS      
   G22   673   673   672   672                              PRN / # OF OBS      
   G23   762   761   762   761                              PRN / # OF OBS      
   G24   799   798   796   796                              PRN / # OF OBS      
   G25   854   854   854   854                              PRN / # OF OBS      
   G27   801   801   801   801                              PRN / # OF OBS      
   G28   863   861   862   861                              PRN / # OF OBS      
   G29   768   768   768   768                              PRN / # OF OBS      
   G30   727   725   726   725                              PRN / # OF OBS      
   G31   875   875   875   875                              PRN / # OF OBS      
   G32   778   778   778   778                              PRN / # OF OBS      
BIT 2 OF LLI FLAGS DATA COLLECTED UNDER A/S CONDITION       COMMENT             
SNR is mapped to RINEX snr flag value [2-9]                 COMMENT             
Lx:     = 25dBHz -> 1; 26-27dBHz -> 2; 28-31dBHz -> 3       COMMENT             
       32-35dBHz -> 4; 36-38dBHz -> 5; 39-41dBHz -> 6       COMMENT             
       42-44dBHz -> 7; 45-48dBHz -> 8; >=49dBHz -> 9        COMMENT             
                                                            END OF HEADER       
 15 03 06 00 00  0.0000000  0  7G16G18G21G22G27G29G31
  21256263.300   111702426.87009  21256260.120    87040848.31448
  21851198.680   114828976.01709  21851195.180    89477145.78248
  21635374.180   113694790.29109  21635370.560    88593387.14648
  22924199.160   120467557.63009  22924195.680    93870848.03947
  22567285.920   118591920.66709  22567285.460    92409288.99348
  24372824.940   128080075.01308  24372823.340    99802656.25347
  23915533.000   125676947.44808  23915533.500    97930077.70746
 15 03 06 00 00 30.0000000  0  7G16G18G21G22G27G29G31
  21245174.620   111644155.65709  21245171.480    86995442.17748
  21843007.120   114785929.36009  21843003.720    89443602.94448
  21644869.540   113744688.48709  21644865.860    88632268.84948
  22906753.100   120375877.92709  22906749.580    93799409.39547
  22555155.700   118528176.18309  22555155.260    92359617.98348
  24386747.500   128153237.87908  24386745.860    99859666.25247
  23933308.820   125770359.50609  23933309.260    98002866.30946
 15 03 06 00 01  0.0000000  0  7G16G18G21G22G27G29G31
  21234159.640   111586271.39209  21234156.500    86950337.56348
  21834895.080   114743300.50409  21834891.740    89410385.67148
  21654408.260   113794814.43109  21654404.520    88671328.03148
  22889337.100   120284356.14209  22889333.540    93728093.81347
  22543041.520   118464515.76109  22543041.060    92310012.47648
  24400679.500   128226450.78608  24400677.900    99916715.27147
  23951089.560   125863797.57808  23951090.020    98075675.16246
 15 03 06 00 01 30.0000000  0  7G16G18G21G22G27G29G31
  21223218.940   111528777.44409  21223215.800    86905537.09248
  21826863.100   114701092.38809  21826859.840    89377496.23948
  21663990.380   113845168.55409  21663986.520    88710565.01048
  22871951.880   120192996.36509  22871948.260    93656904.46747
  22530943.580   118400940.76809  22530943.100    92260473.53448
  24414621.240   128299715.18208  24414619.680    99973804.40547
  23968874.880   125957260.06008  23968875.360    98148502.99846
 15 03 06 00 02  0.0000000  0  7G16G18G21G22G27G29G31
  21212352.060   111471671.14709  21212348.800    86861038.67548
  21818910.660   114659302.36209  21818907.500    89344932.59148
  21673614.580   113895743.86109  21673610.660    88749974.33248
  22854597.140   120101796.75109  22854593.400    93585839.92047
  22518861.100   118337446.93109  22518860.620    92210997.82948
  24428571.920   128373026.57408  24428570.360   100030930.14646
  23986663.300   126050739.30608  23986663.760    98221343.90546
 15 03 06 00 02 30.0000000  0  7G16G18G21G22G27G29G31
  21201559.900   111414957.89009  21201556.580    86816846.53048
  21811038.660   114617934.76509  21811035.540    89312698.11648
  21683281.040   113946541.22809  21683277.040    88789556.70248
  22837273.960   120010762.61809  22837270.020    93514904.30447
  22506794.640   118274037.35509  22506794.160    92161587.79748
  24442532.060   128446387.72308  24442530.480   100088094.65146
  24004454.900   126144235.17908  24004455.440    98294197.77746
 15 03 06 00 03  0.0000000  0  7G16G18G21G22G27G29G31
  21190842.940   111358640.02409  21190839.600    86772962.47748
  21803247.320   114576991.00209  21803244.240    89280793.90648
  21692989.460   113997559.34909  21692985.480    88829311.07948
  22819982.800   119919896.87509  22819978.700    93444099.90947
  22494744.280   118210712.26209  22494743.740    92112243.58148
  24456501.700   128519798.79508  24456500.080   100145298.05745
  24022249.220   126237744.98008  24022249.860    98367062.48346
 15 03 06 00 03 30.0000000  0  7G16G18G21G22G27G29G31
  21180201.740   111302720.33509  21180198.360    86729388.68748
  21795537.260   114536474.54509  21795534.140    89249222.65948
  21702739.740   114048797.69409  21702735.820    88869237.05748
  22802724.400   119829203.20809  22802720.140    93373429.58647
  22482710.260   118147473.06809  22482709.720    92062966.30647
  24470480.940   128593260.83307  24470479.420   100202541.18145
  24040045.960   126331266.88608  24040046.580    98439936.61446
 15 03 06 00 04  0.0000000  0  7G16G18G21G22G27G29G31
  21169636.040   111247197.35109  21169632.620    86686124.02748
  21787908.000   114496382.68909  21787904.800    89217982.25848
  21712530.860   114100250.94509  21712527.100    88909330.49548
  22785498.420   119738680.15609  22785494.120    93302892.21947
  22470691.900   118084316.30509  22470691.420    92013753.26848
  24484469.220   128666770.22107  24484467.680   100259821.20845
  24057843.760   126424794.10008  24057844.400    98512814.83946
 15 03 06 00 04 30.0000000  0  7G16G18G21G22G27G29G31
  21159147.180   111192077.93309  21159143.680    86643173.83148
  21780360.840   114456721.81209  21780357.520    89187077.67648
  21722363.340   114151921.37309  21722359.680    88949593.16448
  22768306.320   119648335.46309  22768302.020    93232493.82747
  22458690.120   118021246.72709  22458689.660    91964608.16148
  24498467.320   128740331.58507  24498465.700   100317141.71144
  24075642.880   126518328.27908  24075643.560    98585698.45446
 15 03 06 00 05  0.0000000  0  7G16G18G21G22G27G29G31
  21148734.720   111137360.03909  21148731.220    86600536.50948
  21772895.100   114417488.74909  21772891.760    89156506.47748
  21732236.080   114203803.41609  21732232.500    88990020.72748
  22751147.760   119558167.38909  22751143.580    93162233.07447
  22446704.240   117958260.52109  22446703.680    91915528.02147
  24512474.680   128813940.91807  24512473.000   100374499.59544
  24093442.020   126611862.57908  24093442.700    98658582.16846
 15 03 06 00 05 30.0000000  0  7G16G18G21G22G27G29G31
  21138399.300   111083047.07509  21138395.840    86558214.72048
  21765511.340   114378686.74509  21765508.020    89126271.15548
  21742148.960   114255896.14109  21742145.400    89030612.45148
  22734023.560   119468179.84109  22734019.440    93092112.97447
  22434734.500   117895359.18109  22434733.840    91866514.00447
  24526491.560   128887599.49208  24526489.600   100431895.88844
  24111240.780   126705395.02708  24111241.460    98731464.37847
 15 03 06 00 06  0.0000000  0  7G16G18G21G22G27G29G31
  21128141.440   111029141.99609  21128138.020    86516210.76748
  21758210.000   114340318.28609  21758206.840    89096373.68348
  21752101.940   114308199.37509  21752098.340    89071368.21848
  22716934.360   119378376.10909  22716930.280    93022136.11647
  22422781.160   117832543.81409  22422780.360    91817566.97748
  24540517.980   128961308.07008  24540515.820   100489331.14244
  24129038.840   126798923.63008  24129039.520    98804343.52746
 15 03 06 00 06 30.0000000  0  7G16G18G21G22G27G29G31
  21117961.460   110975646.11809  21117958.100    86474525.66748
  21750991.320   114302384.43609  21750988.260    89066814.85448
  21762094.460   114360710.29609  21762090.820    89112285.81248
  22699880.680   119288758.63109  22699876.540    92952304.39047
  22410844.140   117769814.17209  22410843.380    91768686.75248
  24554553.880   129035066.11608  24554551.580   100546804.95244
  24146835.540   126892444.91108  24146836.340    98877216.93546
 15 03 06 00 07  0.0000000  0  6G16G18G21G22G27G31
  21107863.320   110922580.24509  21107860.060    86433175.63848
  21743859.060   114264904.75409  21743856.060    89037609.92948
  21772129.760   114413446.12909  21772126.060    89153378.67048
  22682866.460   119199348.18609  22682862.240    92882633.98347
  22398926.980   117707188.91309  22398926.380    91719887.86448
  24164633.860   126985974.68908  24164634.720    98950096.91546
 15 03 06 00 07 30.0000000  0  6G16G18G21G22G27G31
  21097841.220   110869913.70609  21097837.960    86392136.77548
  21736807.320   114227848.00909  21736804.380    89008734.56248
  21782201.060   114466370.96909  21782197.280    89194618.80248
  22665885.880   119110114.59409  22665881.600    92813101.38247
  22387023.540   117644635.64809  22387023.000    91671145.07048
  24182427.060   127079477.13608  24182427.940    99022955.55946
 15 03 06 00 08  0.0000000  0  6G16G18G21G22G27G31
  21087898.580   110817664.53609  21087895.240    86351423.14248
  21729839.460   114191231.94409  21729836.560    88980202.58448
  21792311.400   114519500.87509  21792307.600    89236018.73148
  22648942.540   119021076.75709  22648938.220    92743721.31747
  22375136.960   117582170.78609  22375136.340    91622471.16648
  24200217.560   127172965.48608  24200218.520    99095803.17646
 15 03 06 00 08 30.0000000  0  6G16G18G21G22G27G31
  21078035.340   110765832.39809  21078031.920    86311034.46348
  21722955.380   114155055.71509  21722952.400    88952013.33347
  21802459.840   114572830.94809  21802456.020    89277574.63048
  22632036.500   118932235.14609  22632032.160    92674494.14447
  22363266.760   117519792.20109  22363265.980    91573864.49547
  24218004.440   127266434.66608  24218005.400    99168635.86245
 15 03 06 00 09  0.0000000  0  6G16G18G21G22G27G31
  21068252.620   110714423.48109  21068249.180    86270975.55948
  21716155.840   114119324.01709  21716152.840    88924170.45948
  21812646.780   114626363.24509  21812642.920    89319288.09548
  22615168.940   118843595.77509  22615164.640    92605424.55647
  22351413.680   117457504.03509  22351412.800    91525328.27448
  24235787.880   127359885.40308  24235788.860    99241454.13145
 15 03 06 00 09 30.0000000  0  7G16G18G19G21G22G27G31
  21058550.180   110663436.67009  21058546.780    86231245.58448
  21709440.580   114084035.70509  21709437.660    88896673.09448
  24545783.940                                                  
  21822871.260   114680092.89609  21822867.340    89361155.35248
  22598339.760   118755158.52509  22598335.620    92536512.48348
  22339577.280   117395303.61709  22339576.420    91476860.43248
  24253566.680   127453312.03508  24253567.760    99314253.62146
 15 03 06 00 10  0.0000000  0  7G16G18G19G21G22G27G31
  21048925.680   110612859.54709  21048922.260    86191834.84148
  21702807.240   114049177.49409  21702804.320    88869510.86648
  24530734.920   128909878.56707  24530730.920   100449248.88145
  21833130.280   114734003.88409  21833126.240    89403163.91148
  22581546.740   118666911.38709  22581542.780    92467748.55147
  22327754.820   117333176.72709  22327754.020    91428449.88548
  24271337.600   127546697.07408  24271338.760    99387020.67245
 15 03 06 00 10 30.0000000  0  7G16G18G19G21G22G27G31
  21039385.660   110562726.64809  21039382.240    86152770.24848
  21696262.220   114014783.38409  21696259.300    88842710.27748
  24515696.660   128830850.98708  24515692.480   100387669.00344
  21843429.660   114788127.14709  21843425.500    89445337.88448
  22564796.580   118578889.34309  22564792.720    92399160.00947
  22315952.620   117271156.23909  22315951.940    91380122.24248
  24289106.280   127640070.12908  24289107.580    99459778.39346
 15 03 06 00 11  0.0000000  0  7G16G18G19G21G22G27G31
  21029927.000   110513021.26209  21029923.560    86114038.77148
  21689802.220   113980835.84509  21689799.280    88816257.65948
  24500665.380   128751860.49608  24500661.080   100326117.98245
  21853765.500   114842442.35009  21853761.340    89487661.41348
  22548086.180   118491076.45809  22548082.400    92330734.45347
  22304167.200   117209223.72009  22304166.560    91331863.14048
  24306868.660   127733409.73708  24306870.040    99532510.00946
 15 03 06 00 11 30.0000000  0  7G16G18G19G21G22G27G31
  21020551.000   110463750.03909  21020547.540    86075645.60848
  21683428.460   113947341.29409  21683425.480    88790158.02248
  24485641.860   128672911.34507  24485637.600   100264599.23345
  21864138.320   114896952.31009  21864134.220    89530136.70648
  22531417.040   118403480.14609  22531413.280    92262477.64848
  22292399.540   117147384.17809  22292398.940    91283676.49948
  24324625.100   127826717.85608  24324626.620    99605217.08346
 15 03 06 00 12  0.0000000  0  7G16G18G19G21G22G27G31
  21011257.780   110414913.82809  21011254.340    86037591.41748
  21677140.840   113914299.50209  21677137.820    88764411.18348
  24470625.860   128594002.32107  24470621.880   100203111.76345
  21874547.600   114951654.04009  21874543.700    89572761.42948
  22514789.400   118316101.74609  22514785.640    92194390.64747
  22280649.460   117085636.94109  22280648.900    91235561.78148
  24342374.720   127919990.34208  24342376.340    99677896.38546
 15 03 06 00 12 30.0000000  0  7G16G18G19G21G22G27G31
  21002047.780   110366515.00909  21002044.340    85999878.05648
  21670939.700   113881712.04709  21670936.640    88739018.37748
  24455617.660   128515134.14708  24455613.900   100141656.08845
  21884993.040   115006545.92509  21884989.340    89615534.33348
  22498203.720   118228943.54409  22498199.900    92126475.22648
  22268917.080   117023982.46409  22268916.460    91187519.35048
  24360117.000   128013224.54508  24360118.740    99750545.83546
 15 03 06 00 13  0.0000000  0  7G16G18G19G21G22G27G31
  20992920.620   110318551.69309  20992917.200    85962504.04248
  21664824.540   113849576.60109  21664821.500    88713977.77648
  24440616.480   128436302.71608  24440612.640   100080229.03445
  21895473.680   115061622.83009  21895470.180    89658451.39348
  22481659.880   118142004.96209  22481655.920    92058730.92847
  22257201.640   116962417.15309  22257200.920    91139546.39348
  24377850.780   128106414.01008  24377852.640    99823160.45546
 15 03 06 00 13 30.0000000  0  7G16G18G19G21G22G27G31
  20983876.960   110271027.41709  20983873.660    85925472.13848
  21658795.940   113817895.99209  21658792.860    88689291.60848
  24425622.740   128357510.22508  24425618.700   100018832.32345
  21905989.400   115116884.17609  21905986.080    89701512.17648
  22465158.800   118055290.60209  22465154.620    91991161.34848
  22245503.560   116900943.30709  22245502.860    91091644.71148
  24395575.820   128199557.34108  24395577.700    99895739.08245
 15 03 06 00 14  0.0000000  0  7G16G18G19G21G22G27G31
  20974917.580   110223945.82009  20974914.360    85888785.17848
  21652854.380   113786672.92609  21652851.360    88664961.96448
  24410636.600   128278757.78308  24410632.600    99957466.81246
  21916540.400   115172330.61209  21916537.180    89744717.18748
  22448700.980   117968803.93009  22448696.680    91923769.19147
  22233823.160   116839562.81909  22233822.560    91043815.77148
  24413291.940   128292653.81808  24413293.940    99968281.21445
 15 03 06 00 14 30.0000000  0  7G16G18G19G21G22G27G31
  20966042.960   110177309.31509  20966039.720    85852445.04148
  21647000.240   113755909.09909  21646997.160    88640990.16648
  24395658.140   128200045.75708  24395654.160    99896132.81146
  21927126.380   115227960.29709  21927123.140    89788064.99948
  22432287.020   117882548.07509  22432282.660    91856556.89048
  22222160.580   116778276.36209  22222160.100    90996060.10548
  24430998.680   128385700.52108  24431000.680   100040784.59946
 15 03 06 00 15  0.0000000  0  7G16G18G19G21G22G27G31
  20957253.240   110131118.97709  20957249.980    85816452.57448
  21641233.600   113725604.84709  21641230.400    88617376.47148
  24380687.240   128121373.35908  24380683.420    99834829.70346
  21937746.780   115283771.10409  21937743.540    89831553.93848
  22415917.320   117796524.93109  22415912.960    91789525.92048
  22210515.860   116717083.54709  22210515.440    90948377.40248
  24448695.200   128478693.82608  24448697.280   100113246.26745
 15 03 06 00 15 30.0000000  0  7G16G18G19G21G22G27G31
  20948548.920   110085377.44309  20948545.640    85780809.81848
  21635554.620   113695761.61309  21635551.420    88594122.00548
  24365724.040   128042741.39608  24365720.120    99773558.07946
  21948401.380   115339761.30509  21948398.040    89875182.65648
  22399592.440   117710737.55409  22399588.160    91722678.65848
  22198889.180   116655985.27609  22198888.740    90900768.35948
  24466381.100   128571631.62408  24466383.340   100185664.69045
 15 03 06 00 16  0.0000000  0  7G16G18G19G21G22G27G31
  20939930.640   110040087.83109  20939927.320    85745519.20648
  21629963.920   113666382.38609  21629960.720    88571229.11348
  24350768.720   127964151.19808  24350764.840    99712319.02646
  21959090.100   115395930.39109  21959086.640    89918950.76848
  22383313.140   117625189.60009  22383308.900    91656017.97048
  22187280.800   116594983.18409  22187280.380    90853234.27748
  24484056.100   128664512.18508  24484058.440   100258038.49346
 15 03 06 00 16 30.0000000  0  7G16G18G19G21G22G27G31
  20931398.200   109995249.13409  20931394.820    85710579.96548
  21624461.180   113637465.44709  21624458.000    88548696.44648
  24335820.800   127885600.02108  24335817.000    99651110.37246
  21969812.160   115452274.33209  21969808.520    89962855.14048
  22367079.400   117539881.04809  22367075.180    91589543.81548
  22175690.260   116534074.96109  22175689.780    90805773.33448
  24501719.300   128757330.35008  24501721.620   100330363.62845
 15 03 06 00 17  0.0000000  0  7G16G18G19G21G22G27G31
  20922951.780   109950862.71609  20922948.340    85675993.15048
  21619046.500   113609011.07309  21619043.260    88526524.21448
  24320880.160   127807086.78508  24320876.540    99589931.27946
  21980567.160   115508791.19009  21980563.280    90006894.24848
  22350891.560   117454813.68009  22350887.340    91523257.59748
  22164117.600   116473260.21709  22164117.020    90758385.22848
  24519370.020   128850082.50408  24519372.360   100402637.32945
 15 03 06 00 17 30.0000000  0  7G16G18G19G21G22G27G31
  20914592.020   109906931.62309  20914588.540    85641761.13248
  21613720.300   113581021.49509  21613717.020    88504714.16448
  24305947.120   127728613.18008  24305943.560    99528783.06846
  21991354.820   115565479.97209  21991350.760    90051067.32748
  22334750.300   117369991.34809  22334746.120    91457162.32148
  22152563.100   116412540.69409  22152562.440    90711071.31848
  24537007.880   128942766.93308  24537010.380   100474858.18845
 15 03 06 00 18  0.0000000  0  7G16G18G19G21G22G27G31
  20906320.140   109863462.13009  20906316.620    85607888.80348
  21608483.700   113553502.56109  21608480.360    88483270.85548
  24291022.560   127650183.85708  24291018.920    99467669.35146
  22002175.600   115622343.08909  22002171.480    90095376.24648
  22318657.020   117285421.20109  22318652.900    91391263.55148
  22141027.700   116351921.27709  22141027.020    90663835.41548
  24554633.120   129035385.33808  24554635.780   100547027.56446
 15 03 06 00 18 30.0000000  0  7G16G18G19G21G22G27G31
  20898136.420   109820455.89709  20898132.840    85574377.45348
  21603336.680   113526454.78109  21603333.360    88462194.67148
  24276106.180   127571798.07708  24276102.460    99406589.57546
  22013029.180   115679378.96109  22013025.120    90139819.77448
  22302612.120   117201105.27909  22302608.020    91325562.88448
  22129511.300   116291401.88709  22129510.700    90616677.45548
  24572245.120   129127934.74008  24572248.100   100619143.10445
 15 03 06 00 19  0.0000000  0  7G16G18G19G21G22G27G31
  20890040.180   109777909.59509  20890036.560    85541224.48948
  21598278.440   113499873.86809  21598275.160    88441482.28148
  24261197.160   127493450.95508  24261193.320    99345539.92145
  22023914.320   115736580.69509  22023910.280    90184392.54747
  22286615.140   117117040.84909  22286611.040    91260058.18548
  22118012.980   116230977.81009  22118012.440    90569593.77548
  24589842.440   129220406.95808  24589845.880   100691198.51645
 15 03 06 00 19 30.0000000  0  7G16G18G19G21G22G27G31
  20882032.380   109735828.62709  20882028.800    85508434.12248
  21593309.920   113473764.49809  21593306.700    88421137.32548
  24246296.240   127415146.15508  24246292.260    99284523.21746
  22034831.260   115793950.08009  22034827.380    90229095.95448
  22270667.220   117033233.87509  22270663.060    91194754.10048
  22106533.580   116170653.01709  22106533.040    90522587.45248
  24607425.380   129312803.00108  24607429.200   100763194.52246
 15 03 06 00 20  0.0000000  0  7G16G18G19G21G22G27G31
  20874113.040   109694212.73209  20874109.500    85476006.15248
  21588431.000   113448125.71609  21588427.760    88401159.06048
  24231402.980   127336881.53808  24231399.000    99223537.83145
  22045779.380   115851483.26409  22045775.500    90273927.00347
  22254768.460   116949684.90709  22254764.120    91129651.05348
  22095072.780   116110425.89909  22095072.200    90475657.23348
  24624992.960   129405117.97008  24624997.080   100835127.30646
 15 03 06 00 20 30.0000000  0  7G16G18G19G21G22G27G31
  20866283.020   109653065.84909  20866279.460    85443943.64148
  21583642.340   113422960.86709  21583639.040    88381550.09148
  24216517.780   127258659.51508  24216513.680    99162585.63245
  22056758.880   115909181.09209  22056755.080    90318886.34748
  22238919.700   116866398.75309  22238915.220    91064752.78748
  22083631.100   116050299.30409  22083630.460    90428805.33548
  24642545.140   129497351.48608  24642549.520   100906996.61146
 15 03 06 00 21  0.0000000  0  7G16G18G19G21G22G27G31
  20858542.360   109612388.34009  20858538.780    85412246.88848
  21578943.720   113398269.16309  21578940.340    88362309.81548
  24201640.440   127180478.49708  24201636.300    99101665.37145
  22067769.080   115967040.42009  22067765.300    90363971.53948
  22223121.140   116783376.61309  22223116.560    91000060.25548
  22072208.360   115990272.00709  22072207.620    90382030.82948
  24660081.020   129589499.05408  24660085.580   100978798.91546
 15 03 06 00 21 30.0000000  0  7G16G18G19G21G22G27G31
  20850891.340   109572181.89609  20850887.740    85380917.18248
  21574335.240   113374051.47709  21574331.900    88343438.89648
  24186770.960   127102338.54508  24186766.780    99040777.10945
  22078809.680   116025059.36709  22078806.020    90409181.09447
  22207373.240   116700620.68509  22207368.560    90935575.14948
  22060804.580   115930344.17609  22060803.780    90335333.81048
  24677600.100   129681557.87408  24677604.740   101050532.03946
 15 03 06 00 22  0.0000000  0  7G16G18G19G21G22G27G31
  20843330.440   109532449.29009  20843326.920    85349956.71248
  21569817.340   113350309.95109  21569814.100    88324939.01548
  24171909.480   127024240.68808  24171905.220    98979921.66745
  22089880.520   116083237.31209  22089876.940    90454514.55248
  22191676.620   116618134.55809  22191671.940    90871300.28648
  22049420.020   115870517.51009  22049419.220    90288715.63748
  24695102.060   129773526.80108  24695106.900   101122195.09046
 15 03 06 00 22 30.0000000  0  6G16G18G19G21G22G27
  20835858.460   109493183.84609  20835854.940    85319360.26548
  21565388.540   113327037.11809  21565385.440    88306804.35648
  24157054.420   126946177.01808  24157050.200    98919092.86445
  22100979.740   116141564.16809  22100976.220    90499964.03948
  22176030.220   116535912.50009  22176025.560    90807231.19448
  22038053.080   115810783.98909  22038052.300    90242170.04548
 15 03 06 00 23  0.0000000  0  6G16G18G19G21G22G27
  20828479.260   109454406.04109  20828475.800    85289143.78748
  21561052.600   113304252.09309  21561049.520    88289049.79148
  24142209.260   126868165.38308  24142204.920    98858304.59946
  22112110.560   116200057.02109  22112107.000    90545542.88348
  22160438.080   116453975.38509  22160433.460    90743384.12748
  22026707.460   115751162.79009  22026706.780    90195711.96948
 15 03 06 00 23 30.0000000  0  6G16G18G19G21G22G27
  20821191.400   109416108.44909  20821188.020    85259301.50748
  21556807.940   113281946.81909  21556804.920    88271669.07048
  24127372.380   126790197.19508  24127368.000    98797550.17746
  22123270.940   116258705.15909  22123267.440    90591242.72448
  22144898.880   116372316.48509  22144894.300    90679753.85248
  22015381.560   115691645.24409  22015380.980    90149334.66948
 15 03 06 00 24  0.0000000  0  6G16G18G19G21G22G27
  20813994.660   109378289.61609  20813991.360    85229832.28948
  21552654.180   113260119.14909  21552651.280    88254660.51148
  24112543.280   126712269.91408  24112538.880    98736827.64346
  22134460.000   116317503.92709  22134456.420    90637059.94248
  22129412.500   116290935.47109  22129408.060    90616340.11848
  22004074.900   115632228.70209  22004074.420    90103036.08348
 15 03 06 00 24 30.0000000  0  6G16G18G19G21G22G27
  20806889.880   109340954.26309  20806886.700    85200739.79848
  21548592.180   113238773.10109  21548589.220    88238027.23648
  24097722.400   126634386.02908  24097718.060    98676138.92246
  22145677.940   116376454.40209  22145674.380    90682995.37348
  22113979.960   116209837.64109  22113975.660    90553147.04748
  21992788.120   115572916.77209  21992787.720    90056818.99048
 15 03 06 00 25  0.0000000  0  6G16G18G19G21G22G27
  20799877.780   109304105.49509  20799874.620    85172026.46848
  21544622.140   113217910.06909  21544619.120    88221770.34048
  24082910.060   126556546.75408  24082905.840    98615484.95246
  22156924.600   116435556.03909  22156921.020    90729048.59448
  22098601.960   116129026.44609  22098597.780    90490177.32148
  21981521.480   115513710.81209  21981521.200    90010684.49148
 15 03 06 00 25 30.0000000  0  6G16G18G19G21G22G27
  20792958.980   109267746.45109  20792955.720    85143694.74748
  21540744.440   113197532.72309  21540741.480    88205891.90548
  24068106.580   126478754.11008  24068102.340    98554867.34246
  22168199.880   116494808.61609  22168196.400    90775219.42347
  22083279.340   116048506.01309  22083275.200    90427434.17048
  21970275.480   115454613.11409  21970275.240    89964634.34748
 15 03 06 00 26  0.0000000  0  6G16G18G19G21G22G27
  20786132.820   109231873.85809  20786129.400    85115742.07348
  21536958.420   113177637.21609  21536955.520    88190388.92348
  24053311.000   126401003.09608  24053306.920    98494282.15246
  22179502.820   116554206.41109  22179499.420    90821503.41347
  22068011.540   115968273.53509  22068007.420    90364915.39648
  21959049.380   115395619.42609  21959049.080    89918665.24248
 15 03 06 00 26 30.0000000  0  6G16G18G19G21G22G27
  20779400.320   109196493.94209  20779396.840    85088173.30648
  21533265.020   113158228.20209  21533262.120    88175265.03148
  24038524.160   126323298.29508  24038520.300    98433732.97546
  22190833.840   116613751.65909  22190830.440    90867902.30248
  22052800.060   115888336.81209  22052795.880    90302627.07848
  21947844.080   115336734.47609  21947843.600    89872780.86748
 15 03 06 00 27  0.0000000  0  6G16G18G19G21G22G27
  20772760.800   109161603.01109  20772757.280    85060985.56548
  21529663.460   113139301.63009  21529660.480    88160517.06548
  24023745.200   126245634.61208  24023741.420    98373215.87146
  22202191.680   116673437.46609  22202188.260    90914410.72147
  22037644.360   115808692.80109  22037640.040    90240566.85048
  21936658.660   115277953.79309  21936657.980    89826977.75248
 15 03 06 00 27 30.0000000  0  6G16G18G19G21G22G27
  20766215.520   109127207.39509  20766211.960    85034183.78548
  21526154.800   113120863.23209  21526151.740    88146149.48648
  24008974.980   126168016.77908  24008971.260    98312734.47346
  22213577.000   116733267.52509  22213573.520    90961031.53948
  22022545.740   115729348.77009  22022541.300    90178740.36148
  21925494.000   115219282.62609  21925493.180    89781259.96348
 15 03 06 00 28  0.0000000  0  6G16G18G19G21G22G27
  20759764.140   109093305.26209  20759760.540    85007766.53448
  21522738.340   113102909.55809  21522735.260    88132159.62148
  23994212.840   126090441.39308  23994209.040    98252286.14746
  22224988.800   116793236.55709  22224985.260    91007760.64947
  22007503.960   115650303.27009  22007499.320    90117146.49248
  21914349.500   115160717.85109  21914348.620    89735625.08448
 15 03 06 00 28 30.0000000  0  6G16G18G19G21G22G27
  20753407.520   109059900.99009  20753403.940    84981737.23248
  21519414.860   113085444.51909  21519411.760    88118550.50748
  23979459.520   126012912.08408  23979455.660    98191873.74846
  22236427.380   116853346.08109  22236423.640    91054599.24147
  21992519.940   115571561.54809  21992515.200    90055789.33948
  21903225.880   115102263.04109  21903225.000    89690075.88748
 15 03 06 00 29  0.0000000  0  6G16G18G19G21G22G27
  20747146.040   109026996.69109  20747142.500    84956097.51648
  21516184.560   113068469.07009  21516181.440    88105322.89748
  23964714.960   125935428.96708  23964711.040    98131497.32546
  22247892.300   116913594.41109  22247888.480    91101545.97847
  21977594.240   115493126.55709  21977589.480    89994671.20148
  21892123.300   115043919.08609  21892122.500    89644613.07548
 15 03 06 00 29 30.0000000  0  6G16G18G19G21G22G27
  20740979.760   108994592.34509  20740976.160    84930847.37248
  21513047.120   113051981.78809  21513044.020    88092475.67048
  23949978.940   125857990.44908  23949974.960    98071155.65046
  22259383.020   116973978.47609  22259379.180    91148598.49047
  21962726.960   115414998.76209  21962722.260    89933792.43248
  21881041.620   114985684.93209  21881040.900    89599235.81748
 15 03 06 00 30  0.0000000  0  6G16G18G19G21G22G27
  20734909.360   108962692.07809  20734905.760    84905990.01748
  21510003.340   113035986.65309  21510000.220    88080011.94348
  23935251.820   125780598.95008  23935247.800    98010850.62146
  22270899.700   117034499.16109  22270895.980    91195757.44747
  21947919.240   115337184.00509  21947914.600    89873157.59348
  21869981.380   114927563.66509  21869980.820    89553946.53248
 15 03 06 00 30 30.0000000  0  6G16G18G19G21G22G27
  20728934.180   108931292.53909  20728930.680    84881522.84048
  21507052.340   113020479.02209  21507049.140    88067928.07948
  23920532.940   125703250.58508  23920528.840    97950579.20046
  22282441.380   117095150.71009  22282437.600    91243018.39247
  21933170.540   115259679.48909  21933166.000    89812764.49948
  21858941.940   114869551.28409  21858941.460    89508742.07948
 15 03 06 00 31  0.0000000  0  6G16G18G19G21G22G27
  20723056.080   108900403.38809  20723052.720    84857453.36348
  21504195.740   113005467.29309  21504192.460    88056230.64048
  23905823.800   125625953.04108  23905819.680    97890347.39146
  22294009.000   117155938.59309  22294005.180    91290385.56147
  21918482.760   115182494.96509  21918478.280    89752620.74948
  21847924.900   114811656.00109  21847924.420    89463628.87248
 15 03 06 00 31 30.0000000  0  6G16G18G19G21G22G27
  20717273.360   108870015.43909  20717270.140    84833774.43548
  21501431.740   112990942.38609  21501428.460    88044912.54948
  23891122.400   125548696.31908  23891118.120    97830147.35346
  22305600.500   117216851.93509  22305596.620    91337850.49947
  21903854.500   115105622.97909  21903850.060    89692720.53348
  21836928.380   114753868.53609  21836927.900    89418599.69048
 15 03 06 00 32  0.0000000  0  6G16G18G19G21G22G27
  20711587.900   108840138.49209  20711584.760    84810493.68948
  21498761.860   112976912.33709  21498758.620    88033980.06448
  23876430.260   125471488.32608  23876425.940    97769985.31846
  22317216.920   117277896.39509  22317213.060    91385417.60447
  21889287.740   115029074.00509  21889283.280    89633072.01848
  21825953.940   114696197.12009  21825953.400    89373660.93948
 15 03 06 00 32 30.0000000  0  6G16G18G19G21G22G27
  20706000.280   108810775.23009  20705997.120    84787613.21548
  21496186.420   112963378.74409  21496183.180    88023434.41448
  23861747.600   125394330.46608  23861743.320    97709862.32346
  22328858.220   117339071.81809  22328854.420    91433086.76147
  21874783.100   114952851.40209  21874778.580    89573677.80748
  21815001.860   114638643.47509  21815001.300    89328813.93948
 15 03 06 00 33  0.0000000  0  6G16G18G19G21G22G27
  20700509.800   108781922.59909  20700506.620    84765130.64048
  21493704.800   112950337.91409  21493701.520    88013272.74248
  23847073.680   125317218.65908  23847069.220    97649775.22546
  22340523.240   117400372.04309  22340519.480    91480853.15647
  21860340.180   114876953.08309  21860335.580    89514536.29448
  21804071.460   114581204.04309  21804070.940    89284055.93848
 15 03 06 00 33 30.0000000  0  6G16G18G19G21G22G27
  20695117.320   108753584.94709  20695114.160    84743049.35048
  21491317.580   112937792.99609  21491314.240    88003497.49148
  23832409.040   125240155.82408  23832404.420    97589726.27445
  22352212.420   117461799.16709  22352208.700    91528718.44547
  21845959.820   114801384.03809  21845955.260    89455651.36548
  21793163.420   114523882.12109  21793162.900    89239389.50548
 15 03 06 00 34  0.0000000  0  6G16G18G19G21G22G27
  20689822.700   108725761.46809  20689819.540    84721368.71748
  21489024.560   112925742.91109  21489021.160    87994107.83148
  23817753.400   125163140.36708  23817748.780    97529714.26145
  22363925.060   117523349.39809  22363921.240    91576679.66447
  21831642.340   114726145.21809  21831637.740    89397023.74648
  21782277.540   114466676.88809  21782277.100    89194814.00548
 15 03 06 00 34 30.0000000  0  6G16G18G19G21G22G27
  20684626.320   108698454.37509  20684623.160    84700090.45948
  21486825.700   112914187.54509  21486822.320    87985103.65248
  23803106.800   125086172.51708  23803102.260    97469739.34845
  22375660.860   117585021.54309  22375657.060    91624735.87147
  21817388.160   114651239.10709  21817383.540    89338655.37848
  21771413.960   114409588.68409  21771413.600    89150329.69248
 15 03 06 00 35  0.0000000  0  6G16G18G19G21G22G27
  20679528.960   108671667.70409  20679525.860    84679217.72849
  21484721.660   112903130.70609  21484718.300    87976487.94548
  23788469.880   125009255.49808  23788465.420    97409804.04146
  22387420.100   117646816.95009  22387416.360    91672888.12647
  21803198.260   114576670.70009  21803193.580    89280550.14948
  21760573.400   114352621.25609  21760573.060    89105939.48748
 15 03 06 00 35 30.0000000  0  6G16G18G19G21G22G27
  20674529.540   108645395.76909  20674526.500    84658746.08649
  21482711.320   112892566.17209  21482707.920    87968255.84748
  23773841.260   124932382.36108  23773837.080    97349902.93946
  22399201.040   117708726.52309  22399197.380    91721129.34347
  21789071.740   114502435.26809  21789067.040    89222704.38848
  21749754.600   114295768.22609  21749754.320    89061638.42648
 15 03 06 00 36  0.0000000  0  6G16G18G19G21G22G27
  20669630.040   108619648.98309  20669627.080    84638683.65848
  21480796.320   112882502.67109  21480792.900    87960414.17348
  23759222.740   124855562.43208  23759218.800    97290043.30746
  22411005.280   117770758.41708  22411001.700    91769465.88247
  21775010.760   114428544.21409  21775005.980    89165126.97548
  21738959.400   114239039.18809  21738959.160    89017433.99548
 15 03 06 00 36 30.0000000  0  6G16G18G19G21G22G27
  20664830.040   108594425.25909  20664827.140    84619028.80648
  21478976.140   112872937.61609  21478972.760    87952960.88748
  23744613.780   124778792.53908  23744609.980    97230222.64946
  22422831.860   117832907.69609  22422828.320    91817893.87947
  21761015.000   114354996.53209  21761010.260    89107817.11148
  21728187.360   114182431.60209  21728187.100    88973324.19648
 15 03 06 00 37  0.0000000  0  6G16G18G19G21G22G27
  20660129.200   108569722.15209  20660126.260    84599779.61948
  21477250.080   112863867.31409  21477246.720    87945893.12848
  23730013.780   124702068.94708  23730010.060    97170438.05547
  22434679.840   117895169.28008  22434676.320    91866409.38947
  21747084.280   114281790.75109  21747079.580    89050773.66448
  21717437.880   114125942.30909  21717437.440    88929306.56548
 15 03 06 00 37 30.0000000  0  6G16G18G19G21G22G27
  20655529.620   108545550.78909  20655526.560    84580944.78148
  21475620.080   112855301.69109  21475616.680    87939218.62448
  23715424.560   124625401.90008  23715420.780    97110697.54047
  22446550.620   117957550.94208  22446547.200    91915018.46847
  21733220.880   114208938.58409  21733216.200    88994005.76848
  21706712.880   114069581.55409  21706712.220    88885389.10048
 15 03 06 00 38  0.0000000  0  6G16G18G19G21G22G27
  20651030.040   108521904.61609  20651026.840    84562519.18848
  21474084.840   112847233.79009  21474081.380    87932931.95648
  23700844.700   124548783.83508  23700840.740    97050995.18447
  22458442.540   118020043.32409  22458439.140    91963713.82947
  21719423.800   114136434.74109  21719419.140    88937509.29348
  21696011.060   114013342.62409  21696010.320    88841566.56248
 15 03 06 00 38 30.0000000  0  6G16G18G19G21G22G27
  20646630.440   108498783.84009  20646627.040    84544502.99048
  21472644.060   112839662.35809  21472640.600    87927032.15148
  23686273.980   124472213.69608  23686269.960    96991330.16347
  22470355.160   118082644.52009  22470351.780    92012493.96347
  21705693.240   114064280.36609  21705688.580    88881285.13448
  21685332.260   113957224.77609  21685331.460    88797838.37248
 15 03 06 00 39  0.0000000  0  6G16G18G19G21G22G27
  20642331.860   108476194.21009  20642328.360    84526900.67548
  21471298.620   112832592.16009  21471295.240    87921522.91648
  23671713.300   124395696.23308  23671709.180    96931706.18947
  22482288.940   118145356.94709  22482285.540    92061360.78347
  21692030.400   113992481.97009  21692025.780    88825338.35848
  21674677.480   113901233.21409  21674676.660    88754208.58148
 15 03 06 00 39 30.0000000  0  6G16G18G19G21G22G27
  20638134.180   108454135.09009  20638130.700    84509711.74648
  21470048.260   112826021.74709  21470044.980    87916403.12648
  23657162.340   124319230.03608  23657158.060    96872122.16846
  22494243.340   118208177.75109  22494239.880    92110312.05547
  21678435.440   113921040.09709  21678430.820    88769669.39148
  21664046.420   113845366.89209  21664045.740    88710676.39548
 15 03 06 00 40  0.0000000  0  6G16G18G19G21G22G27
  20634037.740   108432608.55209  20634034.400    84492937.81648
  21468893.240   112819952.13709  21468889.960    87911673.57248
  23642621.180   124242815.68208  23642616.880    96812578.54246
  22506218.200   118271106.20409  22506214.820    92159347.19747
  21664908.940   113849957.87509  21664904.320    88714280.67348
  21653439.460   113789627.19309  21653438.840    88667242.86648
 15 03 06 00 40 30.0000000  0  6G16G18G19G21G22G27
  20630043.060   108411616.57209  20630039.760    84476580.42748
  21467833.720   112814384.28509  21467830.440    87907334.99248
  23628090.120   124166454.74608  23628085.980    96753076.53746
  22518213.440   118334141.55809  22518210.040    92208465.64847
  21651451.500   113779238.40309  21651446.860    88659174.61648
  21642856.960   113734016.02209  21642856.440    88623909.50448
 15 03 06 00 41  0.0000000  0  6G16G18G19G21G22G27
  20626150.140   108391159.29709  20626146.840    84460639.68948
  21466869.440   112809316.87809  21466866.140    87903386.36948
  23613569.020   124090146.16308  23613564.920    96693615.33046
  22530228.640   118397281.61009  22530225.200    92257665.67947
  21638063.280   113708882.56509  21638058.560    88604351.90948
  21632298.880   113678532.77709  21632298.360    88580675.81548
 15 03 06 00 41 30.0000000  0  6G16G18G19G21G22G27
  20622359.000   108371236.80909  20622355.720    84445115.66848
  21466000.260   112804749.49209  21465996.940    87899827.37448
  23599057.800   124013889.25308  23599053.500    96634194.38646
  22542263.260   118460523.42709  22542259.680    92306945.00447
  21624744.560   113638891.88209  21624739.740    88549813.73948
  21621765.100   113623177.24309  21621764.500    88537541.63648
 15 03 06 00 42  0.0000000  0  6G16G18G19G21G22G27
  20618670.420   108351852.81109  20618667.100    84430011.24548
  21465226.820   112800685.02209  21465223.440    87896660.25648
  23584556.900   123937686.91908  23584552.500    96574815.96046
  22554317.620   118523868.81209  22554313.780    92356305.03447
  21611496.240   113569271.03609  21611491.280    88495563.75048
  21611256.100   113567952.78209  21611255.520    88494509.61348
 15 03 06 00 42 30.0000000  0  6G16G18G19G21G22G27
  20615084.580   108333008.39909  20615081.120    84415327.28549
  21464549.060   112797123.44309  21464545.740    87893885.01048
  23570066.380   123861539.43708  23570062.000    96515480.27846
  22566391.360   118587315.89309  22566387.300    92405744.31247
  21598318.640   113500021.82409  21598313.580    88441603.34748
  21600772.100   113512859.99109  21600771.700    88451580.18048
 15 03 06 00 43  0.0000000  0  6G16G18G19G21G22G27
  20611601.680   108314705.27609  20611598.120    84401065.10749
  21463967.000   112794065.04109  21463963.780    87891501.85448
  23555586.400   123785447.31508  23555582.100    96456187.73346
  22578484.180   118650863.46009  22578480.040    92455261.88447
  21585212.220   113431146.87709  21585207.100    88387934.58048
  21590313.460   113457900.10509  21590313.140    88408754.30948
 15 03 06 00 43 30.0000000  0  6G16G18G19G21G22G27
  20608220.800   108296938.71609  20608217.240    84387221.02448
  21463479.700   112791504.35909  21463476.580    87889506.52448
  23541115.980   123709405.29308  23541111.740    96396934.23746
  22590594.820   118714504.85609  22590590.620    92504852.57647
  21572176.400   113362642.93609  21572171.220    88334554.90248
  21579879.280   113403068.14009  21579878.980    88366028.11148
 15 03 06 00 44  0.0000000  0  6G16G18G19G21G22G27
  20604943.700   108279717.49909  20604940.100    84373801.89448
  21463088.580   112789449.04409  21463085.480    87887904.99048
  23526656.700   123633421.68708  23526652.520    96337726.24446
  22602724.460   118778246.26909  22602720.320    92554521.20147
  21559213.080   113294520.10909  21559207.900    88281472.21148
  21569471.160   113348372.95109  21569470.780    88323408.50148
 15 03 06 00 44 30.0000000  0  6G16G18G19G21G22G27
  20601770.060   108263039.74809  20601766.420    84360806.23648
  21462793.100   112787896.41009  21462789.960    87886695.15148
  23512208.020   123557493.55308  23512203.920    96278561.49746
  22614872.300   118842083.57809  22614868.140    92604264.55547
  21546322.020   113226777.18909  21546316.840    88228685.53648
  21559088.660   113293812.14609  21559088.060    88280893.59248
 15 03 06 00 45  0.0000000  0  6G16G18G19G21G22G27
  20598699.920   108246905.87209  20598696.300    84348234.38049
  21462593.180   112786845.74209  21462589.960    87885876.45748
  23497769.940   123481620.51008  23497765.820    96219439.67247
  22627037.860   118906014.67608  22627033.940    92654080.97347
  21533503.460   113159415.48309  21533498.340    88176195.92248
  21548731.700   113239385.71709  21548731.020    88238483.39848
 15 03 06 00 45 30.0000000  0  6G16G18G19G21G22G27
  20595734.200   108231320.88509  20595730.600    84336090.22849
  21462489.500   112786300.81009  21462486.240    87885451.85148
  23483343.120   123405806.69208  23483339.000    96160363.99047
  22639221.720   118970042.13108  22639217.920    92703972.49047
  21520758.580   113092441.38309  21520753.600    88124008.34048
  21538401.320   113185098.58909  21538400.460    88196181.75048
 15 03 06 00 46  0.0000000  0  6G16G18G19G21G22G27
  20592871.880   108216279.53309  20592868.380    84324369.68648
  21462480.860   112786255.47809  21462477.580    87885416.53748
  23468926.480   123330046.43508  23468922.380    96101330.06947
  22651422.440   119034158.35608  22651418.900    92753933.17047
  21508086.680   113025850.71409  21508081.740    88072119.53148
  21528096.380   113130945.35609  21528095.460    88153984.44348
 15 03 06 00 46 30.0000000  0  6G16G18G19G21G22G27
  20590113.920   108201786.81809  20590110.560    84313076.65748
  21462568.000   112786713.64309  21462564.760    87885773.54948
  23454520.840   123254344.16008  23454516.640    96042341.30847
  22663640.620   119098365.66909  22663637.180    92803964.83747
  21495488.860   112959649.53209  21495484.020    88020534.22048
  21517817.800   113076930.83809  21517816.840    88111895.22248
 15 03 06 00 47  0.0000000  0  6G16G18G19G21G22G27
  20587460.580   108187843.85909  20587457.320    84302212.00549
  21462751.040   112787675.72209  21462747.840    87886523.23148
  23440126.300   123178700.37608  23440122.100    95983398.12247
  22675876.020   119162663.53509  22675872.560    92854067.06247
  21482965.560   112893839.92209  21482960.860    87969254.03248
  21507565.760   113023056.06809  21507564.780    88069914.88648
 15 03 06 00 47 30.0000000  0  6G16G18G19G21G22G27
  20584911.780   108174450.23709  20584908.620    84291775.41549
  21463029.720   112789140.04009  21463026.500    87887664.26348
  23425742.700   123103114.07908  23425738.500    95924499.73747
  22688128.160   119227049.02308  22688124.780    92904237.56247
  21470517.040   112828423.14609  21470512.440    87918279.94248
  21497340.220   112969320.52909  21497339.320    88028043.04648
 15 03 06 00 48  0.0000000  0  6G16G18G19G21G22G27
  20582468.000   108161608.02809  20582464.760    84281768.48948
  21463404.220   112791107.81409  21463400.960    87889197.60648
  23411370.400   123027586.73608  23411366.100    95865647.29747
  22700396.880   119291522.00008  22700393.580    92954476.22647
  21458143.820   112763401.92209  21458139.280    87867614.07648
  21487141.540   112915726.16409  21487140.680    87986281.21948
 15 03 06 00 48 30.0000000  0  6G16G18G19G21G22G27
  20580129.080   108149316.70509  20580125.800    84272190.83149
  21463874.120   112793577.28409  21463870.860    87891121.87648
  23397009.040   122952116.93608  23397004.540    95806839.68747
  22712681.740   119356079.40308  22712678.440    93004780.68947
  21445846.020   112698776.73609  21445841.500    87817256.80848
  21476969.660   112862272.41909  21476968.680    87944628.96548
 15 03 06 00 49  0.0000000  0  6G16G18G19G21G22G27
  20577895.740   108137580.10909  20577892.420    84263045.42549
  21464439.880   112796550.79909  21464436.620    87893438.91348
  23382659.260   122876708.24908  23382654.620    95748079.69247
  22724983.100   119420723.23409  22724979.760    93055152.49147
  21433624.620   112634552.90609  21433620.080    87767212.28448
  21466825.220   112808963.03809  21466824.240    87903089.19748
 15 03 06 00 49 30.0000000  0  6G16G18G19G21G22G27
  20575767.440   108126395.61209  20575764.140    84254330.23048
  21465101.080   112800025.80709  21465097.860    87896146.71748
  23368320.500   122801357.95308  23368315.840    95689365.21247
  22737300.180   119485448.84109  22737296.540    93105588.03547
  21421479.380   112570729.16309  21421474.860    87717479.51548
  21456707.760   112755795.72909  21456706.900    87861660.13948
 15 03 06 00 50  0.0000000  0  6G16G18G19G21G22G27
  20573745.020   108115767.61609  20573741.780    84246048.66449
  21465858.300   112804005.27909  21465855.140    87899247.60748
  23353993.540   122726069.70908  23353988.860    95630699.06046
  22749633.060   119550258.24009  22749629.440    93156088.84247
  21409411.320   112507310.93009  21409406.840    87668062.73348
  21446618.100   112702774.72009  21446617.380    87820345.09048
 15 03 06 00 50 30.0000000  0  6G16G18G19G21G22G27
  20571828.360   108105695.77509  20571825.160    84238200.47549
  21466711.300   112808487.75109  21466708.200    87902740.45548
  23339678.180   122650842.68308  23339673.680    95572080.64847
  22761981.440   119615148.89509  22761977.720    93206652.99147
  21397420.580   112444298.87409  21397416.080    87618962.45448
  21436556.300   112649899.63309  21436555.580    87779143.72848
 15 03 06 00 51  0.0000000  0  6G16G18G19G21G22G27
  20570017.120   108096178.36509  20570013.980    84230784.30949
  21467659.540   112813470.59709  21467656.420    87906623.19548
  23325374.040   122575674.61408  23325369.760    95513508.16347
  22774344.560   119680117.33208  22774340.800    93257277.73947
  21385507.060   112381692.36809  21385502.400    87570178.18048
  21426522.000   112597168.97809  21426521.180    87738054.91648
 15 03 06 00 51 30.0000000  0  6G16G18G19G21G22G27
  20568312.320   108087219.95109  20568309.240    84223803.72249
  21468703.680   112818957.19509  21468700.420    87910898.47948
  23311081.980   122500569.94908  23311077.800    95454985.07946
  22786722.980   119745165.84209  22786719.200    93307964.88447
  21373671.840   112319497.44909  21373667.020    87521714.62148
  21416516.040   112544587.36409  21416515.120    87697082.23848
 15 03 06 00 52  0.0000000  0  6G16G18G19G21G22G27
  20566714.380   108078822.68509  20566711.340    84217260.39749
  21469843.800   112824948.44009  21469840.440    87915566.99648
  23296802.320   122425530.32308  23296798.220    95396512.66347
  22799116.600   119810294.61108  22799112.800    93358714.57347
  21361915.460   112257717.27109  21361910.560    87473574.24848
  21406538.880   112492157.10209  21406537.900    87656227.50148
 15 03 06 00 52 30.0000000  0  6G16G18G19G21G22G27
  20565222.720   108070983.77809  20565219.680    84211152.14949
  21471079.320   112831441.26809  21471075.940    87920626.34648
  23282534.440   122350552.79908  23282530.500    95338088.63746
  22811524.560   119875498.77509  22811520.820    93409523.00947
  21350237.600   112196350.13109  21350232.760    87425755.71748
  21396590.040   112439875.64209  21396589.160    87615488.71148
 15 03 06 00 53  0.0000000  0  6G16G18G19G21G22G27
  20563837.700   108063705.38309  20563834.680    84205480.66649
  21472410.300   112838436.03509  21472407.000    87926076.81948
  23268278.800   122275639.23108  23268274.900    95279714.43847
  22823946.820   119940778.54208  22823943.040    93460390.34747
  21338638.960   112135399.59709  21338634.260    87378261.81548
  21386669.920   112387745.17609  21386669.060    87574867.57748
 15 03 06 00 53 30.0000000  0  6G16G18G19G21G22G27
  20562558.780   108056984.57909  20562555.800    84200243.67049
  21473836.020   112845928.93809  21473832.860    87931915.45748
  23254034.820   122200786.19608  23254030.860    95221387.42446
  22836382.680   120006129.24608  22836378.900    93511312.97647
  21327119.320   112074864.14709  21327114.720    87331091.35748
  21376777.960   112335763.10809  21376777.160    87534362.08248
 15 03 06 00 54  0.0000000  0  6G16G18G19G21G22G27
  20561386.880   108050826.11109  20561383.880    84195444.85348
  21475357.440   112853924.37009  21475354.340    87938145.67148
  23239803.340   122125998.74308  23239799.220    95163111.51247
  22848832.600   120071554.05909  22848828.900    93562293.34247
  21315679.920   112014749.86809  21315675.320    87284249.08048
  21366915.240   112283934.82209  21366914.600    87493976.40648
 15 03 06 00 54 30.0000000  0  6G16G18G19G21G22G27
  20560321.740   108045228.32309  20560318.640    84191082.93949
  21476973.880   112862418.89309  21476970.840    87944764.78848
  23225583.860   122051274.49609  23225579.620    95104884.84647
  22861295.780   120137048.65608  22861292.120    93613328.08947
  21304320.600   111955055.93909  21304315.880    87237734.34748
  21357081.380   112232258.45809  21357080.860    87453709.13048
 15 03 06 00 55  0.0000000  0  6G16G18G19G21G22G27
  20559364.100   108040195.72609  20559360.980    84187161.42049
  21478686.040   112871416.26509  21478683.000    87951775.73048
  23211377.200   121976617.63309  23211372.880    95046710.69447
  22873772.740   120202615.83108  22873769.180    93664419.37647
  21293042.340   111895787.95709  21293037.460    87191551.51448
  21347277.500   112180738.76109  21347276.980    87413563.91848
 15 03 06 00 55 30.0000000  0  6G16G18G19G21G22G27
  20558513.740   108035727.13509  20558510.600    84183679.39949
  21480493.640   112880914.87809  21480490.520    87959177.25148
  23197183.120   121902027.07908  23197178.680    94988588.20347
  22886263.120   120268253.28708  22886259.640    93715565.44147
  21281845.240   111836946.51009  21281840.260    87145701.06048
  21337503.460   112129375.34809  21337502.880    87373540.48948
 15 03 06 00 56  0.0000000  0  6G16G18G19G21G22G27
  20557770.740   108031822.51809  20557767.560    84180636.83849
  21482396.440   112890913.37709  21482393.140    87966968.29648
  23183001.640   121827502.84109  23182997.120    94930517.38747
  22898766.400   120333958.53208  22898762.960    93766764.32547
  21270729.520   111778532.62909  21270724.480    87100183.76548
  21327759.200   112078168.36409  21327758.520    87333638.94948
 15 03 06 00 56 30.0000000  0  6G16G18G19G21G22G27
  20557135.480   108028483.97009  20557132.300    84178035.37349
  21484394.540   112901412.74809  21484391.060    87975149.63548
  23168833.240   121753047.31508  23168828.700    94872500.11247
  22911282.780   120399732.61608  22911279.360    93818016.84647
  21259695.780   111720549.82609  21259690.720    87055002.38248
  21318045.240   112027120.74509  21318044.460    87293861.59048
 15 03 06 00 57  0.0000000  0  6G16G18G19G21G22G27
  20556608.080   108025712.15709  20556604.840    84175875.50449
  21486487.720   112912412.41009  21486484.220    87983720.80648
  23154677.800   121678660.38308  23154673.400    94814536.30247
  22923811.960   120465573.73308  22923808.520    93869321.60247
  21248744.300   111662999.60209  21248739.260    87010158.06648
  21308361.560   111976232.83609  21308360.900    87254208.68849
 15 03 06 00 57 30.0000000  0  6G16G18G19G21G22G27
  20556188.160   108023505.31509  20556184.880    84174155.88549
  21488675.480   112923909.61809  21488672.080    87992679.68048
  23140535.080   121604340.29308  23140530.780    94756624.58447
  22936353.260   120531478.55708  22936349.820    93920676.00847
  21237875.040   111605881.61509  21237870.020    86965650.56348
  21298708.040   111925503.53009  21298707.320    87214679.36348
 15 03 06 00 58  0.0000000  0  6G16G18G19G21G22G27
  20555876.120   108021865.43709  20555872.840    84172878.05349
  21490958.180   112935905.79709  21490954.920    88002027.36348
  23126405.640   121530089.59208  23126401.320    94698766.92447
  22948906.780   120597447.57908  22948903.280    93972080.44147
  21227088.720   111549199.49409  21227083.700    86921482.69048
  21289085.220   111874935.57209  21289084.600    87175275.77448
 15 03 06 00 58 30.0000000  0  6G16G18G19G21G22G27
  20555672.240   108020794.01709  20555668.980    84172043.17649
  21493335.940   112948401.29709  21493332.760    88011764.12448
  23112289.560   121455909.04408  23112285.240    94640963.92247
  22961472.500   120663480.76308  22961468.980    94023534.86247
  21216385.840   111492955.96109  21216380.900    86877656.57348
  21279493.500   111824530.83009  21279492.900    87135999.35348
 15 03 06 00 59  0.0000000  0  6G16G18G19G21G22G27
  20555576.700   108020291.85309  20555573.440    84171651.87049
  21495808.680   112961395.99609  21495805.540    88021889.86348
  23098187.040   121381800.03508  23098182.680    94583216.67547
  22974050.240   120729577.37208  22974046.720    94075038.69947
  21205766.780   111437152.87409  21205761.900    86834173.65848
  21269933.120   111774290.75909  21269932.580    87096851.25549
 15 03 06 00 59 30.0000000  0  6G16G18G19G21G22G27
  20555588.800   108020355.08209  20555585.460    84171701.13149
  21498375.500   112974884.88409  21498372.360    88032400.70148
  23084097.520   121307759.02908  23084093.020    94525522.39847
  22986639.060   120795731.92008  22986635.500    94126587.69147
  21195231.200   111381788.11909  21195226.380    86791032.30748
  21260403.560   111724212.26809  21260402.940    87057829.05649
 15 03 06 01 00  0.0000000  0  6G16G18G19G21G22G27
  20555709.640   108020989.47009  20555706.160    84172195.45949
