     2.11           OBSERVATION DATA    G                   RINEX VERSION / TYPE
SPIDER V4,0,0,3554                      2015 03 24 00:35    PGM / RUN BY / DATE 
CBEJ                                                        MARKER NAME         
CBEJ                                                        MARKER NUMBER       
                                                            OBSERVER / AGENCY   
496519              LEICA GRX1200+GNSS  8.10/4.007          REC # / TYPE / VERS 
                    LEIAR25         NONE                    ANT # / TYPE        
  5095766.4657   453329.2088  3797108.6657                  APPROX POSITION XYZ 
        0.0730        0.0000        0.0000                  ANTENNA: DELTA H/E/N
     1     1                                                WAVELENGTH FACT L1/2
     4    C1    L1    P2    L2                              # / TYPES OF OBSERV 
    30.000                                                  INTERVAL            
  2015    03    06    00    00    0.0000000     GPS         TIME OF FIRST OBS   
  2015    03    06    23    59   30.0000000     GPS         TIME OF LAST OBS    
    16                                                      LEAP SECONDS        
    30                                                      # OF SATELLITES     
   G 1   811   811   811   811                              PRN / # OF OBS      
   G 2   858   857   854   854                              PRN / # OF OBS      
   G 3   833   832   832   832                              PRN / # OF OBS      
   G 4   831   831   831   831                              PRN / # OF OBS      
   G 5   636   636   636   636                              PRN / # OF OBS      
   G 6   691   689   690   688                              PRN / # OF OBS      
   G 7   646   645   642   642                              PRN / # OF OBS      
   G 9   785   784   784   783                              PRN / # OF OBS      
   G10   760   760   760   760                              PRN / # OF OBS      
   G11   775   774   774   774                              PRN / # OF OBS      
   G12   815   815   814   814                              PRN / # OF OBS      
   G13   798   798   798   798                              PRN / # OF OBS      
   G14   849   849   849   849                              PRN / # OF OBS      
   G15   698   698   698   698                              PRN / # OF OBS      
   G16   669   669   669   669                              PRN / # OF OBS      
   G17   858   857   857   857                              PRN / # OF OBS      
   G18   848   848   846   846                              PRN / # OF OBS      
   G19   767   766   766   766                              PRN / # OF OBS      
   G20   765   764   765   764                              PRN / # OF OBS      
   G21   644   643   630   630                              PRN / # OF OBS      
   G22   702   701   701   701                              PRN / # OF OBS      
   G23   719   717   708   708                              PRN / # OF OBS      
   G24   814   812   808   808                              PRN / # OF OBS      
   G25   843   843   843   843                              PRN / # OF OBS      
   G27   808   808   808   808                              PRN / # OF OBS      
   G28   802   802   799   799                              PRN / # OF OBS      
   G29   745   745   742   742                              PRN / # OF OBS      
   G30   670   667   662   662                              PRN / # OF OBS      
   G31   758   756   751   751                              PRN / # OF OBS      
   G32   742   742   739   739                              PRN / # OF OBS      
BIT 2 OF LLI FLAGS DATA COLLECTED UNDER A/S CONDITION       COMMENT             
SNR is mapped to RINEX snr flag value [2-9]                 COMMENT             
Lx:     = 25dBHz -> 1; 26-27dBHz -> 2; 28-31dBHz -> 3       COMMENT             
       32-35dBHz -> 4; 36-38dBHz -> 5; 39-41dBHz -> 6       COMMENT             
       42-44dBHz -> 7; 45-48dBHz -> 8; >=49dBHz -> 9        COMMENT             
                                                            END OF HEADER       
 15 03 06 00 00  0.0000000  0  7G16G18G19G21G22G27G31
  21065009.640   110697377.57009  21065006.600    86257699.77148
  22108317.180   116180086.76009  22108314.180    90529965.36348
  24511551.900   128809066.05306  24511550.040   100370703.36445
  21680928.460   113934050.40807  21680923.860    88779770.37746
  23145139.060   121628638.09209  23145133.860    94775590.58046
  22279400.360   117079074.29509  22279400.380    91230461.52648
  23961949.700   125920844.35908  23961950.920    98120115.90946
 15 03 06 00 00 30.0000000  0  7G16G18G19G21G22G27G31
  21054909.640   110644302.00909  21054906.720    86216342.20148
  22099580.680   116134175.01809  22099577.740    90494189.99848
  24496135.360   128728046.68607  24496130.580   100307571.46944
  21690612.880   113984943.08007  21690608.320    88819426.99646
  23127657.360   121536771.02309  23127652.160    94704005.94547
  22267715.800   117017669.52408  22267715.500    91182613.69348
  23980392.500   126017763.17308  23980394.400    98195636.79546
 15 03 06 00 01  0.0000000  0  7G16G18G19G21G22G27G31
  21044888.320   110591638.71809  21044885.360    86175305.89748
  22090923.560   116088680.81209  22090920.640    90458739.95948
  24480734.580   128647110.50307  24480727.180   100244504.43844
  21700348.340   114036104.09807  21700344.080    88859292.72746
  23110204.740   121445056.61309  23110200.000    94632540.25147
  22256056.460   116956398.08609  22256056.300    91134869.71948
  23998843.760   126114725.20608  23998845.700    98271191.37046
 15 03 06 00 01 30.0000000  0  7G16G18G19G21G22G27G31
  21034944.960   110539385.15009  21034942.040    86134588.83048
  22082345.220   116043601.39109  22082342.220    90423613.13847
  24465348.220   128566252.70407  24465339.060   100181498.45544
  21710133.520   114087528.03107  21710129.780    88899363.31347
  23092780.720   121353493.18209  23092776.420    94561192.20347
  22244421.760   116895255.43009  22244421.460    91087226.11648
  24017302.240   126211723.02208  24017303.420    98346773.80546
 15 03 06 00 02  0.0000000  0  7G16G18G19G21G22G27G31
  21025078.700   110487536.95709  21025075.660    86094187.62148
  22073845.080   115998932.66509  22073841.760    90388806.37547
  24449974.980   128485467.34607  24449965.760   100118548.88145
  21719967.200   114139206.27308  21719964.000    88939632.07546
  23075384.720   121262077.30008  23075380.500    94489959.11547
  22232810.260   116834235.80009  22232810.080    91039678.35848
  24035765.840   126308747.35108  24035765.700    98422376.90246
 15 03 06 00 02 30.0000000  0  7G16G18G19G21G22G27G31
  21015290.020   110436096.15109  21015286.680    86054103.88248
  22065423.300   115954675.89709  22065419.580    90354320.64147
  24434615.060   128404754.33106  24434608.400   100055655.59845
  21729849.240   114191136.44208  21729846.280    88980097.14846
  23058017.300   121170811.07509  23058012.800    94418842.67347
  22221221.960   116773338.98809  22221221.800    90992226.29748
  24054233.780   126405795.06508  24054232.440    98497998.19546
 15 03 06 00 03  0.0000000  0  7G16G18G19G21G22G27G31
  21005578.400   110385060.90109  21005575.000    86014336.15948
  22057079.320   115910828.59809  22057075.620    90320153.93347
  24419268.240   128324109.32707  24419264.580    99992815.35444
  21739778.200   114243313.17407  21739775.280    89020754.34046
  23040678.140   121079693.39809  23040673.740    94347841.98247
  22209656.340   116712561.19209  22209655.820    90944866.98048
  24072704.760   126502859.28308  24072702.520    98573632.34345
 15 03 06 00 03 30.0000000  0  7G16G18G19G21G22G27G31
  20995943.860   110334432.12909  20995940.740    85974885.17248
  22048813.340   115867392.63708  22048810.040    90286307.70347
  24403934.460   128243531.68007  24403932.360    99930027.61145
  21749753.260   114295734.19407  21749750.360    89061601.87646
  23023367.480   120988726.21709  23023363.520    94276958.51947
  22198113.280   116651901.96809  22198112.580    90897600.05848
  24091178.240   126599936.45708  24091175.620    98649276.58145
 15 03 06 00 04  0.0000000  0  7G16G18G19G21G22G27G31
  20986384.900   110284200.26209  20986382.020    85935743.45948
  22040623.700   115824357.37609  22040620.740    90252773.74747
  24388611.240   128163010.05905  24388609.260    99867283.47145
  21759772.220   114348386.11007  21759769.240    89102629.32646
  23006083.700   120897900.06009  23006080.140    94206184.95447
  22186590.600   116591349.94709  22186589.900    90850416.65348
  24109651.600   126697011.96308  24109649.040    98724919.51746
 15 03 06 00 04 30.0000000  0  7G16G18G19G21G22G27G31
  20976904.200   110234378.81809  20976901.240    85896921.55948
  22032513.120   115781736.18709  22032510.200    90219562.46447
  24373300.760   128082555.90506  24373298.860    99804591.96746
  21769837.280   114401277.92908  21769834.100    89143843.73746
  22988829.740   120807229.64109  22988825.980    94135532.75547
  22175090.820   116530916.62709  22175089.500    90803325.79548
  24128126.400   126794094.26108  24128124.100    98800567.73146
 15 03 06 00 05  0.0000000  0  7G16G18G19G21G22G27G31
  20967500.900   110184963.86509  20967497.800    85858416.40948
  22024480.500   115739524.29009  22024477.660    90186670.08347
  24358002.080   128002163.25506  24357999.740    99741948.41244
  21779946.760   114454402.25008  21779943.460    89185239.32146
  22971604.540   120716711.37708  22971599.960    94064999.13546
  22163612.440   116470596.40009  22163610.680    90756323.05548
  24146600.900   126891174.73508  24146598.900    98876214.48945
 15 03 06 00 05 30.0000000  0  7G16G18G19G21G22G27G31
  20958175.520   110135958.59709  20958172.400    85820230.49848
  22016526.460   115697725.01209  22016523.480    90154099.23047
  24342715.460   127921833.21706  24342711.780    99679353.69845
  21790100.340   114507758.13008  21790096.980    89226815.33246
  22954408.840   120626349.13409  22954404.280    93994587.07447
  22152155.620   116410390.66209  22152153.940    90709409.50448
  24165074.680   126988251.27608  24165072.960    98951858.21746
 15 03 06 00 06  0.0000000  0  7G16G18G19G21G22G27G31
  20948928.460   110087364.67409  20948925.340    85782365.10648
  22008651.120   115656339.83409  22008648.120    90121851.03748
  24327440.980   127841565.69607  24327436.460    99616807.63245
  21800297.740   114561344.10508  21800294.140    89268570.63146
  22937243.380   120536145.00809  22937239.320    93924298.18947
  22140720.500   116350299.26909  22140718.860    90662585.06448
  24183547.160   127085320.92208  24183545.720    99027496.52646
 15 03 06 00 06 30.0000000  0  7G16G18G19G21G22G27G31
  20939760.500   110039186.30109  20939757.340    85744823.52348
  22000855.480   115615372.86009  22000852.600    90089928.73648
  24312179.040   127761363.09207  24312175.020    99554312.16244
  21810539.100   114615160.27408  21810535.100    89310505.32346
  22920109.420   120446104.48709  22920105.220    93854136.83447
  22129307.500   116290325.02309  22129305.900    90615851.90648
  24202018.160   127182383.12208  24202016.920    99103129.03446
 15 03 06 00 07  0.0000000  0  7G16G18G19G21G22G27G31
  20930672.420   109991427.98709  20930669.100    85707609.25648
  21993140.100   115574827.73609  21993137.220    90058335.15648
  24296930.020   127681227.64007  24296926.440    99491869.00644
  21820824.380   114669207.71008  21820819.900    89352620.21447
  22903007.520   120356232.27409  22903003.100    93784106.61847
  22117917.140   116230470.38408  22117915.980    90569211.95448
  24220487.600   127279437.59708  24220486.460    99178755.50546
 15 03 06 00 07 30.0000000  0  7G16G18G19G21G22G27G31
  20921664.260   109944089.52409  20921660.740    85670722.13248
  21985504.720   115534703.92509  21985501.760    90027069.85447
  24281693.760   127601157.36907  24281690.120    99429476.60345
  21831152.300   114723481.04907  21831147.720    89394911.14647
  22885937.340   120266528.82909  22885933.020    93714207.87947
  22106549.540   116170733.49809  22106548.720    90522663.74148
  24238954.460   127376479.12308  24238953.200    99254371.85946
 15 03 06 00 08  0.0000000  0  7G16G18G19G21G22G27G31
  20912737.500   109897178.48509  20912733.860    85634168.07749
  21977950.860   115495009.01109  21977948.060    89996138.76647
  24266471.020   127521158.18707  24266467.660    99367139.58546
  21841523.740   114777986.06707  21841519.740    89437382.56047
  22868900.680   120177002.67308  22868896.600    93644447.32447
  22095205.620   116111120.38309  22095204.980    90476211.97248
  24257419.240   127473510.60008  24257417.940    99329980.39246
 15 03 06 00 08 30.0000000  0  7G16G18G19G21G22G27G31
  20903891.920   109850693.86209  20903888.300    85597946.28549
  21970478.420   115455741.70709  21970475.640    89965540.89847
  24251261.600   127441227.43208  24251258.200    99304855.91745
  21851937.740   114832717.18706  21851934.960    89480030.16846
  22851897.720   120087653.76109  22851894.120    93574824.83547
  22083884.800   116051628.47609  22083884.040    90429854.65248
  24275880.620   127570526.31908  24275879.880    99405576.62846
 15 03 06 00 09  0.0000000  0  7G16G18G19G21G22G27G31
  20895126.440   109804630.28109  20895122.820    85562052.56949
  21963086.100   115416895.48609  21963083.360    89935271.12847
  24236063.840   127361357.31508  24236059.500    99242619.54344
  21862393.120   114887665.00706  21862391.380    89522846.58546
  22834927.780   119998476.66309  22834924.420    93505336.25647
  22072585.580   115992250.30708  22072584.800    90383585.96748
  24294336.700   127667515.71008  24294336.740    99481152.33746
 15 03 06 00 09 30.0000000  0  7G16G18G19G21G22G27G31
  20886442.280   109758994.87309  20886438.760    85526492.51548
  21955775.340   115378477.76109  21955772.640    89905335.25047
  24220878.240   127281553.01108  24220871.800    99180434.46644
  21872891.180   114942832.86607  21872889.540    89565834.49547
  22817992.380   119909479.81809  22817989.460    93435988.12147
  22061308.720   115932991.62308  22061308.740    90337410.35348
  24312788.120   127764481.36408  24312788.880    99556709.54645
 15 03 06 00 10  0.0000000  0  7G16G18G19G21G22G27G31
  20877841.500   109713797.61109  20877837.880    85491273.87748
  21948548.020   115340497.91709  21948545.220    89875740.56547
  24205705.760   127201823.04608  24205697.980    99118307.29644
  21883432.840   114998227.35407  21883430.660    89608999.05346
  22801093.220   119820673.66309  22801090.500    93366788.56447
  22050056.160   115873860.67108  22050056.760    90291334.30548
  24331236.120   127861428.55008  24331237.560    99632252.32046
 15 03 06 00 10 30.0000000  0  7G16G18G19G21G22G27G31
  20869323.560   109669035.25309  20869319.700    85456394.11848
  21941403.460   115302952.40409  21941400.320    89846484.33347
  24190545.940   127122162.22307  24190537.800    99056233.97745
  21894016.340   115053841.68308  21894013.560    89652334.88846
  22784229.660   119732055.69809  22784226.240    93297735.65447
  22038827.140   115814852.61909  22038827.940    90245354.01548
  24349679.360   127958349.14208  24349681.140    99707774.39346
 15 03 06 00 11  0.0000000  0  7G16G18G19G21G22G27G31
  20860887.080   109624701.22509  20860883.240    85421848.12448
  21934340.180   115265834.12909  21934337.000    89817561.03747
  24175397.760   127042562.36407  24175390.340    98994208.20945
  21904639.740   115109665.64908  21904636.440    89695834.11146
  22767400.980   119643620.13309  22767396.520    93228824.91847
  22027620.300   115755959.33409  22027621.160    90199463.14748
  24368115.660   128055231.94808  24368117.480    99783266.98946
 15 03 06 00 11 30.0000000  0  7G16G18G19G21G22G27G31
  20852533.160   109580801.96209  20852529.520    85387640.91049
  21927359.380   115229149.61409  21927356.180    89788975.72947
  24160262.440   126963027.59708  24160256.200    98932233.09845
  21915303.460   115165702.07407  21915299.800    89739498.87346
  22750608.520   119555374.35109  22750603.600    93160062.05747
  22016436.440   115697185.71209  22016436.720    90153665.53048
  24386545.420   128152078.85208  24386547.240    99858731.59946
 15 03 06 00 12  0.0000000  0  7G16G18G19G21G22G27G31
  20844262.760   109537341.32309  20844259.260    85353775.47649
  21920461.600   115192901.84009  21920458.480    89760730.72748
  24145140.440   126883560.19608  24145135.160    98870310.50645
  21926007.620   115221950.89108  21926003.740    89783329.14946
  22733852.980   119467322.92309  22733848.260    93091450.60447
  22005275.720   115638534.07409  22005274.880    90107963.00648
  24404968.360   128248888.85008  24404970.100    99934167.40846
 15 03 06 00 12 30.0000000  0  7G16G18G19G21G22G27G31
  20836078.100   109494330.18209  20836074.480    85320260.30749
  21913648.860   115157101.29609  21913646.060    89732834.19348
  24130032.660   126804169.39307  24130028.440    98808447.53046
  21936753.420   115278419.17107  21936749.340    89827330.41546
  22717136.300   119379476.85009  22717132.220    93022999.16547
  21994139.680   115580013.58709  21994138.500    90062362.63948
  24423385.540   128345667.92108  24423386.920   100009579.10646
 15 03 06 00 13  0.0000000  0  7G16G18G19G21G22G27G31
  20827979.020   109451768.03709  20827975.300    85287095.00148
  21906921.120   115121747.24909  21906918.420    89705285.58147
  24114938.540   126724852.75708  24114935.440    98746642.33345
  21947540.160   115335103.20007  21947535.880    89871499.80444
  22700458.680   119291837.06808  22700455.020    92954708.47747
  21983028.100   115521622.07909  21983027.060    90016862.77148
  24441795.900   128442411.09608  24441796.940   100084962.83945
 15 03 06 00 13 30.0000000  0  7G16G18G19G21G22G27G31
  20819963.780   109409646.67309  20819960.000    85254273.15749
  21900276.880   115086831.07209  21900274.000    89678078.17748
  24099857.080   126645600.67908  24099853.700    98684887.54246
  21958365.360   115391990.74007  21958361.320    89915827.76646
  22683819.100   119204396.52809  22683815.420    92886573.05148
  21971939.120   115463350.16008  21971938.160    89971456.09548
  24460196.920   128539105.42508  24460197.380   100160308.50446
 15 03 06 00 14  0.0000000  0  7G16G18G19G21G22G27G31
  20812031.660   109367962.81509  20812027.940    85221792.23049
  21893715.460   115052348.88809  21893712.260    89651208.97548
  24084787.040   126566407.80207  24084783.100    98623178.87245
  21969228.120   115449075.58907  21969224.040    89960309.46244
  22667216.780   119117152.04509  22667213.400    92818590.37447
  21960871.960   115405192.90609  21960871.180    89926138.73348
  24478587.200   128635743.44608  24478587.080   100235610.25045
 15 03 06 00 14 30.0000000  0  7G16G18G19G21G22G27G31
  20804184.440   109326725.79209  20804180.820    85189659.48548
  21887238.400   115018309.59009  21887234.780    89624684.89048
  24069729.900   126487281.49008  24069725.760    98561522.05146
  21980129.460   115506362.89607  21980124.840    90004948.94244
  22650653.900   119030113.79709  22650650.680    92750768.40747
  21949828.480   115347158.02009  21949827.900    89880916.73848
  24496967.580   128732329.44508  24496966.920   100310871.45245
 15 03 06 00 15  0.0000000  0  7G16G18G19G21G22G27G31
  20796422.540   109285937.61809  20796419.020    85157876.50148
  21880845.760   114984714.75309  21880841.920    89598507.10947
  24054685.780   126408222.15108  24054681.300    98499917.43545
  21991069.220   115563851.52006  21991064.400    90049745.24743
  22634131.140   118943284.75409  22634127.440    92683109.47447
  21938808.620   115289246.12609  21938807.940    89835790.61048
  24515337.620   128828860.79708  24515336.780   100386090.02445
 15 03 06 00 15 30.0000000  0  7G16G18G19G21G22G27G31
  20788747.600   109245606.52109  20788744.140    85126449.67048
  21874538.880   114951571.72009  21874535.080    89572681.35848
  24039655.560   126329236.34308  24039650.080    98438370.09745
  22002047.900   115621545.47707  22002043.580    90094701.50343
  22617649.820   118856673.83709  22617645.180    92615620.51347
  21927813.040   115231463.87909  21927812.220    89790765.46648
  24533697.960   128925341.12008  24533697.280   100461268.83345
 15 03 06 00 16  0.0000000  0  7G16G18G19G21G22G27G31
  20781159.820   109205733.28009  20781156.520    85095379.61248
  21868317.980   114918881.41309  21868314.260    89547208.39647
  24024638.960   126250323.24408  24024633.200    98376879.41545
  22013065.160   115679441.94007  22013061.940    90139815.58943
  22601210.020   118770282.53609  22601204.960    92548302.67247
  21916842.160   115173810.55409  21916840.820    89745840.81348
  24552047.760   129021766.47808  24552047.220   100536404.74845
 15 03 06 00 16 30.0000000  0  7G16G18G19G21G22G27G31
  20773659.320   109166318.29909  20773656.180    85064666.63648
  21862183.320   114886643.79609  21862179.440    89522088.20847
  24009635.600   126171481.63608  24009630.220    98315444.41545
  22024120.240   115737538.32006  22024117.580    90185085.42844
  22584812.120   118684112.36608  22584807.440    92481157.11047
  21905895.540   115116285.35709  21905893.660    89701016.02148
  24570386.320   129118133.31308  24570386.160   100611495.06045
 15 03 06 00 17  0.0000000  0  7G16G18G19G21G22G27G31
  20766247.400   109127368.01309  20766244.220    85034315.76849
  21856135.800   114854864.59509  21856132.160    89497325.21648
  23994646.080   126092715.68107  23994641.380    98254068.40346
  22035213.840   115795837.80706  22035211.760    90230513.61044
  22568457.820   118598170.36509  22568453.600    92414189.34747
  21894973.940   115058893.14109  21894972.220    89656294.82348
  24588713.980   129214443.24708  24588714.220   100686541.02446
 15 03 06 00 17 30.0000000  0  7G16G18G19G21G22G27G31
  20758922.960   109088876.56009  20758919.500    85004322.41948
  21850174.200   114823537.38909  21850170.940    89472914.40748
  23979669.760   126014018.49008  23979665.900    98192745.92946
  22046344.520   115854330.67407  22046342.640    90276092.45544
  22552146.280   118512451.61909  22552142.220    92347395.58348
  21884076.220   115001626.83109  21884074.500    89611671.70748
  24607028.700   129310685.78208  24607029.420   100761534.44045
 15 03 06 00 18  0.0000000  0  7G16G18G19G21G22G27G31
  20751684.660   109050837.83609  20751680.940    84974681.85549
  21844297.300   114792655.97409  21844294.500    89448850.94448
  23964705.540   125935382.38908  23964702.380    98131471.07346
  22057510.340   115913006.93407  22057507.960    90321814.22244
  22535876.080   118426951.14709  22535872.160    92280771.88748
  21873201.000   114944478.90408  21873199.100    89567140.89448
  24625328.660   129406850.43208  24625329.880   100836467.14546
 15 03 06 00 18 30.0000000  0  7G16G18G19G21G22G27G31
  20744533.540   109013257.95509  20744529.760    84945398.84848
  21838506.300   114762225.56409  21838503.940    89425138.91948
  23949754.260   125856811.37608  23949750.360    98070246.93145
  22068711.720   115971869.58207  22068708.460    90367681.20244
  22519648.640   118341675.67309  22519644.720    92214323.50147
  21862348.920   114887453.85208  21862348.020    89522705.78748
  24643614.080   129502938.70608  24643615.940   100911340.27545
 15 03 06 00 19  0.0000000  0  7G16G18G19G21G22G27G31
  20737472.400   108976151.17809  20737468.600    84916484.47349
  21832803.900   114732259.80909  21832801.680    89401788.99948
  23934818.200   125778318.20408  23934812.660    98009083.48145
  22079950.440   116030929.33607  22079946.380    90413701.78944
  22503467.060   118256640.15609  22503462.780    92148062.11847
  21851523.140   114830564.64909  21851523.040    89478376.53548
  24661886.780   129598960.19608  24661889.340   100986161.36345
 15 03 06 00 19 30.0000000  0  7G16G18G19G21G22G27G31
  20730498.220   108939501.87409  20730494.480    84887926.57948
  21827186.880   114702742.64309  21827184.600    89378788.64247
  23919893.540   125699885.74908  23919887.060    97947967.35445
  22091223.120   116090167.05407  22091218.540    90459861.07744
  22487328.280   118171829.71909  22487323.660    92081976.12547
  21840720.320   114773794.23809  21840720.240    89434139.88448
  24680142.820   129694895.11708  24680146.160   101060914.99045
 15 03 06 00 20  0.0000000  0  7G16G18G19G21G22G27G31
  20723615.240   108903332.15409  20723611.580    84859742.37549
  21821659.520   114673695.89409  21821657.100    89356154.82048
  23904983.500   125621534.62608  23904977.680    97886914.53346
  22102533.340   116149601.31607  22102528.520    90506173.48344
  22471236.600   118087267.51209  22471232.140    92016083.53148
  21829944.120   114717163.68209  21829943.900    89390012.16449
  24698385.780   129790761.11308  24698389.820   101135614.86546
 15 03 06 00 20 30.0000000  0  6G16G18G19G21G22G27
  20716820.380   108867625.25409  20716816.800    84831918.80749
  21816218.560   114645102.35209  21816215.920    89333874.15548
  23890085.220   125543246.60208  23890080.360    97825910.85646
  22113877.300   116209212.29207  22113872.200    90552623.62544
  22455188.980   118002937.82909  22455184.920    91950372.12248
  21819191.260   114660655.05009  21819190.780    89345979.46449
 15 03 06 00 21  0.0000000  0  6G16G18G19G21G22G27
  20710116.900   108832398.43909  20710113.360    84804469.33649
  21810866.880   114616978.53809  21810864.240    89311959.49648
  23875202.140   125465037.01308  23875197.360    97764968.33146
  22125257.260   116269013.85706  22125252.040    90599222.20645
  22439189.060   117918858.94309  22439185.080    91884856.14447
  21808464.460   114604284.14809  21808463.680    89302054.09048
 15 03 06 00 21 30.0000000  0  6G16G18G19G21G22G27
  20703503.420   108797644.41209  20703499.780    84777388.27448
  21805603.000   114589316.60409  21805600.280    89290404.75947
  23860332.600   125386897.22908  23860327.700    97704080.23045
  22136671.400   116328995.10506  22136666.080    90645960.91044
  22423235.700   117835024.28209  22423231.560    91819530.49447
  21797762.160   114548042.19709  21797760.860    89258229.22548
 15 03 06 00 22  0.0000000  0  6G16G18G19G21G22G27
  20696979.240   108763359.98809  20696975.580    84750673.13449
  21800426.200   114562113.07209  21800423.360    89269207.24147
  23845475.700   125308822.44408  23845471.120    97643242.78146
  22148118.920   116389149.56705  22148112.860    90692834.54844
  22407328.520   117751431.63209  22407324.340    91754393.40948
  21787083.380   114491924.98209  21787081.940    89214501.54148
 15 03 06 00 22 30.0000000  0  6G16G18G19G21G22G27
  20690545.880   108729553.80409  20690542.480    84724330.63248
  21795338.020   114535376.07209  21795335.240    89248373.21247
  23830632.540   125230820.27908  23830628.300    97582461.87746
  22159600.800   116449482.45105  22159594.320    90739847.31144
  22391469.160   117668090.78209  22391465.220    91689452.50348
  21776429.800   114435939.87009  21776428.680    89170876.77348
 15 03 06 00 23  0.0000000  0  5G16G18G19G22G27
  20684209.220   108696256.49809  20684206.220    84698384.68249
  21790344.540   114509135.18109  21790341.800    89227925.78147
  23815808.420   125152919.04808  23815804.480    97521759.60246
  22375663.800   117585032.98309  22375659.860    91624732.17147
  21765806.940   114380116.36409  21765805.760    89127377.94148
 15 03 06 00 23 30.0000000  0  6G16G18G19G21G22G27
  20677953.560   108663384.70109  20677951.000    84672770.29949
  21785429.620   114483306.73409  21785426.840    89207799.71948
  23800987.700   125075034.23008  23800984.180    97461070.15647
  22182664.360   116570688.28605  22182658.280    90834269.43344
  22359896.720   117502175.73809  22359892.600    91560168.11148
  21755198.800   114324369.88609  21755197.120    89083939.15848
 15 03 06 00 24  0.0000000  0  6G16G18G19G21G22G27
  20671801.420   108631055.62309  20671799.100    84647578.81449
  21780615.440   114458007.54509  21780612.640    89188086.07047
  23786192.260   124997282.03408  23786188.680    97400484.09746
  22194252.240   116631583.67105  22194248.440    90881723.32943
  22344190.440   117419637.53709  22344186.080    91495852.66047
  21744627.360   114268816.44409  21744625.820    89040650.75848
 15 03 06 00 24 30.0000000  0  6G16G18G19G21G22G27
  20665727.860   108599138.07709  20665725.540    84622707.99549
  21775876.900   114433106.11609  21775874.000    89168682.37947
  23771396.720   124919529.50108  23771392.200    97339897.74146
  22205858.520   116692573.51005  22205853.200    90929247.95244
  22328520.080   117337288.07009  22328515.520    91431684.29548
  21734067.280   114213323.99209  21734066.180    88997409.88048
 15 03 06 00 25  0.0000000  0  6G16G18G19G21G22G27
  20659756.580   108567757.27109  20659754.200    84598255.41249
  21771237.660   114408726.18309  21771234.340    89149685.06147
  23756624.140   124841899.97808  23756618.860    97279407.22446
  22217506.700   116753783.49805  22217500.720    90976943.94344
  22312909.340   117255253.03009  22312904.940    91367760.91848
  21723542.160   114158015.97409  21723541.120    88954312.73348
 15 03 06 00 25 30.0000000  0  6G16G18G19G21G22G27
  20653878.460   108536865.59209  20653875.860    84574183.95849
  21766688.460   114384820.04409  21766685.120    89131056.90547
  23741865.480   124764344.88808  23741859.960    97218974.70446
  22229187.400   116815162.61705  22229179.960    91024771.93843
  22297349.400   117173486.00209  22297345.260    91304046.35348
  21713042.860   114102843.96809  21713042.180    88911321.54148
 15 03 06 00 26  0.0000000  0  5G16G18G19G22G27
  20648101.640   108506506.10609  20648098.600    84550527.19349
  21762237.440   114361430.43309  21762234.320    89112831.23647
  23727129.140   124686905.70808  23727123.720    97158632.52745
  22281848.760   117092030.66709  22281844.580    91240574.70847
  21702577.760   114047850.11409  21702577.780    88868469.19648
 15 03 06 00 26 30.0000000  0  5G16G18G19G22G27
  20642408.700   108476588.04909  20642405.320    84527214.41549
  21757867.260   114338465.39209  21757864.380    89094936.41148
  23712397.320   124609490.24608  23712392.660    97098308.84246
  22266390.800   117010798.15209  22266386.160    91177276.69448
  21692129.200   113992942.26709  21692129.380    88825683.85448
 15 03 06 00 27  0.0000000  0  5G16G18G19G22G27
  20636811.880   108447175.80509  20636808.300    84504295.78949
  21753590.080   114315989.22709  21753587.360    89077422.52947
  23697681.860   124532161.75308  23697678.140    97038052.86546
  22250987.840   116929853.67709  22250982.760    91114203.13348
  21681709.260   113938184.10109  21681708.880    88783015.18448
 15 03 06 00 27 30.0000000  0  5G16G18G19G22G27
  20631308.640   108418256.09709  20631304.960    84481760.95849
  21749403.480   114293988.39809  21749400.740    89060279.02248
  23682980.480   124454905.31908  23682976.980    96977853.06746
  22235637.040   116849185.02009  22235632.000    91051344.45148
  21671315.140   113883561.28409  21671314.560    88740451.95648
 15 03 06 00 28  0.0000000  0  6G16G18G19G21G22G27
  20625898.700   108389827.28009  20625895.020    84459608.63749
  21745306.740   114272459.98409  21745304.020    89043503.62847
  23668292.540   124377718.05808  23668288.780    96917707.17246
  22288062.420   117124555.17704                                
  22220338.260   116768791.22009  22220333.540    90988699.94648
  21660946.200   113829070.98509  21660945.680    88697991.99148
 15 03 06 00 28 30.0000000  0  6G16G18G19G21G22G27
  20620582.220   108361890.00009  20620578.620    84437839.32049
  21741300.040   114251404.43309  21741297.220    89027096.69947
  23653617.820   124300599.90308  23653613.500    96857615.15646
  22299927.980   117186905.37104  22299930.200    91314481.28643
  22205092.480   116688673.92709  22205087.720    90926270.91548
  21650602.220   113774713.10609  21650601.260    88655635.21248
 15 03 06 00 29  0.0000000  0  6G16G18G19G21G22G27
  20615361.340   108334455.13109  20615357.900    84416461.49449
  21737385.340   114230831.82309  21737382.280    89011066.11747
  23638957.800   124223560.10308  23638952.760    96797584.17146
  22311825.360   117249423.06004                                
  22189901.780   116608845.09809  22189896.760    90864066.69247
  21640285.000   113720497.42309  21640284.180    88613389.21948
 15 03 06 00 29 30.0000000  0  6G16G18G19G21G22G27
  20610234.320   108307513.35509  20610231.040    84395467.88849
  21733560.600   114210731.69409  21733557.420    88995403.71547
  23624310.740   124146587.71408  23624304.740    96737605.73846
  22323749.400   117312081.78504  22323749.000    91412032.15043
  22174764.180   116529296.12409  22174759.040    90802080.51348
  21629992.900   113666413.51709  21629992.480    88571245.91248
 15 03 06 00 30  0.0000000  0  5G16G18G19G22G27
  20605204.540   108281082.46609  20605201.460    84374872.39049
  21729829.140   114191122.08009  21729825.840    88980123.53547
  23609679.560   124069699.13308  23609673.280    96677692.60346
  22159683.440   116450046.75209  22159678.540    90740327.77248
  21619729.320   113612478.31109  21619729.060    88529218.48548
 15 03 06 00 30 30.0000000  0  5G16G18G19G22G27
  20600272.420   108255164.21009  20600269.440    84354676.33249
  21726191.020   114172003.74809  21726187.660    88965226.16947
  23595064.220   123992895.68108  23595058.700    96617845.75146
  22144660.240   116371099.42909  22144655.360    90678810.40548
  21609494.580   113558692.88109  21609494.040    88487307.77148
 15 03 06 00 31  0.0000000  0  5G16G18G19G22G27
  20595436.500   108229750.84309  20595433.540    84334873.71349
  21722644.700   114153368.01609  21722641.380    88950704.83947
  23580463.240   123916167.75708  23580458.260    96558057.80546
  22129693.220   116292446.74309  22129688.380    90617522.64448
  21599286.780   113505048.16309  21599285.780    88445506.70148
 15 03 06 00 31 30.0000000  0  5G16G18G19G22G27
  20590698.460   108204851.12709  20590695.360    84315471.32848
  21719191.900   114135224.11209  21719188.900    88936566.70647
  23565877.860   123839523.58708  23565873.440    96498335.07046
  22114784.120   116214099.40409  22114779.660    90556472.78248
  21589107.260   113451552.79509  21589105.980    88403822.02048
 15 03 06 00 32  0.0000000  0  6G16G18G19G21G22G27
  20586046.700   108180404.88809  20586043.280    84296422.30748
  21715820.960   114117510.37809  21715818.140    88922763.77648
  23551296.740   123762901.15808  23551292.740    96438629.30946
  22383810.380   117627713.56705  22383801.360    91657922.13643
  22099921.740   116135998.17309  22099917.400    90495614.69448
  21578944.180   113398145.20209  21578942.960    88362205.71848
 15 03 06 00 32 30.0000000  0  5G16G18G19G22G27
  20581504.300   108156533.76109  20581500.560    84277821.42648
  21712554.880   114100347.67909  21712552.080    88909390.23048
  23536743.300   123686420.97209  23536738.780    96379034.41646
  22085129.700   116058265.46309  22085125.200    90435043.79448
  21568820.800   113344946.05809  21568819.580    88320751.84348
 15 03 06 00 33  0.0000000  0  6G16G18G19G21G22G27
  20577053.680   108133145.23509  20577049.820    84259596.60548
  21709376.180   114083643.19109  21709373.360    88896373.74948
  23522199.460   123609989.79408  23522194.040    96319477.71245
  22408033.660   117755008.90005  22408032.020    91757125.22143
  22070390.480   115980810.06309  22070385.720    90374688.96648
  21558719.160   113291862.44609  21558718.200    88279387.98648
 15 03 06 00 33 30.0000000  0  6G16G18G19G21G22G27
  20572703.200   108110282.77509  20572699.200    84241781.69948
  21706292.840   114067439.50209  21706289.820    88883747.51247
  23507672.620   123533649.69708  23507666.660    96259992.00646
  22420187.760   117818879.35804  22420184.680    91806894.35043
  22055712.300   115903676.30509  22055707.440    90314584.77847
  21548647.440   113238936.78409  21548646.440    88238147.22148
 15 03 06 00 34  0.0000000  0  5G16G18G19G22G27
  20568455.100   108087958.50409  20568451.000    84224386.16149
  21703307.100   114051748.80909  21703303.860    88871521.00948
  23493164.520   123457412.28007  23493159.280    96200586.23147
  22041097.960   115826878.20309  22041093.300    90254742.11948
  21538608.180   113186181.21809  21538606.780    88197039.01848
 15 03 06 00 34 30.0000000  0  5G16G18G19G22G27
  20564302.120   108066134.19709  20564297.860    84207380.20249
  21700411.260   114036530.87009  21700407.600    88859662.88747
  23478667.440   123381237.44307  23478664.080    96141229.20547
  22026540.420   115750378.03709  22026535.840    90195131.61748
  21528593.600   113133555.72709  21528592.380    88156032.15248
 15 03 06 00 35  0.0000000  0  5G16G18G19G22G27
  20560246.840   108044823.17909  20560242.460    84190774.20349
  21697607.780   114021799.18209  21697604.040    88848183.63847
  23464185.120   123305137.86908  23464183.320    96081930.79046
  22012042.400   115674190.36709  22012037.580    90135764.63648
  21518606.160   113081073.48509  21518605.420    88115136.86848
 15 03 06 00 35 30.0000000  0  6G16G18G19G21G22G27
  20556288.200   108024020.51909  20556283.820    84174564.34049
  21694896.000   114007548.47709  21694892.200    88837079.21548
  23449716.600   123229107.32708  23449715.720    96022686.25747
  22469076.240   118075791.85205  22469075.340    92007097.96943
  21997603.180   115598311.41509  21997598.300    90076638.21748
  21508645.140   113028728.77309  21508644.600    88074348.78349
 15 03 06 00 36  0.0000000  0  6G16G18G19G21G22G27
  20552427.920   108003735.32009  20552423.540    84158757.68248
  21692277.420   113993786.54609  21692273.360    88826355.66647
  23435263.340   123153154.26908  23435262.360    95963502.06247
  22481362.560   118140352.31406  22481360.520    92057415.90342
  21983224.780   115522751.49609  21983219.940    90017760.38448
  21498712.160   112976530.00109  21498711.700    88033674.40749
 15 03 06 00 36 30.0000000  0  6G16G18G19G21G22G27
  20548665.380   107983964.39509  20548661.180    84143351.76448
  21689751.200   113980510.04009  21689746.880    88816010.36247
  23420824.440   123077274.40508  23420822.440    95904374.91646
  22493672.880   118205041.29606                                
  21968906.720   115447508.74209  21968901.720    89959129.68448
  21488806.400   112924473.51809  21488806.020    87993110.91549
 15 03 06 00 37  0.0000000  0  6G16G18G19G21G22G27
  20545002.480   107964717.34109  20544998.660    84128354.04848
  21687318.920   113967727.66609  21687314.300    88806050.09147
  23406401.380   123001476.25108  23406398.020    95845311.44846
  22506008.620   118269865.80806                                
  21954651.000   115372593.93409  21954645.660    89900754.54748
  21478929.600   112872568.30309  21478929.040    87952665.29548
 15 03 06 00 37 30.0000000  0  6G16G18G19G21G22G27
  20541440.080   107945998.45609  20541436.700    84113767.90948
  21684981.360   113955442.81209  21684976.640    88796477.51647
  23391994.440   122925763.36108  23391990.060    95786314.43646
  22518370.400   118334826.73805  22518369.420    92208946.01741
  21940458.640   115298012.20809  21940453.120    89842638.95248
  21469082.060   112820817.81409  21469081.100    87912340.28048
 15 03 06 00 38  0.0000000  0  6G16G18G19G21G22G27
  20537978.200   107927807.53009  20537975.260    84099593.16448
  21682738.280   113943655.24209  21682733.620    88787292.40747
  23377603.020   122850134.65108  23377598.340    95727383.00846
  22530757.700   118399921.17006  22530753.260    92259665.88841
  21926329.780   115223764.84509  21926324.320    89784783.88847
  21459263.480   112769221.75809  21459262.720    87872135.55948
 15 03 06 00 38 30.0000000  0  6G16G18G19G21G22G27
  20534614.580   107910132.06309  20534611.980    84085820.06749
  21680587.180   113932351.26609  21680582.640    88778484.12648
  23363224.680   122774576.53708  23363219.940    95668506.58047
  22543167.740   118465134.47606  22543161.620    92310481.61742
  21912262.120   115149840.47409  21912257.020    89727180.50248
  21449471.660   112717766.68209  21449471.360    87832040.70948
 15 03 06 00 39  0.0000000  0  6G16G18G19G21G22G27
  20531353.020   107892992.51609  20531350.640    84072464.58749
  21678531.820   113921550.72809  21678527.500    88770068.13947
  23348863.560   122699108.60208  23348859.020    95609700.41646
  22555603.600   118530483.90306  22555597.020    92361403.30643
  21898259.840   115076260.63409  21898255.140    89669845.57248
  21439710.140   112666472.63308  21439710.220    87792071.30848
 15 03 06 00 39 30.0000000  0  6G16G18G19G21G22G27
  20528193.240   107876387.32609  20528190.800    84059525.48349
  21676571.760   113911251.54209  21676567.720    88762042.80347
  23334519.140   122623728.62908  23334515.040    95550962.77447
  22568064.500   118595965.64406  22568057.440    92412428.13544
  21884323.380   115003025.07009  21884318.820    89612778.92048
  21429979.020   112615337.56909  21429979.560    87752225.78548
 15 03 06 00 40  0.0000000  0  6G16G18G19G21G22G27
  20525134.900   107860314.66309  20525132.320    84047001.32849
  21674706.600   113901451.17409  21674702.820    88754406.15148
  23320190.840   122548433.57108  23320187.060    95492291.30747
  22580549.740   118661575.12506  22580542.680    92463552.48443
  21870452.580   114930133.29009  21870448.040    89555980.15348
  21420278.120   112564359.03009  21420278.720    87712502.23848
 15 03 06 00 40 30.0000000  0  6G16G18G19G21G22G27
  20522177.380   107844770.88109  20522174.500    84034889.28349
  21672935.620   113892145.27409  21672931.960    88747154.79248
  23305878.360   122473219.32609  23305874.460    95433682.84946
  22593057.880   118727305.98607  22593050.800    92514771.35743
  21856646.800   114857582.97709  21856641.960    89499447.46848
  21410606.720   112513533.30709  21410606.720    87672897.80948
 15 03 06 00 41  0.0000000  0  6G16G18G19G21G22G27
  20519320.800   107829757.42009  20519317.480    84023190.48149
  21671258.780   113883334.15309  21671255.260    88740288.97748
  23291581.560   122398086.35508  23291576.040    95375137.74346
  22605588.600   118793157.39007  22605581.720    92566084.18842
  21842906.620   114785376.57009  21842901.480    89443182.77448
  21400964.680   112462861.16809  21400964.140    87633413.04648
 15 03 06 00 41 30.0000000  0  6G16G18G19G21G22G27
  20516566.580   107815282.14209  20516562.800    84011911.03749
  21669677.580   113875025.47709  21669674.320    88733814.68648
  23277301.220   122323041.96608  23277294.680    95316661.63646
  22618143.160   118859134.19407  22618136.700    92617494.69043
  21829233.680   114713523.59009  21829228.600    89387193.45548
  21391353.060   112412350.25309  21391352.400    87594053.88149
 15 03 06 00 42  0.0000000  0  6G16G18G19G21G22G27
  20513914.440   107801343.99309  20513910.460    84001050.14049
  21668191.860   113867217.70009  21668188.880    88727730.72148
  23263037.080   122248084.35508  23263030.740    95258253.13346
  22630721.180   118925233.43408  22630714.620    92669000.55143
  21815627.740   114642024.22109  21815622.940    89331479.65748
  21381771.840   112361999.15109  21381770.960    87554819.26949
 15 03 06 00 42 30.0000000  0  6G16G18G19G21G22G27
  20511363.820   107787940.07409  20511359.760    83990605.52149
  21666800.840   113859907.19209  21666797.980    88722034.24548
  23248788.400   122173210.04008  23248782.900    95199909.52346
  22643321.540   118991449.30607  22643314.660    92720597.39042
  21802088.760   114570876.48509  21802083.940    89276039.88548
  21372220.240   112311804.50609  21372219.320    87515706.55449
 15 03 06 00 43  0.0000000  0  6G16G18G19G21G22G27
  20508915.440   107775074.66409  20508911.360    83980580.51549
  21665505.000   113853097.09709  21665502.100    88716727.69848
  23234556.060   122098422.16908  23234551.920    95141633.29147
  22655944.380   119057783.21407  22655937.820    92772286.09641
  21788617.740   114500085.84109  21788612.880    89220878.36348
  21362698.840   112261770.23009  21362698.000    87476718.79749
 15 03 06 00 43 30.0000000  0  6G16G18G19G21G22G27
  20506567.300   107762737.24209  20506563.520    83970966.94548
  21664302.180   113846776.55009  21664299.280    88711802.59348
  23220338.420   122023709.83508  23220335.380    95083415.85347
  22668587.340   119124222.69306  22668581.320    92824057.13142
  21775213.080   114429643.45209  21775208.160    89165988.21648
  21353205.820   112211885.52109  21353205.000    87437847.57648
 15 03 06 00 44  0.0000000  0  6G16G18G19G21G22G27
  20504322.640   107750943.91509  20504319.300    83961777.34349
  21663195.280   113840960.78409  21663192.420    88707270.82548
  23206138.540   121949088.75708  23206135.620    95025269.56047
  22681252.760   119190781.25407  22681247.280    92875920.82443
  21761877.880   114359566.95009  21761873.020    89111383.18248
  21343744.520   112162166.49309  21343743.740    87399105.49549
 15 03 06 00 44 30.0000000  0  6G16G18G19G21G22G27
  20502180.960   107739690.29009  20502177.740    83953008.27948
  21662183.420   113835644.91909  21662180.760    88703128.58648
  23191955.340   121874553.63808  23191951.900    94967190.29847
  22693939.640   119257452.31407  22693935.200    92927872.32543
  21748611.440   114289852.97109  21748606.580    89057060.61448
  21334313.840   112112608.42909  21334313.060    87360488.81148
 15 03 06 00 45  0.0000000  0  6G16G18G19G21G22G27
  20500146.200   107728997.38609  20500142.980    83944676.14049
  21661270.660   113830849.19709  21661268.100    88699391.66948
  23177792.420   121800124.85808  23177788.520    94909193.84847
  22706651.400   119324254.43307                                
  21735418.320   114220523.54909  21735413.220    89003037.74648
  21324918.000   112063231.81909  21324916.900    87322013.57248
 15 03 06 00 45 30.0000000  0  6G16G18G19G21G22G27
  20498211.440   107718829.54409  20498208.080    83936753.14048
  21660450.100   113826537.02009  21660447.520    88696031.55548
  23163642.320   121725766.04308  23163638.400    94851251.93247
  22719380.860   119391149.53706                                
  21722291.920   114151544.75509  21722287.300    88949288.05648
  21315549.880   112014001.04709  21315548.700    87283651.94348
 15 03 06 00 46  0.0000000  0  6G16G18G19G21G22G27
  20496380.140   107709205.80309  20496376.600    83929254.10748
  21659725.220   113822726.89609  21659722.580    88693062.64448
  23149508.900   121651495.94108  23149505.080    94793379.12446
  22732131.120   119458154.26606                                
  21709236.060   114082936.86709  21709232.260    88895827.34348
  21306212.960   111964934.92009  21306211.720    87245418.61248
 15 03 06 00 46 30.0000000  0  6G16G18G19G21G22G27
  20494650.720   107700117.62709  20494647.100    83922172.41149
  21659094.080   113819409.50509  21659091.240    88690477.67247
  23135391.140   121577305.50009  23135386.840    94735568.46046
  22744900.020   119525257.43805  22744895.640    93136541.79543
  21696249.560   114014692.68509  21696245.920    88842650.06748
  21296905.580   111916024.82309  21296904.240    87207306.85848
 15 03 06 00 47  0.0000000  0  6G16G18G19G21G22G27
  20493025.460   107691576.26809  20493021.740    83915516.79449
  21658558.760   113816595.73309  21658555.500    88688285.14547
  23121290.780   121503205.49008  23121285.460    94677828.28547
  22757689.280   119592468.76905                                
  21683334.740   113946824.62709  21683330.540    88789765.92348
  21287629.940   111867281.91209  21287628.560    87169325.37548
 15 03 06 00 47 30.0000000  0  6G16G18G19G21G22G27
  20491504.420   107683582.05109  20491500.600    83909287.52048
  21658119.060   113814284.96809  21658115.440    88686484.53847
  23107207.520   121429195.84908  23107202.380    94620158.47147
  22770499.040   119659786.02305  22770496.680    93241382.16744
  21670491.660   113879335.00009  21670487.580    88737176.61648
  21278386.220   111818706.41609  21278384.800    87131474.35648
 15 03 06 00 48  0.0000000  0  6G16G18G19G21G22G27
  20490088.700   107676141.38509  20490084.820    83903489.58949
  21657776.240   113812483.06609  21657772.420    88685080.46347
  23093142.460   121355282.50308  23093137.840    94562563.65047
  22783330.180   119727213.37006  22783328.500    93293922.93444
  21657722.140   113812231.08009  21657718.260    88684887.84248
  21269175.440   111770304.67609  21269174.260    87093758.72248
 15 03 06 00 48 30.0000000  0  6G16G18G19G21G22G27
  20488775.720   107669240.86709  20488771.760    83898112.55748
  21657527.500   113811175.69809  21657523.680    88684061.74947
  23079092.880   121281451.22508  23079087.760    94505032.82147
  22796179.520   119794735.01806  22796177.980    93346537.15944
  21645024.100   113745500.65009  21645019.820    88632890.15248
  21259995.280   111722063.24209  21259994.300    87056168.01148
 15 03 06 00 49  0.0000000  0  6G16G18G19G21G22G27
  20487568.920   107662898.59109  20487564.780    83893170.51049
  21657376.080   113810379.81509  21657372.360    88683441.60348
  23065061.500   121207720.04308  23065056.580    94447579.97947
  22809049.960   119862367.11207  22809048.060    93399237.45345
  21632400.820   113679163.61509  21632396.080    88581199.00148
  21250848.800   111674000.15708  21250848.320    87018716.24049
 15 03 06 00 49 30.0000000  0  6G16G18G19G21G22G27
  20486465.460   107657099.68809  20486461.260    83888651.87049
  21657319.280   113810080.94509  21657315.660    88683208.73848
  23051046.420   121134074.06808  23051042.340    94390193.49947
  22821938.260   119930092.77407  22821936.200    93452010.67544
  21619849.660   113613206.72409  21619844.780    88529804.04248
  21241733.620   111626100.85809  21241733.480    86981392.11148
 15 03 06 00 50  0.0000000  0  6G16G18G19G21G22G27
  20485465.140   107651843.27609  20485461.040    83884555.96649
  21657356.700   113810277.08909  21657353.000    88683361.60448
  23037047.800   121060511.76708  23037044.260    94332872.24947
  22834843.780   119997908.80207  22834840.980    93504854.31744
  21607370.980   113547630.33809  21607366.240    88478705.57948
  21232649.680   111578364.36609  21232649.260    86944194.86548
 15 03 06 00 50 30.0000000  0  6G16G18G19G21G22G27
  20484569.340   107647135.93309  20484565.300    83880887.90149
  21657489.360   113810974.00409  21657485.660    88683904.67548
  23023066.920   120987039.35309  23023062.640    94275621.08946
  22847767.260   120065819.55407  22847763.860    93557771.77244
  21594966.000   113482442.26109  21594961.580    88427909.68648
  21223598.080   111530797.14309  21223597.520    86907129.51348
 15 03 06 00 51  0.0000000  0  6G16G18G19G21G22G27
  20483779.800   107642986.25009  20483775.680    83877654.36948
  21657718.800   113812179.71409  21657715.240    88684844.19848
  23009104.660   120913664.95108  23009099.320    94218446.27847
  22860709.860   120133831.91507  22860706.100    93610768.41343
  21582636.580   113417652.48509  21582632.180    88377424.14848
  21214580.480   111483408.05809  21214579.880    86870202.97449
 15 03 06 00 51 30.0000000  0  6G16G18G19G21G22G27
  20483096.200   107639393.43209  20483091.980    83874854.76748
  21658044.700   113813892.61909  21658041.280    88686178.92348
  22995160.580   120840387.88808  22995154.740    94161347.29846
  22873671.060   120201942.84307  22873666.780    93663841.87745
  21570383.300   113353261.90509  21570378.840    88327249.70648
  21205596.740   111436196.40709  21205596.040    86833414.68749
 15 03 06 00 52  0.0000000  0  6G16G18G19G21G22G27
  20482516.220   107636344.92009  20482511.740    83872479.28249
  21658464.400   113816099.19808  21658461.080    88687898.31048
  22981232.760   120767195.10708  22981226.560    94104313.99547
  22886648.060   120270137.78706  22886643.680    93716980.78945
  21558204.140   113289259.21209  21558199.700    88277377.49048
  21196644.240   111389149.78009  21196643.560    86796754.99549
 15 03 06 00 52 30.0000000  0  6G16G18G19G21G22G27
  20482043.120   107633858.18209  20482038.480    83870541.55249
  21658981.360   113818816.90809  21658978.120    88690015.98448
  22967324.240   120694104.08808  22967317.760    94047359.98747
  22899643.740   120338432.09706  22899639.620    93770197.13445
  21546102.460   113225663.20609  21546097.820    88227822.18048
  21187726.360   111342285.87309  21187725.740    86760237.67549
 15 03 06 00 53  0.0000000  0  6G16G18G19G21G22G27
  20481675.980   107631928.83309  20481671.380    83869038.15749
  21659594.700   113822039.89809  21659591.380    88692527.40848
  22953433.660   120621110.23708  22953427.740    93990481.68247
  22912656.960   120406819.56806  22912653.500    93823486.09545
  21534077.560   113162471.20009  21534072.740    88178581.67248
  21178842.200   111295600.35809  21178841.680    86723859.36749
 15 03 06 00 53 30.0000000  0  6G16G18G19G21G22G27
  20481414.560   107630554.92209  20481410.000    83867967.57149
  21660303.640   113825765.64909  21660300.300    88695430.59148
  22939560.900   120548211.20508  22939555.880    93933677.24448
  22925687.260   120475296.39206  22925684.360    93876844.66246
  21522129.500   113099682.84809  21522124.580    88129655.71848
  21169991.420   111249091.63109  21169991.400    86687618.78649
 15 03 06 00 54  0.0000000  0  6G16G18G19G21G22G27
  20481258.060   107629732.51209  20481253.540    83867326.71549
  21661107.420   113829990.19609  21661104.140    88698722.45048
  22925705.660   120475403.42408  22925701.100    93876943.94147
  22938733.920   120543857.19807  22938731.040    93930268.61545
  21510257.580   113037295.89509  21510252.920    88081042.51048
  21161173.800   111202756.33609  21161174.020    86651513.37348
 15 03 06 00 54 30.0000000  0  6G16G18G19G21G22G27
  20481208.160   107629470.18109  20481203.600    83867122.29549
  21662007.440   113834720.66609  21662004.200    88702408.54147
  22911869.280   120402694.90608  22911864.900    93820287.97147
  22951797.900   120612507.77006  22951794.900    93983762.54745
  21498463.800   112975319.92209  21498459.400    88032749.54048
  21152390.820   111156602.91009  21152391.060    86615549.64848
 15 03 06 00 55  0.0000000  0  6G16G18G19G21G22G27
  20481262.420   107629755.45809  20481257.820    83867344.58149
  21663001.300   113839944.12909  21662998.040    88706478.79247
  22898049.540   120330072.99608  22898044.780    93763699.48447
  22964876.340   120681233.98806  22964873.160    94037315.40945
  21486746.280   112913743.81509  21486741.680    87984768.16648
  21143640.500   111110619.01109  21143640.280    86579718.06548
 15 03 06 00 55 30.0000000  0  6G16G18G19G21G22G27
  20481423.560   107630603.03509  20481419.120    83868005.03749
  21664091.720   113845675.21009  21664088.640    88710944.58447
  22884249.480   120257552.56109  22884245.060    93707190.08947
  22977971.560   120750049.39305  22977968.580    94090937.80445
  21475108.100   112852584.32509  21475103.180    87937111.45648
  21134925.460   111064820.20209  21134924.880    86544030.71749
 15 03 06 00 56  0.0000000  0  6G16G18G19G21G22G27
  20481689.560   107632002.05109  20481685.460    83869095.16748
  21665276.740   113851901.98309  21665273.560    88715796.63447
  22870467.000   120185122.86409  22870462.780    93650751.39347
  22991081.040   120818940.65105  22991078.400    94144619.31245
  21463547.480   112791831.84009  21463542.560    87889771.87548
  21126243.560   111019195.79809  21126242.980    86508479.24348
 15 03 06 00 56 30.0000000  0  6G16G18G19G21G22G27
  20482062.800   107633965.08309  20482059.080    83870624.80248
  21666558.340   113858636.25109  21666554.980    88721044.12746
  22856704.080   120112796.87808  22856699.620    93594393.51047
  23004207.040   120887919.38405  23004204.440    94198368.97944
  21452067.020   112731500.65909  21452062.100    87842760.57848
  21117597.460   110973759.16909  21117596.780    86473074.09848
 15 03 06 00 57  0.0000000  0  7G04G16G18G19G21G22G27
  24568745.680   129109634.94808  24568749.940   100604920.26345
  20482542.460   107636487.63108  20482539.240    83872590.42848
  21667935.480   113865872.57909  21667931.740    88726682.84947
  22842959.740   120040569.45608  22842955.400    93538112.39648
  23017348.440   120956978.63706  23017345.780    94252181.32045
  21440665.900   112671587.39009  21440660.500    87796074.94048
  21108985.880   110928505.52809  21108985.140    86437811.54649
 15 03 06 00 57 30.0000000  0  7G04G16G18G19G21G22G27
  24549995.220   129011106.87507  24550000.020   100528145.98844
  20483135.400   107639605.05008  20483132.680    83875019.58048
  21669414.760   113873645.61509  21669410.600    88732739.78247
  22829240.840   119968476.00508  22829236.940    93481935.68348
  23030511.940   121026152.04306  23030508.920    94306082.67846
  21429351.180   112612129.02309  21429345.500    87749743.79248
  21100415.740   110883470.87509  21100415.180    86402719.58849
 15 03 06 00 58  0.0000000  0  7G04G16G18G19G21G22G27
  24531265.920   128912690.83907  24531271.300   100451458.76444
  20483829.560   107643254.06509  20483827.200    83877862.97449
  21670984.120   113881891.89309  21670979.800    88739165.47247
  22815535.420   119896453.90508  22815531.000    93425814.57847
  23043684.880   121095374.94406  23043681.700    94360022.54745
  21418111.220   112553064.25309  21418105.900    87703719.29248
  21091875.340   110838592.60409  21091875.280    86367749.53349
 15 03 06 00 58 30.0000000  0  7G04G16G18G19G21G22G27
  24512563.680   128814415.93907  24512569.540   100374881.36745
  20484630.200   107647462.57609  20484628.140    83881142.34149
  21672648.680   113890638.42909  21672644.280    88745980.96347
  22801848.660   119824530.50708  22801843.800    93369770.38747
  23056872.000   121164673.60405  23056868.760    94414021.49544
  21406951.960   112494422.34009  21406946.780    87658024.29548
  21083370.040   110793899.09009  21083370.480    86332923.39649
 15 03 06 00 59  0.0000000  0  7G04G16G18G19G21G22G27
  24493890.200   128716291.66807  24493896.260   100298421.43044
  20485539.080   107652239.14809  20485537.220    83884864.33849
  21674409.800   113899893.16909  21674405.400    88753192.44947
  22788182.500   119752714.91608  22788177.600    93313810.23146
  23070074.000   121234055.05204  23070071.880    94468085.00143
  21395875.240   112436213.20909  21395870.040    87612666.55748
  21074902.220   110749399.45009  21074902.320    86298248.35148
 15 03 06 00 59 30.0000000  0  6G04G16G18G19G22G27
  24475241.540   128618296.05807  24475246.900   100222061.86344
  20486552.000   107657561.33809  20486550.020    83889011.49849
  21676263.120   113909632.85509  21676258.920    88760781.82047
  22774532.600   119680985.25908  22774527.440    93257917.01847
  21384876.900   112378416.53109  21384871.920    87567630.17548
  21066467.360   110705072.01409  21066466.980    86263707.51548
 15 03 06 01 00  0.0000000  0  7G04G16G18G19G21G22G27
  24456621.660   128520449.41607  24456625.800   100145818.42844
  20487672.740   107663449.18209  20487670.320    83893599.42548
  21678212.280   113919877.12309  21678208.560    88768764.35948
  22760902.840   119609360.83008  22760897.740    93202105.79847
  23096518.560   121373014.61706  23096513.700    94576367.67644
  21373961.200   112321053.41309  21373956.120    87522931.66748
  21058068.900   110660936.99209  21058068.480    86229316.57848
 15 03 06 01 00 30.0000000  0  7G04G16G18G19G21G22G27
