     2.11           OBSERVATION DATA    G                   RINEX VERSION / TYPE
SPIDER V4,0,0,3554                      2015 03 24 02:25    PGM / RUN BY / DATE 
CFKZ                                                        MARKER NAME         
CFKZ                                                        MARKER NUMBER       
                                                            OBSERVER / AGENCY   
496632              LEICA GRX1200+GNSS  8.10/4.007          REC # / TYPE / VERS 
10301036            LEIAR25         NONE                    ANT # / TYPE        
  5212138.8290   540257.5452  3624418.8863                  APPROX POSITION XYZ 
        0.0720        0.0000        0.0000                  ANTENNA: DELTA H/E/N
     1     1                                                WAVELENGTH FACT L1/2
     4    C1    L1    P2    L2                              # / TYPES OF OBSERV 
    30.000                                                  INTERVAL            
  2015    03    06    00    00    0.0000000     GPS         TIME OF FIRST OBS   
  2015    03    06    23    59   30.0000000     GPS         TIME OF LAST OBS    
    16                                                      LEAP SECONDS        
    30                                                      # OF SATELLITES     
   G 1   820   820   820   820                              PRN / # OF OBS      
   G 2   939   939   939   939                              PRN / # OF OBS      
   G 3   855   855   855   855                              PRN / # OF OBS      
   G 4   844   844   844   844                              PRN / # OF OBS      
   G 5   652   652   652   652                              PRN / # OF OBS      
   G 6   814   813   813   813                              PRN / # OF OBS      
   G 7   669   669   669   669                              PRN / # OF OBS      
   G 9   809   809   808   808                              PRN / # OF OBS      
   G10   765   765   765   765                              PRN / # OF OBS      
   G11   782   782   782   782                              PRN / # OF OBS      
   G12   833   833   833   833                              PRN / # OF OBS      
   G13   797   797   797   797                              PRN / # OF OBS      
   G14   927   924   919   919                              PRN / # OF OBS      
   G15   676   676   676   676                              PRN / # OF OBS      
   G16   673   673   673   673                              PRN / # OF OBS      
   G17   940   938   938   938                              PRN / # OF OBS      
   G18   910   906   904   903                              PRN / # OF OBS      
   G19   764   764   764   764                              PRN / # OF OBS      
   G20   772   772   772   772                              PRN / # OF OBS      
   G21   694   693   691   691                              PRN / # OF OBS      
   G22   657   652   649   647                              PRN / # OF OBS      
   G23   752   752   752   752                              PRN / # OF OBS      
   G24   821   810   806   806                              PRN / # OF OBS      
   G25   858   858   857   857                              PRN / # OF OBS      
   G27   815   815   815   815                              PRN / # OF OBS      
   G28   877   877   876   876                              PRN / # OF OBS      
   G29   745   745   745   745                              PRN / # OF OBS      
   G30   716   716   716   716                              PRN / # OF OBS      
   G31   851   851   851   851                              PRN / # OF OBS      
   G32   766   766   766   766                              PRN / # OF OBS      
BIT 2 OF LLI FLAGS DATA COLLECTED UNDER A/S CONDITION       COMMENT             
SNR is mapped to RINEX snr flag value [2-9]                 COMMENT             
Lx:     = 25dBHz -> 1; 26-27dBHz -> 2; 28-31dBHz -> 3       COMMENT             
       32-35dBHz -> 4; 36-38dBHz -> 5; 39-41dBHz -> 6       COMMENT             
       42-44dBHz -> 7; 45-48dBHz -> 8; >=49dBHz -> 9        COMMENT             
                                                            END OF HEADER       
 15 03 06 00 00  0.0000000  0  6G16G18G21G22G27G31
  21182468.140   111314633.75809  21182464.500    86738674.21848
  21976682.480   115488424.58009  21976679.400    89991054.04747
  21733575.300   114211148.02709  21733571.120    88995888.52748
  22943255.420   120567734.20608  22943251.460    93948869.79447
  22412215.940   117777035.74609  22412215.160    91774325.35048
  23799293.220   125066118.83608  23799292.760    97454113.64846
 15 03 06 00 00 30.0000000  0  6G16G18G21G22G27G31
  21171628.900   111257673.04109  21171625.280    86694289.24848
  21968709.940   115446528.79909  21968706.860    89958408.00247
  21743621.180   114263939.48009  21743617.060    89037024.72048
  22926120.420   120477689.96109  22926116.440    93878705.56747
  22400746.360   117716762.79409  22400745.580    91727359.43548
  23817301.860   125160753.68508  23817301.520    97527854.78346
 15 03 06 00 01  0.0000000  0  6G16G18G21G22G27G31
  21160861.460   111201089.58609  21160857.880    86650198.24448
  21960815.980   115405046.15309  21960812.920    89926083.87747
  21753711.040   114316961.86809  21753706.960    89078340.86648
  22909015.000   120387801.21909  22909010.980    93808662.50347
  22389295.080   117656586.04009  22389294.220    91680468.48948
  23835318.000   125255428.11808  23835317.760    97601626.75346
 15 03 06 00 01 30.0000000  0  6G16G18G21G22G27G31
  21150165.920   111144883.96309  21150162.360    86606401.65748
  21953000.660   115363976.80809  21952997.620    89894081.81247
  21763844.380   114370212.78709  21763840.300    89119835.08748
  22891939.420   120298069.26809  22891935.360    93738741.61947
  22377861.820   117596504.00809  22377860.940    91633651.34048
  23853340.800   125350137.77508  23853340.640    97675426.17546
 15 03 06 00 02  0.0000000  0  6G16G18G21G22G27G31
  21139542.380   111089056.56309  21139538.800    86562899.79148
  21945264.100   115323321.27909  21945261.100    89862402.19347
  21774020.460   114423688.29309  21774016.360    89161504.31348
  22874893.900   120208495.41509  22874889.860    93668943.92647
  22366446.340   117536515.39309  22366445.580    91586906.97448
  23871369.380   125444878.06408  23871369.360    97749249.44346
 15 03 06 00 02 30.0000000  0  6G16G18G21G22G27G31
  21128991.300   111033610.11309  21128987.660    86519694.76548
  21937606.660   115283081.27609  21937603.720    89831046.35947
  21784238.880   114477386.53709  21784234.780    89203347.09448
  22857879.000   120119082.37908  22857875.040    93599271.52347
  22355048.700   117476620.58709  22355048.080    91540235.72248
  23889403.280   125539646.14908  23889403.420    97823094.37846
 15 03 06 00 03  0.0000000  0  7G16G18G19G21G22G27G31
  21118513.060   110978546.45909  21118509.380    86476788.02448
  21930028.460   115243257.75309  21930025.600    89800015.07347
  24528206.700   128896616.12107  24528207.460   100438910.83246
  21794499.300   114531305.69508  21794495.320    89245362.01848
  22840895.120   120029832.57709  22840891.340    93529726.35647
  22343668.900   117416819.24809  22343668.380    91493637.29448
  23907441.940   125634438.97208  23907442.220    97896958.58446
 15 03 06 00 03 30.0000000  0  7G16G18G19G21G22G27G31
  21108109.200   110923873.80009  21108105.480    86434185.95448
  21922531.300   115203859.68509  21922528.300    89769315.28847
  24513392.360   128818757.37408  24513390.880   100378241.75045
  21804802.640   114585450.59509  21804798.820    89287552.84548
  22823944.120   119940755.17309  22823940.480    93460315.48647
  22332308.160   117357118.15909  22332307.680    91447116.98548
  23925486.020   125729260.01008  23925486.440    97970844.76546
 15 03 06 00 04  0.0000000  0  7G16G18G19G21G22G27G31
  21097773.560   110869559.68509  21097769.860    86391863.27148
  21915108.760   115164853.40909  21915105.580    89738920.79848
  24498582.020   128740923.12307  24498577.920   100317591.59045
  21815142.080   114639784.92409  21815138.320    89329891.28148
  22807019.840   119851817.75709  22807016.260    93391013.71047
  22320959.920   117297482.78909  22320959.440    91400647.86048
  23943528.360   125824071.65708  23943528.780    98044723.60046
 15 03 06 00 04 30.0000000  0  7G16G18G19G21G22G27G31
  21087517.040   110815661.28009  21087513.340    86349864.52048
  21907771.560   115126295.70609  21907768.320    89708875.85247
  24483785.900   128663168.23308  24483782.080   100257003.53546
  21825527.540   114694361.23109  21825523.860    89372418.26648
  22790133.320   119763078.49009  22790129.680    93321866.32947
  22309634.620   117237968.15709  22309634.080    91354272.86048
  23961578.820   125918925.83808  23961579.240    98118635.57046
 15 03 06 00 05  0.0000000  0  7G16G18G19G21G22G27G31
  21077334.640   110762152.16509  21077330.900    86308169.11148
  21900514.500   115088159.05909  21900511.240    89679158.99347
  24468999.720   128585464.38907  24468995.920   100196455.15245
  21835953.440   114749149.50309  21835949.740    89415110.44048
  22773279.560   119674511.28409  22773275.800    93252853.03247
  22298326.920   117178546.04509  22298326.340    91307969.91248
  23979631.400   126013791.33008  23979631.820    98192556.35246
 15 03 06 00 05 30.0000000  0  7G16G18G19G21G22G27G31
  21067228.920   110709046.15309  21067225.160    86266787.80448
  21893340.180   115050457.15909  21893336.760    89649780.91248
  24454224.740   128507822.67908  24454220.140   100135955.13346
  21846421.420   114804159.22509  21846417.780    89457975.14848
  22756461.260   119586130.47309  22756457.360    93183984.96747
  22287039.060   117119228.21809  22287038.520    91261748.26648
  23997687.800   126108676.60808  23997688.180    98266492.53146
 15 03 06 00 06  0.0000000  0  7G16G18G19G21G22G27G31
  21057196.840   110656327.19609  21057193.060    86225708.10348
  21886245.360   115013173.58409  21886241.840    89620728.79647
  24439458.580   128430225.37308  24439454.280   100075489.73846
  21856927.820   114859371.14509  21856924.240    89500997.41748
  22739675.460   119497920.41209  22739671.340    93115249.94047
  22275767.640   117059996.74309  22275767.100    91215593.87848
  24015744.000   126203560.71908  24015744.260    98340427.79546
 15 03 06 00 06 30.0000000  0  7G16G18G19G21G22G27G31
  21047242.640   110604017.47209  21047238.800    86184947.28348
  21879234.220   114976330.29109  21879230.740    89592019.76147
  24424704.260   128352692.51907  24424700.720   100015074.69546
  21867476.120   114914803.26109  21867472.600    89544191.26648
  22722926.560   119409904.41409  22722922.200    93046666.14047
  22264516.600   117000872.14209  22264516.100    91169522.77848
  24033803.380   126298461.07908  24033803.500    98414375.70946
 15 03 06 00 07  0.0000000  0  7G16G18G19G21G22G27G31
  21037362.760   110552098.39409  21037358.880    86144490.86548
  21872303.120   114939907.52509  21872299.720    89563638.38947
  24409958.800   128275203.27908  24409954.380    99954693.37745
  21878062.180   114970433.40009  21878058.640    89587539.42848
  22706211.080   119322063.95609  22706206.560    92978219.12647
  22253281.940   116941833.66009  22253281.440    91123518.78148
  24051861.380   126393354.04708  24051861.480    98488317.84446
 15 03 06 00 07 30.0000000  0  7G16G18G19G21G22G27G31
  21027560.400   110500586.79509  21027556.520    86104351.95448
  21865455.140   114903921.55209  21865451.780    89535597.38147
  24395224.200   128197772.20007  24395220.120    99894357.59246
  21888688.140   115026273.08209  21888684.580    89631050.86048
  22689532.300   119234416.37509  22689527.700    92909922.37947
  22242066.500   116882896.32009  22242066.020    91077593.59148
  24069920.240   126488251.35908  24069920.300    98562263.33846
 15 03 06 00 08  0.0000000  0  7G16G18G19G21G22G27G31
  21017835.860   110449484.18409  21017832.020    86064531.74648
  21858690.540   114868373.74309  21858687.180    89507897.80947
  24380500.600   128120399.03108  24380496.700    99834066.88345
  21899353.960   115082321.83909  21899350.280    89674725.22748
  22672890.680   119146964.14509  22672886.080    92841777.87547
  22230870.300   116824059.92109  22230869.800    91031747.06448
  24087979.260   126583149.75108  24087979.480    98636209.65846
 15 03 06 00 08 30.0000000  0  7G16G18G19G21G22G27G31
  21008187.820   110398783.71209  21008184.040    86025024.88348
  21852007.860   114833256.68509  21852004.620    89480533.89847
  24365786.480   128043075.18107  24365782.120    99773814.47245
  21910057.340   115138568.17609  21910053.500    89718553.54148
  22656285.000   119059701.21809  22656280.420    92773780.86447
  22219691.680   116765315.77109  22219691.140    90985972.40848
  24106036.180   126678037.49108  24106036.740    98710147.67846
 15 03 06 00 09  0.0000000  0  7G16G18G19G21G22G27G31
  20998618.840   110348498.81609  20998615.180    85985841.84948
  21845409.460   114798582.49009  21845406.360    89453515.04847
  24351083.440   127965811.33208  24351079.440    99713609.01846
  21920800.180   115195021.40409  21920796.260    89762543.06348
  22639717.820   118972640.93709  22639713.340    92705941.76447
  22208532.800   116706675.21109  22208532.200    90940278.48248
  24124092.560   126772922.72908  24124093.360    98784083.71146
 15 03 06 00 09 30.0000000  0  7G16G18G19G21G22G27G31
  20989127.760   110298623.11709  20989124.140    85946977.66248
  21838894.160   114764344.69109  21838891.100    89426836.26847
  24336390.220   127888598.94908  24336386.320    99653443.55545
  21931580.400   115251671.26909  21931576.340    89806685.80148
  22623188.260   118885777.95209  22623183.780    92638256.38347
  22197392.120   116648130.17509  22197391.460    90894658.97748
  24142146.300   126867794.33808  24142147.440    98858009.12946
 15 03 06 00 10  0.0000000  0  7G16G18G19G21G22G27G31
  20979715.860   110249163.55609  20979712.280    85908437.74848
  21832463.160   114730549.50209  21832459.960    89400502.37647
  24321707.720   127811443.26708  24321703.600    99593322.30045
  21942398.620   115308521.14209  21942394.480    89850984.41148
  22606697.660   118799119.67409  22606693.220    92570730.55447
  22186270.580   116589685.79609  22186269.840    90849117.93248
  24160197.860   126962654.38908  24160199.300    98931925.46446
 15 03 06 00 10 30.0000000  0  7G16G18G19G21G22G27G31
  20970382.440   110200116.31309  20970378.940    85870219.12248
  21826115.620   114697192.58209  21826112.280    89374509.98247
  24307035.080   127734338.32308  24307031.380    99533240.58746
  21953253.360   115365563.53509  21953249.240    89895433.01148
  22590245.400   118712662.76909  22590241.020    92503361.61347
  22175167.040   116531336.44109  22175166.300    90803650.91448
  24178245.560   127057494.08808  24178247.080    99005825.95646
 15 03 06 00 11  0.0000000  0  7G16G18G19G21G22G27G31
  20961129.420   110151491.60409  20961126.000    85832329.74248
  21819853.360   114664283.37609  21819849.900    89348866.45647
  24292373.580   127657292.49808  24292369.640    99473204.91645
  21964145.980   115422804.96209  21964141.980    89940036.71948
  22573833.520   118626418.27809  22573829.200    92436158.19547
  22164083.180   116473090.62709  22164082.460    90758264.57148
  24196290.480   127152318.88008  24196292.000    99079714.79945
 15 03 06 00 11 30.0000000  0  7G16G18G19G21G22G27G31
  20951955.380   110103281.86409  20951952.040    85794763.71748
  21813674.820   114631814.13909  21813671.260    89323565.77847
  24277721.700   127580295.88408  24277717.840    99413207.58546
  21975074.260   115480234.00309  21975070.320    89984786.62047
  22557460.780   118540379.41109  22557456.520    92369114.99847
  22153017.260   116414938.97909  22153016.560    90712951.62248
  24214330.300   127247116.43508  24214331.720    99153582.43245
 15 03 06 00 12  0.0000000  0  7G16G18G19G21G22G27G31
  20942863.200   110055502.05709  20942859.860    85757532.69448
  21807582.560   114599798.81309  21807579.040    89298618.77747
  24263081.500   127503361.37708  24263077.780    99353258.70846
  21986040.320   115537861.71809  21986036.480    90029691.32548
  22541130.120   118454561.68909  22541125.860    92302244.11347
  22141971.820   116356894.88709  22141971.120    90667722.48248
  24232366.920   127341896.76508  24232368.340    99227436.60546
 15 03 06 00 12 30.0000000  0  7G16G18G19G21G22G27G31
  20933851.000   110008142.41609  20933847.620    85720629.07848
  21801574.560   114568226.85109  21801571.160    89274017.26347
  24248450.920   127426477.38808  24248447.200    99293349.14246
  21997041.640   115595674.34909  21997038.000    90074740.12348
  22524839.660   118368955.29609  22524835.440    92235537.89847
  22130944.580   116298946.60709  22130943.880    90622567.97048
  24250397.520   127436645.01508  24250398.920    99301265.76445
 15 03 06 00 13  0.0000000  0  7G16G18G19G21G22G27G31
  20924919.000   109961204.49109  20924915.640    85684054.07648
  21795651.080   114537099.44509  21795647.820    89249762.14947
  24233829.820   127349643.31508  24233826.380    99233478.50946
  22008077.760   115653670.09809  22008074.340    90119931.61347
  22508589.920   118283563.12409  22508585.760    92168998.61147
  22119935.500   116241093.82509  22119934.900    90577487.91848
  24268421.420   127531358.18508  24268422.760    99375067.58345
 15 03 06 00 13 30.0000000  0  7G16G18G19G21G22G27G31
  20916069.880   109914701.81809  20916066.500    85647818.22948
  21789814.600   114506429.44409  21789811.560    89225863.47047
  24219220.620   127272871.29108  24219217.000    99173656.18745
  22019150.500   115711858.31509  22019147.220    90165273.06247
  22492383.640   118198399.77509  22492379.620    92102637.63047
  22108946.940   116183348.84109  22108946.420    90532491.81948
  24286440.260   127626044.94908  24286441.760    99448848.77645
 15 03 06 00 14  0.0000000  0  7G16G18G19G21G22G27G31
  20907302.400   109868628.04209  20907299.000    85611916.58348
  21784063.820   114476209.63209  21784060.900    89202315.58147
  24204621.520   127196152.49708  24204617.580    99113875.33746
  22030258.180   115770229.67208  22030254.880    90210757.23748
  22476219.700   118113458.83209  22476215.800    92036449.94547
  22097977.380   116125703.47509  22097976.880    90487573.35248
  24304452.000   127720694.49308  24304453.840    99522600.93346
 15 03 06 00 14 30.0000000  0  7G16G18G19G21G22G27G31
  20898617.740   109822989.41209  20898614.260    85576354.01948
  21778399.820   114446445.57109  21778396.960    89179122.81647
  24190033.340   127119491.02308  24190029.600    99054139.20646
  22041401.120   115828786.05908  22041397.600    90256385.59347
  22460099.540   118028747.25009  22460095.560    91970440.98047
  22087027.640   116068162.04809  22087027.100    90442735.90548
  24322456.780   127815307.85208  24322458.720    99596324.90445
 15 03 06 00 15  0.0000000  0  7G16G18G19G21G22G27G31
  20890014.960   109777781.33309  20890011.420    85541126.94448
  21772821.620   114417131.94009  21772818.720    89156281.04447
  24175454.840   127042880.41508  24175450.740    98994442.64446
  22052577.800   115887519.64409  22052574.240    90302152.01447
  22444022.420   117944261.33309  22444018.360    91904607.86147
  22076096.520   116010718.51709  22076095.960    90397974.72248
  24340452.980   127909875.70508  24340455.080    99670013.38846
 15 03 06 00 15 30.0000000  0  7G16G18G19G21G22G27G31
  20881495.760   109733012.89009  20881492.240    85506242.44748
  21767330.720   114388276.74309  21767327.740    89133796.48347
  24160887.300   126966327.82708  24160883.420    98934791.35946
  22063789.160   115946435.08109  22063785.580    90348060.15147
  22427990.100   117860010.58109  22427985.920    91838957.98047
  22065185.440   115953380.10209  22065184.820    90353295.44448
  24358441.360   128004402.37308  24358443.640    99743669.72046
 15 03 06 00 16  0.0000000  0  7G16G18G19G21G22G27G31
  20873060.040   109688682.78709  20873056.500    85471699.50848
  21761926.840   114359878.55809  21761923.780    89111668.05647
  24146330.260   126889830.18208  24146326.260    98875182.85945
  22075034.200   116005527.41909  22075030.500    90394106.13347
  22412002.440   117775994.29609  22411998.100    91773490.80248
  22054293.820   115896143.94309  22054293.120    90308695.85448
  24376420.700   128098881.72908  24376423.320    99817289.15546
 15 03 06 00 16 30.0000000  0  7G16G18G19G21G22G27G31
  20864708.500   109644795.08309  20864704.920    85437501.29048
  21756610.580   114331940.79509  21756607.420    89089898.36848
  24131784.080   126813389.69708  24131779.920    98815618.86846
  22086313.020   116064797.61408  22086309.280    90440290.69248
  22396060.340   117692217.54309  22396055.820    91708210.27747
  22043422.160   115839012.70309  22043421.400    90264178.01248
  24394391.060   128193313.63608  24394393.840    99890871.62446
 15 03 06 00 17  0.0000000  0  7G16G18G19G21G22G27G31
  20856441.540   109601351.62609  20856437.900    85403649.25448
  21751381.980   114304464.23209  21751378.740    89068488.07848
  24117248.560   126737005.77608  24117244.760    98756099.03046
  22097625.300   116124244.15409  22097621.560    90486612.66947
  22380164.240   117608682.66109  22380159.560    91643118.21648
  22032570.420   115781986.38209  22032569.680    90219741.93348
  24412351.800   128287694.90908  24412354.960    99964414.57646
 15 03 06 00 17 30.0000000  0  7G16G18G19G21G22G27G31
  20848259.240   109558352.65009  20848255.440    85370143.55248
  21746240.960   114277448.32309  21746237.680    89047436.73347
  24102723.660   126660677.30808  24102719.720    98696622.31246
  22108970.360   116183863.14408  22108966.680    90533069.02948
  22364314.380   117525390.68509  22364309.580    91578215.43148
  22021738.420   115725063.82209  22021737.640    90175386.70148
  24430302.180   128382021.14508  24430305.600   100037914.64746
 15 03 06 00 18  0.0000000  0  7G16G18G19G21G22G27G31
  20840162.640   109515804.19609  20840158.740    85336988.90748
  21741188.600   114250898.73909  21741185.480    89026748.77048
  24088209.920   126584408.54708  24088206.500    98637192.21546
  22120348.600   116243656.76608  22120345.160    90579661.44547
  22348512.020   117442348.58909  22348507.200    91513507.35347
  22010927.040   115668249.54709  22010926.260    90131115.84048
  24448242.360   128476293.67508  24448246.020   100111372.83046
 15 03 06 00 18 30.0000000  0  7G16G18G19G21G22G27G31
  20832149.820   109473696.54809  20832145.940    85304177.75148
  21736222.960   114224804.65509  21736220.040    89006415.72847
  24073705.680   126508187.52908  24073702.000    98577799.20446
  22131757.600   116303611.93608  22131754.240    90626379.76047
  22332755.340   117359547.04909  22332750.600    91448986.73347
  22000134.060   115611532.04909  22000133.340    90086920.40848
  24466169.480   128570498.18208  24466173.600   100184777.94846
 15 03 06 00 19  0.0000000  0  7G16G18G19G21G22G27G31
  20824224.740   109432050.00609  20824220.880    85271725.89548
  21731347.740   114199185.47209  21731344.940    88986452.74048
  24059213.760   126432032.71108  24059209.920    98518457.86746
  22143200.520   116363745.37809  22143197.200    90673236.97747
  22317048.380   117277007.01109  22317043.700    91384669.87947
  21989363.060   115554930.15709  21989362.380    90042815.03348
  24484086.680   128664650.02708  24484091.020   100258142.04846
 15 03 06 00 19 30.0000000  0  7G16G18G19G21G22G27G31
  20816383.980   109390846.66009  20816380.200    85239619.39048
  21726559.400   114174022.60909  21726556.660    88966845.32948
  24044730.920   126355924.55008  24044726.980    98459152.84846
  22154673.320   116424035.49108  22154669.920    90720216.29247
  22301387.900   117194711.16709  22301383.180    91320543.29748
  21978610.300   115498424.43209  21978609.660    89998784.60848
  24501989.740   128758727.02508  24501994.240   100331447.78846
 15 03 06 00 20  0.0000000  0  7G16G18G19G21G22G27G31
  20808630.220   109350100.48909  20808626.480    85207869.12348
  21721860.440   114149329.33709  21721857.640    88947603.83647
  24030259.180   126279875.05108  24030255.080    98399893.55546
  22166177.920   116484492.57208  22166174.440    90767325.70747
  22285776.760   117112674.32209  22285772.020    91256618.52548
  21967878.120   115442027.38009  21967877.560    89954838.86448
  24519880.340   128852738.45908  24519885.040   100404702.40246
 15 03 06 00 20 30.0000000  0  7G16G18G19G21G22G27G31
  20800963.320   109309810.91509  20800959.640    85176474.65048
  21717250.600   114125104.56109  21717247.780    88928727.39047
  24015798.260   126203882.12808  24015793.940    98340678.32346
  22177713.620   116545112.91908  22177710.120    90814562.34447
  22270215.000   117030896.80509  22270210.240    91192895.83448
  21957166.320   115385737.21109  21957165.820    89910976.41948
  24537757.520   128946679.37508  24537762.240   100477902.08245
 15 03 06 00 21  0.0000000  0  7G16G18G19G21G22G27G31
  20793383.600   109269979.32609  20793379.920    85145437.04548
  21712729.900   114101348.49809  21712727.120    88910216.19747
  24001348.060   126127945.05208  24001343.640    98281506.59246
  22189279.920   116605894.30608  22189276.540    90861924.46047
  22254702.960   116949380.86609  22254698.140    91129376.97048
  21946474.880   115329553.68309  21946474.400    89867197.05448
  24555620.580   129040546.33508  24555625.480   100551044.08145
 15 03 06 00 21 30.0000000  0  7G16G18G19G21G22G27G31
  20785891.760   109230609.75409  20785888.100    85114759.44948
  21708299.040   114078064.44309  21708296.200    88892072.78947
  23986908.740   126052066.15308  23986904.320    98222380.24646
  22200876.900   116666837.18108  22200873.580    90909412.41247
  22239241.540   116868131.05709  22239236.780    91066065.49847
  21935804.260   115273479.18309  21935803.720    89823502.65348
  24573469.520   129134338.80508  24573474.720   100624128.04145
 15 03 06 00 22  0.0000000  0  7G16G18G19G21G22G27G31
  20778487.600   109191701.20809  20778484.040    85084441.11048
  21703957.740   114055250.79909  21703954.780    88874295.94248
  23972480.040   125976242.76508  23972475.580    98163297.12646
  22212503.760   116727937.08209  22212500.440    90957022.71447
  22223830.760   116787147.27209  22223826.100    91002961.30948
  21925153.980   115217511.52109  21925153.400    89779891.49648
  24591303.360   129228051.86308  24591308.700   100697150.11445
 15 03 06 00 22 30.0000000  0  7G16G18G19G21G22G27G31
  20771172.040   109153258.04109  20771168.500    85054485.39348
  21699706.620   114032911.17809  21699703.680    88856888.45048
  23958062.460   125900477.89908  23958058.060    98104259.60946
  22224160.760   116789194.82308  22224157.400    91004756.01347
  22208471.660   116706434.82209  22208466.980    90940068.53848
  21914524.600   115161653.62309  21914523.900    89736365.87248
  24609121.860   129321684.85508  24609127.420   100770109.75545
 15 03 06 00 23  0.0000000  0  7G16G18G19G21G22G27G31
  20763945.360   109115281.72609  20763941.800    85024893.46348
  21695545.800   114011045.73009  21695542.860    88839850.45848
  23943655.680   125824770.34308  23943651.340    98045266.77546
  22235847.460   116850608.49908  22235844.140    91052610.81947
  22193164.580   116625995.59509  22193159.860    90877388.67048
  21903916.120   115105905.55309  21903915.280    89692925.82548
  24626924.640   129415234.52308  24626930.480   100843004.48446
 15 03 06 00 23 30.0000000  0  7G16G18G19G21G22G27G31
  20756807.380   109077771.49509  20756803.820    84995664.71048
  21691475.000   113989653.04809  21691472.000    88823180.84448
  23929259.520   125749118.04308  23929255.060    97986316.94446
  22247563.020   116912173.93809  22247559.620    91100583.88647
  22177909.440   116545829.56109  22177904.700    90814921.67348
  21893328.160   115050265.19309  21893327.200    89649569.70948
  24644710.620   129508696.12308  24644716.640   100915830.56245
 15 03 06 00 24  0.0000000  0  7G16G18G19G21G22G27G31
  20749759.160   109040732.58909  20749755.560    84966803.22348
  21687495.060   113968737.73909  21687492.000    88806883.21148
  23914874.560   125673525.09108  23914870.320    97927413.36946
  22259307.820   116973893.13408  22259304.380    91148676.75247
  22162707.460   116465943.07409  22162702.760    90752672.50047
  21882761.460   114994736.43909  21882760.440    89606300.55848
  24662480.060   129602070.57208  24662486.280   100988588.74145
 15 03 06 00 24 30.0000000  0  7G16G18G19G21G22G27G31
  20742800.700   109004165.34309  20742797.040    84938309.26348
  21683605.860   113948299.48709  21683602.760    88790957.31548
  23900500.440   125597989.62308  23900496.340    97868554.60646
  22271081.300   117035762.68509  22271077.860    91196886.77147
  22147558.860   116386337.15109  22147554.220    90690641.96348
  21872215.800   114939318.46909  21872214.800    89563117.72948
  24680232.200   129695354.01608  24680238.640   101061276.06245
 15 03 06 00 25  0.0000000  0  6G16G18G19G21G22G27
  20735930.080   108968059.85009  20735926.340    84910175.11048
  21679805.160   113928326.68909  21679802.040    88775394.10448
  23886135.180   125522499.77808  23886131.360    97809731.35846
  22282880.840   117097768.94009  22282877.200    91245203.34247
  22132461.840   116307002.19309  22132457.280    90628822.55348
  21861688.960   114883999.51309  21861688.000    89520012.05248
 15 03 06 00 25 30.0000000  0  6G16G18G19G21G22G27
  20729152.840   108932445.30809  20729149.120    84882423.51748
  21676098.440   113908848.08109  21676095.440    88760215.99048
  23871783.800   125447083.48408  23871779.940    97750965.45446
  22294711.280   117159937.70109  22294707.520    91293646.52447
  22117422.180   116227968.41209  22117417.700    90567237.83948
  21851186.300   114828807.77709  21851185.400    89477005.51148
 15 03 06 00 26  0.0000000  0  6G16G18G19G21G22G27
  20722465.420   108897302.69409  20722461.740    84855039.66648
  21672482.040   113889844.14109  21672479.040    88745407.73148
  23857442.540   125371720.01708  23857438.800    97692240.72646
  22306568.500   117222247.42109  22306564.820    91342199.54347
  22102436.340   116149217.29909  22102431.900    90505873.38348
  21840704.000   114773723.16909  21840703.220    89434082.44248
 15 03 06 00 26 30.0000000  0  6G16G18G19G21G22G27
  20715869.300   108862639.76509  20715865.700    84828029.58248
  21668957.220   113871321.02409  21668954.140    88730974.16048
  23843112.600   125296415.41908  23843108.300    97633561.78746
  22318453.280   117284701.74709  22318449.500    91390865.24147
  22087506.140   116070758.20609  22087501.540    90444736.46048
  21830243.320   114718751.81609  21830242.580    89391247.63448
 15 03 06 00 27  0.0000000  0  6G16G18G19G21G22G27
  20709365.440   108828461.55609  20709361.860    84801397.20048
  21665524.840   113853283.47209  21665521.700    88716918.92748
  23828794.360   125221173.12208  23828790.520    97574931.50847
  22330365.760   117347302.49608  22330361.900    91439645.03947
  22072632.540   115992596.79709  22072627.800    90383831.51548
  21819805.020   114663897.85409  21819804.260    89348504.28748
 15 03 06 00 27 30.0000000  0  6G16G18G19G21G22G27
  20702952.260   108794759.94209  20702948.700    84775136.20048
  21662183.220   113835722.82209  21662180.000    88703235.30448
  23814486.420   125145983.50708  23814482.040    97516342.16946
  22342304.020   117410038.79408  22342300.160    91488530.45447
  22057814.140   115914725.94209  22057809.320    90323152.97048
  21809387.300   114609152.01109  21809386.480    89305845.19248
 15 03 06 00 28  0.0000000  0  6G16G18G19G21G22G27
  20696632.160   108761547.60509  20696628.580    84749256.45548
  21658934.360   113818650.12409  21658931.080    88689931.90748
  23800190.420   125070857.49108  23800186.260    97457802.47846
  22354269.840   117472919.77308  22354266.020    91537528.60747
  22043053.480   115837158.73709  22043048.680    90262711.03648
  21798992.220   114554525.51509  21798991.380    89263279.10448
 15 03 06 00 28 30.0000000  0  6G16G18G19G21G22G27
  20690404.280   108728819.70409  20690400.640    84723754.18248
  21655777.320   113802060.07909  21655774.040    88677004.60348
  23785905.320   124995789.39308  23785900.980    97399307.89946
  22366261.780   117535937.68008  22366257.840    91586633.47447
  22028349.840   115759891.19909  22028345.120    90202502.60348
  21788618.760   114500012.61809  21788617.900    89220801.49748
 15 03 06 00 29  0.0000000  0  6G16G18G19G21G22G27
  20684268.520   108696576.08109  20684264.860    84698629.27348
  21652711.900   113785951.44309  21652708.560    88664452.44448
  23771631.040   124920777.15408  23771626.820    97340856.81846
  22378278.980   117599088.50608  22378275.080    91635841.89347
  22013703.420   115682924.06809  22013698.740    90142528.25648
  21778266.640   114445611.82109  21778265.760    89178411.28648
 15 03 06 00 29 30.0000000  0  6G16G18G19G21G22G27
  20678226.760   108664826.61509  20678223.140    84673889.42948
  21649739.680   113770332.67109  21649736.300    88652281.98947
  23757368.720   124845828.79308  23757364.460    97282455.54046
  22390322.700   117662379.00208  22390318.980    91685159.14447
  21999116.180   115606267.71809  21999111.460    90082796.07848
  21767937.520   114391331.84709  21767936.580    89136115.20348
 15 03 06 00 30  0.0000000  0  6G16G18G19G21G22G27
  20672278.100   108633566.53409  20672274.560    84649530.91548
  21646859.760   113755198.90009  21646856.440    88640489.44148
  23743117.300   124770937.90308  23743113.200    97224099.04246
  22402391.520   117725801.00609  22402387.820    91734578.88547
  21984587.480   115529919.07309  21984582.760    90023303.66648
  21757630.260   114337166.78309  21757629.280    89093908.66348
 15 03 06 00 30 30.0000000  0  6G16G18G19G21G22G27
  20666422.920   108602797.67409  20666419.460    84625555.17748
  21644072.320   113740550.67709  21644068.960    88629075.26348
  23728877.160   124696105.61408  23728873.020    97165788.18246
  22414485.280   117789353.94909  22414481.580    91784100.65747
  21970117.820   115453880.57509  21970113.120    89964052.91748
  21747345.060   114283117.69009  21747344.040    89051792.49548
 15 03 06 00 31  0.0000000  0  6G16G18G19G21G22G27
  20660662.860   108572528.41709  20660659.440    84601968.72948
  21641378.620   113726395.15409  21641375.300    88618044.98948
  23714649.360   124621338.23908  23714645.280    97107527.94146
  22426604.720   117853041.85208  22426601.140    91833727.58747
  21955708.780   115378160.68809  21955704.120    89905050.44748
  21737083.220   114229191.33009  21737082.200    89009771.94948
 15 03 06 00 31 30.0000000  0  6G16G18G19G21G22G27
  20654995.520   108542746.44709  20654992.120    84578761.99948
  21638776.340   113712720.15409  21638773.080    88607389.15748
  23700431.640   124546622.67808  23700427.200    97049308.02346
  22438747.180   117916850.69209  22438743.640    91883448.74447
  21941358.320   115302748.87109  21941353.760    89846288.03148
  21726842.340   114175375.20609  21726841.400    88967837.33148
 15 03 06 00 32  0.0000000  0  6G16G18G19G21G22G27
  20649423.540   108513465.90209  20649420.200    84555945.99048
  21636267.900   113699538.04709  21636264.640    88597117.39848
  23686226.000   124471970.98408  23686221.480    96991137.89446
  22450914.580   117980790.34009  22450911.020    91933271.82847
  21927069.240   115227659.96709  21927064.780    89787777.22948
  21716624.860   114121681.78109  21716623.920    88925998.30948
 15 03 06 00 32 30.0000000  0  6G16G18G19G21G22G27
  20643946.520   108484684.41109  20643943.260    84533518.85748
  21633852.620   113686845.45209  21633849.320    88587227.08248
  23672031.820   124397379.53908  23672027.420    96933014.70746
  22463105.820   118044855.56809  22463102.180    91983192.78747
  21912841.340   115152892.24409  21912836.900    89729516.70548
  21706430.020   114068107.59809  21706429.120    88884252.18648
 15 03 06 00 33  0.0000000  0  6G16G18G19G21G22G27
  20638564.860   108456403.96209  20638561.640    84511482.13548
  21631530.680   113674643.67309  21631527.460    88577719.20048
  23657849.320   124322849.15808  23657844.600    96874939.08346
  22475320.720   118109045.06209  22475317.020    92033210.56247
  21898675.240   115078448.66809  21898670.720    89671508.75848
  21696258.120   114014653.94509  21696257.220    88842599.98748
 15 03 06 00 33 30.0000000  0  6G16G18G19G21G22G27
  20633279.020   108428626.68009  20633275.780    84489837.49648
  21629302.380   113662933.68309  21629299.120    88568594.54548
  23643678.440   124248380.41508  23643674.020    96816911.54346
  22487559.200   118173358.67909  22487555.500    92083325.06947
  21884571.400   115004332.07109  21884566.780    89613755.59748
  21686109.340   113961321.81709  21686108.440    88801042.49748
 15 03 06 00 34  0.0000000  0  6G16G18G19G21G22G27
  20628089.760   108401356.82709  20628086.480    84468588.26148
  21627168.500   113651719.45809  21627165.160    88559856.19848
  23629519.620   124173976.73008  23629515.000    96758934.68446
  22499821.480   118237797.56609  22499817.700    92133537.17747
  21870530.900   114930548.41709  21870526.160    89556261.88948
  21675984.480   113908115.31609  21675983.580    88759582.89048
 15 03 06 00 34 30.0000000  0  6G16G18G19G21G22G27
  20622995.900   108374588.03909  20622992.520    84447729.45548
  21625127.180   113640992.32009  21625123.880    88551497.40647
  23615371.740   124099629.71607  23615367.420    96701001.96246
  22512105.800   118302351.87009  22512101.940    92183839.22747
  21856552.640   114857091.64509  21856547.740    89499022.87348
  21665881.880   113855026.03109  21665881.040    88718214.61648
 15 03 06 00 35  0.0000000  0  6G16G18G19G21G22G27
  20617998.280   108348324.87809  20617994.760    84427264.64448
  21623179.280   113630756.70109  21623176.040    88543521.59148
  23601235.340   124025342.92908  23601231.020    96643116.17246
  22524412.560   118367023.40809  22524408.580    92234232.62347
  21842637.680   114783967.33709  21842632.560    89442042.91548
  21655802.400   113802058.18509  21655801.600    88676940.95948
 15 03 06 00 35 30.0000000  0  6G16G18G19G21G22G27
  20613098.720   108322577.15609  20613095.100    84407201.47848
  21621326.680   113621021.80609  21621323.460    88535935.97848
  23587112.000   123951124.86708  23587107.900    96585283.97047
  22536742.760   118431818.46309  22536738.720    92284722.27747
  21828787.980   114711186.21509  21828782.660    89385330.37948
  21645747.700   113749220.74509  21645746.980    88635768.94548
 15 03 06 00 36  0.0000000  0  6G16G18G19G21G22G27
  20608295.420   108297335.35009  20608291.760    84387532.53849
  21619567.260   113611776.45609  21619564.060    88528731.82648
  23572999.780   123876964.87708  23572995.640    96527496.98946
  22549094.000   118496725.20309  22549090.080    92335298.93347
  21815001.920   114638739.75009  21814996.440    89328878.62548
  21635715.800   113696503.18609  21635715.200    88594690.34348
 15 03 06 00 36 30.0000000  0  6G16G18G19G21G22G27
  20603589.320   108272604.61709  20603585.720    84368261.82748
  21617901.920   113603025.34509  21617898.720    88521912.77948
  23558899.440   123802866.87408  23558895.300    96469758.31047
  22561466.900   118561745.79409  22561463.160    92385964.31447
  21801280.720   114566634.26309  21801275.140    89272692.55248
  21625707.600   113643910.10709  21625707.080    88553708.72048
 15 03 06 00 37  0.0000000  0  6G16G18G19G21G22G27
  20598981.260   108248389.36909  20598977.760    84349392.79848
  21616331.300   113594771.65309  21616328.100    88515481.34448
  23544811.400   123728833.95108  23544807.060    96412070.32246
  22573861.780   118626881.93508  22573858.040    92436719.75647
  21787625.360   114494875.06909  21787619.800    89216776.33848
  21615723.800   113591445.07609  21615723.300    88512826.88348
 15 03 06 00 37 30.0000000  0  6G16G18G19G21G22G27
  20594471.100   108224688.49409  20594467.680    84330924.57848
  21614854.960   113587013.07409  21614851.780    88509435.71148
  23530735.240   123654863.95308  23530730.940    96354431.40046
  22586277.760   118692129.07008  22586274.000    92487561.66247
  21774035.720   114423461.67809  21774030.280    89161129.57248
  21605764.020   113539105.98709  21605763.480    88472043.18848
 15 03 06 00 38  0.0000000  0  6G16G18G19G21G22G27
  20590059.240   108201504.07409  20590055.880    84312858.79049
  21613473.160   113579751.27909  21613469.880    88503777.17248
  23516671.340   123580957.88008  23516667.180    96296842.28547
  22598714.760   118757486.33808  22598711.020    92538489.39647
  21760512.460   114352397.45209  21760507.220    89105754.88048
  21595828.560   113486894.54009  21595827.920    88431358.93748
 15 03 06 00 38 30.0000000  0  6G16G18G19G21G22G27
  20585746.200   108178838.72509  20585742.900    84295197.47749
  21612186.060   113572987.42909  21612182.780    88498506.65348
  23502619.700   123507116.91808  23502615.360    96239303.89946
  22611172.860   118822954.18709  22611169.120    92589503.29547
  21747056.300   114281685.91109  21747051.260    89050655.01248
  21585917.680   113434812.34609  21585916.980    88390775.43048
 15 03 06 00 39  0.0000000  0  6G16G18G19G21G22G27
  20581531.420   108156689.79909  20581528.140    84277938.56749
  21610993.040   113566717.91709  21610989.820    88493621.32748
  23488579.700   123433337.41308  23488576.000    96181813.46447
  22623650.960   118888526.55408  22623647.080    92640598.64647
  21733667.000   114211325.19709  21733662.080    88995828.51748
  21576030.740   113382856.03409  21576029.980    88350289.99448
 15 03 06 00 39 30.0000000  0  6G16G18G19G21G22G27
  20577415.260   108135059.14509  20577412.000    84261083.50448
  21609894.260   113560943.78609  21609890.960    88489122.00748
  23474551.780   123359620.28208  23474547.820    96124371.51347
  22636148.780   118954202.93308  22636144.880    92691775.03347
  21720345.120   114141318.33009  21720340.220    88941277.73148
  21566167.940   113331026.88309  21566167.180    88309903.64848
 15 03 06 00 40  0.0000000  0  6G16G18G19G21G22G27
  20573398.840   108113952.45509  20573395.540    84244636.72549
  21608890.600   113555669.69609  21608887.380    88485012.33848
  23460536.580   123285969.64908  23460532.500    96066981.46047
  22648666.980   119019986.13509  22648663.040    92743034.66047
  21707091.920   114071672.10709  21707086.980    88887007.97048
  21556330.300   113279329.78809  21556329.520    88269620.20648
 15 03 06 00 40 30.0000000  0  6G16G18G19G21G22G27
  20569481.460   108093366.37409  20569478.160    84228595.61748
  21607981.240   113550891.24509  21607978.120    88481288.87448
  23446533.300   123212381.58708  23446529.200    96009640.14247
  22661204.360   119085869.94409  22661200.340    92794372.70147
  21693906.880   114002384.22509  21693901.900    88833017.44348
  21546517.100   113227761.15809  21546516.320    88229436.86048
 15 03 06 00 41  0.0000000  0  6G16G18G19G21G22G27
  20565663.860   108073304.66909  20565660.560    84212963.11149
  21607166.700   113546610.74509  21607163.600    88477953.44048
  23432542.540   123138858.64408  23432538.240    95952349.54147
  22673761.100   119151855.68709  22673756.920    92845790.16446
  21680790.880   113933459.21409  21680785.880    88779309.66748
  21536728.900   113176323.84609  21536728.140    88189355.84248
 15 03 06 00 41 30.0000000  0  6G16G18G19G21G22G27
  20561946.660   108053770.78809  20561943.360    84197741.90149
  21606447.460   113542831.16309  21606444.420    88475008.31448
  23418564.580   123065403.33009  23418560.040    95895111.67147
  22686337.060   119217943.83108  22686333.020    92897287.40047
  21667744.860   113864901.96909  21667739.860    88725888.46048
  21526966.280   113125020.89809  21526965.540    88149379.51548
 15 03 06 00 42  0.0000000  0  6G16G18G19G21G22G27
  20558329.500   108034762.56309  20558326.200    84182930.29548
  21605822.960   113539549.52809  21605819.900    88472451.20748
  23404598.780   122992012.55509  23404594.180    95837924.09547
  22698931.800   119284129.98609  22698927.920    92948861.02947
  21654768.580   113796711.29909  21654763.560    88672752.91448
  21517228.740   113073849.64009  21517228.000    88109505.82648
 15 03 06 00 42 30.0000000  0  6G16G18G19G21G22G27
  20554812.840   108016282.47109  20554809.520    84168530.22548
  21605293.440   113536767.20509  21605290.380    88470283.16748
  23390645.580   122918687.96008  23390640.820    95780788.05847
  22711545.180   119350413.68209  22711541.360    93000510.65047
  21641862.660   113728890.38709  21641857.600    88619905.48048
  21507516.640   113022811.89009  21507515.840    88069736.15248
 15 03 06 00 43  0.0000000  0  6G16G18G19G21G22G27
  20551396.580   107998330.21409  20551393.240    84154541.44748
  21604858.660   113534482.46709  21604855.500    88468502.86147
  23376704.660   122845427.88608  23376699.840    95723702.29847
  22724176.440   119416791.58808  22724172.740    93052233.69247
  21629027.240   113661439.85709  21629022.120    88567346.64948
  21497829.760   112971906.75509  21497828.940    88030069.82248
 15 03 06 00 43 30.0000000  0  6G16G18G19G21G22G27
  20548081.700   107980910.64409  20548078.360    84140967.75848
  21604519.380   113532699.39509  21604516.060    88467113.47847
  23362776.860   122772236.49908  23362772.300    95666670.08347
  22736826.080   119483266.53609  22736822.540    93104032.33047
  21616263.500   113594366.01109  21616258.420    88515081.34148
  21488168.940   112921138.65609  21488168.080    87990510.26448
 15 03 06 00 44  0.0000000  0  6G16G18G19G21G22G27
  20544867.860   107964021.94509  20544864.520    84127807.72348
  21604275.060   113531415.10609  21604271.600    88466112.74448
  23348861.560   122699111.40109  23348856.940    95609689.50147
  22749493.500   119549833.91708  22749489.860    93155903.05047
  21603571.340   113527668.34209  21603566.340    88463109.16548
  21478533.860   112870505.69309  21478532.960    87951056.01048
 15 03 06 00 44 30.0000000  0  6G16G18G19G21G22G27
  20541755.940   107947668.67109  20541752.620    84115064.90848
  21604126.360   113530633.33509  21604122.840    88465503.57248
  23334959.520   122626055.99708  23334954.820    95552763.25247
  22762178.840   119616496.03108  22762175.240    93207847.54047
  21590951.780   113461352.09109  21590946.840    88411434.18948
  21468925.300   112820011.81009  21468924.260    87911710.13148
 15 03 06 00 45  0.0000000  0  6G16G18G19G21G22G27
  20538745.600   107931849.32509  20538742.300    84102738.13549
  21604072.780   113530351.40509  21604069.180    88465283.89848
  23321070.340   122553067.85309  23321065.780    95495889.38547
  22774881.280   119683248.71308  22774877.920    93259862.58447
  21578404.640   113395416.64809  21578399.780    88360055.94748
  21459342.780   112769654.86009  21459341.580    87872470.95348
 15 03 06 00 45 30.0000000  0  6G16G18G19G21G22G27
  20535836.940   107916564.10309  20535833.620    84090827.56849
  21604114.120   113530568.34609  21604110.380    88465452.95448
  23307193.740   122480146.16408  23307189.200    95439067.29847
  22787600.640   119750089.64808  22787597.380    93311946.42547
  21565930.240   113329863.61209  21565925.480    88308975.68648
  21449786.280   112719434.85109  21449784.960    87833338.49048
 15 03 06 00 46  0.0000000  0  6G16G18G19G21G22G27
  20533031.040   107901818.65209  20533027.640    84079337.61148
  21604251.260   113531288.85909  21604247.480    88466014.40647
  23293330.820   122407296.08109  23293326.260    95382301.02846
  22800337.440   119817021.98308  22800334.200    93364101.48646
  21553529.880   113264699.64609  21553525.140    88258198.60848
  21440256.780   112669357.07709  21440255.440    87794316.86548
 15 03 06 00 46 30.0000000  0  6G16G18G19G21G22G27
  20530327.000   107887608.26709  20530323.520    84068264.57349
  21604483.020   113532507.16309  21604479.240    88466963.74647
  23279480.420   122334512.21008  23279475.760    95325586.33047
  22813090.240   119884038.24508  22813086.860    93416321.93347
  21541202.900   113199921.16009  21541198.080    88207721.88448
  21430753.380   112619416.55209  21430752.060    87755402.17048
 15 03 06 00 47  0.0000000  0  6G16G18G19G21G22G27
  20527725.500   107873936.89809  20527721.940    84057611.54849
  21604810.020   113534226.46809  21604806.420    88468303.47348
  23265643.240   122261797.70608  23265638.900    95268925.75147
  22825859.460   119951140.59108  22825856.000    93468609.46746
  21528950.240   113135533.00009  21528945.240    88157549.31248
  21421276.760   112569616.92709  21421275.520    87716597.27748
 15 03 06 00 47 30.0000000  0  6G16G18G19G21G22G27
  20525226.420   107860803.87309  20525222.840    84047378.01849
  21605232.040   113536444.85809  21605228.660    88470032.08848
  23251819.040   122189151.27908  23251814.720    95212318.14446
  22838644.420   120018325.80209  22838640.980    93520961.54146
  21516772.040   113071536.14509  21516766.960    88107681.65848
  21411826.780   112519957.29109  21411825.640    87677901.45948
 15 03 06 00 48  0.0000000  0  6G16G18G19G21G22G27
  20522830.240   107848211.71009  20522826.700    84037565.93849
  21605749.460   113539163.98909  21605746.140    88472150.91347
  23238008.200   122116574.63308  23238003.720    95155764.94047
  22851445.260   120085593.95808  22851441.740    93573378.28647
  21504668.960   113007933.80709  21504663.840    88058121.41548
  21402403.940   112470439.91109  21402402.820    87639316.50148
 15 03 06 00 48 30.0000000  0  6G16G18G19G21G22G27
  20520536.940   107836160.32909  20520533.440    84028175.24849
  21606361.940   113542382.55109  21606358.660    88474658.87948
  23224210.480   122044066.72108  23224205.980    95099265.28246
  22864261.360   120152942.42708  22864257.640    93625857.60447
  21492641.140   112944726.87109  21492635.940    88008869.28648
  21393008.080   112421064.45009  21393006.980    87600842.11948
 15 03 06 00 49  0.0000000  0  6G16G18G19G21G22G27
  20518347.320   107824654.17709  20518343.880    84019209.40549
  21607070.000   113546103.47109  21607066.780    88477558.30547
  23210426.500   121971631.61409  23210422.000    95042822.38246
  22877093.240   120220373.66809  22877089.360    93678401.40346
  21480689.660   112881921.27009  21480684.360    87959929.87348
  21383640.060   112371835.12509  21383638.920    87562481.61248
 15 03 06 00 49 30.0000000  0  6G16G18G19G21G22G27
  20516261.280   107813692.14609  20516257.860    84010667.56149
  21607873.480   113550325.71409  21607870.220    88480848.37848
  23196656.100   121899267.88408  23196651.420    94986435.08146
  22889940.300   120287884.40209  22889936.240    93731007.18247
  21468814.540   112819517.21409  21468809.220    87911303.35848
  21374299.640   112322750.99409  21374298.480    87524234.25448
 15 03 06 00 50  0.0000000  0  6G16G18G19G21G22G27
  20514279.180   107803275.93309  20514275.700    84002551.01749
  21608772.420   113555049.52009  21608769.100    88484529.26748
  23182899.380   121826976.42908  23182894.660    94930104.12446
  22902802.240   120355473.85608  22902798.260    93783674.28147
  21457016.260   112757517.41009  21457011.100    87862991.84548
  21364987.120   112273813.44509  21364986.020    87486101.09549
 15 03 06 00 50 30.0000000  0  6G16G18G19G21G22G27
  20512400.800   107793404.92409  20512397.340    83994859.32249
  21609766.500   113560273.20209  21609763.080    88488599.67048
  23169156.200   121754756.05008  23169151.440    94873828.51947
  22915678.540   120423139.16708  22915674.740    93836400.46747
  21445295.020   112695922.27409  21445290.000    87814995.66048
  21355702.280   112225021.66509  21355701.320    87448081.53649
 15 03 06 00 51  0.0000000  0  6G16G18G19G21G22G27
  20510626.200   107784079.21509  20510622.780    83987592.52748
  21610855.540   113565995.86709  21610851.940    88493058.89647
  23155426.540   121682606.13709  23155421.720    94817607.83046
  22928568.900   120490878.43209  22928565.040    93889184.30846
  21433651.080   112634732.95909  21433646.120    87767315.70148
  21346445.180   112176375.77809  21346444.340    87410175.66248
 15 03 06 00 51 30.0000000  0  6G16G18G19G21G22G27
  20508956.180   107775303.01409  20508952.780    83980753.91649
  21612040.080   113572220.54609  21612036.380    88497909.30548
  23141710.980   121610530.58509  23141706.340    94761445.09946
  22941473.660   120558693.56908  22941469.760    93942027.26147
  21422085.520   112573955.14809  21422080.500    87719956.37948
  21337216.620   112127879.89109  21337215.880    87372386.67849
 15 03 06 00 52  0.0000000  0  6G16G18G19G21G22G27
  20507390.360   107767074.25609  20507386.880    83974341.88949
  21613319.480   113578943.91209  21613315.820    88503148.29648
  23128009.180   121538526.71709  23128004.280    94705338.20747
  22954392.040   120626580.30608  22954388.160    93994926.00147
  21410598.020   112513587.70709  21410592.940    87672916.83448
  21328016.240   112079531.93809  21328015.600    87334712.95749
 15 03 06 00 52 30.0000000  0  6G16G18G19G21G22G27
  20505929.480   107759396.99609  20505925.940    83968359.60749
  21614694.500   113586169.74809  21614690.900    88508778.82248
  23114321.640   121466598.32709  23114316.820    94649290.16447
  22967324.480   120694540.67408  22967320.580    94047882.13447
  21399189.580   112453635.82409  21399184.480    87626201.10548
  21318844.820   112031336.05309  21318844.200    87297157.73848
 15 03 06 00 53  0.0000000  0  6G16G18G19G21G22G27
  20504572.800   107752267.43509  20504569.220    83962804.09848
  21616164.040   113593892.42009  21616160.480    88514796.49048
  23100647.740   121394741.15609  23100643.080    94593297.61347
  22980269.800   120762568.71609  22980265.920    94100890.98846
  21387859.760   112394097.05809  21387854.620    87579807.27848
  21309701.600   111983288.28609  21309700.960    87259717.93048
 15 03 06 00 53 30.0000000  0  6G16G18G19G21G22G27
  20503321.540   107745691.93809  20503317.920    83957680.33449
  21617729.200   113602117.39409  21617725.740    88521205.57548
  23086988.420   121322960.94809  23086983.660    94537364.99947
  22993228.860   120830668.92008  22993224.960    94153956.08647
  21376610.040   112334979.16709  21376604.800    87533741.41248
  21300587.820   111935395.16509  21300587.160    87222398.62549
 15 03 06 00 54  0.0000000  0  6G16G18G19G21G22G27
  20502174.740   107739665.66809  20502171.120    83952984.53149
  21619388.920   113610839.46209  21619385.560    88528002.00848
  23073342.900   121251253.03309  23073338.220    94481488.70847
  23006200.400   120898834.79708  23006196.520    94207072.33146
  21365439.740   112276278.62409  21365434.380    87488000.75148
  21291502.640   111887652.31109  21291501.940    87185196.40949
 15 03 06 00 54 30.0000000  0  6G16G18G19G21G22G27
  20501133.480   107734194.43209  20501129.940    83948721.23349
  21621143.980   113620062.66709  21621140.700    88535188.92348
  23059711.960   121179622.31209  23059707.420    94425672.59847
  23019185.000   120967069.33808  23019181.220    94260242.09746
  21354350.020   112218002.04909  21354344.620    87442590.46448
  21282447.080   111840065.16109  21282446.360    87148115.53249
 15 03 06 00 55  0.0000000  0  6G16G18G19G21G22G27
  20500197.960   107729278.61709  20500194.440    83944890.71948
  21622994.360   113629786.56909  21622991.140    88542766.00447
  23046095.700   121108068.72709  23046091.040    94369916.58147
  23032182.380   121035371.04908  23032178.540    94313464.21046
  21343341.180   112160150.91409  21343335.840    87397511.67348
  21273421.240   111792634.15709  21273420.500    87111156.31648
 15 03 06 00 55 30.0000000  0  6G16G18G19G21G22G27
  20499367.620   107724915.53509  20499364.140    83941490.90948
  21624939.460   113640008.06209  21624936.180    88550730.80848
  23032493.580   121036589.56309  23032488.940    94314218.55447
  23045191.700   121103736.05808  23045187.880    94366735.63746
  21332413.180   112102724.25109  21332407.920    87352763.64948
  21264424.660   111745357.25909  21264423.980    87074317.18348
 15 03 06 00 56  0.0000000  0  7G04G16G18G19G21G22G27
  24574717.720   129141032.29807  24574721.480   100629378.24344
  20498642.900   107721107.30309  20498639.480    83938523.44748
  21626979.440   113650727.98309  21626976.080    88559083.99947
  23018906.060   120965186.86409  23018901.260    94258580.10747
  23058213.000   121172163.89509  23058209.160    94420056.01946
  21321566.600   112045725.26009  21321561.380    87308348.86548
  21255457.820   111698236.59109  21255457.200    87037599.79148
 15 03 06 00 56 30.0000000  0  7G04G16G18G19G21G22G27
  24556476.360   129045164.48108  24556480.080   100554676.50245
  20498029.720   107717884.98009  20498026.360    83936012.54049
  21629119.940   113661976.15509  21629116.560    88567848.81648
  23005338.940   120893891.77908  23005334.080    94203025.52247
  23071252.020   121240684.42908  23071248.260    94473448.64746
  21310807.520   111989186.35109  21310802.400    87264292.59348
  21246526.760   111651303.81909  21246526.180    87001028.81349
 15 03 06 00 57  0.0000000  0  7G04G16G18G19G21G22G27
  24538254.800   128949409.16908  24538257.940   100480062.37544
  20497515.840   107715184.09509  20497512.440    83933907.94649
  21631348.400   113673686.85909  21631344.980    88576974.06347
  22991779.920   120822638.92109  22991775.320    94147503.87047
  23084295.860   121309230.60708  23084292.340    94526861.24946
  21300123.820   111933043.85909  21300118.800    87220545.22148
  21237619.160   111604494.03609  21237618.540    86964553.66548
 15 03 06 00 57 30.0000000  0  7G04G16G18G19G21G22G27
  24520062.580   128853809.67408  24520066.440   100405569.82344
  20497109.360   107713047.38409  20497105.860    83932242.97049
  21633672.800   113685901.87109  21633669.440    88586492.25448
  22978237.120   120751470.92409  22978232.400    94092048.29847
  23097352.320   121377843.41908  23097348.920    94580325.74546
  21289523.960   111877341.94209  21289519.020    87177141.15048
  21228743.160   111557850.41509  21228742.560    86928208.00349
 15 03 06 00 58  0.0000000  0  7G04G16G18G19G21G22G27
  24501898.300   128758355.47307  24501901.520   100331190.16845
  20496808.180   107711464.21509  20496804.600    83931009.32449
  21636091.060   113698609.93209  21636087.700    88596394.65848
  22964708.480   120680377.53109  22964703.980    94036650.87147
  23110419.280   121446510.66508  23110415.780    94633832.70347
  21279006.280   111822071.54609  21279001.320    87134073.32048
  21219896.900   111511362.92409  21219896.260    86891983.98649
 15 03 06 00 58 30.0000000  0  7G04G16G18G19G21G22G27
  24483763.380   128663056.93408  24483766.540   100256931.93944
  20496614.160   107710444.53609  20496610.600    83930214.75949
  21638604.780   113711819.85909  21638601.440    88606688.10348
  22951195.820   120609367.84409  22951191.400    93981318.67347
  23123498.280   121515240.60408  23123494.600    94687388.49546
  21268572.860   111767243.84309  21268567.960    87091350.44348
  21211082.300   111465041.71509  21211081.600    86855889.54948
 15 03 06 00 59  0.0000000  0  7G04G16G18G19G21G22G27
  24465657.140   128567910.46308  24465660.700   100182792.24045
  20496526.620   107709984.35309  20496523.040    83929856.17249
  21641213.060   113725526.65709  21641209.720    88617368.74847
  22937698.380   120538438.25809  22937693.800    93926048.88647
