     2.11           OBSERVATION DATA    G                   RINEX VERSION / TYPE
SPIDER V4,0,0,3554                      2015 03 18 01:15    PGM / RUN BY / DATE 
CKHR                                                        MARKER NAME         
CKHR                                                        MARKER NUMBER       
                                                            OBSERVER / AGENCY   
496547              LEICA GRX1200+GNSS  8.10/4.007          REC # / TYPE / VERS 
10301042            LEIAR25         NONE                    ANT # / TYPE        
  5141838.0877   498328.5776  3730203.3049                  APPROX POSITION XYZ 
        0.0720        0.0000        0.0000                  ANTENNA: DELTA H/E/N
     1     1                                                WAVELENGTH FACT L1/2
     4    C1    L1    P2    L2                              # / TYPES OF OBSERV 
    30.000                                                  INTERVAL            
  2015    03    06    00    00    0.0000000     GPS         TIME OF FIRST OBS   
  2015    03    06    04    15    0.0000000     GPS         TIME OF LAST OBS    
    16                                                      LEAP SECONDS        
    14                                                      # OF SATELLITES     
   G 1   243   243   243   243                              PRN / # OF OBS      
   G 3   124   124   123   123                              PRN / # OF OBS      
   G 4   397   397   397   397                              PRN / # OF OBS      
   G11   304   304   304   304                              PRN / # OF OBS      
   G14   218   217   217   217                              PRN / # OF OBS      
   G16   439   439   439   439                              PRN / # OF OBS      
   G18   390   390   390   390                              PRN / # OF OBS      
   G19   509   509   509   509                              PRN / # OF OBS      
   G21   263   263   263   263                              PRN / # OF OBS      
   G22   511   511   511   511                              PRN / # OF OBS      
   G27   511   511   511   511                              PRN / # OF OBS      
   G28    85    85    85    85                              PRN / # OF OBS      
   G31    44    44    44    44                              PRN / # OF OBS      
   G32   302   302   302   302                              PRN / # OF OBS      
BIT 2 OF LLI FLAGS DATA COLLECTED UNDER A/S CONDITION       COMMENT             
SNR is mapped to RINEX snr flag value [2-9]                 COMMENT             
Lx:     = 25dBHz -> 1; 26-27dBHz -> 2; 28-31dBHz -> 3       COMMENT             
       32-35dBHz -> 4; 36-38dBHz -> 5; 39-41dBHz -> 6       COMMENT             
       42-44dBHz -> 7; 45-48dBHz -> 8; >=49dBHz -> 9        COMMENT             
                                                            END OF HEADER       
 15 03 06 00 00  0.0000000  0  6G16G18G21G22G27G31
  21113668.560   110953090.27109  21113664.840    86456942.41448
  22048440.520   115865462.01609  22048437.480    90284814.50847
  21695821.660   114012783.79609  21695817.700    88841335.03648
  23062289.000   121193231.84708  23062284.920    94436316.41847
  22338374.920   117389003.86209  22338374.540    91471945.78748
  23901020.940   125600710.34208  23901019.880    97870684.41546
 15 03 06 00 00 30.0000000  0  6G16G18G21G22G27G31
  21103262.400   110898405.86709  21103258.740    86414331.20548
  22040003.640   115821125.81809  22040000.540    90250266.84247
  21705638.140   114064369.81509  21705634.140    88881531.93648
  23044933.320   121102027.21508  23044929.160    94365247.98847
  22326750.320   117327916.18709  22326749.840    91424345.02848
  23919293.140   125696731.43808  23919292.520    97945505.76646
 15 03 06 00 01  0.0000000  0  7G16G18G19G21G22G27G31
  21092926.420   110844090.52509  21092922.880    86372007.56448
  22031640.340   115777176.00909  22031637.020    90216020.24847
  24532692.980   128920162.79008  24532690.420   100457248.58546
  21715497.120   114116179.39309  21715493.100    88921903.02648
  23027601.160   121010946.75308  23027596.900    94294276.29247
  22315142.560   117266916.65209  22315141.920    91376812.93348
  23937567.440   125792763.88708  23937567.240    98020335.96546
 15 03 06 00 01 30.0000000  0  7G16G18G19G21G22G27G31
  21082652.300   110790100.25409  21082648.860    86329937.22648
  22023342.160   115733568.31909  22023338.640    90182040.25447
  24517489.120   128840263.08608  24517484.700   100394989.11546
  21725389.720   114168165.61509  21725385.720    88962411.76748
  23010284.340   120919947.27209  23010280.000    94223367.71847
  22303542.860   117205959.28709  22303542.140    91329313.70648
  23955834.680   125888758.87308  23955834.780    98095136.96646
 15 03 06 00 02  0.0000000  0  7G16G18G19G21G22G27G31
  21072465.620   110736569.46709  21072462.280    86288224.93148
  22015134.740   115690437.41809  22015131.040    90148431.75847
  24502309.120   128760491.62407  24502304.660   100332829.57346
  21735340.700   114220458.66209  21735336.720    89003159.59248
  22993008.580   120829164.12808  22993004.420    94152627.70247
  22291976.380   117145176.93209  22291975.700    91281950.85048
  23974119.560   125984845.84408  23974119.660    98170009.64846
 15 03 06 00 02 30.0000000  0  7G16G18G19G21G22G27G31
  21062355.000   110683437.85309  21062351.660    86246823.67848
  22007006.360   115647722.05409  22007002.600    90115147.08347
  24487141.360   128680785.82607  24487137.120   100270721.24945
  21745337.700   114272993.68209  21745333.840    89044095.97448
  22975762.580   120738537.01309  22975758.420    94082009.26747
  22280431.300   117084507.00609  22280430.620    91234675.60048
  23992409.520   126080959.08908  23992409.640    98244902.79946
 15 03 06 00 03  0.0000000  0  7G16G18G19G21G22G27G31
  21052319.880   110630702.41609  21052316.400    86205731.12748
  21998956.180   115605418.50409  21998952.500    90082183.30047
  24471985.340   128601140.38508  24471980.620   100208659.86745
  21755379.540   114325764.09709  21755375.820    89085215.78048
  22958545.920   120648063.61309  22958541.840    94011510.61447
  22268906.620   117023944.52009  22268905.980    91187484.06848
  24010703.080   126177090.82708  24010703.180    98319810.32446
 15 03 06 00 03 30.0000000  0  7G16G18G19G21G22G27G31
  21042359.940   110578361.87109  21042356.280    86164946.28148
  21990984.140   115563526.33609  21990980.780    90049540.05947
  24456839.880   128521552.22407  24456835.360   100146643.21045
  21765465.320   114378765.33109  21765461.680    89126515.43648
  22941358.520   120557743.65009  22941354.520    93941131.49847
  22257401.880   116963486.75009  22257401.200    91140374.12648
  24028999.120   126273235.01408  24028999.120    98394727.54946
 15 03 06 00 04  0.0000000  0  7G16G18G19G21G22G27G31
  21032474.400   110526412.93709  21032470.680    86124466.60248
  21983089.660   115522041.21309  21983086.480    90017214.01547
  24441704.300   128442016.13808  24441699.980   100084667.05545
  21775593.780   114431990.27509  21775590.080    89167989.41648
  22924199.780   120467573.91609  22924195.800    93870869.44947
  22245916.120   116903128.48709  22245915.320    91093341.72648
  24047295.920   126369383.22908  24047295.920    98469647.92346
 15 03 06 00 04 30.0000000  0  7G16G18G19G21G22G27G31
  21022665.400   110474866.85409  21022661.820    86084300.82548
  21975274.820   115480974.09009  21975271.680    89985213.66047
  24426580.700   128362541.33308  24426576.520   100022738.66645
  21785766.120   114485445.66209  21785762.320    89209642.95548
  22907072.060   120377566.73009  22907068.020    93800734.04547
  22234451.040   116842878.96709  22234450.160    91046394.05848
  24065594.680   126465541.75008  24065594.700    98544576.27546
 15 03 06 00 05  0.0000000  0  7G16G18G19G21G22G27G31
  21012934.240   110423729.30709  21012930.700    86044453.39348
  21967540.400   115440329.71809  21967537.300    89953542.74147
  24411469.300   128283131.28908  24411465.060    99960860.80445
  21795982.700   114539133.66909  21795978.860    89251477.77148
  22889976.440   120287728.15109  22889972.300    93730730.04047
  22223007.360   116782742.12009  22223006.500    90999534.20048
  24083895.620   126561711.42708  24083895.600    98619513.34446
 15 03 06 00 05 30.0000000  0  7G16G18G19G21G22G27G31
  21003280.580   110372998.68509  21003277.060    86004923.04148
  21959886.100   115400106.44109  21959883.060    89922199.96147
  24396369.540   128203782.23708  24396365.660    99899030.41146
  21806242.360   114593048.37809  21806238.520    89293489.22948
  22872912.600   120198057.10109  22872908.400    93660856.59747
  22211584.400   116722714.40209  22211583.620    90952759.37348
  24102197.280   126657885.34908  24102197.380    98694453.71346
 15 03 06 00 06  0.0000000  0  7G16G18G19G21G22G27G31
  20993703.280   110322669.38409  20993699.780    85965705.41748
  21952310.840   115360298.45409  21952307.800    89891180.76047
  24381280.160   128124486.69208  24381276.300    99837241.71146
  21816543.460   114647181.11809  21816539.580    89335670.57748
  22855879.600   120108548.51609  22855875.280    93591109.72547
  22200180.820   116662788.44709  22200180.160    90906063.83048
  24120497.800   126754053.12608  24120498.000    98769389.26646
 15 03 06 00 06 30.0000000  0  7G16G18G19G21G22G27G31
  20984205.380   110272757.30409  20984201.800    85926812.88748
  21944817.660   115320921.57809  21944814.620    89860497.49047
  24366203.540   128045258.75008  24366199.360    99775505.69645
  21826888.300   114701543.63309  21826884.360    89378030.97648
  22838880.700   120019219.48109  22838876.440    93521502.76547
  22188799.360   116602978.60009  22188798.740    90859458.77148
  24138799.280   126850226.01108  24138799.500    98844328.78746
 15 03 06 00 07  0.0000000  0  7G16G18G19G21G22G27G31
  20974785.300   110223254.19209  20974781.620    85888239.03148
  21937404.860   115281966.44109  21937401.680    89830142.85347
  24351137.700   127966087.86308  24351133.580    99713814.15046
  21837274.560   114756124.14409  21837270.660    89420561.24048
  22821914.360   119930061.85309  22821910.160    93452029.35647
  22177438.040   116543274.49709  22177437.420    90812936.10548
  24157099.180   126946390.76108  24157099.360    98919261.96846
 15 03 06 00 07 30.0000000  0  7G16G18G19G21G22G27G31
  20965444.360   110174166.99009  20965440.540    85849989.26548
  21930073.560   115243439.59809  21930070.200    89800121.96047
  24336083.680   127886978.91608  24336079.740    99652170.89746
  21847702.620   114810924.41309  21847698.760    89463262.74048
  22804982.100   119841083.14309  22804977.940    93382695.38047
  22166097.920   116483681.41509  22166097.120    90766499.95048
  24175397.840   127042549.25008  24175398.020    98994190.25746
 15 03 06 00 08  0.0000000  0  7G16G18G19G21G22G27G31
  20956181.420   110125490.13009  20956177.600    85812059.24948
  21922822.600   115205335.48009  21922819.140    89770430.45047
  24321040.380   127807924.77408  24321036.200    99590570.23646
  21858171.140   114865936.93309  21858167.260    89506129.63548
  22788083.080   119752278.81109  22788079.000    93313497.26747
  22154777.480   116424192.18509  22154776.640    90720144.71648
  24193693.260   127138691.30708  24193693.560    99069105.70346
 15 03 06 00 08 30.0000000  0  7G16G18G19G21G22G27G31
  20946999.280   110077238.12309  20946995.520    85774460.28348
  21915654.660   115167668.19309  21915651.260    89741079.32347
  24306009.680   127728938.14608  24306005.380    99529022.32946
  21868682.000   114921171.66509  21868678.120    89549169.68248
  22771220.220   119663664.24909  22771216.180    93244447.01047
  22143479.260   116364819.57509  22143478.360    90673880.35748
  24211987.340   127234826.56008  24211987.900    99144015.85046
 15 03 06 00 09  0.0000000  0  7G16G18G19G21G22G27G31
  20937896.460   110029403.19309  20937892.800    85737186.31348
  21908568.120   115130428.69609  21908564.780    89712061.55747
  24290989.760   127650008.78307  24290986.120    99467519.02145
  21879232.900   114976616.72509  21879229.020    89592373.62648
  22754392.000   119575231.55909  22754387.980    93175538.50047
  22132201.360   116305553.79509  22132200.380    90627699.23848
  24230277.680   127330942.06808  24230278.460    99218910.57646
 15 03 06 00 09 30.0000000  0  7G16G18G19G21G22G27G31
  20928874.740   109981994.22609  20928871.160    85700244.26348
  21901564.780   115093625.99909  21901561.440    89683384.15048
  24275982.060   127571143.54408  24275978.260    99406065.57046
  21889824.820   115032277.27209  21889820.940    89635745.47748
  22737600.360   119486990.88209  22737596.240    93106779.61747
  22120945.140   116246402.15409  22120944.180    90581607.07248
  24248565.160   127427042.07608  24248566.020    99293793.25946
 15 03 06 00 10  0.0000000  0  7G16G18G19G21G22G27G31
  20919933.920   109935009.93709  20919930.400    85663633.12448
  21894644.220   115057258.14209  21894640.900    89655045.57747
  24260986.060   127492339.46008  24260981.920    99344659.85046
  21900456.800   115088148.44409  21900452.820    89679281.45548
  22720845.020   119398941.38609  22720840.980    93038169.66747
  22109710.040   116187361.64909  22109709.120    90535601.49048
  24266848.440   127523120.42808  24266849.500    99368659.01446
 15 03 06 00 10 30.0000000  0  7G16G18G19G21G22G27G31
  20911074.280   109888452.29809  20911070.860    85627354.44948
  21887806.720   115021326.79309  21887803.340    89627047.13747
  24246001.640   127413596.51308  24245997.780    99283301.77346
  21911128.520   115144228.69509  21911124.640    89722980.34648
  22704126.540   119311085.56909  22704122.540    92969710.64947
  22098496.220   116128432.58309  22098495.220    90489682.74548
  24285127.220   127619174.30508  24285128.360    99443505.68146
 15 03 06 00 11  0.0000000  0  7G16G18G19G21G22G27G31
  20902295.800   109842321.08509  20902292.380    85591408.05548
  21881052.160   114985831.04609  21881048.740    89599388.12848
  24231028.800   127334912.88808  24231024.820    99221989.90946
  21921839.280   115200514.14009  21921835.420    89766839.13548
  22687445.080   119223424.17608  22687441.040    92901403.10247
  22087303.220   116069613.08909  22087302.260    90443849.39048
  24303400.440   127715198.69608  24303401.720    99518329.39046
 15 03 06 00 11 30.0000000  0  7G16G18G19G21G22G27G31
  20893599.760   109796622.83709  20893596.320    85555799.02748
  21874381.760   114950777.42409  21874378.300    89572073.63847
  24216068.020   127256292.74708  24216063.860    99160727.50645
  21932589.560   115257007.54509  21932585.740    89810859.95548
  22670802.020   119135964.49208  22670797.920    92833252.78747
  22076132.040   116010908.07409  22076131.120    90398105.22248
  24321668.460   127811195.55508  24321669.920    99593131.60846
 15 03 06 00 12  0.0000000  0  7G16G18G19G21G22G27G31
  20884985.620   109751354.67709  20884982.080    85520525.13548
  21867794.740   114916162.15309  21867791.300    89545100.71047
  24201118.420   127177731.38008  24201114.080    99099510.91246
  21943378.180   115313702.17009  21943374.340    89855037.57948
  22654197.040   119048704.38909  22654192.760    92765257.99647
  22064981.780   115952313.12009  22064980.920    90352446.83548
  24339929.720   127907157.07508  24339931.320    99667906.28546
 15 03 06 00 12 30.0000000  0  7G16G18G19G21G22G27G31
  20876454.700   109706523.86709  20876451.100    85485592.03148
  21861292.360   114881991.87309  21861288.960    89518474.53648
  24186181.080   127099234.37708  24186176.460    99038344.43246
  21954205.820   115370601.38809  21954201.880    89899374.62548
  22637631.460   118961651.09509  22637627.060    92697424.28747
  22053853.460   115893833.62409  22053852.660    90306878.40948
  24358184.680   128003085.56408  24358186.540    99742655.15746
 15 03 06 00 13  0.0000000  0  7G16G18G19G21G22G27G31
  20868007.280   109662132.25709  20868003.660    85451001.16448
  21854874.920   114848268.22509  21854871.560    89492196.37548
  24171255.760   127020801.51508  24171251.540    98977228.00645
  21965072.060   115427703.78509  21965068.060    89943870.00448
  22621105.880   118874807.84209  22621101.360    92629754.30247
  22042747.200   115835469.79709  22042746.380    90261400.11348
  24376432.880   128098978.38408  24376434.940    99817376.21546
 15 03 06 00 13 30.0000000  0  7G16G18G19G21G22G27G31
  20859644.060   109618183.01009  20859640.360    85416754.99848
  21848542.940   114814993.82409  21848539.580    89466268.28848
  24156342.940   126942434.65008  24156338.900    98916162.94946
  21975976.740   115485008.41809  21975972.720    89988522.95748
  22604621.000   118788179.04509  22604616.400    92562251.39647
  22031663.260   115777223.50909  22031662.480    90216013.41148
  24394674.060   128194833.95208  24394676.040    99892068.23146
 15 03 06 00 14  0.0000000  0  7G16G18G19G21G22G27G31
  20851363.400   109574667.92709  20851359.700    85382847.14548
  21842294.660   114782159.72909  21842291.360    89440683.29448
  24141440.680   126864123.31808  24141436.700    98855141.17347
  21986917.820   115542504.17409  21986913.760    90033324.84248
  22588175.240   118701756.41609  22588170.680    92494909.13747
  22020599.780   115719084.90009  22020599.080    90170710.60748
  24412905.900   128290639.65708  24412907.700    99966721.40645
 15 03 06 00 14 30.0000000  0  7G16G18G19G21G22G27G31
  20843167.360   109531597.32809  20843163.660    85349285.64149
  21836132.000   114749775.72509  21836128.800    89415449.02448
  24126550.600   126785875.77708  24126546.480    98794169.10646
  21997896.420   115600197.06709  21997892.400    90078280.34148
  22571770.700   118615551.10609  22571766.360    92427736.22447
  22009558.480   115661062.50809  22009557.780    90125498.37848
  24431129.320   128386400.72608  24431130.940   100041339.77045
 15 03 06 00 15  0.0000000  0  7G16G18G19G21G22G27G31
  20835056.580   109488974.89709  20835052.880    85316073.35548
  21830055.700   114717844.97909  21830052.580    89390567.93547
  24111672.800   126707693.92108  24111668.760    98733248.27246
  22008912.560   115658087.61209  22008908.600    90123389.84748
  22555408.460   118529567.78009  22555404.260    92360736.26447
  21998539.780   115603158.63109  21998539.020    90080378.47848
  24449344.020   128482116.23408  24449345.600   100115922.57845
 15 03 06 00 15 30.0000000  0  7G16G18G19G21G22G27G31
  20827029.980   109446795.15509  20827026.360    85283206.02149
  21824064.480   114686360.99709  21824061.380    89366034.97648
  24096806.260   126629570.65908  24096802.040    98672373.00846
  22019964.460   115716166.02509  22019960.600    90168645.74748
  22539087.540   118443801.38409  22539083.380    92293905.37747
  21987542.260   115545366.03209  21987541.460    90035345.29848
  24467548.080   128577775.99808  24467549.740   100190461.94645
 15 03 06 00 16  0.0000000  0  7G16G18G19G21G22G27G31
  20819089.340   109405067.12309  20819085.800    85250690.67648
  21818160.120   114655332.88409  21818156.980    89341857.24947
  24081952.280   126551513.23408  24081948.020    98611549.07846
  22031053.080   115774437.73909  22031049.420    90214052.26748
  22522809.860   118358261.76109  22522805.580    92227251.16547
  21976567.340   115487692.30409  21976566.480    89990404.73548
  24485742.240   128673384.24308  24485744.180   100264961.16546
 15 03 06 00 16 30.0000000  0  7G16G18G19G21G22G27G31
  20811234.740   109363790.97109  20811231.200    85218527.44148
  21812342.460   114624760.27309  21812339.220    89318034.43347
  24067110.380   126473520.09708  24067106.400    98550775.27946
  22042177.960   115832899.83809  22042174.420    90259607.13948
  22506575.640   118272950.03009  22506571.180    92160774.54747
  21965614.820   115430136.32609  21965613.880    89945555.92548
  24503925.780   128768937.17308  24503928.160   100339417.17446
 15 03 06 00 17  0.0000000  0  7G16G18G19G21G22G27G31
  20803465.360   109322962.86109  20803461.880    85186713.32748
  21806610.520   114594638.40209  21806607.160    89294562.85748
  24052279.700   126395585.18608  24052275.940    98490046.80346
  22053337.820   115891545.24809  22053334.340    90305304.85548
  22490384.200   118187862.98209  22490379.460    92094473.00647
  21954683.600   115372692.50309  21954682.700    89900794.51548
  24522097.220   128864425.90008  24522100.000   100413823.16746
 15 03 06 00 17 30.0000000  0  7G16G18G19G21G22G27G31
  20795783.140   109282593.02409  20795779.740    85155256.31148
  21800966.100   114564976.95609  21800962.760    89271450.05248
  24037461.920   126317717.47308  24037458.740    98429370.71946
  22064533.820   115950380.19909  22064530.300    90351150.26648
  22474237.600   118103011.79209  22474232.680    92028355.23747
  21943775.460   115315369.80309  21943774.560    89856127.47448
  24540257.580   128959856.15608  24540260.760   100488183.60246
 15 03 06 00 18  0.0000000  0  7G16G18G19G21G22G27G31
  20788187.020   109242675.37009  20788183.620    85124151.65448
  21795408.040   114535769.55809  21795404.780    89248691.05748
  24022655.600   126239909.22908  24022652.120    98368740.96346
  22075763.980   116009394.73409  22075760.440    90397135.61548
  22458134.820   118018391.32009  22458129.860    91962417.26847
  21932888.920   115258160.76809  21932888.000    89811549.01748
  24558404.780   129055217.30408  24558408.220   100562490.15646
 15 03 06 00 18 30.0000000  0  7G16G18G19G21G22G27G31
  20780678.780   109203219.28909  20780675.340    85093406.65848
  21789938.080   114507024.64809  21789934.840    89226292.43948
  24007862.040   126162167.68508  24007858.080    98308163.14546
  22087029.460   116068594.98609  22087025.820    90443265.67648
  22442077.820   117934011.48609  22442072.940    91896666.79147
  21922025.400   115201073.03409  21922024.580    89767065.08548
  24576539.740   129150514.01708  24576543.420   100636746.50645
 15 03 06 00 19  0.0000000  0  7G16G18G19G21G22G27G31
  20773257.800   109164221.80809  20773254.380    85063019.00848
  21784555.460   114478738.52409  21784552.260    89204251.31348
  23993080.180   126084488.28408  23993076.420    98247633.78546
  22098329.000   116127974.48809  22098325.340    90489535.42048
  22426066.180   117849870.01809  22426061.400    91831102.05448
  21911184.200   115144102.26709  21911183.420    89722672.28648
  24594660.920   129245738.74607  24594664.760   100710946.72145
 15 03 06 00 19 30.0000000  0  7G16G18G19G21G22G27G31
  20765925.820   109125692.08009  20765922.420    85032995.84348
  21779261.840   114450919.83509  21779258.620    89182574.41948
  23978311.440   126006878.53608  23978307.700    98187158.68546
  22109663.740   116187538.75509  22109660.040    90535949.13448
  22410101.780   117765976.73209  22410097.100    91765730.72147
  21900366.820   115087256.22609  21900365.960    89678376.67148
  24612769.320   129340896.39208  24612773.320   100785094.59345
 15 03 06 00 20  0.0000000  0  7G16G18G19G21G22G27G31
  20758681.740   109087624.18209  20758678.320    85003332.55348
  21774055.900   114423562.09609  21774052.560    89161256.72148
  23963554.480   125929330.77108  23963550.620    98126731.90846
  22121031.800   116247278.29209  22121028.060    90582499.42747
  22394183.700   117682326.70709  22394179.100    91700548.91448
  21889571.780   115030527.62409  21889570.900    89634172.58748
  24630862.980   129435976.23508  24630867.240   100859181.80745
 15 03 06 00 20 30.0000000  0  7G16G18G19G21G22G27G31
  20751525.780   109050018.96209  20751522.260    84974029.77748
  21768937.720   114396665.76609  21768934.220    89140298.54548
  23948809.380   125851844.46108  23948805.760    98066352.97046
  22132432.700   116307190.87808  22132429.040    90629184.55248
  22378312.220   117598921.68709  22378307.620    91635558.04748
  21878798.980   114973916.22509  21878798.120    89590059.81948
  24648941.340   129530974.99508  24648945.860   100933205.81846
 15 03 06 00 21  0.0000000  0  7G16G18G19G21G22G27G31
  20744459.780   109012886.30109  20744456.120    84945095.23248
  21763909.000   114370239.78009  21763905.440    89119706.87648
  23934077.620   125774427.48608  23934073.840    98006028.06646
  22143867.740   116367282.86509  22143864.160    90676009.46948
  22362489.380   117515772.63809  22362484.780    91570766.61148
  21868050.040   114917430.34009  21868049.200    89546044.85648
  24667005.420   129625897.78308  24667009.860   101007170.65146
 15 03 06 00 21 30.0000000  0  7G16G18G19G21G22G27G31
  20737483.120   108976222.92509  20737479.300    84916526.36849
  21758969.020   114344280.24909  21758965.460    89099478.69448
  23919357.880   125697075.02508  23919353.800    97945753.44846
  22155335.680   116427547.46509  22155332.080    90722968.90248
  22346714.640   117432876.81009  22346710.100    91506172.51548
  21857324.080   114861065.21309  21857323.280    89502123.99448
  24685053.580   129720736.90908  24685058.140   101081070.21846
 15 03 06 00 22  0.0000000  0  6G16G18G19G21G22G27
  20730593.480   108940017.17509  20730589.580    84888314.08348
  21754115.500   114318775.07309  21754112.060    89079604.53448
  23904647.860   125619773.84208  23904643.740    97885518.79547
  22166833.660   116487969.57909  22166830.060    90770051.06448
  22330986.080   117350223.52409  22330981.540    91441767.38748
  21846618.680   114804808.07209  21846617.900    89458287.27548
 15 03 06 00 22 30.0000000  0  6G16G18G19G21G22G27
  20723796.080   108904296.65509  20723792.180    84860479.91248
  21749353.620   114293751.28809  21749350.300    89060105.48748
  23889952.720   125542550.39708  23889948.360    97825344.70846
  22178366.260   116548573.48809  22178362.600    90817274.89048
  22315309.280   117267841.47309  22315304.680    91377573.65348
  21835938.820   114748685.20809  21835938.080    89414555.18348
 15 03 06 00 23  0.0000000  0  6G16G18G19G21G22G27
  20717088.900   108869050.23609  20717084.980    84833015.15948
  21744680.960   114269196.59409  21744677.780    89040971.96748
  23875269.920   125465391.07608  23875265.660    97765220.57946
  22189930.580   116609344.60209  22189927.000    90864628.98048
  22299682.200   117185720.03009  22299677.440    91313582.94148
  21825282.140   114692684.17909  21825281.420    89370918.02248
 15 03 06 00 23 30.0000000  0  6G16G18G19G21G22G27
  20710472.760   108834282.07509  20710468.820    84805923.08249
  21740098.220   114245114.66609  21740095.020    89022206.83848
  23860599.680   125388298.82108  23860595.640    97705148.71846
  22201526.880   116670283.81709  22201523.400    90912114.07448
  22284105.580   117103864.15009  22284100.900    91249799.18548
  21814649.180   114636807.92809  21814648.460    89327378.09848
 15 03 06 00 24  0.0000000  0  6G16G18G19G21G22G27
  20703947.460   108799991.50009  20703943.540    84779203.14948
  21735605.180   114221504.41409  21735602.020    89003809.25248
  23845941.840   125311271.98508  23845937.880    97645127.83746
  22213154.540   116731387.31209  22213150.980    90959727.18347
  22268579.500   117022274.48309  22268575.080    91186222.85048
  21804039.580   114581054.54209  21804038.920    89283933.91648
 15 03 06 00 24 30.0000000  0  6G16G18G19G21G22G27
  20697513.200   108766179.91409  20697509.480    84752856.45648
  21731202.100   114198366.70309  21731198.980    88985779.87748
  23831296.380   125234309.86208  23831292.200    97585157.36847
  22224813.160   116792652.83309  22224809.340    91007466.55248
  22253104.360   116940953.11609  22253100.200    91122855.59248
  21793453.460   114525424.40109  21793452.860    89240585.75448
 15 03 06 00 25  0.0000000  0  6G16G18G19G21G22G27
  20691171.020   108732851.86909  20691167.400    84726886.54548
  21726889.560   114175704.58309  21726886.540    88968121.09748
  23816663.740   125157415.16708  23816659.440    97525239.46546
  22236502.740   116854081.24509  22236498.780    91055332.84148
  22237681.240   116859905.05109  22237677.300    91059701.30948
  21782891.360   114469920.28309  21782890.800    89197335.79748
 15 03 06 00 25 30.0000000  0  6G16G18G19G21G22G27
  20684920.420   108700004.80009  20684916.820    84701291.42449
  21722667.000   114153515.21209  21722664.040    88950830.68648
  23802043.360   125080584.33808  23802039.040    97465371.31646
  22248222.200   116915666.66809  22248218.020    91103321.48148
  22222309.980   116779128.86309  22222305.940    90996758.84948
  21772352.560   114414538.73309  21772352.000    89154181.35148
 15 03 06 00 26  0.0000000  0  6G16G18G19G21G22G27
  20678763.140   108667648.00409  20678759.540    84676078.32849
  21718536.160   114131807.49309  21718533.160    88933915.59248
  23787436.560   125003824.95708  23787432.300    97405558.84446
  22259972.760   116977415.93909  22259968.500    91151437.78948
  22206992.440   116698634.43709  22206988.080    90934035.95048
  21761838.720   114359288.12009  21761838.120    89111128.93048
 15 03 06 00 26 30.0000000  0  6G16G18G19G21G22G27
  20672697.760   108635774.22509  20672694.220    84651241.61949
  21714495.400   114110572.83609  21714492.300    88917369.11248
  23772841.700   124927128.27708  23772837.580    97345795.22346
  22271752.260   117039317.85509  22271748.060    91199673.03447
  22191727.520   116618416.19109  22191722.860    90871528.28848
  21751348.140   114304159.67909  21751347.520    89068171.70948
 15 03 06 00 27  0.0000000  0  6G16G18G19G21G22G27
  20666726.000   108604392.36709  20666722.480    84626788.21549
  21710546.320   114089819.97009  21710543.120    88901198.06248
  23758260.180   124850501.82808  23758256.000    97286086.35346
  22283561.780   117101378.10109  22283557.760    91248031.65347
  22176516.980   116538483.86809  22176512.040    90809243.37348
  21740882.340   114249161.50509  21740881.700    89025315.99448
 15 03 06 00 27 30.0000000  0  6G16G18G19G21G22G27
  20660847.320   108573499.40609  20660843.680    84602715.77848
  21706688.280   114069545.47009  21706685.080    88885399.76548
  23743691.180   124773941.04508  23743686.780    97226428.63146
  22295400.420   117163590.96309  22295396.480    91296509.20847
  22161360.420   116458835.45509  22161355.360    90747179.72848
  21730440.580   114194289.50509  21730439.920    88982558.59548
 15 03 06 00 28  0.0000000  0  6G16G18G19G21G22G27
  20655062.820   108543101.26409  20655059.060    84579028.90948
  21702922.100   114049753.85109  21702918.920    88869977.73448
  23729135.480   124697450.42308  23729131.080    97166825.56946
  22307268.660   117225958.93209  22307264.720    91345107.63048
  22146259.120   116379477.42209  22146254.080    90685342.31848
  21720023.760   114139548.34209  21720023.040    88939903.14148
 15 03 06 00 28 30.0000000  0  6G16G18G19G21G22G27
  20649372.180   108513196.35009  20649368.360    84555726.37449
  21699247.440   114030443.23209  21699244.200    88854930.51148
  23714592.560   124621027.55108  23714588.180    97107275.32646
  22319165.640   117288477.59209  22319161.580    91393823.46947
  22131212.920   116300409.17009  22131207.940    90623730.72648
  21709631.280   114084935.53509  21709630.560    88897347.72248
 15 03 06 00 29  0.0000000  0  6G16G18G19G21G22G27
  20643775.500   108483785.41909  20643771.700    84532808.76149
  21695664.340   114011613.45209  21695660.960    88840257.96448
  23700062.280   124544671.37008  23700058.040    97047777.05946
  22331090.700   117351143.90909  22331086.620    91442654.36347
  22116222.200   116221632.42909  22116217.280    90562346.30848
  21699263.100   114030450.69409  21699262.480    88854891.99948
 15 03 06 00 29 30.0000000  0  6G16G18G19G21G22G27
  20638273.760   108454873.51509  20638269.960    84510280.00348
  21692173.480   113993268.30709  21692169.960    88825963.06048
  23685545.480   124468385.37608  23685541.500    96988333.47446
  22343044.240   117413959.86809  22343040.060    91491601.86347
  22101288.000   116143152.88609  22101283.180    90501193.45248
  21688920.020   113976097.78909  21688919.460    88812539.09848
 15 03 06 00 30  0.0000000  0  6G16G18G19G21G22G27
  20632866.760   108426459.61209  20632862.980    84488139.29749
  21688774.640   113975406.86709  21688771.060    88812045.06548
  23671041.640   124392166.97208  23671037.560    96928942.54146
  22355025.380   117476921.13609  22355021.280    91540662.57747
  22086410.500   116064971.33709  22086405.720    90440272.79148
  21678601.680   113921874.75709  21678601.160    88770287.39148
 15 03 06 00 30 30.0000000  0  6G16G18G19G21G22G27
  20627554.460   108398543.51509  20627550.680    84466386.48249
  21685467.540   113958027.84809  21685463.960    88798502.97248
  23656550.640   124316015.48108  23656546.340    96869603.71546
  22367033.640   117540025.23909  22367029.560    91589834.59747
  22071589.820   115987088.30609  22071585.020    90379584.73448
  21668307.960   113867780.75609  21668307.380    88728136.22448
 15 03 06 00 31  0.0000000  0  6G16G18G19G21G22G27
  20622338.240   108371132.22009  20622334.480    84445027.02949
  21682253.380   113941137.15209  21682249.780    88785341.39948
  23642073.240   124239935.88308  23642068.780    96810320.94647
  22379069.600   117603274.84809  22379065.660    91639119.99147
  22056827.360   115909510.94509  22056822.520    90319134.88148
  21658039.880   113813821.29309  21658039.220    88686089.89748
 15 03 06 00 31 30.0000000  0  6G16G18G19G21G22G27
  20617217.340   108344221.88209  20617213.680    84424057.93149
  21679131.460   113924731.22609  21679127.820    88772557.57448
  23627608.620   124163923.69508  23627604.240    96751090.68847
  22391132.220   117666664.49709  22391128.300    91688514.51047
  22042122.700   115832237.31409  22042117.820    90258921.68848
  21647796.660   113759992.42509  21647795.880    88644145.32248
 15 03 06 00 32  0.0000000  0  6G16G18G19G21G22G27
  20612192.620   108317816.91909  20612189.060    84403482.64349
  21676102.260   113908812.97209  21676098.580    88760153.75348
  23613157.340   124087981.49308  23613152.980    96691914.95347
  22403221.660   117730194.42609  22403217.620    91738018.36147
  22027476.820   115755272.66109  22027471.920    90198949.26848
  21637578.760   113706296.99809  21637577.960    88602304.73848
 15 03 06 00 32 30.0000000  0  6G16G18G19G21G22G27
  20607264.660   108291920.62409  20607261.160    84383303.71249
  21673166.320   113893384.76609  21673162.680    88748131.79048
  23598719.660   124012111.36208  23598715.460    96632795.41346
  22415337.880   117793865.10509  22415333.740    91787631.87747
  22012890.480   115678621.08509  22012885.560    90139220.78848
  21627386.640   113652737.34309  21627385.880    88560569.94448
 15 03 06 00 33  0.0000000  0  6G16G18G19G21G22G27
  20602433.960   108266535.33209  20602430.460    84363522.95549
  21670324.020   113878448.53109  21670320.420    88736493.16648
  23584295.940   123936314.69008  23584291.740    96573733.06147
  22427480.700   117857675.70609  22427476.520    91837354.41547
  21998364.340   115602285.98509  21998359.400    90079738.92548
  21617220.740   113599315.23309  21617219.960    88518942.32648
 15 03 06 00 33 30.0000000  0  6G16G18G19G21G22G27
  20597699.720   108241656.29209  20597696.120    84344136.68749
  21667574.240   113863998.49209  21667570.700    88725233.41548
  23569884.960   123860585.22508  23569880.760    96514723.14847
  22439648.700   117921619.27908  22439644.640    91887180.56847
  21983897.660   115526263.44409  21983892.740    90020500.62648
  21607079.920   113546024.90609  21607079.120    88477417.40248
 15 03 06 00 34  0.0000000  0  6G16G18G19G21G22G27
  20593062.480   108217287.14709  20593058.860    84325147.74149
  21664917.640   113850038.24009  21664914.120    88714355.30448
  23555487.440   123784926.13108  23555483.260    96455768.01746
  22451842.120   117985696.44409  22451838.080    91937110.81847
  21969491.500   115450558.93609  21969486.620    89961510.12948
  21596964.860   113492869.96709  21596964.100    88435997.96948
 15 03 06 00 34 30.0000000  0  6G16G18G19G21G22G27
  20588523.260   108193433.76109  20588519.760    84306560.68949
  21662355.000   113836571.49509  21662351.420    88703861.75048
  23541103.980   123709341.09308  23541099.760    96396870.63047
  22464061.400   118049909.64309  22464057.420    91987147.06147
  21955147.080   115375178.77609  21955142.220    89902772.35848
  21586876.320   113439854.35509  21586875.600    88394687.10348
 15 03 06 00 35  0.0000000  0  6G16G18G19G21G22G27
  20584081.100   108170090.21509  20584077.620    84288370.91449
  21659885.160   113823592.31909  21659881.480    88693748.11948
  23526733.480   123633823.59508  23526729.240    96338025.86147
  22476305.040   118114250.27709  22476301.080    92037282.62647
  21940863.460   115300118.14009  21940858.640    89844283.57648
  21576813.080   113386971.87209  21576812.440    88353479.97748
 15 03 06 00 35 30.0000000  0  6G16G18G19G21G22G27
  20579736.900   108147261.06709  20579733.360    84270581.95949
  21657508.840   113811104.92809  21657505.220    88684017.70148
  23512376.520   123558376.96108  23512372.140    96279236.28947
  22488573.120   118178719.48509  22488569.180    92087518.35647
  21926641.740   115225382.65809  21926636.900    89786048.16148
  21566775.940   113334226.35309  21566775.340    88312379.58149
 15 03 06 00 36  0.0000000  0  6G16G18G19G21G22G27
  20575491.520   108124951.17109  20575487.940    84253197.62249
  21655226.780   113799112.69809  21655223.260    88674673.11448
  23498033.760   123483005.03308  23498029.380    96220504.93747
  22500866.200   118243319.86509  22500862.220    92137856.31447
  21912483.020   115150978.31309  21912478.140    89728070.78548
  21556765.640   113281621.82709  21556765.040    88271389.03749
 15 03 06 00 36 30.0000000  0  6G16G18G19G21G22G27
  20571344.760   108103159.77409  20571341.200    84236217.29849
  21653038.760   113787614.58109  21653035.300    88665713.53848
  23483704.820   123407705.94008  23483700.340    96161830.32347
  22513183.520   118308047.76109  22513179.560    92188293.61947
  21898387.400   115076905.60609  21898382.460    89670351.80848
  21546781.900   113229157.02709  21546781.300    88230507.37048
 15 03 06 00 37  0.0000000  0  6G16G18G19G21G22G27
  20567296.840   108081887.77409  20567293.280    84219641.71249
  21650944.720   113776610.39709  21650941.380    88657138.86848
  23469389.680   123332479.44308  23469385.260    96103212.31047
  22525524.800   118372901.41209  22525520.740    92238828.93447
  21884355.260   115003166.46709  21884350.320    89612892.78248
  21536824.820   113176832.14709  21536824.180    88189734.73748
 15 03 06 00 37 30.0000000  0  6G16G18G19G21G22G27
  20563347.760   108061135.28209  20563344.220    84203470.93949
  21648944.500   113766099.29909  21648941.220    88648948.41648
  23455088.180   123257324.76108  23455083.760    96044650.26547
  22537889.400   118437877.63209  22537885.400    92289459.75047
  21870386.820   114929761.84909  21870381.840    89555694.40348
  21526894.240   113124646.42909  21526893.560    88149070.54748
 15 03 06 00 38  0.0000000  0  6G16G18G19G21G22G27
  20559498.280   108040906.17209  20559494.800    84187707.99049
  21647038.820   113756084.93809  21647035.480    88641145.02248
  23440801.000   123182244.88108  23440796.580    95986146.46947
  22550277.440   118502977.41309  22550273.360    92340186.84747
  21856483.000   114856696.97809  21856478.040    89498760.75648
  21516990.840   113072603.48709  21516990.120    88108517.61449
 15 03 06 00 38 30.0000000  0  6G16G18G19G21G22G27
  20555748.640   108021201.55009  20555745.180    84172353.73549
  21645227.700   113746567.13909  21645224.240    88633728.57748
  23426527.960   123107239.59409  23426523.560    95927700.84247
  22562688.740   118568199.74209  22562684.800    92391009.42447
  21842644.300   114783974.01409  21842639.280    89442093.53448
  21507114.700   113020703.53309  21507113.880    88068076.09748
 15 03 06 00 39  0.0000000  0  6G16G18G19G21G22G27
  20552098.680   108002020.84409  20552095.220    84157407.72449
  21643510.760   113737544.58909  21643507.220    88626698.02448
  23412268.800   123032307.45508  23412264.520    95869312.16847
  22575122.660   118633540.73509  22575118.760    92441924.48147
  21828870.800   114711593.31509  21828865.720    89385693.01648
  21497265.460   112968945.36709  21497264.640    88027745.06348
 15 03 06 00 39 30.0000000  0  6G16G18G19G21G22G27
  20548548.740   107983365.74909  20548545.260    84142871.28249
  21641888.180   113729018.33909  21641884.720    88620054.20048
  23398023.780   122957449.40108  23398019.580    95810981.23647
  22587579.060   118698999.81908  22587575.260    92492931.55647
  21815163.000   114639557.84909  21815157.860    89329561.51248
  21487443.400   112917330.26109  21487442.620    87987525.51248
 15 03 06 00 40  0.0000000  0  6G16G18G19G21G22G27
  20545099.060   107965237.89709  20545095.660    84128745.67349
  21640360.200   113720989.15209  21640356.880    88613797.68948
  23383792.880   122882665.60909  23383788.520    95752708.21647
  22600057.700   118764575.81709  22600053.960    92544029.71347
  21801521.400   114567870.48909  21801516.220    89273701.25648
  21477648.740   112865859.13809  21477647.980    87947418.13549
 15 03 06 00 40 30.0000000  0  6G16G18G19G21G22G27
  20541750.020   107947639.09609  20541746.740    84115032.32449
  21638927.100   113713458.02409  21638923.780    88607929.29248
  23369576.440   122807957.61008  23369571.840    95694494.16747
  22612558.520   118830267.77209  22612554.680    92595218.25447
  21787946.440   114496534.28409  21787941.360    89218114.63848
  21467881.820   112814533.69809  21467881.020    87907424.29248
 15 03 06 00 41  0.0000000  0  6G16G18G19G21G22G27
  20538502.100   107930571.40309  20538498.840    84101732.81949
  21637588.940   113706425.74609  21637585.560    88602449.61348
  23355374.560   122733326.17208  23355369.900    95636339.84847
  22625081.360   118896075.39608  22625077.580    92646496.93747
  21774438.860   114425552.18609  21774433.880    89162803.93548
  21458142.900   112763355.21309  21458142.060    87867544.96548
 15 03 06 00 41 30.0000000  0  6G16G18G19G21G22G27
  20535355.160   107914034.03509  20535351.880    84088846.54349
  21636345.440   113699891.23309  21636342.000    88597357.78748
  23341186.900   122658769.89108  23341182.200    95578244.05147
  22637625.480   118961994.87709  22637621.640    92697862.74147
  21760998.960   114354924.95409  21760993.940    89107769.74248
  21448431.740   112712322.57009  21448430.860    87827779.27448
 15 03 06 00 42  0.0000000  0  6G16G18G19G21G22G27
  20532309.800   107898030.61509  20532306.580    84076376.35549
  21635197.100   113693857.50609  21635193.800    88592656.20448
  23327014.020   122584291.61908  23327009.400    95520209.05047
  22650191.180   119028027.90809  22650187.360    92749317.04547
  21747627.620   114284657.39709  21747622.440    89053015.83048
  21438748.940   112661439.03909  21438748.020    87788129.78348
 15 03 06 00 42 30.0000000  0  6G16G18G19G21G22G27
  20529365.520   107882558.20709  20529362.300    84064319.92249
  21634143.340   113688320.69909  21634140.140    88588341.80948
  23312855.320   122509887.62608  23312850.740    95462231.92147
  22662777.400   119094168.52008  22662773.500    92800855.18047
  21734324.240   114214747.37909  21734318.960    88998540.50648
  21429093.860   112610701.13009  21429092.900    87748593.75748
 15 03 06 00 43  0.0000000  0  6G16G18G19G21G22G27
  20526523.620   107867623.88209  20526520.360    84052682.79049
  21633185.340   113683286.65609  21633182.260    88584419.19648
  23298711.840   122435563.83908  23298707.440    95404317.32347
  22675384.820   119160420.90909  22675380.900    92852480.41047
  21721090.340   114145203.04909  21721085.060    88944350.15648
  21419467.740   112560115.45209  21419466.720    87709176.34349
 15 03 06 00 43 30.0000000  0  6G16G18G19G21G22G27
  20523783.140   107853222.24209  20523779.760    84041460.72849
  21632321.920   113678749.41909  21632318.920    88580883.70348
  23284582.620   122361314.35209  23284578.180    95346460.61347
  22688012.180   119226777.69509  22688008.220    92904187.00547
  21707925.120   114076020.60409  21707920.100    88890441.78848
  21409869.460   112509676.25009  21409868.440    87669873.07948
 15 03 06 00 44  0.0000000  0  6G16G18G19G21G22G27
  20521144.800   107839357.07509  20521141.260    84030656.69049
  21631553.640   113674711.87809  21631550.640    88577737.57148
  23270468.240   122287142.48808  23270463.820    95288664.35147
  22700659.580   119293240.00509  22700655.540    92955975.80147
  21694829.840   114007205.29209  21694825.060    88836819.49248
  21400299.740   112459387.35809  21400298.740    87630686.93548
 15 03 06 00 44 30.0000000  0  6G16G18G19G21G22G27
  20518609.020   107826030.90709  20518605.380    84020272.66149
  21630880.840   113671175.93809  21630877.760    88574982.30048
  23256368.900   122213049.78508  23256364.540    95230929.83947
  22713327.100   119359808.16109  22713323.100    93007847.08647
  21681805.180   113938760.49709  21681800.520    88783485.90348
  21390759.020   112409250.81709  21390758.080    87591619.51548
 15 03 06 00 45  0.0000000  0  6G16G18G19G21G22G27
  20516175.620   107813243.06209  20516171.960    84010308.10449
  21630303.200   113668139.95709  21630300.080    88572616.60648
  23242284.380   122139034.79708  23242280.040    95173255.83647
  22726014.160   119426478.91408  22726010.040    93059798.32647
  21668851.180   113870686.53109  21668846.480    88730441.28948
  21381247.120   112359265.41409  21381246.200    87552669.86248
 15 03 06 00 45 30.0000000  0  6G16G18G19G21G22G27
  20513845.080   107800995.93109  20513841.420    84000764.87749
  21629820.880   113665605.30609  21629817.780    88570641.57248
  23228214.960   122065099.09108  23228210.540    95115643.57748
  22738720.680   119493252.24108  22738716.660    93111829.47147
  21655968.520   113802987.37209  21655963.620    88677688.72348
  21371764.460   112309433.45509  21371763.460    87513839.77548
 15 03 06 00 46  0.0000000  0  6G16G18G19G21G22G27
  20511617.420   107789289.45409  20511613.740    83991642.94549
  21629433.740   113663571.25209  21629430.680    88569056.60648
  23214160.460   121991242.21308  23214156.040    95058092.83147
  22751446.280   119560125.63609  22751442.220    93163938.61447
  21643157.360   113735664.14909  21643152.260    88625229.07848
  21362310.880   112259754.66209  21362309.940    87475129.03949
 15 03 06 00 46 30.0000000  0  6G16G18G19G21G22G27
  20509492.840   107778124.79209  20509489.160    83982943.20049
  21629141.920   113662038.00609  21629138.860    88567861.87148
  23200121.060   121917464.79709  23200116.620    95000603.96847
  22764190.580   119627097.57909  22764186.560    93216124.53447
  21630418.200   113668719.20109  21630412.920    88573064.20648
  21352886.540   112210229.96709  21352885.760    87436538.38548
 15 03 06 00 47  0.0000000  0  6G16G18G19G21G22G27
  20507472.040   107767505.10109  20507468.280    83974668.10849
  21628945.940   113661008.22209  21628942.860    88567059.44948
  23186097.240   121843769.42509  23186092.840    94943179.06247
  22776953.880   119694169.52009  22776949.940    93268388.37447
  21617751.900   113602156.79809  21617746.520    88521197.42648
  21343492.160   112160862.39309  21343491.440    87398070.15949
 15 03 06 00 47 30.0000000  0  6G16G18G19G21G22G27
  20505554.720   107757429.48509  20505550.920    83966816.97149
  21628845.460   113660479.95209  21628842.260    88566647.81648
  23172088.740   121770154.63409  23172084.340    94885816.92047
  22789735.620   119761338.07209  22789731.740    93320727.49347
  21605158.540   113535977.88009  21605153.160    88469629.46048
  21334127.560   112111650.94909  21334126.780    87359723.57949
 15 03 06 00 48  0.0000000  0  6G16G18G19G21G22G27
  20503740.660   107747896.88209  20503736.940    83959388.95849
  21628840.120   113660451.45109  21628836.820    88566625.61648
  23158095.280   121696618.82308  23158090.720    94828516.28847
  22802535.100   119828599.86208  22802531.320    93373139.24947
  21592637.960   113470182.16609  21592632.780    88418360.09348
  21324792.440   112062594.36709  21324791.620    87321497.67449
 15 03 06 00 48 30.0000000  0  6G16G18G19G21G22G27
  20502030.700   107738911.37609  20502027.100    83952387.25749
  21628930.420   113660925.77809  21628927.140    88566995.23048
  23144117.460   121623165.11208  23144112.880    94771279.65547
  22815352.620   119895956.46609  22815348.840    93425624.90847
  21580191.240   113404774.90009  21580186.260    88367393.41448
  21315487.460   112013696.63609  21315486.660    87283395.55349
 15 03 06 00 49  0.0000000  0  6G16G18G19G21G22G27
  20500424.540   107730471.14809  20500421.060    83945810.45049
  21629115.740   113661899.81509  21629112.540    88567754.22648
  23130154.880   121549791.52408  23130150.420    94714105.46947
  22828187.540   119963404.17108  22828183.740    93478181.54947
  21567818.460   113339755.88309  21567813.480    88316729.25448
  21306212.320   111964955.79809  21306211.600    87245415.69049
 15 03 06 00 49 30.0000000  0  6G16G18G19G21G22G27
  20498923.520   107722583.04009  20498920.080    83939663.86849
  21629397.480   113663380.63109  21629394.320    88568908.11948
  23116208.820   121476504.83609  23116204.500    94656998.99447
  22841040.720   120030947.75409  22841036.880    93530812.90447
  21555521.220   113275133.44309  21555516.160    88266374.13448
  21296968.480   111916378.97809  21296967.720    87207563.63549
 15 03 06 00 50  0.0000000  0  6G16G18G19G21G22G27
  20497526.180   107715239.77709  20497522.680    83933941.83949
  21629773.980   113665359.74109  21629770.840    88570450.28048
  23102277.800   121403297.03208  23102273.400    94599953.98047
  22853910.340   120098577.52209  22853906.420    93583511.41847
  21543298.300   113210901.49909  21543293.120    88216323.29148
  21287754.420   111867958.68709  21287753.600    87169833.54849
 15 03 06 00 50 30.0000000  0  6G16G18G19G21G22G27
  20496233.780   107708448.38509  20496230.280    83928649.83649
  21630246.380   113667843.22809  21630243.340    88572385.48048
  23088363.100   121330174.62208  23088358.620    94542975.51247
  22866797.220   120166298.27909  22866793.240    93636280.82947
  21531151.240   113147068.22809  21531146.020    88166583.09948
  21278571.400   111819701.86409  21278570.620    87132230.84049
 15 03 06 00 51  0.0000000  0  6G16G18G19G21G22G27
  20495045.660   107702205.04809  20495042.180    83923784.89549
  21630813.900   113670826.58009  21630811.040    88574710.16548
  23074463.860   121257133.33609  23074459.280    94486060.27147
  22879700.320   120234104.40609  22879696.280    93689116.76047
  21519079.460   113083631.04309  21519074.360    88117151.54048
  21269418.840   111771604.89709  21269418.100    87094752.69249
 15 03 06 00 51 30.0000000  0  6G16G18G19G21G22G27
  20493962.760   107696514.53509  20493959.320    83919350.72349
  21631477.460   113674313.54609  21631474.640    88577427.29848
  23060580.980   121184177.85208  23060576.300    94429211.82847
  22892620.080   120301998.38708  22892616.040    93742021.16547
  21507084.260   113020596.33509  21507079.280    88068033.61348
  21260297.600   111723672.49709  21260296.920    87057402.78049
 15 03 06 00 52  0.0000000  0  6G16G18G19G21G22G27
  20492985.180   107691377.26009  20492981.760    83915347.64749
  21632236.840   113678303.43709  21632233.880    88580536.31648
  23046714.340   121111307.98009  23046709.680    94372430.18147
  22905556.180   120369978.59008  22905552.220    93794992.74147
  21495165.960   112957965.66109  21495161.000    88019230.51148
  21251207.800   111675905.22109  21251207.160    87020181.53549
 15 03 06 00 52 30.0000000  0  6G16G18G19G21G22G27
  20492112.620   107686792.05209  20492109.280    83911774.75249
  21633091.680   113682795.05809  21633088.640    88584036.28248
  23032863.720   121038522.57808  23032859.060    94315714.28447
  22918508.080   120438041.80408  22918504.220    93848028.99847
  21483324.640   112895739.08909  21483319.640    87970742.29148
  21242149.220   111628302.06109  21242148.560    86983088.17149
 15 03 06 00 53  0.0000000  0  6G16G18G19G21G22G27
  20491345.280   107682759.73509  20491341.920    83908632.67649
  21634041.820   113687787.57809  21634038.620    88587926.56048
  23019029.240   120965822.08409  23019024.560    94259064.58747
  22931475.560   120506186.78408  22931471.800    93901128.97247
  21471560.700   112833918.98609  21471555.680    87922570.79448
  21233122.000   111580863.80509  21233121.300    86946123.31449
 15 03 06 00 53 30.0000000  0  6G16G18G19G21G22G27
  20490683.740   107679283.13509  20490680.300    83905923.62749
  21635087.680   113693283.10509  21635084.320    88592208.79148
  23005211.380   120893208.85009  23005206.620    94202482.86947
  22944458.900   120574414.61709  22944455.100    93954293.50747
  21459874.900   112772509.75309  21459869.920    87874719.45848
  21224126.800   111533593.59509  21224126.000    86909289.38849
 15 03 06 00 54  0.0000000  0  6G16G18G19G21G22G27
  20490127.820   107676361.48709  20490124.300    83903647.01749
  21636229.080   113699280.75809  21636225.580    88596882.29748
  22991410.100   120820682.46109  22991405.240    94145968.82647
  22957457.460   120642722.93408  22957453.740    94007520.75947
  21448267.380   112711512.12009  21448262.520    87827188.86248
  21215163.560   111486491.20909  21215162.680    86872586.23849
 15 03 06 00 54 30.0000000  0  6G16G18G19G21G22G27
  20489677.380   107673994.28609  20489673.840    83901802.44049
  21637465.500   113705778.38109  21637462.040    88601945.39248
  22977625.080   120748241.63709  22977620.140    94089521.45347
  22970470.760   120711108.47408  22970466.980    94060808.19447
  21436738.280   112650926.48809  21436733.400    87779979.28548
  21206232.060   111439555.84909  21206231.160    86836013.24349
 15 03 06 00 55  0.0000000  0  6G16G18G19G21G22G27
  20489332.860   107672183.75009  20489329.320    83900391.62249
  21638797.380   113712777.67309  21638794.000    88607399.39248
  22963856.700   120675888.35109  22963851.640    94033142.27947
  22983498.900   120779571.72708  22983495.240    94114156.17247
  21425288.260   112590756.36309  21425283.340    87733093.50248
  21197332.740   111392789.92709  21197331.940    86799572.27549
 15 03 06 00 55 30.0000000  0  6G16G18G19G21G22G27
  20489094.480   107670930.63409  20489090.860    83899415.16249
  21640224.840   113720279.10209  21640221.480    88613244.66148
  22950105.160   120603623.42609  22950099.980    93976831.97347
  22996541.800   120848112.26708  22996538.000    94167564.39746
  21413917.840   112531004.39809  21413912.820    87686533.55148
  21188465.960   111346194.95409  21188465.220    86763264.51249
 15 03 06 00 56  0.0000000  0  6G16G18G19G21G22G27
  20488962.620   107670237.60509  20488958.980    83898875.13249
  21641748.200   113728284.20009  21641744.720    88619482.41648
  22936370.880   120531449.62808  22936365.820    93920592.66247
  23009599.380   120916730.26008  23009595.660    94221032.94147
  21402627.680   112471674.49509  21402622.600    87640302.47948
  21179632.240   111299773.66609  21179631.500    86727092.09449
 15 03 06 00 56 30.0000000  0  6G16G18G19G21G22G27
  20488936.760   107670101.79409  20488933.160    83898769.29549
  21643366.760   113736789.18109  21643363.140    88626109.68248
  22922653.440   120459364.40209  22922648.600    93864422.38247
  23022670.880   120985421.78208  23022667.360    94274558.78747
  21391417.520   112412765.31909  21391412.540    87594399.24748
  21170831.180   111253524.01709  21170830.460    86691053.41349
 15 03 06 00 57  0.0000000  0  7G04G16G18G19G21G22G27
  24565595.380   129093083.33107  24565598.980   100592020.61245
  20489017.160   107670524.38109  20489013.540    83899098.57749
  21645080.420   113745794.15209  21645076.660    88633126.55748
  22908952.900   120387368.06709  22908948.280    93808321.37947
  23035756.140   121054185.45808  23035752.680    94328140.86947
  21380287.920   112354279.03709  21380282.980    87548825.53148
  21162062.960   111207446.77609  21162062.300    86655149.08349
 15 03 06 00 57 30.0000000  0  7G04G16G18G19G21G22G27
  24547068.260   128995724.11208  24547072.080   100516156.67445
  20489209.300   107671533.98309  20489205.640    83899885.28049
  21646894.460   113755326.92809  21646890.720    88640554.70348
  22895274.740   120315489.34008  22895270.080    93752311.98547
  23048860.300   121123048.30008  23048856.900    94381800.22046
  21369244.660   112296245.86709  21369239.720    87503604.90048
  21153333.180   111161571.14109  21153332.480    86619401.84849
 15 03 06 00 58  0.0000000  0  7G04G16G18G19G21G22G27
  24528563.040   128898479.81408  24528567.060   100440382.31745
  20489502.480   107673074.29209  20489498.760    83901085.51049
  21648798.100   113765330.75009  21648794.400    88648349.90348
  22881608.300   120243672.37509  22881603.640    93696350.74747
  23061972.460   121191952.42209  23061969.000    94435491.73747
  21358277.240   112238611.20509  21358272.220    87458694.79248
  21144631.140   111115841.48109  21144630.400    86583768.35749
 15 03 06 00 58 30.0000000  0  7G04G16G18G19G21G22G27
  24510085.960   128801383.01808  24510089.980   100364722.96945
  20489902.700   107675177.16509  20489898.960    83902724.10949
  21650797.300   113775836.59009  21650793.600    88656536.28048
  22867959.660   120171948.41409  22867955.080    93640461.97347
  23075098.120   121260928.14908  23075094.520    94489239.04547
  21347391.920   112181408.33409  21347386.880    87414121.13448
  21135963.020   111070289.99309  21135962.240    86548273.69549
 15 03 06 00 59  0.0000000  0  7G04G16G18G19G21G22G27
  24491636.420   128704431.21607  24491640.160   100289176.57145
  20490409.480   107677840.05509  20490405.760    83904799.07949
  21652891.420   113786841.10009  21652887.660    88665111.22748
  22854328.440   120100315.44409  22854323.820    93584644.08047
  23088236.680   121329971.30408  23088232.940    94543038.91046
  21336588.540   112124635.91509  21336583.480    87369882.90548
  21127328.420   111024914.66609  21127327.540    86512916.30049
 15 03 06 00 59 30.0000000  0  7G04G16G18G19G21G22G27
  24473214.440   128607625.01508  24473217.980   100213743.70244
  20491022.780   107681062.90209  20491019.060    83907310.37549
  21655080.300   113798343.27709  21655076.420    88674073.97048
  22840714.500   120028773.72209  22840709.800    93528897.29647
  23101387.720   121399080.19708  23101384.020    94596889.97747
  21325867.400   112068295.76309  21325862.380    87325981.49548
  21118727.500   110979716.16709  21118726.500    86477696.68149
 15 03 06 01 00  0.0000000  0  7G04G16G18G19G21G22G27
  24454821.300   128510969.85708  24454824.340   100138428.41045
  20491743.640   107684851.06809  20491739.920    83910262.19449
  21657364.740   113810347.96909  21657360.800    88683428.27648
  22827118.700   119957327.89609  22827114.040    93473225.26147
  23114551.860   121468258.40109  23114548.120    94650795.05646
  21315229.700   112012394.40909  21315224.760    87282422.01348
  21110161.240   110934699.94609  21110160.180    86442619.12549
 15 03 06 01 00 30.0000000  0  7G04G16G18G19G21G22G27
  24436455.680   128414459.40508  24436458.400   100063226.03344
  20492570.660   107689197.29009  20492566.940    83913648.84849
  21659743.180   113822846.75609  21659739.260    88693167.60048
  22813539.940   119885971.53609  22813535.360    93417622.92947
  23127727.640   121537497.25608  23127723.820    94704747.41947
