     2.11           OBSERVATION DATA    G                   RINEX VERSION / TYPE
SPIDER V4,0,0,3554                      2015 03 19 01:24    PGM / RUN BY / DATE 
CNGR                                                        MARKER NAME         
CNGR                                                        MARKER NUMBER       
                                                            OBSERVER / AGENCY   
496521              LEICA GRX1200+GNSS  8.10/4.007          REC # / TYPE / VERS 
10321004            LEIAR25         NONE                    ANT # / TYPE        
  5218738.7445   688113.1521  3590185.5476                  APPROX POSITION XYZ 
        0.0720        0.0000        0.0000                  ANTENNA: DELTA H/E/N
     1     1                                                WAVELENGTH FACT L1/2
     4    C1    L1    P2    L2                              # / TYPES OF OBSERV 
    30.000                                                  INTERVAL            
  2015    03    06    00    00    0.0000000     GPS         TIME OF FIRST OBS   
  2015    03    06    23    59   30.0000000     GPS         TIME OF LAST OBS    
    16                                                      LEAP SECONDS        
    30                                                      # OF SATELLITES     
   G 1   813   813   813   813                              PRN / # OF OBS      
   G 2   934   934   934   934                              PRN / # OF OBS      
   G 3   861   861   861   861                              PRN / # OF OBS      
   G 4   843   843   843   843                              PRN / # OF OBS      
   G 5   637   636   636   636                              PRN / # OF OBS      
   G 6   830   830   828   828                              PRN / # OF OBS      
   G 7   677   677   677   677                              PRN / # OF OBS      
   G 9   817   817   817   817                              PRN / # OF OBS      
   G10   759   759   759   759                              PRN / # OF OBS      
   G11   777   777   777   777                              PRN / # OF OBS      
   G12   832   832   832   832                              PRN / # OF OBS      
   G13   798   798   798   798                              PRN / # OF OBS      
   G14   923   916   911   911                              PRN / # OF OBS      
   G15   673   673   673   673                              PRN / # OF OBS      
   G16   666   665   665   665                              PRN / # OF OBS      
   G17   943   943   943   943                              PRN / # OF OBS      
   G18   901   897   897   896                              PRN / # OF OBS      
   G19   755   755   755   755                              PRN / # OF OBS      
   G20   762   761   761   761                              PRN / # OF OBS      
   G21   709   701   694   694                              PRN / # OF OBS      
   G22   666   662   658   657                              PRN / # OF OBS      
   G23   761   760   760   760                              PRN / # OF OBS      
   G24   787   787   787   787                              PRN / # OF OBS      
   G25   856   855   855   855                              PRN / # OF OBS      
   G27   809   809   809   809                              PRN / # OF OBS      
   G28   867   867   864   864                              PRN / # OF OBS      
   G29   768   768   768   768                              PRN / # OF OBS      
   G30   725   725   725   725                              PRN / # OF OBS      
   G31   865   865   865   865                              PRN / # OF OBS      
   G32   776   776   776   776                              PRN / # OF OBS      
BIT 2 OF LLI FLAGS DATA COLLECTED UNDER A/S CONDITION       COMMENT             
SNR is mapped to RINEX snr flag value [2-9]                 COMMENT             
Lx:     = 25dBHz -> 1; 26-27dBHz -> 2; 28-31dBHz -> 3       COMMENT             
       32-35dBHz -> 4; 36-38dBHz -> 5; 39-41dBHz -> 6       COMMENT             
       42-44dBHz -> 7; 45-48dBHz -> 8; >=49dBHz -> 9        COMMENT             
                                                            END OF HEADER       
 15 03 06 00 00  0.0000000  0  7G16G18G21G22G27G29G31
  21258043.220   111711785.77509  21258039.600    87048138.22448
  21870209.360   114928933.53409  21870205.660    89555086.17947
  21696309.140   114014996.96709  21696305.180    88842894.00048
  22874101.800   120204296.26509  22874098.100    93665681.09047
  22536497.340   118430128.33309  22536497.100    92283234.41148
  24462086.800   128549572.06308  24462085.320   100168702.33446
  23815867.940   125153216.85808  23815867.520    97521974.67346
 15 03 06 00 00 30.0000000  0  7G16G18G21G22G27G29G31
  21246853.820   111652984.56909  21246850.100    87002319.09748
  21862342.500   114887593.99409  21862339.100    89522873.56847
  21706156.020   114066742.61309  21706152.020    88883215.27448
  22856899.800   120113899.72109  22856896.020    93595242.35147
  22524728.120   118368280.72208  22524727.960    92235041.49048
  24475842.320   128621858.45708  24475841.120   100225029.37846
  23833615.580   125246480.26908  23833615.140    97594647.21946
 15 03 06 00 01  0.0000000  0  7G16G18G21G22G27G29G31
  21235735.560   111594557.55509  21235731.820    86956791.55848
  21854554.920   114846670.75709  21854551.820    89490985.36148
  21716044.760   114118708.45009  21716040.820    88923708.14348
  22839728.260   120023662.85609  22839724.420    93524928.01547
  22512974.340   118306513.88409  22512974.200    92186911.50748
  24489605.580   128694185.18908  24489604.260   100281387.84045
  23851369.520   125339776.69208  23851369.140    97667345.46046
 15 03 06 00 01 30.0000000  0  7G16G18G21G22G27G29G31
  21224689.660   111536510.97709  21224685.900    86911560.46048
  21846847.720   114806169.52909  21846844.800    89459425.97848
  21725975.960   114170897.67909  21725972.140    88964375.06848
  22822588.380   119933592.57809  22822584.540    93454743.49147
  22501236.700   118244831.89908  22501236.500    92138847.64148
  24503377.440   128766556.55308  24503375.620   100337781.10845
  23869129.980   125433107.32308  23869129.500    97740070.33246
 15 03 06 00 02  0.0000000  0  7G16G18G21G22G27G29G31
  21213715.280   111478840.37109  21213711.540    86866622.32548
  21839220.060   114766085.88109  21839217.160    89428191.98448
  21735947.980   114223301.50509  21735944.300    89005209.22248
  22805479.520   119843685.27909  22805475.580    93384685.95647
  22489514.060   118183228.66909  22489513.780    92090845.14648
  24517156.660   128838966.34308  24517154.500   100394204.33046
  23886895.160   125526462.70208  23886894.700    97812814.48146
 15 03 06 00 02 30.0000000  0  7G16G18G21G22G27G29G31
  21202814.080   111421554.26209  21202810.400    86821983.79748
  21831673.300   114726427.24009  21831670.320    89397289.16147
  21745961.600   114275923.86709  21745958.060    89046213.65848
  22788403.300   119753949.35809  22788399.280    93314761.96447
  22477807.520   118121710.33309  22477807.160    92042908.79148
  24530944.300   128911420.43608  24530941.900   100450662.04445
  23904665.580   125619845.76508  23904665.200    97885580.12346
 15 03 06 00 03  0.0000000  0  7G16G18G21G22G27G29G31
  21191986.000   111364652.35509  21191982.300    86777644.66048
  21824207.200   114687192.32809  21824204.200    89366716.52248
  21756016.100   114328760.79709  21756012.620    89087385.29648
  22771359.760   119664385.14609  22771355.660    93244971.77147
  22466116.580   118060274.42508  22466116.180    91995036.67748
  24544739.900   128983916.37008  24544737.400   100507152.37645
  23922440.280   125713251.30408  23922440.140    97958363.32246
 15 03 06 00 03 30.0000000  0  7G16G18G21G22G27G29G31
  21181231.700   111308137.95609  21181227.980    86733607.46948
  21816822.460   114648385.13609  21816819.500    89336477.16948
  21766111.480   114381812.20109  21766108.000    89128724.05048
  22754349.640   119574996.81409  22754345.480    93175318.62247
  22454441.640   117998922.80909  22454441.280    91947230.23348
  24558543.660   129056455.79508  24558541.060   100563676.58145
  23940219.000   125806677.90208  23940219.100    98031162.88346
 15 03 06 00 04  0.0000000  0  6G16G18G21G22G27G31
  21170556.080   111252037.10209  21170552.320    86689892.52248
  21809523.820   114610030.39809  21809520.780    89306590.38948
  21776251.880   114435100.23909  21776248.420    89170247.19948
  22737377.920   119485810.33509  22737373.720    93105822.75947
  22442787.400   117937679.39309  22442786.980    91899508.10948
  23958005.640   125900146.23508  23958006.000    98103994.94846
 15 03 06 00 04 30.0000000  0  6G16G18G21G22G27G31
  21159949.180   111196297.33009  21159945.380    86646458.93748
  21802301.180   114572075.15609  21802298.000    89277014.88548
  21786426.440   114488567.79409  21786423.000    89211910.22948
  22720434.780   119396774.24009  22720430.660    93036444.08847
  22431143.500   117876489.62109  22431142.980    91851827.77348
  23975789.320   125993598.70708  23975789.840    98176814.64846
 15 03 06 00 05  0.0000000  0  6G16G18G21G22G27G31
  21149417.980   111140955.50809  21149414.140    86603335.44248
  21795161.320   114534555.11709  21795158.040    89247778.49947
  21796641.540   114542248.17309  21796638.080    89253739.09248
  22703527.340   119307925.65609  22703523.320    92967211.51547
  22419516.500   117815388.48809  22419515.860    91804216.51148
  23993576.120   126087067.27208  23993576.780    98249646.87646
 15 03 06 00 05 30.0000000  0  6G16G18G21G22G27G31
  21138961.540   111086006.63209  21138957.660    86560518.13548
  21788103.280   114497465.01609  21788099.900    89218877.14148
  21806895.340   114596132.00409  21806891.880    89295726.49048
  22686654.720   119219260.04409  22686650.800    92898121.53247
  22407904.920   117754368.96309  22407904.280    91756668.85448
  24011364.060   126180541.58008  24011364.800    98322483.56646
 15 03 06 00 06  0.0000000  0  6G16G18G21G22G27G31
  21128580.760   111031455.29609  21128576.840    86518010.60348
  21781127.840   114460809.01309  21781124.400    89190314.04048
  21817188.120   114650220.66209  21817184.600    89337873.49948
  22669817.900   119130782.34109  22669813.940    92829177.94747
  22396309.240   117693433.72909  22396308.700    91709186.87648
  24029153.080   126274021.29108  24029153.940    98395324.45246
 15 03 06 00 06 30.0000000  0  6G16G18G21G22G27G31
  21118277.020   110977308.65609  21118273.060    86475818.41448
  21774236.340   114424593.96709  21774232.800    89162094.54047
  21827520.480   114704517.14709  21827516.800    89380182.44248
  22653018.400   119042500.79809  22653014.500    92760387.20847
  22384730.600   117632588.33508  22384730.180    91661774.89348
  24046943.560   126367508.71608  24046944.400    98468171.35046
 15 03 06 00 07  0.0000000  0  6G16G18G21G22G27G31
  21108050.060   110923565.71909  21108046.120    86433940.79448
  21767428.300   114388817.57809  21767424.740    89134216.84648
  21837891.480   114759016.79409  21837887.660    89422649.69348
  22636256.060   118954414.39909  22636252.180    92691748.55847
  22373168.400   117571829.49908  22373168.040    91614430.36848
  24064734.300   126460997.80708  24064735.200    98541019.51846
 15 03 06 00 07 30.0000000  0  6G16G18G21G22G27G31
  21097899.020   110870221.67009  21097895.140    86392374.01948
  21760702.720   114353474.41709  21760699.180    89106676.74748
  21848299.220   114813709.52409  21848295.260    89465267.40548
  22619530.040   118866518.81509  22619526.160    92623258.57247
  22361621.480   117511150.67908  22361621.160    91567148.19848
  24082523.400   126554478.57708  24082524.420    98613861.20746
 15 03 06 00 08  0.0000000  0  7G16G18G19G21G22G27G31
  21087825.400   110817284.42409  21087821.560    86351124.20948
  21754061.000   114318572.11109  21754057.400    89079480.15348
  24529379.220   128902757.88105  24529379.600   100443696.52943
  21858744.780   114868601.23109  21858740.820    89508040.15348
  22602841.980   118778822.83509  22602838.200    92554924.11948
  22350091.040   117450558.03409  22350090.740    91519933.16248
  24100311.500   126647954.11308  24100312.580    98686698.80646
 15 03 06 00 08 30.0000000  0  7G16G18G19G21G22G27G31
  21077826.140   110764738.00009  21077822.360    86310178.94348
  21747500.000   114284094.05709  21747496.400    89052614.16447
  24514613.460   128825164.48904  24514606.940   100383240.22942
  21869224.220   114923671.34109  21869220.340    89550951.91948
  22586189.000   118691311.23909  22586185.240    92486733.34947
  22338573.700   117390033.73809  22338573.320    91472771.38748
  24118094.680   126741403.54408  24118095.940    98759516.02846
 15 03 06 00 09  0.0000000  0  7G16G18G19G21G22G27G31
  21067912.440   110712641.13309  21067908.700    86269583.98748
  21741030.640   114250097.51709  21741027.080    89026123.37448
  24499862.740   128747651.88305  24499860.680   100322835.88643
  21879747.980   114978974.33609  21879744.180    89594045.16448
  22569582.220   118604042.62109  22569578.580    92418731.91147
  22327080.180   117329634.41509  22327079.660    91425706.98848
  24135883.100   126834880.19608  24135884.480    98832354.47346
 15 03 06 00 09 30.0000000  0  7G16G18G19G21G22G27G31
  21058070.180   110660919.82109  21058066.500    86229281.66148
  21734638.820   114216508.42609  21734635.380    88999950.06848
  24485113.380   128670143.56205  24485110.140   100262439.79644
  21890301.320   115034432.48109  21890297.480    89637259.29048
  22553007.780   118516943.93909  22553004.340    92350862.87848
  22315596.040   117269284.39809  22315595.460    91378681.00248
  24153661.720   126928305.44908  24153663.080    98905152.85946
 15 03 06 00 10  0.0000000  0  7G16G18G19G21G22G27G31
  21048308.440   110609621.72309  21048304.800    86189309.12448
  21728333.460   114183373.51909  21728330.120    88974130.68448
  24470373.780   128592685.62505  24470369.640   100202083.04543
  21900892.640   115090089.72509  21900888.660    89680628.57448
  22536474.780   118430063.24209  22536471.400    92283163.72047
  22304129.960   117209029.48609  22304129.320    91331729.13948
  24171438.660   127021721.86308  24171440.160    98977944.32346
 15 03 06 00 10 30.0000000  0  7G16G18G19G21G22G27G31
  21038627.360   110558747.87409  21038623.800    86149667.17648
  21722114.620   114150693.23409  21722111.360    88948665.55148
  24455643.660   128515276.86105  24455638.540   100141764.55243
  21911521.360   115145943.47909  21911517.180    89724150.98348
  22519983.520   118343401.99709  22519980.220    92215635.56348
  22292681.800   117148868.94109  22292681.160    91284850.81348
  24189213.180   127115125.53608  24189214.800    99050725.84746
 15 03 06 00 11  0.0000000  0  7G16G18G19G21G22G27G31
  21029025.920   110508292.28209  21029022.320    86110351.12448
  21715980.960   114118460.68309  21715977.800    88923549.29448
  24440921.100   128437909.47005  24440916.800   100081478.31643
  21922185.580   115201984.02109  21922181.220    89767818.93248
  22503533.060   118256954.98709  22503529.800    92148274.32747
  22281250.140   117088795.01009  22281249.560    91238039.97448
  24206983.180   127208505.60608  24206984.840    99123488.97346
 15 03 06 00 11 30.0000000  0  7G16G18G19G21G22G27G31
  21019506.400   110458266.91409  21019502.780    86071370.30748
  21709934.760   114086687.61409  21709931.620    88898791.06448
  24426208.260   128360592.81106  24426204.160   100021231.61643
  21932886.860   115258219.48509  21932882.460    89811638.76448
  22487125.860   118170734.91109  22487122.520    92081089.92947
  22269836.900   117028817.89809  22269836.340    91191304.57048
  24224750.200   127301869.27808  24224751.960    99196239.30546
 15 03 06 00 12  0.0000000  0  7G16G18G19G21G22G27G31
  21010067.320   110408663.72209  21010063.640    86032718.47048
  21703974.260   114055364.81509  21703971.080    88874383.70748
  24411503.140   128283317.00706  24411499.060    99961016.71043
  21943622.880   115314637.90109  21943618.560    89855601.16348
  22470760.500   118084734.20109  22470757.020    92014076.45947
  22258440.200   116968927.93509  22258439.640    91144637.09348
  24242511.560   127395203.53208  24242513.560    99268966.69746
 15 03 06 00 12 30.0000000  0  7G16G18G19G21G22G27G31
  21000709.400   110359486.81909  21000705.640    85994398.79948
  21698100.100   114024495.55709  21698096.840    88850329.75648
  24396806.200   128206084.13406  24396801.860    99900835.33744
  21954393.740   115371239.37809  21954389.500    89899706.20248
  22454437.680   117998956.85109  22454433.940    91947237.03247
  22247060.460   116909127.26009  22247059.940    91098039.18948
  24260267.140   127488507.32008  24260269.280    99341670.29646
 15 03 06 00 13  0.0000000  0  7G16G18G19G21G22G27G31
  20991432.440   110310735.55309  20991428.700    85956410.79548
  21692311.980   113994078.71009  21692308.740    88826628.32548
  24382116.880   128128891.38606  24382112.720    99840685.20844
  21965198.680   115428019.90709  21965194.520    89943950.76548
  22438157.480   117913403.48909  22438153.540    91880572.14347
  22235697.180   116849413.39609  22235696.760    91051508.93048
  24278015.960   127581775.38908  24278018.360    99414346.05745
 15 03 06 00 13 30.0000000  0  7G16G18G19G21G22G27G31
  20982237.520   110262415.78109  20982233.840    85918759.02248
  21686610.820   113964119.35609  21686607.680    88803283.38848
  24367436.100   128051743.13006  24367432.020    99780569.72244
  21976038.000   115484981.18609  21976033.900    89988336.17948
  22421921.240   117828081.07009  22421917.200    91814087.19047
  22224351.320   116789790.90909  22224350.900    91005049.85848
  24295758.160   127675008.72808  24295760.660    99486994.74646
 15 03 06 00 14  0.0000000  0  7G16G18G19G21G22G27G31
  20973124.340   110214526.01709  20973120.800    85881442.33048
  21680996.260   113934615.07009  21680993.060    88780293.04748
  24352763.040   127974635.40406  24352759.060    99720485.90044
  21986910.840   115542118.69809  21986906.820    90032858.92248
  22405728.560   117742987.87209  22405724.340    91747780.87447
  22213022.260   116730256.48409  22213021.780    90958659.40948
  24313492.560   127768201.31508  24313495.220    99559611.65646
 15 03 06 00 14 30.0000000  0  7G16G18G19G21G22G27G31
  20964094.640   110167075.24309  20964091.240    85844467.70948
  21675469.860   113905574.00209  21675466.580    88757663.66848
  24338098.740   127897575.05106  24338094.780    99660438.90744
  21997818.060   115599437.07809  21997814.120    90077522.60048
  22389581.340   117658133.58509  22389576.940    91681660.71447
  22201711.380   116670817.24009  22201710.800    90912343.11748
  24331219.940   127861356.91608  24331222.720    99632199.71846
 15 03 06 00 15  0.0000000  0  7G16G18G19G21G22G27G31
  20955147.900   110120060.31709  20955144.640    85807832.69748
  21670030.900   113876992.23409  21670027.540    88735392.16748
  24323442.420   127820556.89406  24323438.860    99600424.82843
  22008758.460   115656929.95409  22008754.620    90122322.23448
  22373479.100   117573515.85609  22373474.640    91615724.87448
  22190417.680   116611468.50909  22190417.060    90866097.35448
  24348938.760   127954467.60208  24348941.900    99704752.72146
 15 03 06 00 15 30.0000000  0  7G16G18G19G21G22G27G31
  20946283.860   110073479.78809  20946280.640    85771536.17748
  21664678.860   113848867.09309  21664675.440    88713476.49348
  24308793.780   127743577.57206  24308790.300    99540440.98244
  22019731.000   115714591.41609  22019727.260    90167253.25248
  22357421.640   117489133.61809  22357417.160    91549972.54247
  22179140.480   116552206.98509  22179140.000    90819919.56448
  24366647.940   128047527.08408  24366651.180    99777265.85146
 15 03 06 00 16  0.0000000  0  7G16G18G19G21G22G27G31
  20937503.540   110027339.06309  20937500.320    85735582.36748
  21659414.700   113821203.80309  21659411.240    88691920.68948
  24294153.260   127666640.70707  24294149.760    99480490.21145
  22030736.000   115772423.24709  22030732.300    90212317.01048
  22341410.080   117404992.80109  22341405.660    91484408.33147
  22167880.640   116493036.53909  22167880.300    90773812.73848
  24384347.560   128140535.89308  24384350.760    99849739.44245
 15 03 06 00 16 30.0000000  0  7G16G18G19G21G22G27G31
  20928808.060   109981644.05409  20928804.820    85699975.86148
  21654239.400   113794007.47009  21654235.880    88670728.75648
  24279521.500   127589750.28206  24279517.700    99420575.64944
  22041773.900   115830428.19209  22041770.340    90257515.66648
  22325445.720   117321100.28209  22325441.380    91419037.59447
  22156639.120   116433961.67409  22156638.720    90727780.38448
  24402037.840   128233495.77308  24402041.080    99922174.89545
 15 03 06 00 17  0.0000000  0  7G16G18G19G21G22G27G31
  20920197.260   109936394.20809  20920194.040    85664716.23448
  21649152.640   113767276.41609  21649149.120    88649899.37148
  24264897.900   127512903.26206  24264893.980    99360694.90444
  22052844.020   115888602.37309  22052840.620    90302846.18448
  22309528.540   117237455.87509  22309524.260    91353860.19847
  22145415.400   116374979.98909  22145414.880    90681820.63748
  24419717.780   128326401.08008  24419721.180    99994567.78145
 15 03 06 00 17 30.0000000  0  7G16G18G19G21G22G27G31
  20911671.100   109891589.15009  20911667.920    85629803.20448
  21644154.220   113741009.40009  21644150.720    88629431.58148
  24250282.240   127436097.87607  24250278.120    99300846.60644
  22063945.500   115946941.30409  22063942.260    90348305.09448
  22293658.640   117154060.05209  22293654.480    91288876.50148
  22134209.020   116316089.68109  22134208.440    90635932.09448
  24437386.440   128419246.78608  24437390.160   100066914.18645
 15 03 06 00 18  0.0000000  0  7G16G18G19G21G22G27G31
  20903230.940   109847236.23509  20903227.860    85595242.50248
  21639245.400   113715213.34309  21639242.040    88609330.77548
  24235675.480   127359339.70707  24235671.540    99241035.11345
  22075079.020   116005448.45409  22075075.840    90393895.08548
  22277837.600   117070921.00009  22277833.580    91224092.89448
  22123021.120   116257296.71509  22123020.460    90590119.40748
  24455044.280   128512035.45508  24455048.040   100139216.16645
 15 03 06 00 18 30.0000000  0  7G16G18G19G21G22G27G31
  20894875.980   109803330.63509  20894872.940    85561030.33948
  21634425.020   113689882.12509  21634421.760    88589592.17648
  24221076.340   127282621.52007  24221072.680    99181254.77645
  22086243.060   116064115.63109  22086239.860    90439609.76248
  22262064.660   116988034.18509  22262060.680    91159505.81648
  22111850.420   116198594.33509  22111849.700    90544377.30548
  24472689.440   128604757.57108  24472693.380   100211466.20945
 15 03 06 00 19  0.0000000  0  7G16G18G19G21G22G27G31
  20886607.400   109759878.60709  20886604.280    85527171.61248
  21629694.040   113665021.00609  21629690.860    88570219.89248
  24206485.780   127205947.84607  24206482.100    99121509.07245
  22097438.120   116122945.52209  22097434.820    90485451.22748
  22246341.140   116905406.48009  22246337.060    91095120.63248
  22100697.900   116139987.37609  22100696.980    90498709.54748
  24490322.220   128697414.49308  24490326.260   100283665.48145
 15 03 06 00 19 30.0000000  0  7G16G18G19G21G22G27G31
  20878425.880   109716883.90409  20878422.640    85493669.24448
  21625053.000   113640632.98609  21625049.940    88551216.26148
  24191904.080   127129320.63507  24191900.280    99061799.62444
  22108664.180   116181938.13709  22108660.740    90531419.49548
  22230667.780   116823042.13109  22230663.560    91030940.67548
  22089563.920   116081478.04209  22089562.900    90453117.86648
  24507942.440   128790005.68808  24507946.860   100355813.46045
 15 03 06 00 20  0.0000000  0  7G16G18G19G21G22G27G31
  20870330.680   109674343.00909  20870327.320    85460520.49548
  21620501.160   113616713.77709  21620498.260    88532577.91648
  24177330.200   127052734.45507  24177326.140    99002122.12745
  22119919.860   116241086.36509  22119916.260    90577509.01148
  22215044.040   116740938.44409  22215039.600    90966963.82648
  22078447.540   116023061.36009  22078446.600    90407598.37848
  24525548.660   128882522.80508  24525553.220   100427903.72345
 15 03 06 00 20 30.0000000  0  7G16G18G19G21G22G27G31
  20862322.660   109632260.42509  20862319.240    85427728.87548
  21616039.300   113593267.20409  21616036.420    88514307.87048
  24162764.620   126976192.16707  24162760.540    98942478.82744
  22131205.300   116300391.52909  22131201.640    90623720.82548
  22199470.900   116659100.74209  22199466.180    90903194.23948
  22067349.380   115964740.69009  22067348.600    90362153.71048
  24543140.820   128974965.99908  24543145.520   100499936.37845
 15 03 06 00 21  0.0000000  0  7G16G18G19G21G22G27G31
  20854403.120   109590642.95909  20854399.640    85395299.68348
  21611668.500   113570298.87609  21611665.660    88496410.48448
  24148208.280   126899698.54407  24148204.320    98882873.44944
  22142521.120   116359856.83009  22142517.520    90670057.41947
  22183949.820   116577536.62409  22183944.880    90839637.82648
  22056270.420   115906521.10809  22056269.860    90316787.81948
  24560719.260   129067337.20508  24560724.340   100571912.87045
 15 03 06 00 21 30.0000000  0  7G16G18G19G21G22G27G31
  20846570.900   109549484.13109  20846567.340    85363227.86348
  21607387.360   113547801.45209  21607384.580    88478880.03348
  24133659.600   126823245.29307  24133655.540    98823299.53045
  22153865.500   116419472.20709  22153861.940    90716510.95948
  22168479.640   116496240.09309  22168474.540    90776289.92348
  22045209.200   115848394.52309  22045208.780    90271494.37748
  24578281.880   129159625.36508  24578287.020   100643824.71145
 15 03 06 00 22  0.0000000  0  7G16G18G19G21G22G27G31
  20838827.400   109508791.30409  20838823.820    85331519.16948
  21603197.060   113525781.54009  21603194.340    88461721.67648
  24119119.700   126746838.08107  24119115.640    98763761.48145
  22165239.260   116479241.53009  22165235.720    90763084.45848
  22153061.900   116415219.27009  22153056.760    90713156.86348
  22034166.920   115790367.11209  22034166.560    90226278.22848
  24595829.360   129251833.88808  24595834.760   100715674.46246
 15 03 06 00 22 30.0000000  0  7G16G18G19G21G22G27G31
  20831172.960   109468566.31209  20831169.340    85300175.01748
  21599097.820   113504240.19809  21599095.140    88444936.22648
  24104588.600   126670477.29707  24104584.600    98704259.60745
  22176642.000   116539163.18109  22176638.400    90809776.63548
  22137697.100   116334476.94009  22137692.020    90650240.81348
  22023143.620   115732439.35109  22023143.260    90181139.71848
  24613361.000   129343959.53908  24613367.020   100787459.60046
 15 03 06 00 23  0.0000000  0  7G16G18G19G21G22G27G31
  20823607.300   109428807.82809  20823603.620    85269194.38249
  21595089.120   113483174.61609  21595086.480    88428521.50348
  24090065.600   126594158.99507  24090061.760    98644790.81045
  22188072.840   116599232.36109  22188069.100    90856583.78848
  22122385.060   116254012.11009  22122380.180    90587540.99148
  22012138.820   115674608.41609  22012138.420    90136076.65648
  24630875.760   129435996.22308  24630881.920   100859175.44645
 15 03 06 00 23 30.0000000  0  7G16G18G19G21G22G27G31
  20816130.900   109389518.77809  20816127.220    85238579.53449
  21591171.500   113462587.05609  21591168.840    88412479.25848
  24075551.000   126517884.73807  24075547.420    98585356.33545
  22199531.720   116659448.59909  22199527.820    90903505.51848
  22107126.480   116173828.36209  22107121.760    90525060.19948
  22001152.780   115616875.93909  22001152.360    90091090.31148
  24648373.420   129527942.87108  24648379.640   100930821.15545
 15 03 06 00 24  0.0000000  0  7G16G18G19G21G22G27G31
  20808744.100   109350700.76409  20808740.400    85208331.73748
  21587345.100   113442478.31509  21587342.340    88396810.12848
  24061045.060   126441655.01807  24061041.540    98525956.59945
  22211018.300   116719810.27709  22211014.280    90950540.58847
  22091921.920   116093928.39609  22091917.340    90462800.54148
  21990185.580   115559242.18909  21990185.120    90046180.89548
  24665853.380   129619796.70308  24665859.860   101002394.52045
 15 03 06 00 24 30.0000000  0  7G16G18G19G21G22G27G31
  20801447.200   109312355.50309  20801443.500    85178452.31348
  21583610.080   113422849.41309  21583607.120    88381514.88448
  24046547.500   126365469.22107  24046543.880    98466591.08345
  22222532.120   116780315.42909  22222528.100    90997687.45348
  22076771.860   116014314.51109  22076767.320    90400763.79548
  21979237.180   115501707.75409  21979236.740    90001348.87648
  24683315.300   129711555.11608  24683321.940   101073893.55245
 15 03 06 00 25  0.0000000  0  6G16G18G19G21G22G27
  20794239.920   109274481.50609  20794236.220    85148940.10148
  21579965.700   113403697.03409  21579962.520    88366590.95648
  24032057.580   126289323.89407  24032053.880    98407257.10446
  22234072.180   116840958.76109  22234068.200    91044941.99048
  22061676.040   115934985.44909  22061671.460    90338948.98248
  21968306.960   115444269.22809  21968306.540    89956591.58548
 15 03 06 00 25 30.0000000  0  6G16G18G19G21G22G27
  20787125.240   109237094.18409  20787121.540    85119807.11848
  21576414.720   113385036.04609  21576411.440    88352049.92848
  24017577.980   126213233.19008  24017574.240    98347965.66345
  22245640.780   116901752.28609  22245636.880    91092313.57548
  22046637.620   115855957.63809  22046632.880    90277368.91048
  21957397.680   115386941.05609  21957397.360    89911920.29848
 15 03 06 00 26  0.0000000  0  6G16G18G19G21G22G27
  20780101.740   109200185.89609  20780098.000    85091047.41048
  21572955.580   113366858.17109  21572952.300    88337885.37548
  24003106.940   126137187.65308  24003103.200    98288709.42545
  22257236.020   116962685.88809  22257232.160    91139794.29648
  22031655.160   115777223.81209  22031650.280    90216017.91648
  21946507.760   115329714.56609  21946507.520    89867328.24748
 15 03 06 00 26 30.0000000  0  6G16G18G19G21G22G27
  20773169.660   109163758.10109  20773165.960    85062662.11148
  21569588.300   113349163.21309  21569585.020    88324097.10348
  23988644.400   126061187.04408  23988640.560    98229488.18846
  22268857.380   117023756.92509  22268853.540    91187382.10347
  22016729.180   115698786.96609  22016724.180    90154898.33448
  21935637.200   115272589.60509  21935637.040    89822815.30148
 15 03 06 00 27  0.0000000  0  6G16G18G19G21G22G27
  20766329.600   109127813.59309  20766325.940    85034653.39948
  21566313.400   113331953.54809  21566310.100    88310686.99048
  23974190.680   125985232.59808  23974186.840    98170302.93445
  22280504.840   117084964.91709  22280500.920    91235076.63847
  22001860.320   115620650.47409  22001855.240    90094012.80548
  21924786.380   115215568.05409  21924786.200    89778382.93948
 15 03 06 00 27 30.0000000  0  6G16G18G19G21G22G27
  20759581.500   109092352.51609  20759577.960    85007021.38148
  21563130.760   113315228.64609  21563127.420    88297654.60148
  23959745.580   125909322.79108  23959741.720    98111152.45146
  22292177.880   117146307.32409  22292173.920    91282875.90247
  21987048.720   115542815.42109  21987043.660    90033362.14648
  21913955.060   115158648.88609  21913954.900    89734030.33948
 15 03 06 00 28  0.0000000  0  6G16G18G19G21G22G27
  20752926.320   109057379.54309  20752922.900    84979769.70948
  21560040.940   113298991.50609  21560037.600    88285002.29848
  23945309.620   125833460.59708  23945305.640    98052039.09746
  22303876.740   117207785.24909  22303872.700    91330780.77447
  21972295.380   115465286.81409  21972290.480    89972950.28948
  21903143.880   115101835.40709  21903143.600    89689760.10848
 15 03 06 00 28 30.0000000  0  6G16G18G19G21G22G27
  20746363.700   109022892.90009  20746360.400    84952897.00048
  21557043.480   113283239.80809  21557040.080    88272728.25248
  23930882.220   125757643.40208  23930878.020    97992960.80046
  22315600.500   117269394.02809  22315596.320    91378787.60147
  21957600.180   115388063.70809  21957595.400    89912776.47948
  21892352.320   115045124.87509  21892351.840    89645570.09148
 15 03 06 00 29  0.0000000  0  6G16G18G19G21G22G27
  20739895.100   108988900.28509  20739891.920    84926409.24048
  21554139.620   113267980.00409  21554136.160    88260837.50448
  23916464.340   125681876.80008  23916460.120    97933921.91346
  22327349.880   117331137.47409  22327345.660    91426899.36847
  21942964.760   115311154.56309  21942960.080    89852847.31348
  21881581.580   114988523.70509  21881580.840    89601465.28548
 15 03 06 00 29 30.0000000  0  6G16G18G19G21G22G27
  20733520.320   108955400.53509  20733517.180    84900305.54148
  21551328.800   113253209.44209  21551325.380    88249327.99848
  23902055.440   125606157.98208  23902051.460    97874920.27246
  22339124.020   117393011.35209  22339119.840    91475112.78047
  21928388.940   115234558.68809  21928384.440    89793162.26048
  21870831.160   114932029.59609  21870830.300    89557443.91048
 15 03 06 00 30  0.0000000  0  6G16G18G19G21G22G27
  20727239.440   108922394.08809  20727236.320    84874586.22448
  21548611.100   113238928.34509  21548607.800    88238199.87448
  23887655.300   125530485.54008  23887651.600    97815954.76146
  22350922.420   117455012.68509  22350918.360    91523425.49347
  21913873.180   115158278.16409  21913868.760    89733722.92348
  21860100.980   114875641.81509  21860100.080    89513505.37348
 15 03 06 00 30 30.0000000  0  6G16G18G19G21G22G27
  20721052.880   108889883.20209  20721049.720    84849253.06349
  21545986.740   113225137.63909  21545983.540    88227453.88448
  23873264.280   125454861.11508  23873260.720    97757026.67546
  22362745.020   117517141.35909  22362741.100    91571837.43447
  21899418.060   115082315.77009  21899413.600    89674531.48448
  21849391.280   114819361.86409  21849390.420    89469650.87248
 15 03 06 00 31  0.0000000  0  6G16G18G19G21G22G27
  20714960.880   108857869.23609  20714957.680    84824307.11248
  21543455.740   113211837.31309  21543452.560    88217090.01448
  23858882.300   125379283.94408  23858878.680    97698135.39946
  22374591.320   117579394.37709  22374587.560    91620346.27447
  21885023.720   115006672.85809  21885019.140    89615588.99048
  21838702.000   114763189.57409  21838701.260    89425880.26248
 15 03 06 00 31 30.0000000  0  6G16G18G19G21G22G27
  20708963.220   108826351.09209  20708960.000    84799747.52149
  21541017.900   113199026.30909  21541014.720    88207107.42248
  23844509.080   125303752.07108  23844505.380    97639279.42146
  22386460.780   117641768.93709  22386457.160    91668949.83047
  21870690.280   114931350.10709  21870685.640    89556895.98048
  21828032.940   114707123.61609  21828032.280    89382192.51548
 15 03 06 00 32  0.0000000  0  6G16G18G19G21G22G27
  20703061.120   108795334.95309  20703057.840    84775579.09349
  21538673.980   113186708.95009  21538670.800    88197509.49248
  23830145.280   125228269.68008  23830141.380    97580462.00846
  22398353.780   117704266.94209  22398350.220    91717649.57747
  21856418.980   114856354.24509  21856414.280    89498457.68548
  21817384.940   114651168.50509  21817384.360    89338591.13748
 15 03 06 00 32 30.0000000  0  6G16G18G19G21G22G27
  20697254.920   108764822.72409  20697251.580    84751803.32549
  21536424.140   113174885.98209  21536420.960    88188296.80048
  23815790.960   125152837.23708  23815787.000    97521683.49046
  22410270.140   117766887.45809  22410266.640    91766444.76247
  21842210.340   114781687.80309  21842205.620    89440276.06748
  21806758.180   114595325.06409  21806757.620    89295076.77148
 15 03 06 00 33  0.0000000  0  6G16G18G19G21G22G27
  20691544.240   108734812.37609  20691540.840    84728418.63749
  21534267.840   113163554.64609  21534264.740    88179467.20048
  23801445.500   125077451.63008  23801441.440    97462941.50146
  22422208.840   117829625.19609  22422205.300    91815331.30047
  21828064.180   114707349.65109  21828059.440    89382350.27748
  21796152.180   114539590.66009  21796151.680    89251647.37148
 15 03 06 00 33 30.0000000  0  6G16G18G19G21G22G27
  20685929.340   108705305.42009  20685925.880    84705426.19649
  21532205.140   113152715.18909  21532202.080    88171020.87048
  23787109.000   125002112.80608  23787104.900    97404235.94946
  22434169.680   117892479.40609  22434166.060    91864308.60347
  21813980.960   114633341.98009  21813976.180    89324681.98648
  21785567.020   114483965.63909  21785566.520    89208303.20948
 15 03 06 00 34  0.0000000  0  6G16G18G19G21G22G27
  20680410.960   108676305.83009  20680407.420    84682829.11549
  21530236.720   113142371.22009  21530233.660    88162960.64848
  23772782.080   124926823.89508  23772777.880    97345569.29746
  22446152.880   117955450.97409  22446149.240    91913377.34947
  21799961.720   114559670.35009  21799956.940    89267275.56148
  21775003.440   114428453.85409  21775002.980    89165047.28148
 15 03 06 00 34 30.0000000  0  6G16G18G19G21G22G27
  20674989.520   108647815.93109  20674985.980    84660629.18749
  21528362.600   113132522.61309  21528359.540    88155286.41748
  23758464.640   124851584.99308  23758460.400    97286941.60847
  22458158.200   118018538.70009  22458154.500    91962536.61448
  21786006.940   114486337.33109  21786002.180    89210132.99048
  21764461.500   114373055.56709  21764461.040    89121879.79148
 15 03 06 00 35  0.0000000  0  6G16G18G19G21G22G27
  20669664.820   108619834.83509  20669661.340    84638825.73249
  21526582.600   113123168.27409  21526579.460    88147997.33248
  23744156.360   124776394.46108  23744152.180    97228351.61046
  22470184.860   118081739.03009  22470181.180    92011783.60847
  21772116.640   114413343.00709  21772111.920    89153254.32048
  21753941.040   114317769.62509  21753940.480    89078799.83248
 15 03 06 00 35 30.0000000  0  6G16G18G19G21G22G27
  20664437.540   108592365.90509  20664434.140    84617421.37349
  21524897.180   113114310.87809  21524893.980    88141095.47748
  23729857.680   124701254.17508  23729853.660    97169800.76646
  22482232.880   118145051.73209  22482229.200    92061118.17047
  21758291.620   114340691.54809  21758286.900    89096642.84348
  21743442.440   114262598.51809  21743441.800    89035809.35948
 15 03 06 00 36  0.0000000  0  6G16G18G19G21G22G27
  20659308.020   108565410.59809  20659304.700    84596417.23949
  21523306.240   113105950.11409  21523302.960    88134580.60048
  23715568.640   124626164.43208  23715564.640    97111289.30747
  22494302.080   118208476.00009  22494298.420    92110539.67447
  21744532.340   114268385.40509  21744527.500    89040300.41648
  21732965.760   114207542.76709  21732964.980    88992908.77448
 15 03 06 00 36 30.0000000  0  6G16G18G19G21G22G27
  20654276.580   108538970.53609  20654273.300    84575814.59249
  21521809.980   113098087.03309  21521806.600    88128453.54148
  23701289.240   124551125.62108  23701285.240    97052817.54747
  22506392.200   118272010.50409  22506388.660    92160047.07547
  21730839.240   114196427.20909  21730834.320    88984229.13548
  21722511.180   114152603.39209  21722510.320    88950098.88248
 15 03 06 00 37  0.0000000  0  6G16G18G19G21G22G27
  20649343.960   108513049.31909  20649340.660    84555616.23749
  21520408.840   113090723.89309  21520405.360    88122716.03548
  23687019.820   124476139.96908  23687015.880    96994387.20247
  22518503.400   118335656.07208  22518499.980    92209641.02547
  21717213.160   114124821.42509  21717208.140    88928432.44748
  21712079.180   114097783.22009  21712078.280    88907381.86848
 15 03 06 00 37 30.0000000  0  6G16G18G19G21G22G27
  20644510.080   108487646.78009  20644506.720    84535822.04449
  21519102.500   113083859.21609  21519099.000    88117366.95348
  23672760.260   124401206.31408  23672756.300    96935997.36547
  22530635.020   118399409.16708  22530631.740    92259318.74247
  21703654.140   114053568.47009  21703649.120    88872910.69748
  21701669.580   114043081.07209  21701668.720    88864756.81848
 15 03 06 00 38  0.0000000  0  6G16G18G19G21G22G27
  20639775.180   108462764.16909  20639771.740    84516432.99549
  21517891.120   113077493.79509  21517887.700    88112406.89048
  23658510.700   124326324.74408  23658506.540    96877648.12247
  22542786.780   118463268.14208  22542783.760    92309078.98947
  21690162.640   113982670.77409  21690157.680    88817665.77248
  21691282.620   113988497.89109  21691281.860    88822224.48248
 15 03 06 00 38 30.0000000  0  6G16G18G19G21G22G27
  20635138.600   108438398.40309  20635135.060    84497446.67848
  21516773.880   113071623.00009  21516770.560    88107832.24948
  23644270.300   124251490.81008  23644266.000    96819335.99146
  22554957.780   118527227.71509  22554954.800    92358917.59347
  21676738.260   113912126.09609  21676733.440    88762695.93348
  21680917.560   113934029.59109  21680916.920    88779781.64848
 15 03 06 00 39  0.0000000  0  6G16G18G19G21G22G27
  20630601.340   108414554.84109  20630597.760    84478867.27149
  21515751.600   113066251.11109  21515748.320    88103646.38048
  23630039.740   124176708.81508  23630035.460    96761064.34147
  22567148.400   118591289.82708  22567145.340    92408836.11547
  21663382.220   113841940.54909  21663377.540    88708005.92348
  21670575.320   113879680.81809  21670574.780    88737431.95548
 15 03 06 00 39 30.0000000  0  6G16G18G19G21G22G27
  20626163.240   108391232.81509  20626159.700    84460694.26149
  21514823.980   113061376.54609  21514820.680    88099848.03048
  23615818.820   124101977.07708  23615814.540    96702831.85946
  22579358.040   118655451.51109  22579354.860    92458832.23547
  21650094.700   113772114.52509  21650090.040    88653596.07648
  21660255.660   113825450.40009  21660255.120    88695174.49448
 15 03 06 00 40  0.0000000  0  6G16G18G19G21G22G27
  20621824.660   108368433.93809  20621821.240    84442928.89948
  21513991.080   113056999.80009  21513987.740    88096437.58548
  23601607.460   124027295.75808  23601603.180    96644638.64047
  22591586.440   118719711.53509  22591583.180    92508904.97047
  21636876.140   113702650.67309  21636871.440    88599468.42148
  21649958.660   113771339.17109  21649958.140    88653009.90048
 15 03 06 00 40 30.0000000  0  6G16G18G19G21G22G27
  20617586.700   108346163.62609  20617583.340    84425575.40449
  21513253.720   113053125.09409  21513250.320    88093418.34648
  23587406.600   123952669.56908  23587402.340    96586488.39347
  22603834.020   118784072.43409  22603830.660    92559056.31547
  21623727.740   113633555.40709  21623723.000    88545627.98148
  21639685.280   113717352.27909  21639684.780    88610942.19648
 15 03 06 00 41  0.0000000  0  6G16G18G19G21G22G27
  20613449.400   108324421.97309  20613446.120    84408633.85349
  21512611.640   113049751.07809  21512608.180    88090789.25648
  23573216.000   123878097.38908  23573211.680    96528380.21646
  22616100.380   118848531.89509  22616096.940    92609284.46447
  21610649.600   113564829.52209  21610644.860    88492075.38048
  21629435.400   113663488.99509  21629434.920    88568970.81148
 15 03 06 00 41 30.0000000  0  6G16G18G19G21G22G27
  20609412.740   108303209.05809  20609409.500    84392104.30249
  21512064.720   113046877.15709  21512061.280    88088549.84348
  23559035.420   123803578.40108  23559030.920    96470313.49047
  22628384.920   118913086.95509  22628381.360    92659587.10847
  21597642.020   113496474.45409  21597637.240    88438811.71948
  21619208.960   113609748.96609  21619208.460    88527095.47448
 15 03 06 00 42  0.0000000  0  6G16G18G19G21G22G27
  20605477.120   108282526.91009  20605473.880    84375988.33449
  21511613.200   113044504.50309  21511609.800    88086701.03248
  23544865.200   123729113.70008  23544860.760    96412289.07847
  22640687.600   118977737.59409  22640683.960    92709964.21547
  21584705.560   113428493.17909  21584700.800    88385839.33048
  21609006.320   113556133.81809  21609005.800    88485317.44048
 15 03 06 00 42 30.0000000  0  6G16G18G19G21G22G27
  20601642.500   108262375.55409  20601639.260    84360285.97549
  21511256.840   113042631.92609  21511253.520    88085241.88648
  23530705.260   123654702.40508  23530700.860    96354306.27246
  22653007.980   119042480.79809  22653004.200    92760413.44047
  21571840.320   113360886.31509  21571835.620    88333158.68548
  21598827.320   113502642.89609  21598826.820    88443636.21348
 15 03 06 00 43  0.0000000  0  6G16G18G19G21G22G27
  20597909.400   108242757.67309  20597906.100    84344999.31949
  21510995.820   113041260.57509  21510992.600    88084173.31748
  23516555.640   123580345.88908  23516551.180    96296366.15646
  22665345.880   119107316.25609  22665341.960    92810934.57047
  21559047.060   113293657.42409  21559042.340    88280772.56348
  21588672.420   113449278.33909  21588671.900    88402053.46648
 15 03 06 00 43 30.0000000  0  6G16G18G19G21G22G27
  20594277.900   108223673.89109  20594274.540    84330128.83149
  21510830.120   113040390.29109  21510827.060    88083495.18048
  23502416.360   123506044.04708  23502412.000    96238468.64547
  22677701.080   119172242.61309  22677697.020    92861526.52947
  21546326.180   113226808.51509  21546321.420    88228682.52948
  21578541.660   113396040.36609  21578541.060    88360569.32848
 15 03 06 00 44  0.0000000  0  6G16G18G19G21G22G27
  20590747.980   108205123.86609  20590744.480    84315674.26449
  21510759.460   113040019.45609  21510756.580    88083206.23248
  23488287.480   123431795.97708  23488283.340    96180613.02947
  22690072.940   119237256.75609  22690068.840    92912186.88747
  21533677.780   113160340.48009  21533672.920    88176889.27548
  21568434.960   113342928.56309  21568434.260    88319183.52448
 15 03 06 00 44 30.0000000  0  6G16G18G19G21G22G27
  20587320.420   108187111.96409  20587316.820    84301639.00749
  21510784.560   113040151.54409  21510781.780    88083309.16648
  23474169.380   123357604.87108  23474165.200    96122801.79647
  22702461.820   119302360.79908  22702457.760    92962917.29647
  21521102.820   113094258.30109  21521097.880    88125396.68748
  21558353.000   113289946.71009  21558352.140    88277898.96948
 15 03 06 00 45  0.0000000  0  6G16G18G19G21G22G27
  20583994.980   108169636.82909  20583991.340    84288022.01948
  21510904.960   113040783.96909  21510902.180    88083801.97748
  23460061.720   123283468.42008  23460057.300    96065033.15347
  22714866.940   119367550.73908  22714863.020    93013714.65447
  21508601.120   113028561.43709  21508596.100    88074204.36248
  21548295.360   113237092.87109  21548294.380    88236714.16748
 15 03 06 00 45 30.0000000  0  6G16G18G19G21G22G27
  20580772.540   108152702.99509  20580768.880    84274826.81049
  21511121.220   113041919.95009  21511118.320    88084687.16748
  23445965.020   123209390.16908  23445960.660    96007309.86747
  22727288.760   119432828.67609  22727285.140    93064580.56147
  21496173.800   112963255.75809  21496168.800    88023316.84348
  21538262.780   113184371.41009  21538261.820    88195632.51348
 15 03 06 00 46  0.0000000  0  6G16G18G19G21G22G27
  20577652.340   108136306.60409  20577648.740    84262050.39349
  21511432.400   113043554.67609  21511429.360    88085960.97748
  23431878.620   123135365.77108  23431874.260    95949628.52947
  22739726.140   119498188.21908  22739722.760    93115510.06747
  21483820.400   112898338.37909  21483815.400    87972731.89248
  21528254.540   113131778.14009  21528253.680    88154650.74848
 15 03 06 00 46 30.0000000  0  6G16G18G19G21G22G27
  20574634.900   108120450.13309  20574631.380    84249694.69548
  21511838.680   113045689.35309  21511835.540    88087624.37448
  23417802.880   123061396.96108  23417798.500    95891990.52046
  22752179.040   119563629.12108  22752175.800    93166502.95647
  21471541.540   112833812.73909  21471536.580    87922452.20048
  21518271.080   113079315.26109  21518270.380    88113770.59448
 15 03 06 00 47  0.0000000  0  6G16G18G19G21G22G27
  20571721.340   108105139.58209  20571717.920    84237764.39249
  21512341.080   113048329.21009  21512337.820    88089681.41148
  23403738.620   122987488.99408  23403734.360    95834399.92747
  22764648.320   119629155.57208  22764645.120    93217562.51847
  21459338.540   112769685.71509  21459333.660    87872483.11648
  21508313.560   113026988.57609  21508313.000    88072996.56948
 15 03 06 00 47 30.0000000  0  6G16G18G19G21G22G27
  20568910.940   108090370.88609  20568907.600    84226256.31649
  21512938.580   113051468.83309  21512935.220    88092127.87848
  23389685.060   122913637.12208  23389680.740    95776853.04247
  22777132.700   119694761.01408  22777129.460    93268683.63647
  21447210.940   112705954.86209  21447206.080    87822822.74048
  21498381.220   112974793.79309  21498380.700    88032325.31748
 15 03 06 00 48  0.0000000  0  6G16G18G19G21G22G27
  20566204.940   108076150.75509  20566201.660    84215175.68549
  21513632.260   113055113.95209  21513628.820    88094968.24648
  23375643.080   122839847.23608  23375638.980    95719354.48447
  22789632.900   119760449.76108  22789629.580    93319869.66647
  21435160.120   112642627.46809  21435155.220    87773476.74348
  21488475.220   112922737.34309  21488474.720    87991761.86648
 15 03 06 00 48 30.0000000  0  6G16G18G19G21G22G27
  20563601.900   108062471.84209  20563598.720    84204516.79049
  21514420.460   113059255.93109  21514416.960    88098195.76148
  23361611.420   122766111.08008  23361607.500    95661897.77647
  22802147.080   119826211.93708  22802143.740    93371112.90847
  21423184.880   112579697.10709  21423179.920    87724440.11948
  21478594.040   112870811.74909  21478593.600    87951300.37348
 15 03 06 00 49  0.0000000  0  6G16G18G19G21G22G27
  20561103.120   108049340.90609  20561100.040    84194284.88349
  21515304.120   113063899.89509  21515300.680    88101814.45048
  23347591.220   122692434.99608  23347587.360    95604487.87847
  22814676.080   119892052.29509  22814672.700    93422417.07347
  21411286.760   112517171.90709  21411281.680    87675719.21248
  21468738.960   112819023.51909  21468738.520    87910945.92648
 15 03 06 00 49 30.0000000  0  6G16G18G19G21G22G27
  20558708.000   108036754.86209  20558705.040    84184477.57049
  21516282.680   113069042.75709  21516279.320    88105821.87748
  23333582.000   122618815.62008  23333577.920    95547122.15346
  22827218.980   119957965.69509  22827215.560    93473778.15047
  21399465.420   112455050.10709  21399460.240    87627312.63148
  21458909.560   112767369.80809  21458909.040    87870696.29349
 15 03 06 00 50  0.0000000  0  6G16G18G19G21G22G27
  20556416.960   108024715.78409  20556414.100    84175096.47049
  21517356.280   113074685.05409  21517352.980    88110218.48748
  23319583.940   122545254.27508  23319579.620    95489801.67147
  22839775.740   120023951.66408  22839772.260    93525195.79447
  21387721.400   112393334.69709  21387716.140    87579222.73848
  21449106.180   112715852.43309  21449105.540    87830552.89648
 15 03 06 00 50 30.0000000  0  6G16G18G19G21G22G27
  20554231.480   108013231.13809  20554228.640    84166147.39349
  21518526.100   113080833.01009  21518522.860    88115009.11148
  23305598.100   122471757.65908  23305593.620    95432531.60747
  22852347.320   120090015.46909  22852343.780    93576674.05747
  21376056.260   112332034.05109  21376050.960    87531456.02048
  21439330.180   112664478.61509  21439329.400    87790521.35649
 15 03 06 00 51  0.0000000  0  6G16G18G19G21G22G27
  20552150.720   108002296.22109  20552147.740    84157626.66649
  21519791.100   113087480.92909  21519787.900    88120189.31448
  23291623.540   122398320.47508  23291619.000    95375307.84447
  22864932.360   120156150.48708  22864928.860    93628207.82747
  21364469.340   112271144.47509  21364464.020    87484009.61648
  21429580.660   112613243.81109  21429579.780    87750598.14049
 15 03 06 00 51 30.0000000  0  6G16G18G19G21G22G27
  20550175.980   107991918.34809  20550172.840    84149540.00049
  21521152.460   113094634.86109  21521149.240    88125763.80948
  23277661.440   122324949.72208  23277657.060    95318135.86847
  22877531.900   120222361.72908  22877528.460    93679800.99547
  21352962.300   112210674.71709  21352957.020    87436890.33548
  21419858.900   112562155.21509  21419857.980    87710788.85749
 15 03 06 00 52  0.0000000  0  6G16G18G19G21G22G27
  20548305.700   107982089.27509  20548302.360    84141880.98249
  21522608.300   113102285.18609  21522605.040    88131725.11448
  23263710.380   122251636.56208  23263705.960    95261008.76547
  22890144.020   120288638.84408  22890140.600    93731445.50647
  21341533.700   112150617.41509  21341528.580    87390092.45948
  21410163.340   112511204.65609  21410162.460    87671087.13549
 15 03 06 00 52 30.0000000  0  6G16G18G19G21G22G27
  20546540.520   107972812.63909  20546537.040    84134652.42549
  21524159.260   113110435.18409  21524155.960    88138075.76748
  23249770.960   122178384.37108  23249766.560    95203929.16247
  22902768.940   120354983.35108  22902765.620    93783142.51847
  21330184.440   112090977.21609  21330179.520    87343619.60348
  21400494.680   112460395.85709  21400493.920    87631495.87648
 15 03 06 00 53  0.0000000  0  6G16G18G19G21G22G27
  20544880.920   107964090.73609  20544877.320    84127856.13649
  21525805.360   113119085.20109  21525801.960    88144816.05148
  23235843.500   122105194.98008  23235839.000    95146898.50147
  22915406.820   120421395.49409  22915403.440    93834892.23847
  21318915.220   112031757.73509  21318910.540    87297474.58248
  21390853.400   112409731.04309  21390852.720    87592016.82049
 15 03 06 00 53 30.0000000  0  6G16G18G19G21G22G27
  20543327.140   107955925.22009  20543323.500    84121493.39149
  21527546.780   113128235.93909  21527543.300    88151946.49848
  23221928.160   122032069.40408  23221923.580    95089917.55947
  22928057.560   120487875.10808  22928053.960    93886694.52647
  21307726.620   111972961.95209  21307722.080    87251659.70448
  21381239.920   112359212.07209  21381239.200    87552651.39948
 15 03 06 00 54  0.0000000  0  6G16G18G19G21G22G27
  20541878.900   107948314.39409  20541875.240    84115562.87149
  21529383.140   113137885.23009  21529379.540    88159465.43448
  23208024.580   121959006.12608  23208020.080    95032985.15547
  22940720.400   120554418.79708  22940716.800    93938546.74547
  21296618.640   111914589.37309  21296614.140    87206174.60048
  21371653.960   112308837.72509  21371653.220    87513398.66348
 15 03 06 00 54 30.0000000  0  6G16G18G19G21G22G27
  20540536.880   107941261.92909  20540533.260    84110067.44349
  21531314.680   113148034.86309  21531310.940    88167374.24948
  23194133.360   121886007.94708  23194128.900    94976103.48447
  22953395.580   120621027.46008  22953391.860    93990449.58547
  21285592.100   111856644.45409  21285587.540    87161022.73548
  21362096.200   112258611.37309  21362095.460    87474261.25049
 15 03 06 00 55  0.0000000  0  6G16G18G19G21G22G27
  20539300.960   107934767.05009  20539297.380    84105006.49249
  21533341.080   113158683.22509  21533337.220    88175671.68548
  23180254.340   121813073.66208  23180249.940    94919271.59247
  22966082.600   120687698.55208  22966079.020    94042401.08147
  21274647.020   111799127.42109  21274642.360    87116204.28448
  21352566.460   112208532.32309  21352565.720    87435238.61949
 15 03 06 00 55 30.0000000  0  6G16G18G19G21G22G27
  20538170.980   107928828.84409  20538167.420    84100379.31049
  21535462.040   113169828.86409  21535458.140    88184356.59248
  23166387.340   121740202.29008  23166382.920    94862488.72147
  22978781.080   120754429.92408  22978777.400    94094399.54547
  21263783.520   111742039.01709  21263778.800    87071719.83648
  21343064.680   112158600.34709  21343064.000    87396330.59949
 15 03 06 00 56  0.0000000  0  6G16G18G19G21G22G27
  20537146.860   107923446.80209  20537143.300    84096185.50849
  21537677.160   113181469.80309  21537673.320    88193427.46848
  23152532.300   121667393.27408  23152527.740    94805754.44347
  22991490.540   120821218.49308  22991487.000    94146442.57346
  21253001.620   111685379.71309  21252996.900    87027569.75048
  21333590.780   112108814.94309  21333590.180    87357536.79549
 15 03 06 00 56 30.0000000  0  6G16G18G19G21G22G27
  20536230.260   107918629.96509  20536226.680    84092432.12049
  21539987.980   113193613.91109  21539984.280    88202890.41548
  23138690.780   121594655.79608  23138686.200    94749075.93147
  23004212.380   120888072.25008  23004208.800    94198536.41047
  21242303.360   111629159.89109  21242298.620    86983762.11748
  21324146.660   112059185.93009  21324146.160    87318864.84649
 15 03 06 00 57  0.0000000  0  6G16G18G19G21G22G27
  20535419.740   107914370.78309  20535416.180    84089113.27149
  21542392.820   113206252.26409  21542389.320    88212738.49948
  23124861.200   121521981.31408  23124856.660    94692446.50247
  23016944.700   120954981.01708  23016941.160    94250673.10147
  21231687.420   111573372.70009  21231682.660    86940291.60148
  21314730.820   112009705.29709  21314730.360    87280308.51649
 15 03 06 00 57 30.0000000  0  6G16G18G19G21G22G27
  20534716.300   107910674.43609  20534712.740    84086232.99449
  21544892.480   113219388.96209  21544889.160    88222974.87848
  23111044.640   121449374.99608  23111040.260    94635870.16047
  23029688.200   121021948.28808  23029684.600    94302855.39147
  21221155.080   111518024.66409  21221150.220    86897163.28048
  21305344.340   111960378.72009  21305343.800    87241872.23149
 15 03 06 00 58  0.0000000  0  6G16G18G19G21G22G27
  20534119.740   107907539.78109  20534116.220    84083790.40249
  21547486.640   113233022.16809  21547483.440    88233598.17348
  23097240.900   121376836.00008  23097236.580    94579346.30847
  23042442.320   121088971.38408  23042438.800    94355081.15747
  21210706.380   111463116.18809  21210701.440    86854377.46948
  21295987.040   111911205.69809  21295986.380    87203555.59848
 15 03 06 00 58 30.0000000  0  6G16G18G19G21G22G27
  20533629.920   107904966.06909  20533626.420    84081784.90849
  21550174.920   113247149.94209  21550171.820    88244606.83848
  23083449.740   121304362.83808  23083445.320    94522873.74247
  23055206.600   121156047.92808  23055203.080    94407348.57847
  21200341.400   111408647.66909  21200336.320    86811934.48848
  21286658.880   111862185.73609  21286658.060    87165358.23648
 15 03 06 00 59  0.0000000  0  6G16G18G19G21G22G27
  20533247.460   107902956.63809  20533244.020    84080219.10349
  21552957.820   113261774.50409  21552954.780    88256002.60648
  23069671.860   121231959.22008  23069667.320    94466455.35647
  23067981.380   121223179.58708  23067977.800    94459658.97447
  21190060.880   111354623.37409  21190055.800    86769837.64748
  21277360.580   111813322.69009  21277359.620    87127283.13548
 15 03 06 00 59 30.0000000  0  7G04G16G18G19G21G22G27
  24559740.760   129062310.62106  24559743.520   100568037.43243
  20532972.080   107901509.83209  20532968.740    84079091.71649
  21555834.740   113276893.02509  21555831.780    88267783.27548
  23055906.940   121159623.70109  23055902.320    94410090.05247
  23080765.980   121290363.03008  23080762.300    94512009.69847
  21179864.860   111301043.30309  21179859.840    86728086.96948
