     2.11           OBSERVATION DATA    G                   RINEX VERSION / TYPE
SPIDER V4,0,0,3554                      2015 04 16 00:24    PGM / RUN BY / DATE 
EADB                                                        MARKER NAME         
EADB                                                        MARKER NUMBER       
                                                            OBSERVER / AGENCY   
462408              LEICA GRX1200PRO    3.00/2.127          REC # / TYPE / VERS 
103310              LEIAT504                                ANT # / TYPE        
  5238464.6656   142765.3090  3625629.6523                  APPROX POSITION XYZ 
        0.0770        0.0000        0.0000                  ANTENNA: DELTA H/E/N
     1     1                                                WAVELENGTH FACT L1/2
     4    C1    L1    P2    L2                              # / TYPES OF OBSERV 
    30.000                                                  INTERVAL            
  2015    03    06    00    00    0.0000000     GPS         TIME OF FIRST OBS   
  2015    03    06    23    59   30.0000000     GPS         TIME OF LAST OBS    
    16                                                      LEAP SECONDS        
    30                                                      # OF SATELLITES     
   G 1   834   834   834   834                              PRN / # OF OBS      
   G 2   927   927   927   927                              PRN / # OF OBS      
   G 3   846   846   846   846                              PRN / # OF OBS      
   G 4   848   848   848   848                              PRN / # OF OBS      
   G 5   671   671   671   671                              PRN / # OF OBS      
   G 6   727   727   727   727                              PRN / # OF OBS      
   G 7   647   647   647   647                              PRN / # OF OBS      
   G 9   787   787   787   787                              PRN / # OF OBS      
   G10   785   785   785   785                              PRN / # OF OBS      
   G11   798   798   798   798                              PRN / # OF OBS      
   G12   818   818   818   818                              PRN / # OF OBS      
   G13   823   823   823   823                              PRN / # OF OBS      
   G14   918   918   917   917                              PRN / # OF OBS      
   G15   733   733   733   733                              PRN / # OF OBS      
   G16   692   692   692   692                              PRN / # OF OBS      
   G17   928   928   927   927                              PRN / # OF OBS      
   G18   934   934   934   934                              PRN / # OF OBS      
   G19   790   790   790   790                              PRN / # OF OBS      
   G20   791   791   791   791                              PRN / # OF OBS      
   G21   619   619   608   608                              PRN / # OF OBS      
   G22   780   780   780   780                              PRN / # OF OBS      
   G23   731   731   731   731                              PRN / # OF OBS      
   G24   810   810   810   810                              PRN / # OF OBS      
   G25   849   849   849   849                              PRN / # OF OBS      
   G27   833   833   833   833                              PRN / # OF OBS      
   G28   901   901   901   901                              PRN / # OF OBS      
   G29   735   735   735   735                              PRN / # OF OBS      
   G30   695   695   695   695                              PRN / # OF OBS      
   G31   784   784   784   784                              PRN / # OF OBS      
   G32   743   743   743   743                              PRN / # OF OBS      
BIT 2 OF LLI FLAGS DATA COLLECTED UNDER A/S CONDITION       COMMENT             
SNR is mapped to RINEX snr flag value [2-9]                 COMMENT             
Lx:     = 25dBHz -> 1; 26-27dBHz -> 2; 28-31dBHz -> 3       COMMENT             
       32-35dBHz -> 4; 36-38dBHz -> 5; 39-41dBHz -> 6       COMMENT             
       42-44dBHz -> 7; 45-48dBHz -> 8; >=49dBHz -> 9        COMMENT             
                                                            END OF HEADER       
 15 03 06 00 00  0.0000000  0  7G16G18G19G21G22G27G31
  21038234.040   110556677.07409  21038232.325    86148060.18549
  22241169.413   116878237.81709  22241168.197    91073994.49047
  24230523.160   127332269.28305  24230521.908    99219948.06845
  21892913.613   115048054.17409  21892911.701    89647835.29448
  23056804.154   121164387.99708  23056803.206    94413829.90946
  22123562.402   116260159.58408  22123563.635    90592361.37348
  23675211.191   124414003.28207  23675213.376    96945952.58546
 15 03 06 00 00 30.0000000  0  7G16G18G19G21G22G27G31
  21028106.007   110503454.15509  21028104.203    86106587.77949
  22233315.419   116836964.61309  22233314.172    91041833.56847
  24216006.594   127255985.34106  24216005.715    99160506.11945
  21903694.547   115104708.98509  21903692.578    89691981.90048
  23040109.901   121076658.29408  23040108.307    94345469.37146
  22113156.350   116205475.53608  22113157.626    90549750.44448
  23693707.939   124511203.00807  23693710.402    97021692.25146
 15 03 06 00 01  0.0000000  0  7G16G18G19G21G22G27G31
  21018046.883   110450593.72409  21018045.197    86065397.83449
  22225536.694   116796087.60309  22225535.641    91009981.38047
  24201506.471   127179786.86506  24201505.462    99101130.75945
  21914521.274   115161602.07409  21914519.217    89736314.17848
  23023441.523   120989068.81108  23023440.575    94277218.07346
  22102773.018   116150910.60008  22102774.347    90507232.33848
  23712214.705   124608456.12407  23712217.272    97097473.47546
 15 03 06 00 01 30.0000000  0  7G16G18G19G21G22G27G31
  21008057.234   110398097.10709  21008055.538    86024491.38049
  22217833.553   116755607.88709  22217832.475    90978438.76447
  24187022.615   127103672.93806  24187021.499    99041821.22646
  21925392.714   115218731.78309  21925390.517    89780830.83248
  23006800.618   120901621.76708  23006799.641    94209077.63846
  22092412.141   116096463.95108  22092413.498    90464806.39648
  23730731.141   124705758.99907  23730733.868    97173293.49946
 15 03 06 00 02  0.0000000  0  7G16G18G19G21G22G27G31
  20998136.648   110345964.98309  20998134.942    85983868.94749
  22210206.329   116715526.42809  22210205.271    90947206.48347
  24172554.555   127027642.39406  24172553.134    98982576.68945
  21936308.533   115276094.48609  21936306.513    89825529.04448
  22990187.534   120814319.04508  22990186.576    94141049.66647
  22082073.757   116042134.59508  22082074.842    90422471.85648
  23749256.597   124803107.52007  23749259.002    97249149.13945
 15 03 06 00 02 30.0000000  0  7G16G18G19G21G22G27G31
  20988286.652   110294202.87709  20988284.949    85943534.84049
  22202655.577   116675847.89509  22202654.709    90916288.16347
  24158102.835   126951698.53405  24158101.320    98923399.70945
  21947268.769   115333691.13409  21947266.691    89870409.54748
  22973602.846   120727166.48308  22973601.618    94073138.81546
  22071758.150   115987925.65308  22071759.341    90380231.13648
  23767790.170   124900501.82307  23767792.968    97325040.38045
 15 03 06 00 03  0.0000000  0  7G16G18G19G21G22G27G31
  20978508.220   110242816.11709  20978506.556    85903493.20549
  22195182.564   116636576.92009  22195181.489    90885687.42147
  24143668.072   126875844.09006  24143666.584    98864292.47345
  21958273.680   115391523.39409  21958271.734    89915473.63748
  22957047.644   120640170.09208  22957046.434    94005349.76046
  22061466.173   115933840.25708  22061467.083    90338086.68448
  23786332.830   124997942.31207  23786335.879    97400967.59546
 15 03 06 00 03 30.0000000  0  7G16G18G19G21G22G27G31
  20968800.014   110191799.61909  20968798.484    85863740.08949
  22187786.362   116597709.33209  22187785.329    90855401.00547
  24129249.130   126800072.41506  24129247.429    98805249.66445
  21969321.872   115449582.81509  21969319.990    89960714.74248
  22940521.375   120553325.68208  22940520.411    93937679.11446
  22051196.236   115879871.84408  22051197.320    90296033.38148
  23804882.575   125095419.35007  23804885.576    97476923.31546
 15 03 06 00 04  0.0000000  0  7G16G18G19G21G22G27G31
  20959163.006   110141156.49009  20959161.242    85824277.91249
  22180467.286   116559247.20409  22180466.096    90825430.53347
  24114846.268   126724384.48906  24114844.446    98746272.07345
  21980413.373   115507868.60809  21980411.490    90006132.23848
  22924024.955   120466636.37608  22924024.002    93870129.26547
  22040948.898   115826021.37808  22040950.015    90254072.00448
  23823438.753   125192930.84707  23823441.458    97552905.86445
 15 03 06 00 04 30.0000000  0  7G16G18G19G21G22G27G31
  20949596.775   110090885.29009  20949595.027    85785105.54749
  22173224.918   116521188.89509  22173223.898    90795774.72447
  24100458.611   126648776.74806  24100456.817    98687357.01345
  21991546.842   115566374.72509  21991544.757    90051721.41948
  22907557.450   120380101.90008  22907557.070    93802700.08647
  22030723.259   115772285.28108  22030724.197    90212199.74048
  23842000.217   125290470.31407  23842003.112    97628910.17245
 15 03 06 00 05  0.0000000  0  7G16G18G19G21G22G27G31
  20940103.225   110040996.75509  20940101.592    85746231.36349
  22166061.496   116483544.20409  22166060.502    90766441.22147
  24086087.845   126573257.76606  24086085.791    98628511.09346
  22002723.617   115625108.35809  22002721.305    90097487.88848
  22891121.938   120293733.51208  22891121.025    93735400.26046
  22020521.050   115718672.37308  22020521.966    90170423.46448
  23860567.999   125388043.78907  23860570.819    97704940.98445
 15 03 06 00 05 30.0000000  0  7G16G18G19G21G22G27G31
  20930682.553   109991490.63609  20930680.882    85707655.16249
  22158976.538   116446312.93809  22158975.463    90737429.85847
  24071733.359   126497824.96706  24071731.314    98569732.34645
  22013942.517   115684064.88709  22013940.580    90143428.03748
  22874718.085   120207531.65008  22874717.006    93668230.23447
  22010341.792   115665180.35608  22010342.738    90128741.38248
  23879141.455   125485645.71007  23879144.641    97780993.96146
 15 03 06 00 06  0.0000000  0  7G16G18G19G21G22G27G31
  20921335.085   109942369.45109  20921333.218    85669378.91449
  22151970.797   116409497.39409  22151969.764    90708742.44247
  24057395.345   126422478.94606  24057393.697    98511021.26445
  22025203.789   115743243.64509  22025201.922    90189541.34948
  22858346.745   120121499.14708  22858345.693    93601192.09947
  22000185.641   115611809.82608  22000186.446    90087153.96948
  23897719.873   125583273.89507  23897723.497    97857067.36346
 15 03 06 00 06 30.0000000  0  7G16G18G19G21G22G27G31
  20912060.361   109893630.45009  20912058.631    85631400.46949
  22145043.583   116373094.79209  22145042.385    90680376.79447
  24043073.326   126347215.19407  24043071.458    98452374.21645
  22036506.048   115802637.66909  22036504.273    90235822.40248
  22842007.065   120035634.64408  22842005.793    93534284.84847
  21990051.870   115558556.31608  21990052.697    90045657.74348
  23916301.819   125680920.77407  23916305.502    97933155.35045
 15 03 06 00 07  0.0000000  0  7G16G18G19G21G22G27G31
  20902859.295   109845278.67709  20902857.533    85593723.76049
  22138195.891   116337109.15109  22138194.580    90652336.05347
  24028767.262   126272036.29006  24028765.309    98393793.30145
  22047849.680   115862248.41609  22047847.804    90282272.32948
  22825700.352   119949943.35308  22825699.239    93467512.57647
  21979940.690   115505422.61308  21979941.678    90004254.87448
  23934887.221   125778586.53206  23934891.163    98009258.02444
 15 03 06 00 07 30.0000000  0  7G16G18G19G21G22G27G31
  20893732.843   109797318.15909  20893730.911    85556351.92549
  22131428.151   116301544.12209  22131426.677    90624623.06147
  24014477.602   126196944.15106  24014475.903    98335280.01245
  22059234.250   115922074.61409  22059232.381    90328890.14248
  22809427.597   119864429.94808  22809426.516    93400878.90347
  21969852.827   115452410.90808  21969854.080    89962947.06648
  23953476.412   125876270.11007  23953479.848    98085374.61245
 15 03 06 00 08  0.0000000  0  7G16G18G19G21G22G27G31
  20884680.806   109749749.54209  20884679.048    85519285.46649
  22124740.439   116266400.33509  22124738.896    90597238.30647
  24000204.315   126121937.67807  24000202.385    98276833.46846
  22070659.538   115982114.87209  22070657.494    90375674.75648
  22793189.059   119779096.13508  22793187.845    93334385.16547
  21959788.195   115399520.09608  21959789.191    89921733.46448
  23972068.116   125973967.48707  23972071.602    98161501.98846
 15 03 06 00 08 30.0000000  0  7G16G18G19G21G22G27G31
  20875703.340   109702572.79409  20875701.657    85482524.36349
  22118132.903   116231677.43709  22118131.329    90570181.51747
  23985947.201   126047015.16307  23985945.012    98218452.34545
  22082124.716   116042364.57209  22082122.646    90422622.57648
  22776984.690   119693942.81808  22776983.455    93268032.05647
  21949745.965   115346748.22808  21949746.997    89880612.54648
  23990661.169   126071673.85706  23990665.126    98237636.29746
 15 03 06 00 09  0.0000000  0  7G16G18G19G21G22G27G31
  20866801.776   109655794.29409  20866799.966    85446073.58249
  22111606.354   116197380.56409  22111604.948    90543456.70647
  23971706.415   125972180.32907  23971704.369    98160139.54345
  22093629.955   116102825.88909  22093628.188    90469735.28348
  22760816.275   119608976.37908  22760814.640    93201824.55647
  21939727.170   115294099.50908  21939728.290    89839587.58648
  24009255.720   126169390.29106  24009260.418    98313778.37946
 15 03 06 00 09 30.0000000  0  7G16G18G19G21G22G27G31
  20857975.944   109609414.19909  20857974.203    85409933.24749
  22105161.107   116163510.02909  22105159.833    90517064.09847
  23957482.012   125897431.11507  23957480.018    98101893.45545
  22105175.009   116163495.15109  22105173.339    90517010.02948
  22744683.231   119524198.13108  22744681.716    93135763.71147
  21929731.642   115241572.37408  21929732.758    89798657.36548
  24027852.263   126267112.34607  24027856.584    98389924.88445
 15 03 06 00 10  0.0000000  0  7G16G18G19G21G22G27G31
  20849226.016   109563433.70709  20849224.414    85374104.28949
  22098796.943   116130066.40209  22098795.772    90491004.14747
  23943273.791   125822767.10107  23943271.811    98043713.75045
  22116758.959   116224369.90609  22116757.273    90564444.89548
  22728586.413   119439609.84708  22728585.009    93069850.88447
  21919759.154   115189166.12708  21919760.216    89757821.34648
  24046449.304   126364836.29907  24046453.232    98466072.92345
 15 03 06 00 10 30.0000000  0  7G16G18G19G21G22G27G31
  20840552.219   109517852.81609  20840550.536    85338586.71149
  22092514.021   116097049.36409  22092512.721    90465276.60247
  23929081.568   125748186.15007  23929079.396    97985598.74845
  22128381.619   116285446.48609  22128380.033    90612037.03048
  22712526.167   119355212.12108  22712524.320    93004086.51747
  21909809.056   115136878.91508  21909810.348    89717078.08148
  24065045.378   126462557.51407  24065049.536    98542218.80245
 15 03 06 00 11  0.0000000  0  7G16G18G19G21G22G27G31
  20831955.690   109472677.84309  20831954.047    85303385.43149
  22086313.312   116064464.60409  22086311.952    90439885.89547
  23914905.665   125673692.90306  23914903.846    97927552.11346
  22140043.101   116346727.52209  22140041.319    90659788.48348
  22696503.248   119271012.20808  22696501.552    92938476.30547
  21899882.746   115084715.24208  21899883.897    89676431.08348
  24083641.188   126560277.40606  24083645.648    98618363.55345
 15 03 06 00 11 30.0000000  0  7G16G18G19G21G22G27G31
  20823436.264   109427907.80009  20823434.507    85268499.68249
  22080194.771   116032311.14509  22080193.400    90414831.25947
  23900746.149   125599283.92607  23900744.120    97869571.12345
  22151742.549   116408208.13009  22151740.643    90707695.44948
  22680518.160   119187010.03508  22680516.458    92873020.17447
  21889979.293   115032672.28108  21889980.393    89635878.13948
  24102235.677   126657990.32407  24102240.324    98694502.92745
 15 03 06 00 12  0.0000000  0  7G16G18G19G21G22G27G31
  20814994.664   109383546.45709  20814992.861    85233932.39849
  22074158.572   116000591.89009  22074157.201    90390114.97247
  23886603.127   125524961.06207  23886600.998    97811657.24645
  22163479.780   116469888.16409  22163477.848    90755757.80748
  22664571.686   119103210.02808  22664569.657    92807721.56347
  21880099.272   114980752.17009  21880100.053    89595420.92448
  24120828.875   126755695.17707  24120833.736    98770636.02545
 15 03 06 00 12 30.0000000  0  7G16G18G19G21G22G27G31
  20806631.263   109339596.45509  20806629.376    85199685.63949
  22068205.534   115969308.87209  22068204.289    90365738.60647
  23872476.292   125450725.10807  23872474.490    97753811.08845
  22175254.723   116531766.21709  22175252.879    90803974.46648
  22648663.890   119019614.87208  22648661.899    92742582.58047
  21870242.564   114928955.44408  21870243.475    89555059.85348
  24139419.952   126853389.60207  24139424.600    98846760.97745
 15 03 06 00 13  0.0000000  0  7G16G18G19G21G22G27G31
  20798345.872   109296056.27609  20798344.047    85165758.22349
  22062335.284   115938460.37309  22062333.919    90341700.82647
  23858365.356   125376572.44907  23858363.474    97696029.83646
  22187066.488   116593837.43309  22187064.613    90852341.63748
  22632795.241   118936224.52808  22632793.246    92677603.18947
  21860408.684   114877278.71108  21860409.847    89514792.28948
  24158008.113   126951067.38907  24158012.400    98922872.91045
 15 03 06 00 13 30.0000000  0  7G16G18G19G21G22G27G31
  20790139.091   109252929.72709  20790137.382    85132153.11549
  22056548.175   115908049.66109  22056547.102    90318004.18647
  23844270.871   125302505.46107  23844268.961    97638315.35045
  22198914.991   116656101.39109  22198913.263    90900859.00248
  22616966.604   118853044.00608  22616964.205    92612787.28847
  21850598.312   114825724.41908  21850599.440    89474620.12748
  24176592.783   127048727.67606  24176597.252    98998971.21145
 15 03 06 00 14  0.0000000  0  7G16G18G19G21G22G27G31
  20782011.636   109210219.63109  20782009.828    85098872.51849
  22050844.915   115878078.88909  22050843.818    90294650.34847
  23830192.814   125228524.61707  23830190.773    97580667.99245
  22210800.022   116718557.93109  22210798.330    90949526.43048
  22601178.404   118770076.14408  22601175.996    92548137.08747
  21840811.361   114774293.46009  21840812.481    89434544.06948
  24195173.511   127146369.06306  24195178.697    99075054.71545
 15 03 06 00 14 30.0000000  0  7G16G18G19G21G22G27G31
  20773964.304   109167930.58509  20773962.673    85065920.01349
  22045226.328   115848552.11209  22045225.040    90271642.48447
  23816131.578   125154632.32407  23816129.637    97523089.64745
  22222721.890   116781207.24109  22222720.241    90998344.06848
  22585431.562   118687326.34008  22585429.210    92483656.82047
  21831048.331   114722988.51509  21831049.395    89394566.21048
  24213750.817   127243990.81007  24213756.179    99151122.89846
 15 03 06 00 15  0.0000000  0  7G16G18G19G21G22G27G31
  20765995.771   109126055.60009  20765994.136    85033290.15349
  22039690.589   115819461.79209  22039689.284    90248974.71047
  23802085.447   125080819.75206  23802083.481    97465573.39246
  22234678.384   116844039.06909  22234676.510    91047303.92848
  22569724.947   118604788.61308  22569722.703    92419341.79847
  21821307.583   114671800.97509  21821308.505    89354679.82848
  24232322.681   127341581.20507  24232327.986    99227166.65646
 15 03 06 00 15 30.0000000  0  7G16G18G19G21G22G27G31
  20758108.284   109084606.29109  20758106.411    85000991.98849
  22034239.974   115790818.61509  22034238.787    90226655.36747
  23788056.358   125007096.63807  23788054.301    97408126.87046
  22246670.841   116907060.57809  22246669.125    91096411.58748
  22554061.233   118522475.11608  22554058.731    92355201.48347
  21811591.215   114620740.55509  21811592.070    89314892.49648
  24250889.631   127439147.21807  24250894.610    99303191.40645
 15 03 06 00 16  0.0000000  0  7G16G18G19G21G22G27G31
  20750301.277   109043580.13309  20750299.492    84969023.55349
  22028873.923   115762620.11009  22028872.718    90204682.52447
  23774043.396   124933458.65307  23774041.516    97350746.67246
  22258698.391   116970265.55909  22258696.700    91145662.21548
  22538439.888   118440384.05108  22538437.277    92291234.48947
  21801898.238   114569803.05709  21801898.851    89275200.94648
  24269450.070   127536681.63805  24269454.951    99379191.55844
 15 03 06 00 16 30.0000000  0  7G16G18G19G21G22G27G31
  20742575.752   109002982.63109  20742574.157    84937389.13049
  22023593.317   115734871.24609  22023592.358    90183060.04747
  23760047.630   124859909.53107  23760045.556    97293435.71146
  22270761.375   117033656.34509  22270759.398    91195057.63548
  22522862.036   118358522.01008  22522859.369    92227445.96747
  21792229.161   114518992.52609  21792230.084    89235608.33748
  24288004.641   127634185.56706  24288010.160    99455167.78544
 15 03 06 00 17  0.0000000  0  7G16G18G19G21G22G27G31
  20734931.084   108962809.47309  20734929.413    84906085.36949
  22018397.281   115707566.85909  22018396.272    90161783.91447
  23746067.283   124786442.46707  23746065.388    97236188.69946
  22282858.249   117097225.25109  22282856.118    91244591.83948
  22507326.951   118276885.27308  22507324.732    92163833.00647
  21782583.091   114468302.70708  21782584.005    89196109.78948
  24306552.361   127731649.77807  24306558.287    99531112.98445
 15 03 06 00 17 30.0000000  0  7G16G18G19G21G22G27G31
  20727368.238   108923066.51209  20727366.471    84875116.82449
  22013287.134   115680712.17109  22013286.122    90140858.20347
  23732103.474   124713062.03007  23732101.430    97179009.18646
  22294989.123   117160973.98609  22294987.281    91294266.17248
  22491835.961   118195480.63208  22491833.604    92100400.89747
  21772960.793   114417737.97309  21772961.907    89156708.71748
  24325092.751   127829075.62207  24325099.149    99607028.30846
 15 03 06 00 18  0.0000000  0  7G16G18G19G21G22G27G31
  20719888.164   108883758.20909  20719886.296    84844486.97549
  22008263.250   115654311.42009  22008262.084    90120286.20147
  23718156.257   124639770.91307  23718154.552    97121899.27146
  22307154.506   117224903.06908  22307152.595    91344081.03648
  22476390.295   118114313.58008  22476387.724    92037153.91347
  21763363.117   114367301.19009  21763364.241    89117407.34748
  24343625.654   127926463.08806  24343632.329    99682913.64746
 15 03 06 00 18 30.0000000  0  7G16G18G19G21G22G27G31
  20712490.512   108844883.75009  20712488.900    84814195.18949
  22003325.426   115628362.85309  22003324.094    90100066.55247
  23704225.664   124566565.96307  23704224.019    97064856.50446
  22319353.168   117289008.31608  22319351.424    91394033.17048
  22460989.927   118033383.82008  22460987.227    91974091.82847
  21753789.124   114316989.60909  21753790.191    89078203.52848
  24362149.661   128023806.87105  24362157.317    99758765.06145
 15 03 06 00 19  0.0000000  0  7G16G18G19G21G22G27G31
  20705175.635   108806443.87409  20705174.072    84784242.03549
  21998473.813   115602866.45609  21998472.318    90080199.24647
  23690311.485   124493446.23807  23690309.836    97007880.15646
  22331584.893   117353286.83709  22331583.255    91444120.31848
  22445634.836   117952692.80208  22445632.215    91911215.77447
  21744238.877   114266802.41109  21744239.803    89039096.62848
  24380665.050   128121102.77406  24380672.441    99834579.24243
 15 03 06 00 19 30.0000000  0  7G16G18G19G21G22G27G31
  20697943.726   108768439.03109  20697941.769    84754627.86949
  21993708.109   115577822.13809  21993706.569    90060684.20847
  23676413.271   124420410.41307  23676411.516    96950969.17245
  22343849.235   117417735.32609  22343847.196    91494339.92048
  22430325.364   117872241.70208  22430323.004    91848526.67847
  21734712.037   114216738.40409  21734712.924    89000085.71448
  24399170.912   128218346.51407  24399177.322    99910352.79544
 15 03 06 00 20  0.0000000  0  7G16G18G19G21G22G27G31
  20690794.973   108730872.95409  20690793.220    84725355.59849
  21989029.014   115553233.14009  21989027.318    90041523.95848
  23662531.487   124347460.36607  23662529.451    96894125.03046
  22356145.742   117482353.81309  22356143.631    91544691.98548
  22415062.629   117792035.17408  22415060.348    91786028.15247
  21725208.982   114166799.79309  21725209.984    88961172.51248
  24417666.713   128315537.60607  24417673.478    99986085.30446
 15 03 06 00 20 30.0000000  0  7G16G18G19G21G22G27G31
  20683730.680   108693749.44009  20683728.964    84696428.18449
  21984437.071   115529102.84809  21984435.800    90022721.14547
  23648666.266   124274598.29407  23648664.147    96837349.42746
  22368474.690   117547142.93608  22368472.904    91595177.01548
  22399847.187   117712078.05208  22399844.716    91723723.96547
  21715730.525   114116989.07409  21715731.244    88922358.97248
  24436152.177   128412676.15706  24436159.540   100061777.16845
 15 03 06 00 21  0.0000000  0  7G16G18G19G21G22G27G31
  20676750.871   108657070.45209  20676749.215    84667847.15249
  21979932.720   115505432.25709  21979931.471    90004276.54748
  23634817.841   124201824.08007  23634815.663    96780642.29445
  22380835.677   117612100.98708  22380833.804    91645793.67548
  22384679.679   117632373.22808  22384677.293    91661616.37047
  21706276.212   114067306.44609  21706277.134    88883645.25148
  24454626.154   128509758.68405  24454634.660   100137425.29346
 15 03 06 00 21 30.0000000  0  7G16G18G19G21G22G27G31
  20669855.755   108620836.81109  20669854.205    84639613.14549
  21975515.737   115482221.60909  21975514.688    89986190.34148
  23620985.740   124129136.89807  23620983.537    96724002.96046
  22393228.474   117677225.13508  22393226.500    91696539.75848
  22369560.553   117552922.18508  22369558.149    91599706.53647
  21696845.952   114017750.97309  21696846.952    88845030.60748
  24473089.260   128606781.77607  24473098.227   100213027.38545
 15 03 06 00 22  0.0000000  0  7G16G18G19G21G22G27G31
  20663045.715   108585049.37409  20663043.959    84611726.82649
  21971186.466   115459471.25809  21971185.323    89968462.81548
  23607170.061   124056535.79607  23607167.881    96667430.71746
  22405652.105   117742512.69708  22405650.483    91747413.17448
  22354489.869   117473726.73908  22354487.606    91537995.86847
  21687440.087   113968322.19509  21687440.918    88806514.68948
  24491540.348   128703741.92806  24491549.446   100288580.48044
 15 03 06 00 22 30.0000000  0  7G16G18G19G21G22G27G31
  20656320.734   108549709.54309  20656319.134    84584189.29249
  21966944.991   115437182.06509  21966943.841    89951094.62547
  23593370.889   123984020.90707  23593368.942    96610925.65145
  22418106.602   117807961.54808  22418104.944    91798412.26647
  22339468.752   117394789.35708  22339466.426    91476486.27347
  21678058.180   113919020.00109  21678059.076    88768097.39648
  24509979.054   128800636.19906  24509987.958   100364082.51145
 15 03 06 00 23  0.0000000  0  7G16G18G19G21G22G27G31
  20649681.980   108514822.12809  20649680.278    84557004.28749
  21962791.889   115415357.64909  21962790.697    89934088.60047
  23579588.515   123911594.35807  23579586.636    96554489.41246
  22430592.131   117873573.00808  22430590.388    91849538.07148
  22324497.537   117316115.37608  22324494.884    91415181.93547
  21668700.825   113869847.67609  21668701.905    88729781.31348
  24528404.556   128897463.92806  24528413.485   100439532.55945
 15 03 06 00 23 30.0000000  0  7G16G18G19G21G22G27G31
  20643128.870   108480385.64309  20643127.164    84530170.66049
  21958727.020   115393996.05209  21958725.792    89917443.21348
  23565822.475   123839253.32907  23565820.361    96498119.81946
  22443107.594   117939342.15008  22443105.624    91900786.74448
  22309576.409   117237704.13108  22309573.531    91354082.30447
  21659367.861   113820802.27309  21659368.848    88691564.12948
  24546816.650   128994219.32606  24546825.668   100514925.90045
 15 03 06 00 24  0.0000000  0  7G16G18G19G21G22G27G31
  20636662.344   108446403.07309  20636660.472    84503690.73349
  21954750.490   115373099.77709  21954749.222    89901160.41647
  23552073.032   123766999.67507  23552071.127    96441818.31446
  22455652.923   118005268.64408  22455651.170    91952158.03347
  22294705.846   117159559.85508  22294703.069    91293190.71747
  21650059.249   113771885.31509  21650060.277    88653447.02548
  24565214.969   129090902.01807  24565224.451   100590262.84145
 15 03 06 00 24 30.0000000  0  7G16G18G19G21G22G27G31
  20630281.831   108412873.55909  20630279.963    84477563.83249
  21950862.445   115352667.46209  21950860.993    89885239.14147
  23538339.817   123694830.29607  23538337.661    96385582.47346
  22468227.396   118071347.88208  22468225.584    92003648.34247
  22279886.300   117081682.42708  22279883.762    91232507.06847
  21640774.635   113723094.67909  21640775.630    88615428.35648
  24583598.472   129187506.63506  24583607.787   100665538.99744
 15 03 06 00 25  0.0000000  0  7G16G18G19G21G22G27G31
  20623989.198   108379805.02009  20623987.396    84451796.13549
  21947063.792   115332705.47109  21947062.301    89869684.35448
  23524623.511   123622751.06207  23524621.358    96329416.88046
  22480831.689   118137583.95108  22480829.854    92055260.84947
  22265119.173   117004080.21708  22265116.227    91172037.85447
  21631515.370   113674436.28809  21631516.086    88577512.72748
  24601967.473   129284035.98106  24601976.940   100740756.64244
 15 03 06 00 25 30.0000000  0  7G16G18G19G21G22G27G31
  20617783.355   108347193.15509  20617781.510    84426384.28749
  21943353.779   115313209.22109  21943352.322    89854492.48548
  23510923.362   123550756.50907  23510921.381    96273317.26546
  22493464.558   118203969.06208  22493462.588    92106989.50047
  22250403.652   116926750.00808  22250400.838    91111780.61147
  21622280.040   113625904.71109  21622280.720    88539695.91648
  24620320.639   129380481.98506  24620330.144   100815909.81944
 15 03 06 00 26  0.0000000  0  7G16G18G19G21G22G27G31
  20611665.414   108315043.91109  20611663.551    84401332.92649
  21939733.419   115294184.25709  21939731.874    89839667.85448
  23497240.082   123478850.76107  23497237.874    96217286.84246
  22506126.177   118270506.60208  22506124.130    92158836.92847
  22235741.072   116849698.34908  22235738.392    91051740.40647
  21613069.786   113577504.71609  21613070.585    88501981.63948
  24638657.964   129476845.96805  24638667.352   100890998.87245
 15 03 06 00 26 30.0000000  0  7G16G18G19G21G22G27G31
  20605635.904   108283358.99409  20605634.248    84376643.37549
  21936202.723   115275630.91909  21936201.316    89825210.71748
  23483573.799   123407033.80507  23483571.526    96161325.61846
  22518816.454   118337194.14508  22518814.520    92210801.23747
  22221132.169   116772928.67008  22221129.306    90991919.92247
  21603884.653   113529236.29609  21603885.373    88464369.89048
  24656979.005   129573124.75207  24656988.191   100966021.45744
 15 03 06 00 27  0.0000000  0  7G16G18G19G21G22G27G31
  20599695.096   108252139.18409  20599693.345    84352316.24549
  21932762.021   115257549.78409  21932760.647    89811121.53348
  23469924.211   123335304.89007  23469921.845    96105432.99046
  22531534.813   118404029.10508  22531532.727    92262880.41747
  22206577.401   116696442.47308  22206574.423    90932320.32847
  21594724.469   113481099.14509  21594725.302    88426860.42748
  24675283.406   129669315.99304  24675292.667   101040976.09943
 15 03 06 00 27 30.0000000  0  6G16G18G19G21G22G27
  20593839.392   108221367.43809  20593837.668    84328338.25849
  21929407.881   115239923.37409  21929406.419    89797386.68648
  23456287.852   123263645.27807  23456285.577    96049594.37446
  22544277.230   118470991.67508  22544275.386    92315059.03847
  22192073.320   116620223.79508  22192070.619    90872929.20947
  21585585.585   113433074.95409  21585586.519    88389438.98648
 15 03 06 00 28  0.0000000  0  6G16G18G19G21G22G27
  20588077.088   108191086.98509  20588075.564    84304743.09349
  21926148.145   115222793.50409  21926146.700    89784038.74647
  23442672.440   123192096.52807  23442670.342    95993842.13846
  22557051.656   118538121.45908  22557049.567    92367367.95447
  22177628.583   116544316.37608  22177625.807    90813780.61847
  21576476.387   113385205.42009  21576477.503    88352138.05548
 15 03 06 00 28 30.0000000  0  6G16G18G19G21G22G27
  20582403.639   108161272.99709  20582402.104    84281511.41049
  21922978.197   115206135.03409  21922976.878    89771058.13348
  23429073.242   123120632.88307  23429071.174    95938156.22446
  22569852.512   118605390.65908  22569850.637    92419785.51147
  22163238.703   116468696.35908  22163235.699    90754855.96747
  21567391.610   113337464.59509  21567392.650    88314937.41248
 15 03 06 00 29  0.0000000  0  6G16G18G19G21G22G27
  20576818.875   108131924.58209  20576817.262    84258642.50949
  21919897.538   115189946.09009  21919896.220    89758443.38548
  23415489.936   123049251.47107  23415487.627    95882534.37346
  22582679.030   118672794.40408  22582677.064    92472307.89847
  22148903.194   116393363.77809  22148900.397    90696155.30147
  21558331.047   113289850.17109  21558332.012    88277835.27248
 15 03 06 00 29 30.0000000  0  6G16G18G19G21G22G27
  20571324.738   108103052.97909  20571323.291    84236145.14849
  21916908.032   115174236.66209  21916906.819    89746202.28748
  23401923.885   122977961.70607  23401921.496    95826983.92846
  22595532.565   118740340.74708  22595530.818    92524941.40247
  22134624.958   116318330.51708  22134621.859    90637687.85847
  21549296.361   113242372.07709  21549297.217    88240839.35748
 15 03 06 00 30  0.0000000  0  6G16G18G19G21G22G27
  20565921.529   108074658.33009  20565919.931    84214019.44749
  21914009.866   115159006.94909  21914008.467    89734334.99248
  23388374.861   122906761.97907  23388372.690    95771503.64446
  22608412.797   118808026.41908  22608410.910    92577683.47747
  22120403.915   116243598.52908  22120400.943    90579455.17947
  21540287.243   113195029.18609  21540287.999    88203948.80648
 15 03 06 00 30 30.0000000  0  6G16G18G19G21G22G27
  20560607.394   108046732.92409  20560605.932    84192259.38549
  21911201.543   115144248.08109  21911200.073    89722834.58648
  23374841.580   122835643.91707  23374839.348    95716086.99746
  22621317.628   118875841.16708  22621315.713    92630526.14247
  22106238.851   116169160.77009  22106235.936    90521451.77947
  21531302.110   113147812.83409  21531303.020    88167156.84948
 15 03 06 00 31  0.0000000  0  6G16G18G19G21G22G27
  20555385.942   108019293.38309  20555384.230    84170877.92049
  21908485.498   115129975.60609  21908484.189    89711713.18448
  23361326.860   122764622.02207  23361324.512    95660745.28146
  22634249.208   118943797.23708  22634247.129    92683478.91347
  22092133.184   116095034.01909  22092130.032    90463690.71147
  21522344.017   113100737.92609  21522345.140    88130475.11048
 15 03 06 00 31 30.0000000  0  6G16G18G19G21G22G27
  20550254.901   107992329.39109  20550253.388    84149867.01249
  21905860.209   115116179.45909  21905858.698    89700962.95548
  23347827.930   122693685.07607  23347825.511    95605469.78546
  22647205.355   119011882.46708  22647203.447    92736532.33647
  22078084.792   116021209.84509  22078081.821    90406165.41647
  21513410.836   113053793.80409  21513411.850    88093895.28148
 15 03 06 00 32  0.0000000  0  6G16G18G19G21G22G27
  20545215.901   107965849.67609  20545214.351    84129233.46649
  21903326.818   115102866.77609  21903325.510    89690589.44448
  23334346.277   122622839.76207  23334344.186    95550265.67146
  22660187.043   119080101.26308  22660185.051    92789689.83347
  22064095.889   115947697.75809  22064092.815    90348883.30648
  21504503.884   113006987.36209  21504504.729    88057422.73248
 15 03 06 00 32 30.0000000  0  6G16G18G19G21G22G27
  20540267.703   107939846.34309  20540266.195    84108971.12349
  21900883.741   115090028.72709  21900882.400    89680585.78348
  23320880.545   122552076.76507  23320878.458    95495125.70246
  22673191.919   119148442.74908  22673189.979    92842942.93347
  22050164.971   115874490.60309  22050161.806    90291838.81147
  21495621.392   112960309.46009  21495622.312    88021050.34648
 15 03 06 00 33  0.0000000  0  6G16G18G19G21G22G27
  20535413.174   107914335.78009  20535411.573    84089092.75949
  21898534.029   115077681.22009  21898532.796    89670964.36148
  23307433.415   122481411.30907  23307431.182    95440061.73146
  22686222.670   119216919.99608  22686220.780    92896301.82347
  22036295.422   115801605.85109  22036292.368    90235045.53148
  21486766.319   112913775.70509  21486767.211    87984790.28148
 15 03 06 00 33 30.0000000  0  6G16G18G19G21G22G27
  20530650.506   107889307.07109  20530648.743    84069589.86349
  21896275.358   115065812.29109  21896274.026    89661715.85848
  23294002.321   122410830.90307  23294000.207    95385064.04146
  22699276.814   119285519.67508  22699275.068    92949756.10847
  22022485.443   115729033.36109  22022482.338    90178495.58048
  21477936.326   112867373.84309  21477937.048    87948632.98848
 15 03 06 00 34  0.0000000  0  6G16G18G19G21G22G27
  20525979.972   107864763.46909  20525978.228    84050464.97749
  21894108.450   115054425.08309  21894107.138    89652842.72147
  23280587.943   122340337.87207  23280585.613    95330134.42746
  22712354.208   119354241.90708  22712352.289    93003305.89247
  22008735.844   115656778.19909  22008732.518    90122192.89348
  21469132.042   112821106.83109  21469132.821    87912580.77548
 15 03 06 00 34 30.0000000  0  6G16G18G19G21G22G27
  20521403.767   107840715.19209  20521402.221    84031726.05649
  21892034.578   115043527.62409  21892033.492    89644351.20448
  23267191.759   122269940.29007  23267189.469    95275279.20546
  22725456.342   119423093.27508  22725454.459    93056956.30647
  21995048.290   115584850.96109  21995045.244    90066145.73248
  21460354.966   112774982.70209  21460355.675    87876639.89548
 15 03 06 00 35  0.0000000  0  6G16G18G19G21G22G27
  20516919.689   107817151.73409  20516918.023    84013364.91949
  21890052.132   115033109.36309  21890050.935    89636233.08948
  23253811.404   122199626.70907  23253809.246    95220489.42946
  22738580.358   119492060.47308  22738578.372    93110696.97147
  21981421.686   115513242.23609  21981418.504    90010346.76348
  21451602.929   112728990.43609  21451603.686    87840801.77449
 15 03 06 00 35 30.0000000  0  6G16G18G19G21G22G27
  20512530.186   107794084.39509  20512528.567    83995390.36449
  21888162.941   115023181.18909  21888161.433    89628496.86348
  23240449.087   122129406.94507  23240446.739    95165772.76046
  22751728.020   119561151.12508  22751725.982    93164533.83147
  21967857.822   115441964.30509  21967854.828    89954805.55648
  21442877.936   112683140.28809  21442878.793    87805074.39049
 15 03 06 00 36  0.0000000  0  6G16G18G19G21G22G27
  20508234.314   107771509.09309  20508232.674    83977799.21349
  21886365.814   115013737.47409  21886364.555    89621138.13548
  23227103.609   122059275.73508  23227101.227    95111125.08746
  22764897.687   119630358.75408  22764895.747    93218461.84847
  21954356.463   115371014.21509  21954353.314    89899519.80348
  21434178.999   112637427.09609  21434179.772    87769453.72649
 15 03 06 00 36 30.0000000  0  6G16G18G19G21G22G27
  20504032.454   107749428.85809  20504030.754    83960593.83249
  21884661.317   115004780.90809  21884660.164    89614159.00348
  23213775.359   121989234.81007  23213772.651    95056547.76446
  22778089.763   119699683.39008  22778087.899    93272481.03847
  21940918.261   115300396.17209  21940915.257    89844492.79848
  21425506.587   112591853.10909  21425507.385    87733941.53449
 15 03 06 00 37  0.0000000  0  6G16G18G19G21G22G27
  20499925.357   107727845.97809  20499923.636    83943775.99749
  21883049.854   114996312.67209  21883048.633    89607560.39448
  23200464.473   121919285.03707  23200461.675    95002041.47946
  22791303.884   119769124.41308  22791301.841    93326590.92147
  21927543.779   115230113.51509  21927541.043    89789727.12648
  21416860.814   112546419.64209  21416861.609    87698538.83949
 15 03 06 00 37 30.0000000  0  6G16G18G19G21G22G27
  20495912.807   107706759.94809  20495911.250    83927345.32249
  21881531.084   114988331.20209  21881529.934    89601341.07948
  23187170.339   121849424.82807  23187167.710    94947604.97946
  22804539.400   119838677.83008  22804537.475    93380788.38147
  21914233.224   115160166.42009  21914230.348    89735222.93148
  21408241.463   112501124.99109  21408242.455    87663244.31149
 15 03 06 00 38  0.0000000  0  6G16G18G19G21G22G27
  20491995.622   107686174.19009  20491993.879    83911304.46749
  21880105.397   114980839.63709  21880104.210    89595503.50648
  23173893.846   121779656.38607  23173891.494    94893240.00146
  22817796.453   119908343.98508  22817794.488    93435073.69647
  21900987.311   115090559.64609  21900984.582    89680983.92348
  21399649.274   112455972.04509  21399650.145    87628060.20749
 15 03 06 00 38 30.0000000  0  6G16G18G19G21G22G27
  20488173.810   107666090.02909  20488171.981    83895654.46549
  21878773.173   114973838.00209  21878771.746    89590047.69448
  23160634.779   121709979.64307  23160632.318    94838946.45246
  22831074.747   119978121.95808  22831072.975    93489446.12847
  21887806.714   115021295.55109  21887804.003    89627011.93348
  21391083.770   112410960.95409  21391084.659    87592986.63149
 15 03 06 00 39  0.0000000  0  6G16G18G19G21G22G27
  20484447.673   107646509.23309  20484445.825    83880396.69749
  21877534.195   114967327.22109  21877532.880    89584974.37148
  23147393.313   121640395.17807  23147390.672    94784724.81646
  22844373.933   120048009.99208  22844372.201    93543904.33047
  21874691.814   114952376.75509  21874689.406    89573309.01148
  21382545.690   112366092.60109  21382546.573    87558024.28349
 15 03 06 00 39 30.0000000  0  6G16G18G19G21G22G27
  20480816.290   107627426.84009  20480814.679    83865527.29249
  21876387.539   114961301.63009  21876386.288    89580279.11348
  23134168.234   121570897.04208  23134165.755    94730570.45846
  22857692.742   120118000.68008  22857690.885    93598442.52047
  21861642.104   114883799.53109  21861639.480    89519872.24448
  21374033.678   112321361.27309  21374034.401    87523168.70749
 15 03 06 00 40  0.0000000  0  6G16G18G19G21G22G27
  20477282.156   107608854.55909  20477280.475    83851055.38049
  21875335.462   114955772.01909  21875333.926    89575970.33448
  23120961.361   121501495.30007  23120959.033    94676491.20046
  22871032.587   120188102.72708  22871030.826    93653067.47447
  21848659.819   114815576.75909  21848656.980    89466711.66848
  21365549.580   112276777.69209  21365550.543    87488428.25749
 15 03 06 00 40 30.0000000  0  6G16G18G19G21G22G27
  20473843.910   107590786.86409  20473842.229    83836976.65249
  21874376.272   114950731.97509  21874374.878    89572043.03648
  23107771.705   121432183.78508  23107769.389    94622482.25347
  22884392.162   120258307.67508  22884390.368    93707772.62847
  21835744.094   114747704.07309  21835741.038    89413823.89248
  21357092.530   112232335.93809  21357093.467    87453798.32049
 15 03 06 00 41  0.0000000  0  6G16G18G19G21G22G27
  20470501.944   107573224.77509  20470500.205    83823291.90349
  21873510.468   114946181.20609  21873508.623    89568496.99348
  23094599.524   121362962.13208  23094596.940    94568543.33647
  22897771.021   120328613.99108  22897769.122    93762556.76447
  21822895.148   114680183.34309  21822892.439    89361210.36948
  21348662.513   112188035.96409  21348663.257    87419278.86349
 15 03 06 00 41 30.0000000  0  6G16G18G19G21G22G27
  20467257.225   107556173.35109  20467255.631    83810005.07249
  21872738.485   114942124.34809  21872736.677    89565335.81548
  23081444.978   121293834.46508  23081442.190    94514677.65047
  22911169.596   120399023.50708  22911167.773    93817421.31147
  21810114.622   114613021.09709  21810111.835    89308876.18048
  21340260.473   112143882.16209  21340261.228    87384873.30349
 15 03 06 00 42  0.0000000  0  6G16G18G19G21G22G27
  20464109.802   107539633.18809  20464108.027    83797116.62849
  21872060.455   114938561.33609  21872058.837    89562559.45648
  23068308.148   121224800.29907  23068305.380    94460884.82846
  22924587.353   120469534.67208  22924585.714    93872365.06947
  21797402.575   114546219.03109  21797399.702    89256822.65448
  21331885.931   112099874.52509  21331886.838    87350581.63949
 15 03 06 00 42 30.0000000  0  6G16G18G19G21G22G27
  20461059.607   107523604.45809  20461057.875    83784626.70449
  21871476.219   114935491.34509  21871474.731    89560167.26348
  23055188.750   121155858.86507  23055186.409    94407164.26947
  22938023.970   120540144.50808  22938022.118    93927385.71047
  21784759.205   114479778.07609  21784756.378    89205050.51248
  21323539.247   112056012.33809  21323540.210    87316403.31149
 15 03 06 00 43  0.0000000  0  6G16G18G19G21G22G27
  20458106.473   107508085.79309  20458104.908    83772534.23449
  21870985.226   114932911.71909  21870983.823    89558157.17448
  23042086.739   121087007.33307  23042084.184    94353513.75746
  22951478.557   120610848.49708  22951476.600    93982479.72047
  21772184.471   114413697.87309  21772181.733    89153559.47348
  21315219.848   112012293.47709  21315220.729    87282336.67649
 15 03 06 00 43 30.0000000  0  6G16G18G19G21G22G27
  20455251.880   107493084.33609  20455250.104    83760844.78749
  21870588.811   114930828.95209  21870587.505    89556534.25448
  23029003.106   121018252.09507  23029000.650    94299938.27946
  22964951.920   120681651.65608  22964950.197    94037651.00347
  21759680.268   114347987.09409  21759677.501    89102356.29748
  21306928.984   111968724.44509  21306929.796    87248386.78749
 15 03 06 00 44  0.0000000  0  6G16G18G19G21G22G27
  20452495.469   107478599.51509  20452493.724    83749557.90649
  21870286.798   114929241.49009  21870285.462    89555297.28148
  23015937.227   120949591.87508  23015934.947    94246436.84547
  22978443.559   120752550.53908  22978441.599    94092896.88247
  21747246.183   114282646.53709  21747243.508    89051441.61348
  21298666.435   111925304.39309  21298667.213    87214552.98349
 15 03 06 00 44 30.0000000  0  6G16G18G19G21G22G27
  20449836.094   107464624.90709  20449834.521    83738668.59849
  21870077.656   114928142.18709  21870076.175    89554440.69248
  23002888.452   120881019.00507  23002886.108    94193003.46747
  22991951.784   120823536.30208  22991949.815    94148210.45647
  21734881.560   114217670.53509  21734878.918    89000810.99648
  21290430.975   111882026.07109  21290431.706    87180829.61449
 15 03 06 00 45  0.0000000  0  6G16G18G19G21G22G27
  20447276.650   107451174.37409  20447274.953    83728187.66049
  21869963.632   114927543.89609  21869962.395    89553974.50148
  22989858.328   120812546.27307  22989856.257    94139648.12547
  23005478.655   120894620.05108  23005476.739    94203600.38847
  21722589.089   114153073.91109  21722586.482    88950475.99148
  21282224.789   111838902.55209  21282225.534    87147226.87049
 15 03 06 00 45 30.0000000  0  6G16G18G19G21G22G27
  20444815.430   107438240.73509  20444813.815    83718109.49449
  21869943.622   114927438.33809  21869942.402    89553892.25948
  22976845.863   120744165.43308  22976843.715    94086364.38047
  23019022.029   120965791.96408  23019020.491    94259059.00747
  21710367.892   114088850.96309  21710365.329    88900432.16548
  21274046.684   111795926.25809  21274047.388    87113738.85449
 15 03 06 00 46  0.0000000  0  6G16G18G19G21G22G27
  20442452.575   107425823.50509  20442450.833    83708433.72649
  21870017.047   114927824.21609  21870015.668    89554192.95848
  22963850.831   120675875.36008  22963848.424    94033151.36647
  23032581.781   121037048.91008  23032580.105    94314583.89147
  21698218.141   114025002.27909  21698215.105    88850679.96648
  21265896.387   111753096.12909  21265897.093    87080364.72549
 15 03 06 00 46 30.0000000  0  7G04G16G18G19G21G22G27
  24590246.595   129222613.25816  24590252.854   100692981.37454
  20440189.413   107413930.56909  20440187.758    83699166.49849
  21870185.256   114928708.41209  21870183.881    89554881.94948
  22950874.513   120607683.10108  22950871.691    93980014.56247
  23046158.622   121108395.90908  23046157.009    94370178.94947
  21686140.951   113961536.90409  21686138.191    88801226.46048
  21257775.194   111710419.56409  21257776.112    87047110.26049
 15 03 06 00 47  0.0000000  0  7G04G16G18G19G21G22G27
  24571162.878   129122332.08506  24571170.371   100614840.60844
  20438027.129   107402567.50109  20438025.527    83690312.14949
  21870449.214   114930095.92609  21870448.094    89555963.14048
  22937917.393   120539593.41508  22937914.514    93926957.68347
  23059753.376   121179836.60708  23059751.999    94425847.00647
  21674138.088   113898461.40509  21674135.284    88752076.74948
  21249684.250   111667901.68009  21249685.182    87013979.44249
 15 03 06 00 47 30.0000000  0  7G04G16G18G19G21G22G27
  24552106.170   129022191.31605  24552113.815   100536809.32542
  20435963.007   107391720.87209  20435961.465    83681860.22449
  21870806.369   114931972.13209  21870805.005    89557425.12848
  22924976.974   120471591.98808  22924974.241    93873969.58447
  23073362.890   121251354.86808  23073361.280    94481575.51747
  21662207.240   113835764.09309  21662204.282    88703221.73048
  21241620.880   111625528.57009  21241621.801    86980961.43249
 15 03 06 00 48  0.0000000  0  7G04G16G18G19G21G22G27
  24533077.585   128922197.89106  24533085.309   100458892.86444
  20433998.572   107381397.38509  20433996.816    83673815.94149
  21871257.280   114934342.99909  21871255.999    89559272.56348
  22912054.626   120403684.65608  22912051.831    93821054.79047
  23086987.934   121322954.86208  23086986.176    94537367.72047
  21650349.662   113773452.38309  21650346.749    88654667.17548
  21233586.324   111583306.47409  21233587.264    86948061.09849
 15 03 06 00 48 30.0000000  0  7G04G16G18G19G21G22G27
  24514078.160   128822355.21107  24514085.433   100381093.77044
  20432134.270   107371600.54009  20432132.781    83666182.02749
  21871803.021   114937210.88909  21871801.742    89561507.28948
  22899150.665   120335873.85008  22899147.976    93768215.22347
  23100628.689   121394637.38708  23100627.050    94593224.22547
  21638566.345   113711530.82009  21638563.336    88606416.63248
  21225581.057   111541238.45409  21225581.843    86915280.82849
 15 03 06 00 49  0.0000000  0  7G04G16G18G19G21G22G27
  24495106.873   128722661.39207  24495114.188   100303410.65944
  20430369.896   107362328.15709  20430368.143    83658956.78649
  21872442.741   114940572.23009  21872441.219    89564126.52748
  22886264.524   120268156.84908  22886261.725    93715448.73947
  23114284.279   121466398.15408  23114282.604    94649141.68746
  21626857.269   113649998.77109  21626854.267    88558469.60648
  21217604.541   111499321.89109  21217605.484    86882618.56849
 15 03 06 00 49 30.0000000  0  7G04G16G18G19G21G22G27
  24476165.116   128623122.41306  24476172.181   100225848.15044
  20428706.361   107353586.06609  20428704.615    83652144.76149
  21873177.393   114944433.01109  21873175.766    89567134.93748
  22873397.443   120200539.09908  22873394.559    93662759.59647
  23127955.346   121538240.75108  23127953.781    94705122.93247
  21615223.648   113588863.46209  21615220.480    88510831.72648
  21209658.155   111457562.56709  21209658.927    86850078.83849
 15 03 06 00 50  0.0000000  0  7G04G16G18G19G21G22G27
  24457252.027   128523735.49206  24457259.080   100148404.22643
  20427143.100   107345371.29409  20427141.431    83645743.62949
  21874006.130   114948788.92909  21874004.917    89570529.17148
  22860548.217   120133016.68108  22860545.421    93610144.74447
  23141641.090   121610159.50908  23141639.570    94761163.51347
  21603664.973   113528122.99909  21603661.936    88463501.51548
  21201740.839   111415956.98009  21201741.647    86817658.89949
 15 03 06 00 50 30.0000000  0  7G04G16G18G19G21G22G27
  24438368.148   128424502.97706  24438374.920   100071080.62445
  20425680.679   107337686.22009  20425679.100    83639755.25149
  21874929.710   114953641.30909  21874928.349    89574310.25348
  22847717.599   120065591.13808  22847714.901    93557605.37647
  23155341.336   121682154.38208  23155339.771    94817263.39046
  21592182.210   113467780.79309  21592179.188    88416481.64148
  21193853.355   111374507.06409  21193854.136    86785360.26549
 15 03 06 00 51  0.0000000  0  7G04G16G18G19G21G22G27
  24419514.154   128325426.09806  24419520.929    99993878.36845
  20424319.132   107330531.65009  20424317.614    83634180.25549
  21875947.564   114958990.13909  21875946.201    89578478.18548
  22834905.220   119998262.54208  22834902.662    93505141.55747
  23169055.815   121754224.14108  23169054.022    94873421.64346
  21580775.655   113407838.81909  21580772.583    88369773.62948
  21185995.369   111333213.50509  21185996.149    86753183.46949
 15 03 06 00 51 30.0000000  0  7G04G16G18G19G21G22G27
  24400689.818   128226505.41806  24400696.506    99916797.78444
  20423058.829   107323908.11709  20423057.233    83629019.05049
  21877059.673   114964834.87509  21877058.304    89583032.53148
  22822111.670   119931031.01008  22822108.931    93452753.36847
  23182783.981   121826366.86108  23182782.293    94929636.74247
  21569445.753   113348299.12509  21569442.730    88323379.08748
  21178167.213   111292076.48809  21178167.991    86721128.65749
 15 03 06 00 52  0.0000000  0  7G04G16G18G19G21G22G27
  24381895.867   128127743.32206  24381902.448    99839840.73144
  20421899.738   107317817.77109  20421898.193    83624273.31849
  21878266.629   114971176.46809  21878265.201    89587974.04048
  22809336.474   119863897.90608  22809333.769    93400441.87147
  23196526.227   121898582.38408  23196524.591    94985908.55947
  21558192.718   113289164.90209  21558189.723    88277300.49648
  21170369.131   111251097.94909  21170370.106    86689197.34049
 15 03 06 00 52 30.0000000  0  7G04G16G18G19G21G22G27
  24363131.800   128029139.01406  24363138.254    99763006.64844
  20420842.082   107312259.53309  20420840.508    83619942.21549
  21879567.636   114978013.65109  21879566.108    89593301.72448
  22796579.873   119796861.70308  22796577.270    93348205.88947
  23210281.696   121970867.33108  23210279.957    95042234.48547
  21547017.111   113230436.19309  21547013.829    88231537.88948
  21162601.103   111210276.62209  21162602.015    86657388.52349
 15 03 06 00 53  0.0000000  0  7G04G16G18G19G21G22G27
  24344397.930   127930695.30306  24344404.346    99686297.73944
  20419886.232   107307236.19309  20419884.428    83616027.91449
  21880963.225   114985347.49109  21880961.747    89599016.41348
  22783842.087   119729924.65008  22783839.753    93296047.16747
  23224050.456   122043222.30808  23224048.608    95098614.96546
  21535919.423   113172117.22809  21535916.203    88186094.56148
  21154863.364   111169614.96509  21154864.414    86625704.12249
 15 03 06 00 53 30.0000000  0  7G04G16G18G19G21G22G27
  24325695.050   127832414.22506  24325701.619    99609715.57444
  20419032.396   107302749.50609  20419030.699    83612531.78449
  21882453.406   114993178.91509  21882451.896    89605118.82548
  22771123.405   119663087.65208  22771121.033    93243966.41947
  23237832.618   122115647.02808  23237830.721    95155049.79046
  21524900.157   113114211.18809  21524896.910    88140972.99348
  21147156.473   111129114.66809  21147157.374    86594145.45749
 15 03 06 00 54  0.0000000  0  7G04G16G18G19G21G22G27
  24307022.902   127734292.67506  24307029.424    99533257.68144
  20418279.974   107298795.53109  20418278.311    83609450.75649
  21884037.623   115001503.71609  21884036.048    89611605.69448
  22758423.025   119596346.86308  22758420.568    93191960.63547
  23251626.577   122188135.70708  23251624.885    95211534.46246
  21513959.018   113056715.55509  21513956.104    88096171.22248
  21139479.640   111088772.01609  21139480.393    86562709.62749
 15 03 06 00 54 30.0000000  0  7G04G16G18G19G21G22G27
  24288382.735   127636338.37007  24288389.130    99456930.07545
  20417630.516   107295382.35709  20417628.925    83606791.13149
  21885716.909   115010328.27009  21885715.261    89618481.97948
  22745742.465   119529709.28808  22745739.866    93140035.28047
  23265433.884   122260693.50108  23265432.063    95268072.98346
  21503097.823   112999639.21509  21503094.819    88051696.16848
  21131834.040   111048594.48709  21131834.918    86531402.46649
 15 03 06 00 55  0.0000000  0  7G04G16G18G19G21G22G27
  24269772.665   127538543.73006  24269778.757    99380726.83244
  20417082.468   107292502.40909  20417080.964    83604547.00849
  21887489.664   115019644.34609  21887488.214    89625741.26948
  22733079.682   119463166.79108  22733077.220    93088184.01947
  23279252.461   122333310.86508  23279250.800    95324657.93346
  21492315.060   112942975.78409  21492311.995    88007542.86748
  21124218.470   111008574.37009  21124219.199    86500217.96549
 15 03 06 00 55 30.0000000  0  7G04G16G18G19G21G22G27
  24251194.561   127440918.50905  24251200.857    99304655.71844
  20416637.577   107290164.30309  20416636.027    83602725.09849
  21889357.611   115029460.16309  21889355.919    89633389.95948
  22720436.756   119396727.73508  22720434.178    93036413.34647
  23293083.762   122405994.96508  23293082.213    95381294.88346
  21481612.966   112886735.62209  21481609.990    87963719.38648
  21116634.481   110968720.64109  21116635.479    86469163.11849
 15 03 06 00 56  0.0000000  0  7G04G16G18G19G21G22G27
  24232648.180   127343459.37206  24232654.396    99228713.96744
  20416295.000   107288364.92409  20416293.416    83601322.97749
  21891319.694   115039771.35309  21891318.213    89641424.66348
  22707812.892   119330388.81808  22707810.232    92984720.70847
  23306926.668   122478739.99308  23306925.264    95437979.30146
  21470990.849   112830916.73809  21470988.045    87920224.17348
  21109081.546   110929029.98109  21109082.506    86438235.33349
 15 03 06 00 56 30.0000000  0  7G04G16G18G19G21G22G27
  24214134.384   127246169.18406  24214140.376    99152903.80944
  20416055.597   107287106.19709  20416054.084    83600342.14149
  21893376.192   115050578.79109  21893374.963    89649846.05348
  22695208.359   119264151.89108  22695205.749    92933107.55047
  23320781.379   122551546.54908  23320779.690    95494711.67146
  21460449.696   112775522.47809  21460446.691    87877059.83848
  21101560.198   110889504.72209  21101561.056    86407436.43949
 15 03 06 00 57  0.0000000  0  7G04G16G18G19G21G22G27
  24195651.798   127149042.82006  24195657.370    99077221.26944
  20415918.046   107286383.20609  20415916.357    83599778.76449
  21895526.141   115061876.38109  21895524.664    89658649.37848
  22682622.146   119198010.93108  22682619.656    92881569.16647
