     2.11           OBSERVATION DATA    G                   RINEX VERSION / TYPE
SPIDER V4,0,0,3554                      2015 03 12 00:09    PGM / RUN BY / DATE 
EECH                                                        MARKER NAME         
EECH                                                        MARKER NUMBER       
                                                            OBSERVER / AGENCY   
462240              LEICA GRX1200PRO    8.20/2.127          REC # / TYPE / VERS 
103299              LEIAT504                                ANT # / TYPE        
  5154282.7593   121017.3605  3742656.9418                  APPROX POSITION XYZ 
        0.0590        0.0000        0.0000                  ANTENNA: DELTA H/E/N
     1     1                                                WAVELENGTH FACT L1/2
     4    C1    L1    P2    L2                              # / TYPES OF OBSERV 
    30.000                                                  INTERVAL            
  2015    03    06    00    00    0.0000000     GPS         TIME OF FIRST OBS   
  2015    03    06    23    59   30.0000000     GPS         TIME OF LAST OBS    
    16                                                      LEAP SECONDS        
    30                                                      # OF SATELLITES     
   G 1   819   819   819   819                              PRN / # OF OBS      
   G 2   900   900   895   895                              PRN / # OF OBS      
   G 3   798   798   796   796                              PRN / # OF OBS      
   G 4   835   835   834   834                              PRN / # OF OBS      
   G 5   670   670   670   670                              PRN / # OF OBS      
   G 6   660   660   658   658                              PRN / # OF OBS      
   G 7   690   690   689   689                              PRN / # OF OBS      
   G 9   778   778   778   778                              PRN / # OF OBS      
   G10   776   776   776   776                              PRN / # OF OBS      
   G11   784   784   784   784                              PRN / # OF OBS      
   G12   807   807   806   806                              PRN / # OF OBS      
   G13   812   812   812   812                              PRN / # OF OBS      
   G14   877   877   874   874                              PRN / # OF OBS      
   G15   730   730   730   730                              PRN / # OF OBS      
   G16   690   690   690   690                              PRN / # OF OBS      
   G17   908   908   908   908                              PRN / # OF OBS      
   G18   888   888   887   887                              PRN / # OF OBS      
   G19   784   784   784   784                              PRN / # OF OBS      
   G20   783   783   782   782                              PRN / # OF OBS      
   G21   586   586   575   575                              PRN / # OF OBS      
   G22   772   772   772   772                              PRN / # OF OBS      
   G23   695   695   691   691                              PRN / # OF OBS      
   G24   803   803   803   803                              PRN / # OF OBS      
   G25   821   821   821   821                              PRN / # OF OBS      
   G27   821   821   821   821                              PRN / # OF OBS      
   G28   876   876   875   875                              PRN / # OF OBS      
   G29   724   724   724   724                              PRN / # OF OBS      
   G30   656   656   656   656                              PRN / # OF OBS      
   G31   697   697   697   697                              PRN / # OF OBS      
   G32   729   729   729   729                              PRN / # OF OBS      
BIT 2 OF LLI FLAGS DATA COLLECTED UNDER A/S CONDITION       COMMENT             
SNR is mapped to RINEX snr flag value [2-9]                 COMMENT             
Lx:     = 25dBHz -> 1; 26-27dBHz -> 2; 28-31dBHz -> 3       COMMENT             
       32-35dBHz -> 4; 36-38dBHz -> 5; 39-41dBHz -> 6       COMMENT             
       42-44dBHz -> 7; 45-48dBHz -> 8; >=49dBHz -> 9        COMMENT             
                                                            END OF HEADER       
 15 03 06 00 00  0.0000000  0  7G16G18G19G21G22G27G31
  20973315.280   110215533.23909  20973314.880    85882233.15849
  22307214.700   117225216.85508  22307214.820    91344335.57147
  24194966.460   127145424.56206  24194965.200    99074363.77345
  21844076.700   114791410.60608  21844076.220    89447856.20248
  23185338.340   121839850.24907  23185338.420    94940178.41846
  22060908.860   115930918.41208  22060910.920    90335813.29048
  23800366.880   125071708.40507  23800369.500    97458456.83246
 15 03 06 00 00 30.0000000  0  7G16G18G19G21G22G27G31
  20963640.860   110164693.59609  20963640.400    85842617.85049
  22298838.380   117181199.39908  22298838.600    91310036.27147
  24180051.900   127067048.63006  24180050.700    99013291.66145
  21854543.180   114846412.46408  21854542.660    89490714.79548
  23168374.200   121750703.33007  23168374.240    94870713.47546
  22050264.420   115874981.27608  22050266.260    90292225.92848
  23819111.900   125170212.39707  23819114.420    97535212.85046
 15 03 06 00 01  0.0000000  0  7G16G18G19G21G22G27G31
  20954037.800   110114229.16909  20954037.340    85803294.91849
  22290535.940   117137570.30808  22290536.280    91276039.60947
  24165154.200   126988761.46906  24165153.540    98952288.75046
  21865057.420   114901664.95009  21865056.820    89533768.67648
  23151434.320   121661683.96207  23151434.260    94801347.90646
  22039644.640   115819174.30808  22039646.500    90248739.99748
  23837864.940   125268758.26207  23837867.300    97612001.49145
 15 03 06 00 01 30.0000000  0  7G16G18G19G21G22G27G31
  20944506.280   110064140.88009  20944505.900    85764265.08049
  22282307.680   117094330.44108  22282308.060    91242346.22947
  24150273.340   126910561.94507  24150272.980    98891354.06545
  21875619.080   114957166.11008  21875618.340    89577016.32848
  23134518.980   121572794.02307  23134519.040    94732083.15547
  22029049.460   115763496.44008  22029051.360    90205354.66048
  23856625.180   125367342.20407  23856627.480    97688819.79845
 15 03 06 00 02  0.0000000  0  7G16G18G19G21G22G27G31
  20935046.220   110014428.01109  20935045.860    85725527.77649
  22274153.520   117051479.45808  22274153.800    91208955.88147
  24135408.940   126832447.56207  24135408.140    98830485.79245
  21886227.060   115012910.97708  21886226.240    89620453.88548
  23117628.400   121484033.79707  23117628.520    94662919.48447
  22018478.480   115707945.32308  22018480.360    90162068.07548
  23875391.580   125465958.64607  23875393.900    97765663.38445
 15 03 06 00 02 30.0000000  0  7G16G18G19G21G22G27G31
  20925659.720   109965101.46809  20925659.320    85687091.51349
  22266075.320   117009027.53708  22266075.440    91175876.47447
  24120562.460   126754427.20107  24120560.960    98769690.75244
  21896882.540   115068905.97308  21896881.780    89664086.34848
  23100764.620   121395414.36007  23100764.740    94593865.50246
  22007933.340   115652529.65508  22007935.200    90118887.04248
  23894165.200   125564613.21407  23894167.640    97842536.69045
 15 03 06 00 03  0.0000000  0  7G16G18G19G21G22G27G31
  20916347.180   109916163.48809  20916346.720    85648958.01749
  22258073.180   116966976.31408  22258073.280    91143109.30947
  24105733.540   126676500.66106  24105731.600    98708968.82445
  21907585.360   115125149.75608  21907584.680    89707912.66848
  23083928.200   121306938.75408  23083928.200    94524923.59146
  21997413.920   115597249.55408  21997415.860    90075811.65448
  23912945.560   125663303.35006  23912948.160    97919437.68746
 15 03 06 00 03 30.0000000  0  7G16G18G19G21G22G27G31
  20907107.980   109867611.40609  20907107.520    85611125.22249
  22250146.960   116925324.21008  22250147.060    91110653.13847
  24090921.440   126598663.82206  24090919.520    98648316.73244
  21918334.460   115181636.40509  21918333.760    89751928.23548
  23067118.860   121218605.40007  23067118.720    94456092.53247
  21986919.400   115542101.02308  21986921.500    90032838.78948
  23931731.320   125762021.91906  23931734.240    97996360.82145
 15 03 06 00 04  0.0000000  0  7G16G18G19G21G22G27G31
  20897942.020   109819443.90309  20897941.500    85573592.09949
  22242296.320   116884068.98108  22242296.400    91078506.21447
  24076125.900   126520913.32806  24076124.460    98587731.97245
  21929128.900   115238360.74008  21929127.980    89796129.01548
  23050336.480   121130413.15608  23050336.060    94387371.45046
  21976449.220   115487080.64408  21976451.600    89989965.80248
  23950521.380   125860762.43307  23950524.400    98073301.05346
 15 03 06 00 04 30.0000000  0  7G16G18G19G21G22G27G31
  20888850.080   109771665.27009  20888849.460    85536361.99449
  22234522.020   116843214.82208  22234522.120    91046671.82147
  24061347.460   126443251.52607  24061346.420    98527216.31545
  21939968.500   115295322.59208  21939967.340    89840514.86848
  23033581.720   121042367.57707  23033581.220    94318764.63346
  21966003.980   115432190.76908  21966006.460    89947194.49148
  23969315.500   125959524.25007  23969318.520    98150257.88045
 15 03 06 00 05  0.0000000  0  7G16G18G19G21G22G27G31
  20879832.840   109724279.36009  20879832.200    85499437.91549
  22226824.700   116802764.83308  22226824.760    91015152.36747
  24046586.360   126365680.28406  24046585.320    98466771.24545
  21950853.280   115352522.33708  21950852.040    89885086.09348
  23016855.760   120954472.96808  23016855.240    94250275.44846
  21955584.040   115377433.44908  21955586.500    89904526.46248
  23988113.420   126058306.66506  23988116.340    98227230.77645
 15 03 06 00 05 30.0000000  0  7G16G18G19G21G22G27G31
  20870892.940   109677299.95209  20870892.380    85462830.58149
  22219206.920   116762732.91308  22219206.920    90983958.67847
  24031844.020   126288211.16105  24031843.440    98406405.75645
  21961785.020   115409969.42008  21961783.840    89929850.05448
  23000161.520   120866743.81408  23000160.680    94181915.18146
  21945191.640   115322820.52708  21945193.920    89861970.94648
  24006916.840   126157118.14306  24006919.660    98304226.29946
 15 03 06 00 06  0.0000000  0  7G16G18G19G21G22G27G31
  20862028.260   109630715.90209  20862027.760    85426531.31949
  22211666.540   116723107.87808  22211666.500    90953082.03347
  24017118.420   126210831.28206  24017118.480    98346109.77746
  21972761.080   115467649.64108  21972760.040    89974795.67248
  22983496.800   120779169.58308  22983495.560    94113675.62746
  21934824.240   115268339.01508  21934826.220    89819517.82648
  24025722.760   126255942.94206  24025725.520    98381232.17145
 15 03 06 00 06 30.0000000  0  7G16G18G19G21G22G27G31
  20853236.900   109584517.18809  20853236.460    85390532.31749
  22204201.720   116683879.79208  22204201.540    90922514.70647
  24002408.160   126133528.90606  24002408.380    98285874.19845
  21983778.820   115525548.87008  21983778.000    90019911.95348
  22966859.620   120691741.57607  22966858.480    94045550.01246
  21924479.540   115213977.33608  21924481.360    89777158.08748
  24044528.460   126354766.43806  24044531.300    98458237.03645
 15 03 06 00 07  0.0000000  0  7G16G18G19G21G22G27G31
  20844521.700   109538718.82309  20844521.320    85354845.27749
  22196815.100   116645062.76108  22196814.720    90892267.68947
  23987715.480   126056316.74607  23987715.400    98225708.92646
  21994840.440   115583678.57508  21994839.820    90065207.82548
  22950253.080   120604475.01208  22950252.180    93977550.17146
  21914160.040   115159748.35208  21914161.780    89734901.74048
  24063335.920   126453598.81706  24063339.000    98535248.87545
 15 03 06 00 07 30.0000000  0  7G16G18G19G21G22G27G31
  20835884.500   109493329.98609  20835884.140    85319477.35249
  22189508.300   116606665.75908  22189507.820    90862347.95847
  23973041.200   125979202.11106  23973040.720    98165619.64145
  22005946.720   115642042.75408  22005946.160    90110686.40448
  22933679.320   120517379.77308  22933678.360    93909683.85646
  21903867.200   115105659.56808  21903869.000    89692754.64748
  24082145.820   126552444.11606  24082149.240    98612270.74145
 15 03 06 00 08  0.0000000  0  7G16G18G19G21G22G27G31
  20827325.300   109448350.84209  20827324.960    85284428.67549
  22182281.540   116568689.06008  22182280.920    90832755.73746
  23958384.620   125902183.51306  23958384.220    98105605.19046
  22017097.320   115700639.62608  22017096.720    90156346.29848
  22917138.480   120430457.15608  22917137.420    93841952.04546
  21893600.720   115051709.45008  21893602.700    89650715.60348
  24100957.480   126651297.97806  24100961.260    98689299.21745
 15 03 06 00 08 30.0000000  0  7G16G18G19G21G22G27G31
  20818842.340   109403772.57909  20818841.940    85249692.35749
  22175133.120   116531123.63608  22175132.300    90803484.00347
  23943744.340   125825250.55006  23943744.100    98045657.47446
  22028289.680   115759455.83508  22028289.000    90202177.10448
  22900628.980   120343699.33408  22900628.060    93774348.62747
  21883358.600   114997887.44308  21883360.860    89608776.39248
  24119768.420   126750146.89807  24119772.340    98766323.81346
 15 03 06 00 09  0.0000000  0  7G16G18G19G21G22G27G31
  20810435.820   109359596.17009  20810435.300    85215269.18049
  22168062.940   116493969.37608  22168062.020    90774532.64647
  23929120.640   125748401.74207  23929120.340    97985775.34346
  22039523.240   115818488.26308  22039522.460    90248176.39348
  22884151.120   120257107.33808  22884150.320    93706874.43947
  21873140.720   114944192.44108  21873143.220    89566936.15848
  24138577.880   126848986.76407  24138581.540    98843341.38246
 15 03 06 00 09 30.0000000  0  7G16G18G19G21G22G27G31
  20802107.120   109315828.43009  20802106.580    85181164.45049
  22161072.340   116457233.43908  22161071.540    90745907.25847
  23914514.320   125671641.86507  23914513.460    97925962.50645
  22050798.580   115877740.01008  22050797.700    90294346.58548
  22867706.300   120170689.26008  22867705.620    93639535.76447
  21862948.060   114890629.69408  21862950.700    89525198.96948
  24157386.040   126947819.84207  24157389.460    98920353.64645
 15 03 06 00 10  0.0000000  0  7G16G18G19G21G22G27G31
  20793858.340   109272480.52009  20793857.820    85147386.85349
  22154163.380   116420926.46408  22154162.760    90717616.12847
  23899926.520   125594980.57207  23899925.240    97866226.48145
  22062117.060   115937218.62408  22062116.160    90340693.54948
  22851296.780   120084456.89508  22851296.200    93572341.80847
  21852782.400   114837208.54808  21852785.020    89483572.11248
  24176193.960   127046652.45607  24176197.360    98997365.49945
 15 03 06 00 10 30.0000000  0  7G16G18G19G21G22G27G31
  20785688.720   109229549.17209  20785688.280    85113933.85449
  22147335.360   116385045.01108  22147334.840    90689656.55847
  23885356.040   125518412.66107  23885354.560    97806563.21745
  22073477.380   115996917.33808  22073476.580    90387212.02548
  22834921.980   119998407.65708  22834921.520    93505290.52947
  21842642.780   114783924.04908  21842645.240    89442051.73448
  24195000.040   127145476.66407  24195003.720    99074370.82745
 15 03 06 00 11  0.0000000  0  7G16G18G19G21G22G27G31
  20777598.160   109187033.25509  20777597.680    85080804.56449
  22140588.000   116349587.47408  22140587.460    90662027.31747
  23870802.740   125441935.37007  23870801.140    97746970.59046
  22084878.660   116056831.33708  22084877.940    90433898.25248
  22818582.080   119912541.37808  22818581.560    93438381.82747
  21832528.520   114730773.35408  21832530.880    89400635.61848
  24213803.300   127244286.67007  24213807.420    99151365.07045
 15 03 06 00 11 30.0000000  0  7G16G18G19G21G22G27G31
  20769586.840   109144933.52909  20769586.220    85047999.58149
  22133921.460   116314554.75608  22133920.960    90634729.09747
  23856266.640   125365547.26807  23856265.040    97687447.43145
  22096320.360   116116957.63708  22096319.600    90480749.91348
  22802277.440   119826859.83808  22802276.760    93371617.06447
  21822439.520   114677755.54508  21822441.780    89359323.05448
  24232603.060   127343078.68307  24232607.740    99228345.27145
 15 03 06 00 12  0.0000000  0  7G16G18G19G21G22G27G31
  20761656.040   109103256.64909  20761655.380    85015524.08449
  22127336.820   116279952.79408  22127336.480    90607766.54347
  23841748.340   125289253.22806  23841746.780    97627997.54445
  22107802.960   116177299.03208  22107802.180    90527769.17948
  22786009.360   119741370.43008  22786008.460    93305002.01447
  21812376.740   114624875.72408  21812378.960    89318118.01748
  24251399.780   127441854.61007  24251404.840    99305312.94545
 15 03 06 00 12 30.0000000  0  7G16G18G19G21G22G27G31
  20753806.360   109062006.13409  20753805.740    84983380.82249
  22120834.680   116245784.66408  22120834.580    90581142.04547
  23827247.900   125213055.02506  23827246.800    97568622.33346
  22119326.420   116237855.08108  22119325.600    90574955.70948
  22769778.420   119656076.78208  22769777.320    93238539.49546
  21802340.640   114572135.43608  21802342.760    89277021.70548
  24270193.120   127540613.07507  24270198.360    99382267.00945
 15 03 06 00 13  0.0000000  0  7G16G18G19G21G22G27G31
  20746037.020   109021177.84009  20746036.340    84951566.56949
  22114414.320   116212046.14308  22114414.360    90554852.29947
  23812764.540   125136946.54606  23812763.780    97509317.07046
  22130889.340   116298618.41508  22130888.460    90622303.75548
  22753584.180   119570976.29908  22753582.960    93172227.51246
  21792330.020   114519528.83208  21792332.100    89236029.55248
  24288981.500   127639345.45407  24288986.780    99459200.76845
 15 03 06 00 13 30.0000000  0  7G16G18G19G21G22G27G31
  20738347.960   108980771.35009  20738347.200    84920080.99449
  22108075.640   116178736.49108  22108075.740    90528896.74047
  23798298.240   125060926.15706  23798297.440    97450080.45246
  22142490.820   116359584.48808  22142489.880    90669809.78048
  22737426.880   119486069.87608  22737425.700    93106066.74347
  21782344.540   114467054.23308  21782346.600    89195140.25948
  24307763.900   127738046.68907  24307769.220    99536110.27845
 15 03 06 00 14  0.0000000  0  7G16G18G19G21G22G27G31
  20730740.660   108940794.60309  20730739.880    84888930.27249
  22101819.960   116145863.03408  22101820.160    90503281.07347
  23783849.920   124984999.50506  23783849.320    97390916.90746
  22154131.800   116420758.29808  22154130.820    90717477.67448
  22721308.080   119401365.53108  22721306.960    93040063.40647
  21772385.280   114414717.76408  21772387.420    89154358.59648
  24326541.000   127836720.39006  24326546.600    99612998.32045
 15 03 06 00 14 30.0000000  0  7G16G18G19G21G22G27G31
  20723215.020   108901246.86409  20723214.340    84858113.85049
  22095647.160   116113424.73008  22095647.420    90478004.49947
  23769418.880   124909163.96506  23769418.300    97331824.31145
  22165811.360   116482134.82408  22165810.360    90765303.53448
  22705227.740   119316863.43608  22705226.680    92974217.68846
  21762451.720   114362516.90608  21762454.000    89113682.61548
  24345311.780   127935360.75606  24345317.760    99689860.34045
 15 03 06 00 15  0.0000000  0  7G16G18G19G21G22G27G31
  20715772.320   108862135.07509  20715771.640    84827637.12749
  22089558.460   116081428.09808  22089558.720    90453072.07647
  23755005.940   124833424.67006  23755005.640    97272806.73046
  22177530.200   116543717.82208  22177529.180    90813290.28248
  22689187.420   119232571.59208  22689186.340    92908535.79147
  21752545.040   114310457.13208  21752547.380    89073116.57248
  24364076.660   128033970.24606  24364083.060    99766698.33544
 15 03 06 00 15 30.0000000  0  7G16G18G19G21G22G27G31
  20708411.340   108823453.21809  20708410.660    84797495.41849
  22083552.540   116049866.33908  22083552.700    90428478.51247
  23740610.020   124757773.95206  23740609.460    97213858.16846
  22189286.320   116605496.91808  22189285.380    90861429.82448
  22673186.080   119148484.62708  22673185.060    92843013.53847
  21742663.780   114258530.64209  21742666.080    89032654.38948
  24382833.800   128132538.17606  24382840.500    99843503.90445
 15 03 06 00 16  0.0000000  0  7G16G18G19G21G22G27G31
  20701132.960   108785205.47509  20701132.340    84767691.98649
  22077630.200   116018743.87308  22077630.220    90404227.25147
  23726231.620   124682214.31407  23726230.460    97154980.59446
  22201079.840   116667472.69608  22201079.040    90909722.63548
  22657224.700   119064607.51608  22657223.720    92777654.80547
  21732808.400   114206740.08209  21732810.620    88992298.12048
  24401583.100   128231063.94506  24401589.960    99920276.61544
 15 03 06 00 16 30.0000000  0  7G16G18G19G21G22G27G31
  20693937.820   108747394.96209  20693937.280    84738229.24449
  22071792.000   115988063.43908  22071791.880    90380320.43647
  23711870.920   124606747.26507  23711869.480    97096175.15246
  22212910.800   116729645.20508  22212910.140    90958168.74348
  22641304.160   118980944.59208  22641303.080    92712462.97647
  21722979.180   114155087.24008  21722981.320    88952049.16648
  24420324.320   128329546.78406  24420331.160    99997015.84645
 15 03 06 00 17  0.0000000  0  7G16G18G19G21G22G27G31
  20686827.040   108710027.46109  20686826.520    84709111.70349
  22066038.780   115957830.06908  22066038.620    90356761.98047
  23697528.360   124531376.30407  23697527.040    97037444.56346
  22224779.660   116792016.93708  22224779.120    91006770.08348
  22625425.700   118897502.24408  22625424.400    92647443.02847
  21713176.840   114103576.04009  21713178.980    88911910.57148
  24439057.680   128427987.56806  24439064.260   100073722.26145
 15 03 06 00 17 30.0000000  0  7G16G18G19G21G22G27G31
  20679799.860   108673099.46709  20679799.300    84680336.64349
  22060369.880   115928039.85108  22060369.700    90333548.84247
  23683203.220   124456096.75407  23683202.260    96978785.19446
  22236685.040   116854580.33908  22236684.560    91055520.78148
  22609588.700   118814278.06308  22609587.320    92582593.08647
  21703400.600   114052201.65909  21703402.760    88871878.59448
  24457781.560   128526378.27006  24457787.980   100150389.65644
 15 03 06 00 18  0.0000000  0  7G16G18G19G21G22G27G31
  20672856.860   108636613.85809  20672856.240    84651906.29349
  22054785.780   115898695.57808  22054785.600    90310683.18747
  23668895.640   124380909.82207  23668894.800    96920198.02045
  22248626.760   116917334.42708  22248626.320    91104420.06947
  22593793.880   118731276.05008  22593792.580    92517916.25247
  21693650.760   114000965.51009  21693652.880    88831954.32948
  24476495.560   128624717.38106  24476501.800   100227016.87545
 15 03 06 00 18 30.0000000  0  7G16G18G19G21G22G27G31
  20665999.420   108600578.02309  20665998.900    84623826.42549
  22049287.820   115869803.87108  22049287.660    90288170.17847
  23654606.320   124305820.74606  23654605.720    96861687.11746
  22260605.560   116980283.32508  22260605.120    91153471.15648
  22578042.820   118648504.18008  22578041.680    92453418.74547
  21683928.320   113949873.18409  21683930.340    88792142.13648
  24495200.100   128723007.76406  24495206.360   100303606.16046
 15 03 06 00 19  0.0000000  0  7G16G18G19G21G22G27G31
  20659226.460   108564986.16409  20659226.100    84596092.49949
  22043874.780   115841358.33208  22043874.660    90266004.83047
  23640334.280   124230822.28807  23640333.760    96803246.80746
  22272619.700   117043417.66308  22272619.180    91202666.74247
  22562334.640   118565957.46608  22562333.600    92389096.67547
  21674231.760   113898917.46109  21674233.780    88752436.38348
  24513893.240   128821238.80706  24513899.760   100380149.18946
 15 03 06 00 19 30.0000000  0  7G16G18G19G21G22G27G31
  20652538.860   108529842.40009  20652538.520    84568707.75149
  22038547.380   115813362.75408  22038547.340    90244190.09747
  23626080.180   124155916.90207  23626079.460    96744879.00546
  22284669.220   117106737.95308  22284668.600    91252007.22047
  22546670.260   118483640.84008  22546669.200    92324953.90147
  21664561.620   113848100.96608  21664563.700    88712839.12648
  24532575.020   128919410.40306  24532581.920   100456645.83645
 15 03 06 00 20  0.0000000  0  7G16G18G19G21G22G27G31
  20645936.600   108495146.90109  20645936.120    84541672.29549
  22033305.540   115785816.92408  22033305.580    90222725.82947
  23611843.860   124081103.04907  23611842.900    96686582.54546
  22296753.460   117170240.72608  22296752.780    91301489.89648
  22531049.940   118401555.52308  22531048.800    92260991.36547
  21654917.660   113797422.41308  21654919.880    88673349.35548
  24551244.800   129017518.14206  24551251.960   100533092.65345
 15 03 06 00 20 30.0000000  0  7G16G18G19G21G22G27G31
  20639420.120   108460902.61709  20639419.640    84514988.43649
  22028149.780   115758723.57008  22028149.860    90201614.14747
  23597625.420   124006382.25407  23597623.900    96628358.58346
  22308872.360   117233925.86808  22308871.680    91351114.66948
  22515474.520   118319705.56808  22515473.300    92197212.23547
  21645300.300   113746883.62608  21645302.640    88633968.50048
  24569902.300   129115560.66006  24569909.640   100609488.52645
 15 03 06 00 21  0.0000000  0  7G16G18G19G21G22G27G31
  20632990.440   108427114.80109  20632990.120    84488660.26249
  22023081.040   115732087.15308  22023081.040    90180858.50847
  23583425.100   123931757.87307  23583423.080    96570209.76646
  22321026.300   117297795.04408  22321025.600    91400882.85647
  22499945.020   118238097.28508  22499943.820    92133621.40747
  21635710.340   113696488.17709  21635712.660    88594699.32948
  24588547.580   129213538.40006  24588555.020   100685833.73644
 15 03 06 00 21 30.0000000  0  7G16G18G19G21G22G27G31
  20626648.080   108393785.37209  20626647.780    84462689.27649
  22018099.620   115705909.18109  22018099.480    90160460.09647
  23569242.880   123857230.33207  23569240.700    96512136.38046
  22333214.920   117361846.63708  22333214.240    91450793.18548
  22484461.920   118156733.33908  22484460.740    92070220.97847
  21626147.780   113646236.42009  21626150.120    88555542.11648
  24607180.200   129311449.37506  24607187.660   100762126.98944
 15 03 06 00 22  0.0000000  0  7G16G18G19G21G22G27G31
  20620392.660   108360913.15209  20620392.400    84437074.55749
  22013205.080   115680188.15208  22013204.980    90140417.75747
  23555078.260   123782796.80907  23555076.380    96454136.27546
  22345437.380   117426075.99008  22345436.660    91500842.03347
  22469025.260   118075613.62408  22469024.100    92007010.85347
  21616612.160   113596125.97809  21616614.460    88516495.02248
  24625799.180   129409288.53505  24625806.720   100838364.30845
 15 03 06 00 22 30.0000000  0  7G16G18G19G21G22G27G31
  20614224.840   108328500.84209  20614224.500    84411818.20749
  22008397.880   115654926.38008  22008397.860    90120733.27547
  23540931.740   123708458.88006  23540930.700    96396210.65347
  22357693.460   117490482.41208  22357692.720    91551028.85947
  22453635.860   117994741.98108  22453634.680    91943994.03747
  21607103.680   113546158.15309  21607105.860    88477559.06748
  24644404.200   129507054.04206  24644411.820   100914544.41244
 15 03 06 00 23  0.0000000  0  7G16G18G19G21G22G27G31
  20608144.740   108296549.45909  20608144.360    84386921.02249
  22003678.020   115630123.86308  22003678.080    90101406.65547
  23526803.300   123634215.00807  23526803.080    96338358.32346
  22369982.720   117555063.49008  22369981.980    91601351.76947
  22438293.980   117914120.07808  22438292.740    91881171.82747
  21597622.200   113496332.56509  21597624.280    88438733.94448
  24662994.500   129604741.84605  24663002.000   100990663.91943
 15 03 06 00 23 30.0000000  0  7G16G18G19G21G22G27G31
  20602152.120   108265057.71309  20602151.640    84362381.99149
  21999045.280   115605779.05208  21999045.320    90082436.67647
  23512692.640   123560062.81107  23512692.980    96280577.43747
  22382304.340   117619814.59908  22382303.620    91651807.17147
  22422999.660   117833747.56408  22422998.260    91818543.95147
  21588167.240   113446646.63109  21588169.240    88400017.64048
  24681569.000   129702347.37505  24681576.520   101066719.52444
 15 03 06 00 24  0.0000000  0  6G16G18G19G21G22G27
  20596244.160   108234011.15309  20596243.600    84338189.86049
  21994496.920   115581877.17208  21994496.840    90063811.84547
  23498596.760   123485986.88807  23498596.960    96222855.98346
  22394654.980   117684718.08408  22394654.340    91702381.30147
  22407750.320   117753611.37608  22407748.700    91756100.20147
  21578735.800   113397084.55409  21578737.800    88361397.84448
 15 03 06 00 24 30.0000000  0  6G16G18G19G21G22G27
  20590429.780   108203456.33309  20590429.160    84314380.90749
  21990041.680   115558464.43408  21990041.480    90045568.16347
  23484523.860   123412031.60707  23484523.320    96165228.54546
  22407042.880   117749816.79908  22407042.260    91753107.56047
  22392554.820   117673758.85808  22392553.100    91693877.49047
  21569336.600   113347691.75609  21569338.680    88322909.95348
 15 03 06 00 25  0.0000000  0  6G16G18G19G21G22G27
  20584703.760   108173365.64209  20584703.140    84290933.61349
  21985674.000   115535511.88908  21985673.720    90027683.07447
  23470468.100   123338167.56707  23470466.660    96107672.18146
  22419462.060   117815079.44408  22419461.440    91803961.56147
  22377408.120   117594162.97408  22377406.420    91631854.76047
  21559964.040   113298438.77309  21559966.200    88284531.00448
 15 03 06 00 25 30.0000000  0  6G16G18G19G21G22G27
  20579067.060   108143744.07909  20579066.400    84267851.86649
  21981394.800   115513024.39108  21981394.480    90010160.36047
  23456430.280   123264398.72707  23456428.240    96050190.00746
  22431912.720   117880507.60208  22431912.200    91854944.52947
  22362311.480   117514829.94808  22362309.720    91570036.84247
  21550618.900   113249329.58909  21550621.080    88246264.10748
 15 03 06 00 26  0.0000000  0  6G16G18G19G21G22G27
  20573519.860   108114593.12809  20573519.200    84245136.83949
  21977204.300   115491003.22308  21977204.060    89993001.02747
  23442410.480   123190724.90307  23442408.360    95992781.85946
  22444394.660   117946100.31708  22444394.200    91906055.72947
  22347265.260   117435761.94008  22347263.600    91508425.45347
  21541301.200   113200364.67709  21541303.440    88208109.63648
 15 03 06 00 26 30.0000000  0  6G16G18G19G21G22G27
  20568062.640   108085915.22009  20568061.980    84222790.40949
  21973102.740   115469449.63508  21973102.620    89976206.03747
  23428408.920   123117147.02307  23428407.140    95935448.45846
  22456907.560   118011855.95008  22456907.140    91957293.87647
  22332270.400   117356963.24308  22332268.760    91447023.90847
  21532011.120   113151544.86109  21532013.360    88170068.23048
 15 03 06 00 27  0.0000000  0  6G16G18G19G21G22G27
  20562696.180   108057714.25909  20562695.540    84200815.63049
  21969090.900   115448367.51208  21969090.820    89959778.42247
  23414425.860   123043667.62307  23414424.840    95878191.77646
  22469451.560   118077775.17008  22469451.160    92008659.48847
  22317327.680   117278438.60408  22317326.060    91385835.92247
  21522749.220   113102873.11709  21522751.420    88132142.20148
 15 03 06 00 27 30.0000000  0  6G16G18G19G21G22G27
  20557419.480   108029985.13409  20557418.860    84179208.51449
  21965167.820   115427751.49808  21965167.700    89943714.00647
  23400460.520   122970280.05707  23400460.080    95821006.67247
  22482025.180   118143850.15708  22482024.720    92060146.48347
  22302436.320   117200184.09508  22302434.700    91324858.41547
  21513514.280   113054343.20109  21513516.500    88094326.68448
 15 03 06 00 28  0.0000000  0  6G16G18G19G21G22G27
  20552233.220   108002731.26409  20552232.580    84157971.72849
  21961333.900   115407603.77108  21961333.620    89928014.48847
  23386513.360   122896986.25307  23386512.920    95763894.63047
  22494628.440   118210080.81208  22494627.860    92111754.78147
  22287597.080   117122203.76408  22287595.540    91264094.57647
  21504306.700   113005957.12009  21504308.960    88056623.25348
 15 03 06 00 28 30.0000000  0  6G16G18G19G21G22G27
  20547138.640   107975958.83709  20547137.940    84137110.09449
  21957590.280   115387930.40308  21957589.800    89912684.59747
  23372585.060   122823791.64207  23372584.360    95706859.89446
  22507261.920   118276470.46508  22507261.240    92163486.97547
  22272811.440   117044504.88808  22272809.920    91203550.03447
  21495127.500   112957720.09609  21495129.800    88019035.96348
 15 03 06 00 29  0.0000000  0  6G16G18G19G21G22G27
  20542135.360   107949666.28909  20542134.660    84116622.39449
  21953936.420   115368729.04708  21953935.820    89897722.50647
  23358674.980   122750692.82907  23358673.700    95649899.82446
  22519924.660   118343013.67608  22519923.820    92215338.81747
  22258079.340   116967086.99908  22258077.820    91143224.44747
  21485976.140   112909629.28009  21485978.440    87981562.60449
 15 03 06 00 29 30.0000000  0  6G16G18G19G21G22G27
  20537223.880   107923856.40309  20537223.240    84096510.79149
  21950372.600   115350001.38108  21950372.040    89883129.53747
  23344783.380   122677690.99307  23344781.280    95593015.29946
  22532616.600   118409710.11608  22532615.660    92267310.06347
  22243401.380   116889953.59108  22243399.920    91083120.52848
  21476852.900   112861686.25709  21476855.140    87944204.41449
 15 03 06 00 30  0.0000000  0  6G16G18G19G21G22G27
  20532405.120   107898533.57509  20532404.480    84076778.71349
  21946899.860   115331752.06609  21946899.440    89868909.30547
  23330910.580   122604788.92907  23330908.180    95536208.52646
  22545337.940   118476560.86208  22545336.920    92319401.54747
  22228778.700   116813111.01208  22228777.360    91023243.22748
  21467758.420   112813894.29509  21467760.560    87906963.93148
 15 03 06 00 30 30.0000000  0  6G16G18G19G21G22G27
  20527678.700   107873696.31709  20527678.060    84057424.99949
  21943517.760   115313978.67709  21943517.360    89855059.91047
  23317056.160   122531984.64607  23317054.080    95479477.94946
  22558087.820   118543562.02608  22558086.840    92371610.24247
  22214211.200   116736558.56708  22214209.980    90963592.00348
  21458692.260   112766251.13109  21458694.260    87869839.38649
 15 03 06 00 31  0.0000000  0  6G16G18G19G21G22G27
  20523044.620   107849344.43309  20523044.060    84038449.50349
  21940225.920   115296680.09908  21940225.520    89841580.50547
  23303220.020   122459276.00607  23303218.360    95422821.87846
  22570865.480   118610709.09008  22570864.580    92423932.62347
  22199698.940   116660296.36708  22199697.780    90904166.94447
  21449654.040   112718754.97509  21449655.980    87832829.40249
 15 03 06 00 31 30.0000000  0  6G16G18G19G21G22G27
  20518503.380   107825480.26809  20518502.880    84019854.04649
  21937024.920   115279859.14308  21937024.540    89828473.27147
  23289402.520   122386664.62007  23289401.280    95366241.60446
  22583671.020   118678002.66008  22583670.220    92476369.16747
  22185242.680   116584328.70808  22185241.520    90844971.40647
  21440644.200   112671407.93609  21440646.080    87795935.61248
 15 03 06 00 32  0.0000000  0  6G16G18G19G21G22G27
  20514056.020   107802109.30209  20514055.560    84001642.89949
  21933915.560   115263519.85608  21933915.360    89815741.36748
  23275604.100   122314154.10807  23275603.360    95309739.93946
  22596504.680   118745444.01908  22596503.980    92528920.86847
  22170843.740   116508662.03808  22170842.480    90786010.39947
  21431663.460   112624213.82109  21431665.300    87759160.97648
 15 03 06 00 32 30.0000000  0  6G16G18G19G21G22G27
  20509701.900   107779228.51009  20509701.480    83983813.70749
  21930897.120   115247658.50308  21930897.160    89803381.89847
  23261824.020   122241740.17707  23261823.540    95253313.52846
  22609365.380   118813027.21708  22609364.720    92581583.09847
  22156501.700   116433294.18008  22156500.340    90727282.23747
  21422711.020   112577168.49909  21422712.840    87722502.28448
 15 03 06 00 33  0.0000000  0  6G16G18G19G21G22G27
  20505441.620   107756840.57709  20505441.240    83966368.56449
  21927970.140   115232277.50608  21927970.300    89791396.71747
  23248062.780   122169424.55607  23248062.260    95196963.71247
  22622252.980   118880751.76008  22622252.340    92634355.46747
  22142217.240   116358229.03808  22142215.860    90668789.95447
  21413787.280   112530274.01109  21413789.120    87685961.12248
 15 03 06 00 33 30.0000000  0  6G16G18G19G21G22G27
  20501275.200   107734945.29009  20501274.800    83949307.30049
  21925134.480   115217375.75408  21925134.580    89779784.97147
  23234320.160   122097205.62607  23234319.280    95140689.25046
  22635166.980   118948615.08308  22635166.380    92687235.97647
  22127990.540   116283467.32008  22127989.220    90610534.09848
  21404891.960   112483528.93009  21404893.860    87649536.38649
 15 03 06 00 34  0.0000000  0  6G16G18G19G21G22G27
  20497202.820   107713544.34709  20497202.340    83932631.23849
  21922390.360   115202955.04408  21922390.300    89768548.06247
  23220596.240   122025084.29508  23220594.900    95084490.84946
  22648107.080   119016615.88108  22648106.560    92740223.60047
  22113822.200   116209012.65608  22113821.000    90552517.51148
  21396025.460   112436934.82209  21396027.360    87613229.29349
 15 03 06 00 34 30.0000000  0  6G16G18G19G21G22G27
  20493225.500   107692643.20809  20493224.940    83916344.63749
  21919738.420   115189018.85008  21919738.240    89757688.69847
  23206891.540   121953064.10507  23206889.760    95028371.25146
  22661073.620   119084756.06508  22661073.220    92793319.84447
  22099713.460   116134871.04708  22099712.280    90494744.85048
  21387188.340   112390495.08809  21387190.200    87577042.50049
 15 03 06 00 35  0.0000000  0  6G16G18G19G21G22G27
  20489343.360   107672242.57509  20489342.840    83900448.04549
  21917178.840   115175568.05109  21917178.600    89747207.56447
  23193205.740   121881144.94007  23193203.940    94972330.37446
  22674066.360   119153033.62708  22674066.020    92846523.13547
  22085664.680   116061044.36508  22085663.440    90437217.59748
  21378380.580   112344210.06009  21378382.400    87540976.25449
 15 03 06 00 35 30.0000000  0  6G16G18G19G21G22G27
  20485557.100   107652345.63609  20485556.620    83884943.92949
  21914712.220   115162605.56509  21914711.940    89737106.93447
  23179539.200   121809328.71407  23179537.720    94916369.71546
  22687085.240   119221448.19308  22687084.840    92899833.17647
  22071676.680   115987536.98108  22071675.260    90379939.14348
  21369602.680   112298082.01109  21369604.440    87505032.32649
 15 03 06 00 36  0.0000000  0  6G16G18G19G21G22G27
  20481865.820   107632947.90009  20481865.400    83869828.80649
  21912337.460   115150125.59909  21912337.100    89727382.30047
  23165891.180   121737609.92307  23165890.120    94860484.95946
  22700128.880   119289992.98408  22700128.420    92953244.70147
  22057748.840   115914345.62508  22057747.260    90322906.94448
  21360853.600   112252105.47909  21360855.320    87469206.45949
 15 03 06 00 36 30.0000000  0  6G16G18G19G21G22G27
  20478269.600   107614049.57609  20478269.160    83855102.84149
  21910054.440   115138128.21709  21910054.100    89718033.70447
  23152261.760   121665987.65507  23152260.980    94804675.42446
  22713196.820   119358665.25708  22713196.240    93006755.55147
  22043881.360   115841471.87308  22043879.760    90266122.24748
  21352133.220   112206280.08009  21352135.040    87433498.35849
 15 03 06 00 37  0.0000000  0  6G16G18G19G21G22G27
  20474769.160   107595654.57909  20474768.700    83840769.07349
  21907863.800   115126616.40709  21907863.500    89709063.47247
  23138651.540   121594464.61707  23138650.660    94748943.20646
  22726289.260   119427466.17808  22726288.540    93060366.65847
  22030075.300   115768920.79008  22030073.720    90209588.96748
  21343442.140   112160608.86409  21343444.140    87397910.40149
 15 03 06 00 37 30.0000000  0  6G16G18G19G21G22G27
  20471364.840   107577764.98309  20471364.420    83826829.12449
  21905765.740   115115591.41109  21905765.460    89700472.57647
  23125060.500   121523041.92007  23125059.280    94693289.18047
  22739405.940   119496394.38908  22739405.100    93114076.94347
  22016331.140   115696695.28508  22016329.600    90153309.38848
  21334780.720   112115092.85809  21334782.760    87362443.38449
 15 03 06 00 38  0.0000000  0  6G16G18G19G21G22G27
  20468057.540   107560385.21109  20468057.160    83813286.43949
  21903761.140   115105057.57209  21903760.900    89692264.39947
  23111489.080   121451722.98207  23111487.600    94637716.01546
  22752547.140   119565451.40708  22752546.220    93167887.59347
  22002650.040   115624801.29008  22002648.560    90097288.12748
  21326149.660   112069736.10809  21326151.720    87327100.47049
 15 03 06 00 38 30.0000000  0  6G16G18G19G21G22G27
  20464847.300   107543515.12909  20464846.900    83800140.90949
  21901849.800   115095013.63009  21901849.500    89684437.96047
  23097936.980   121380506.42407  23097935.340    94582222.62746
  22765712.340   119634634.85808  22765711.400    93221796.76047
  21989032.220   115553239.80908  21989030.740    90041525.95747
  21317548.640   112024537.39009  21317550.780    87291880.69649
 15 03 06 00 39  0.0000000  0  6G16G18G19G21G22G27
  20461734.140   107527155.28909  20461733.720    83787392.97649
  21900031.740   115085459.52409  21900031.280    89676993.21047
  23084404.200   121309391.86307  23084402.480    94526808.71947
  22778901.000   119703941.92808  22778900.160    93275802.26347
  21975478.020   115482012.41408  21975476.500    89986024.11248
  21308977.680   111979496.54709  21308979.880    87256783.93949
 15 03 06 00 39 30.0000000  0  6G16G18G19G21G22G27
  20458718.060   107511305.42409  20458717.580    83775042.43649
  21898306.820   115076394.50409  21898306.240    89669929.56847
  23070890.620   121238378.12807  23070888.840    94471473.37146
  22792112.620   119773370.00408  22792111.880    93329902.05047
  21961987.640   115411120.22308  21961986.120    89930783.47348
  21300436.600   111934612.73709  21300438.780    87221809.54249
 15 03 06 00 40  0.0000000  0  6G16G18G19G21G22G27
  20455799.140   107495966.02009  20455798.560    83763089.64849
  21896674.940   115067818.30909  21896674.240    89663246.82547
  23057396.060   121167464.32707  23057394.260    94416215.89546
  22805346.820   119842916.64408  22805346.140    93384094.23147
  21948561.500   115340565.03908  21948559.960    89875805.44348
  21291925.360   111889885.55909  21291927.440    87186957.20149
 15 03 06 00 40 30.0000000  0  6G16G18G19G21G22G27
  20452977.780   107481139.65009  20452977.200    83751536.62849
  21895136.340   115059732.83309  21895135.600    89656946.46847
  23043920.880   121096652.51107  23043919.220    94361037.87546
  22818603.540   119912581.60808  22818602.940    93438378.61547
  21935200.320   115270350.74508  21935198.620    89821093.02047
  21283444.320   111845317.31409  21283446.320    87152228.70549
 15 03 06 00 41  0.0000000  0  6G16G18G19G21G22G27
  20450254.380   107466828.02809  20450253.780    83740384.70949
  21893691.160   115052138.70508  21893690.480    89651028.97047
  23030465.280   121025943.21907  23030463.800    94305939.74646
  22831882.680   119982364.12808  22831882.120    93492754.59847
  21921904.500   115200480.06708  21921902.740    89766648.35848
  21274993.600   111800908.78309  21274995.600    87117624.65549
 15 03 06 00 41 30.0000000  0  6G16G18G19G21G22G27
  20447628.980   107453031.44509  20447628.400    83729634.12049
  21892339.440   115045036.00708  21892338.960    89645494.40847
  23017029.160   120955335.97607  23017027.700    94250921.13446
  22845183.700   120052261.39708  22845183.160    93547219.98847
  21908674.400   115130954.91708  21908672.560    89712472.94848
  21266573.300   111756659.80009  21266575.200    87083144.93449
 15 03 06 00 42  0.0000000  0  6G16G18G19G21G22G27
  20445101.660   107439750.47809  20445101.120    83719285.31149
  21891081.300   115038424.85209  21891080.980    89640342.87947
  23003612.480   120884830.45608  23003611.020    94195981.80847
  22858506.320   120122271.96208  22858505.740    93601773.66247
  21895510.320   115061777.10208  21895508.400    89658568.18648
  21258183.400   111712570.40409  21258185.200    87048789.56549
 15 03 06 00 42 30.0000000  0  6G16G18G19G21G22G27
  20442673.160   107426988.96309  20442672.680    83709341.26749
  21889917.280   115032308.27208  21889917.120    89635576.72547
  22990215.680   120814429.76007  22990214.420    94141124.14946
  22871850.720   120192396.58208  22871849.960    93656416.22547
  21882413.160   114992951.40108  21882411.200    89604937.79248
  21249824.460   111668643.70509  21249826.180    87014560.97849
 15 03 06 00 43  0.0000000  0  6G16G18G19G21G22G27
  20440343.680   107414747.47109  20440343.240    83699802.44049
  21888847.280   115026685.75708  21888847.200    89631195.56147
  22976838.720   120744133.13408  22976837.660    94086347.58147
  22885216.320   120262632.78508  22885215.440    93711145.72847
  21869383.320   114924479.52608  21869381.340    89551583.11348
  21241496.420   111624879.64309  21241498.200    86980459.11649
 15 03 06 00 43 30.0000000  0  6G16G18G19G21G22G27
  20438113.220   107403026.29109  20438112.800    83690669.04949
  21887871.240   115021557.18108  21887871.200    89627199.28947
  22963481.500   120673940.30408  22963480.560    94031651.89747
  22898602.740   120332978.81508  22898601.800    93765960.80447
  21856421.140   114856363.46008  21856419.240    89498505.68348
  21233199.280   111581278.02809  21233201.160    86946483.82549
 15 03 06 00 44  0.0000000  0  6G16G18G19G21G22G27
  20435981.800   107391825.60609  20435981.380    83681941.23649
  21886989.100   115016921.96408  21886989.060    89623587.43647
  22950143.940   120603850.95608  22950143.000    93977036.84147
  22912009.580   120403432.09308  22912008.560    93820859.46047
  21843527.020   114788604.93508  21843525.220    89445706.85948
  21224933.000   111537838.91209  21224935.020    86912635.16149
 15 03 06 00 44 30.0000000  0  6G16G18G19G21G22G27
  20433949.720   107381147.03209  20433949.280    83673620.26549
  21886201.100   115012781.18309  21886201.020    89620360.86548
  22936826.200   120533865.63608  22936825.080    93922502.85347
  22925436.680   120473991.92708  22925435.620    93875841.14546
  21830701.500   114721206.46508  21830699.760    89393188.60148
  21216697.840   111494563.20109  21216699.940    86878913.83249
 15 03 06 00 45  0.0000000  0  6G16G18G19G21G22G27
  20432017.260   107370991.87309  20432016.880    83665707.14849
  21885507.340   115009135.33909  21885507.280    89617519.96847
  22923528.360   120463984.74708  22923526.960    93868050.23647
  22938883.740   120544656.94608  22938882.780    93930904.79247
  21817945.020   114654170.48408  21817943.300    89340952.79548
  21208494.000   111451451.54109  21208496.080    86845320.33549
 15 03 06 00 45 30.0000000  0  6G16G18G19G21G22G27
  20430184.560   107361361.39809  20430184.280    83658202.88049
  21884907.900   115005984.84009  21884907.840    89615065.04648
  22910250.400   120394208.69408  22910248.700    93813679.30247
  22952350.520   120615425.90708  22952349.740    93986049.43146
  21805258.120   114587499.88008  21805256.340    89289001.70848
  21200321.680   111408504.96109  21200323.700    86811855.46549
 15 03 06 00 46  0.0000000  0  6G16G18G19G21G22G27
  20428452.320   107352258.64609  20428452.080    83651109.82349
  21884403.220   115003332.11909  21884403.000    89612997.99948
  22896992.860   120324540.02708  22896991.000    93759392.03947
  22965837.180   120686299.30408  22965836.520    94041275.44946
  21792641.560   114521198.96909  21792639.680    89237338.67648
  21192181.240   111365726.07109  21192183.200    86778521.26249
 15 03 06 00 46 30.0000000  0  6G16G18G19G21G22G27
  20426820.340   107343682.41509  20426820.080    83644427.04349
  21883992.860   115001175.18709  21883992.460    89611317.27547
  22883755.380   120254976.95508  22883753.420    93705187.06447
  22979342.940   120757273.15908  22979342.400    94096579.75746
  21780095.360   114455267.84109  21780093.380    89185963.78948
  21184072.340   111323113.31209  21184074.240    86745316.52649
 15 03 06 00 47  0.0000000  0  6G16G18G19G21G22G27
  20425288.780   107335633.67709  20425288.480    83638155.29149
  21883676.860   114999514.63309  21883676.400    89610023.33547
  22870538.020   120185519.72208  22870536.120    93651064.54947
  22992867.680   120828346.58908  22992867.280    94151961.63846
  21767619.880   114389708.64309  21767617.840    89134878.71748
  21175995.080   111280667.31109  21175996.860    86712241.72849
 15 03 06 00 47 30.0000000  0  6G16G18G19G21G22G27
  20423857.780   107328113.56109  20423857.500    83632295.45649
  21883455.320   114998350.63209  21883454.940    89609116.32948
  22857340.900   120116168.81108  22857339.180    93597024.88147
  23006411.220   120899518.16408  23006410.840    94207419.99846
  21755215.680   114324524.40008  21755213.720    89084085.82348
  21167949.700   111238388.89209  21167951.340    86679297.51249
 15 03 06 00 48  0.0000000  0  7G04G16G18G19G21G22G27
  24594187.880   129243332.98806  24594195.460   100709102.34743
  20422527.740   107321123.98809  20422527.360    83626849.03649
  21883328.560   114997684.56709  21883328.300    89608597.33448
  22844164.360   120046925.45208  22844162.820    93543069.03747
  23019973.480   120970787.34908  23019972.980    94262954.43346
  21742883.340   114259717.91508  21742881.440    89033587.29048
  21159936.560   111196279.63109  21159938.120    86646485.10149
 15 03 06 00 48 30.0000000  0  7G04G16G18G19G21G22G27
  24574859.600   129141764.51906  24574867.340   100629958.61843
  20421300.460   107314674.54909  20421300.020    83621823.49049
  21883298.180   114997525.08709  21883297.960    89608473.07847
  22831010.060   119977798.34908  22831008.660    93489203.78247
  23033555.620   121042161.13308  23033555.060    94318570.36446
  21730624.940   114195300.00408  21730623.140    88983391.55148
  21151957.420   111154348.82309  21151959.020    86613811.74649
 15 03 06 00 49  0.0000000  0  7G04G16G18G19G21G22G27
  24555555.720   129040325.82606  24555563.760   100550915.93943
  20420172.000   107308744.52009  20420171.600    83617202.68249
  21883360.100   114997850.33209  21883359.800    89608726.52348
  22817873.800   119908766.41308  22817872.500    93435412.68247
  23047153.280   121113616.77508  23047152.740    94374250.07046
  21718436.860   114131251.63709  21718435.080    88933483.75548
  21144008.180   111112575.44209  21144009.960    86581261.06049
 15 03 06 00 49 30.0000000  0  7G04G16G18G19G21G22G27
  24536279.780   128939031.61205  24536288.000   100471985.85443
  20419145.080   107303348.07409  20419144.740    83612997.65349
  21883517.040   114998674.84909  21883516.660    89609369.00547
  22804758.140   119839843.65707  22804756.960    93381706.65047
  23060768.780   121185166.30008  23060768.240    94430002.94347
  21706322.100   114067588.60608  21706320.320    88883876.20748
  21136091.600   111070973.76009  21136093.580    86548844.16449
 15 03 06 00 50  0.0000000  0  7G04G16G18G19G21G22G27
  24517031.520   128837882.23206  24517039.800   100393168.64844
  20418219.720   107298485.22909  20418219.360    83609208.41849
  21883768.720   114999997.49709  21883768.360    89610399.65447
  22791662.960   119771029.26108  22791661.920    93328085.06647
  23074401.540   121256807.16108  23074401.060    94485826.97847
  21694280.900   114004312.11908  21694279.100    88834569.86248
  21128207.600   111029543.39109  21128209.740    86516560.75849
 15 03 06 00 50 30.0000000  0  7G04G16G18G19G21G22G27
  24497811.180   128736879.52006  24497819.300   100314465.75043
  20417396.240   107294157.70209  20417395.800    83605836.31349
  21884115.340   115001819.19709  21884115.040    89611819.17548
  22778588.620   119702324.37108  22778587.680    93274548.80447
  23088051.500   121328538.74707  23088051.160    94541721.70947
  21682313.800   113941425.14108  21682312.080    88785567.05348
  21120356.480   110988285.75309  21120358.680    86484411.95949
 15 03 06 00 51  0.0000000  0  7G04G16G18G19G21G22G27
  24478618.520   128636023.58905  24478626.620   100235877.21343
  20416674.480   107290365.01209  20416674.060    83602880.96349
  21884556.700   115004138.83309  21884556.360    89613626.69347
  22765535.120   119633727.88308  22765534.120    93221097.01047
  23101718.240   121400358.65807  23101718.020    94597685.26346
  21670421.040   113878928.49208  21670419.340    88736868.38748
  21112538.180   110947200.35409  21112540.320    86452397.36949
 15 03 06 00 51 30.0000000  0  7G04G16G18G19G21G22G27
  24459453.960   128535317.36405  24459462.240   100157405.31943
  20416055.040   107287109.79909  20416054.620    83600344.42549
  21885093.240   115006958.22209  21885092.780    89615823.62447
  22752502.940   119565242.26708  22752501.700    93167731.61547
  23115401.780   121472267.13407  23115401.700    94653717.83546
  21658603.440   113816826.54208  21658601.680    88688477.28748
  21104753.140   110906289.64509  21104755.200    86420518.90749
 15 03 06 00 52  0.0000000  0  7G04G16G18G19G21G22G27
  24440317.380   128434757.83305  24440325.820   100079047.73644
  20415537.300   107284388.83109  20415536.880    83598224.18949
  21885724.040   115010273.13808  21885723.480    89618406.68447
  22739491.260   119496863.64608  22739489.520    93114449.60147
  23129101.200   121544258.74707  23129101.220    94709815.19046
  21646860.560   113755117.27609  21646858.720    88640392.16848
  21097000.680   110865550.29309  21097002.740    86388773.96349
 15 03 06 00 52 30.0000000  0  7G04G16G18G19G21G22G27
  24421209.380   128334316.67205  24421215.820   100000806.03944
  20415121.220   107282202.19509  20415120.820    83596520.31049
  21886449.100   115014083.67708  21886448.520    89621375.94747
  22726499.780   119428591.87708  22726497.560    93061250.84147
  23142816.100   121616331.43707  23142816.240    94765975.72246
  21635192.680   113693802.06609  21635190.760    88592614.09948
  21089280.900   110824982.37809  21089282.940    86357162.60149
 15 03 06 00 53  0.0000000  0  7G04G16G18G19G21G22G27
  24402130.800   128234059.00805  24402137.520    99922683.65244
  20414808.120   107280556.92409  20414807.800    83595238.26949
  21887269.420   115018395.36808  21887269.000    89624735.71547
  22713529.660   119360433.58408  22713527.120    93008140.49947
  23156547.460   121688490.06408  23156547.720    94822203.20347
  21623601.460   113632889.55209  21623599.480    88545149.81748
  21081595.020   110784592.70109  21081597.080    86325690.12549
 15 03 06 00 53 30.0000000  0  7G04G16G18G19G21G22G27
  24383081.340   128133953.51705  24383087.800    99844679.84643
  20414597.500   107279450.23009  20414597.240    83594375.90449
  21888184.600   115023204.85809  21888184.220    89628483.37347
  22700580.260   119292385.36808  22700577.700    92955115.93747
  23170294.420   121760729.97708  23170294.620    94878494.02647
  21612086.700   113572378.58809  21612084.680    88497998.43348
  21073942.480   110744378.55209  21073944.620    86294354.43149
 15 03 06 00 54  0.0000000  0  7G04G16G18G19G21G22G27
  24364060.720   128034000.41006  24364067.040    99766794.77844
  20414489.260   107278881.29909  20414488.960    83593932.57249
  21889194.400   115028511.23809  21889194.000    89632618.22147
  22687651.700   119224446.62708  22687649.180    92902176.67547
  23184056.440   121833048.56908  23184056.400    94934846.16147
  21600648.480   113512269.91609  21600646.400    88451160.52348
  21066323.280   110704339.49109  21066325.460    86263155.15949
 15 03 06 00 54 30.0000000  0  7G04G16G18G19G21G22G27
  24345069.860   127934204.88705  24345076.460    99689032.56844
  20414484.320   107278855.40209  20414483.980    83593912.39149
  21890299.560   115034318.29409  21890299.060    89637143.20847
  22674744.980   119156621.78408  22674742.560    92849326.18347
  23197833.920   121905448.30708  23197833.520    94991261.53546
  21589287.920   113452569.82309  21589285.800    88404640.98649
  21058738.400   110664480.31009  21058740.440    86232096.05949
 15 03 06 00 55  0.0000000  0  7G04G16G18G19G21G22G27
  24326108.540   127834564.29905  24326115.380    99611391.00444
  20414582.180   107279369.71509  20414581.840    83594313.14649
  21891499.340   115040622.77809  21891498.800    89642055.80947
  22661859.360   119088907.58808  22661857.200    92796561.90347
  23211625.820   121977924.45308  23211625.060    95047736.43446
  21578004.760   113393276.83509  21578002.600    88358438.68948
  21051187.160   110624798.15509  21051189.080    86201174.90949
 15 03 06 00 55 30.0000000  0  7G04G16G18G19G21G22G27
  24307177.340   127735081.43005  24307183.940    99533872.44243
  20414783.220   107280425.96909  20414782.820    83595136.19349
  21892794.000   115047426.20209  21892793.480    89647357.18547
  22648995.060   119021305.74008  22648993.280    92743885.15747
  23225432.280   122050477.46708  23225431.300    95104271.23546
  21566799.780   113334394.63009  21566797.540    88312556.46148
  21043669.900   110585295.28409  21043671.800    86170393.44949
 15 03 06 00 56  0.0000000  0  7G04G16G18G19G21G22G27
  24288276.320   127635758.50905  24288283.020    99456478.50644
  20415087.760   107282026.05409  20415087.220    83596383.00649
  21894183.700   115054729.46909  21894183.220    89653048.05447
  22636152.440   118953818.12008  22636151.080    92691297.43847
  23239253.240   122123106.57108  23239252.000    95160865.33046
  21555673.660   113275926.38809  21555671.360    88266996.81148
  21036187.140   110545973.48009  21036189.080    86139753.08649
 15 03 06 00 56 30.0000000  0  7G04G16G18G19G21G22G27
  24269405.580   127536595.67404  24269412.500    99379209.22443
  20415495.640   107284169.34909  20415495.060    83598053.10049
  21895668.220   115062531.09209  21895667.740    89659127.25147
  22623331.580   118886444.20708  22623330.400    92638798.31747
  23253088.360   122195809.94808  23253086.960    95217517.29846
  21544626.500   113217873.10509  21544624.300    88221760.50948
  21028738.860   110506832.69809  21028740.900    86109253.78049
 15 03 06 00 57  0.0000000  0  7G04G16G18G19G21G22G27
  24250565.200   127437591.04206  24250572.080    99302063.31443
  20416006.520   107286853.99709  20416006.000    83600145.02549
  21897247.040   115070828.28109  21897246.560    89665592.59947
  22610532.000   118819181.23408  22610530.700    92586385.64347
  23266936.640   122268583.12108  23266935.240    95274223.65446
  21533658.140   113160233.97109  21533656.080    88176846.92048
  21021324.540   110467870.50709  21021326.680    86078893.63549
 15 03 06 00 57 30.0000000  0  7G04G16G18G19G21G22G27
  24231755.860   127338748.84106  24231762.240    99225043.92143
  20416621.080   107290083.51309  20416620.620    83602661.52149
  21898920.780   115079623.81509  21898920.240    89672446.27247
  22597754.280   118752032.64608  22597752.680    92534062.09047
  23280798.480   122341427.79008  23280797.100    95330985.72146
  21522769.560   113103014.14609  21522767.600    88132260.06548
  21013945.040   110429090.76009  21013947.100    86048675.65049
