     2.11           OBSERVATION DATA    G                   RINEX VERSION / TYPE
SPIDER V4,0,0,3554                      2015 03 13 03:53    PGM / RUN BY / DATE 
EMHD                                                        MARKER NAME         
EMHD                                                        MARKER NUMBER       
                                                            OBSERVER / AGENCY   
462397              LEICA GRX1200PRO    8.20/2.127          REC # / TYPE / VERS 
103297              LEIAT504                                ANT # / TYPE        
  5146535.6892   265261.6083  3747697.6292                  APPROX POSITION XYZ 
        0.0470        0.0000        0.0000                  ANTENNA: DELTA H/E/N
     1     1                                                WAVELENGTH FACT L1/2
     4    C1    L1    P2    L2                              # / TYPES OF OBSERV 
    30.000                                                  INTERVAL            
  2015    03    06    00    00    0.0000000     GPS         TIME OF FIRST OBS   
  2015    03    06    23    59   30.0000000     GPS         TIME OF LAST OBS    
    16                                                      LEAP SECONDS        
    30                                                      # OF SATELLITES     
   G 1   689   689   689   689                              PRN / # OF OBS      
   G 2   729   729   729   729                              PRN / # OF OBS      
   G 3   711   711   711   711                              PRN / # OF OBS      
   G 4   743   743   743   743                              PRN / # OF OBS      
   G 5   583   583   583   583                              PRN / # OF OBS      
   G 6   515   515   515   515                              PRN / # OF OBS      
   G 7   576   576   576   576                              PRN / # OF OBS      
   G 9   661   661   661   661                              PRN / # OF OBS      
   G10   644   644   643   643                              PRN / # OF OBS      
   G11   681   681   681   681                              PRN / # OF OBS      
   G12   731   731   731   731                              PRN / # OF OBS      
   G13   692   692   692   692                              PRN / # OF OBS      
   G14   616   616   615   615                              PRN / # OF OBS      
   G15   638   638   638   638                              PRN / # OF OBS      
   G16   587   587   587   587                              PRN / # OF OBS      
   G17   785   785   785   785                              PRN / # OF OBS      
   G18   614   614   614   614                              PRN / # OF OBS      
   G19   657   657   657   657                              PRN / # OF OBS      
   G20   636   636   636   636                              PRN / # OF OBS      
   G21   480   480   479   479                              PRN / # OF OBS      
   G22   573   573   573   573                              PRN / # OF OBS      
   G23   665   665   665   665                              PRN / # OF OBS      
   G24   665   665   665   665                              PRN / # OF OBS      
   G25   657   657   656   656                              PRN / # OF OBS      
   G27   698   698   698   698                              PRN / # OF OBS      
   G28   615   615   614   614                              PRN / # OF OBS      
   G29   620   620   619   619                              PRN / # OF OBS      
   G30   579   579   579   579                              PRN / # OF OBS      
   G31   554   554   555   555                              PRN / # OF OBS      
   G32   636   636   636   636                              PRN / # OF OBS      
BIT 2 OF LLI FLAGS DATA COLLECTED UNDER A/S CONDITION       COMMENT             
SNR is mapped to RINEX snr flag value [2-9]                 COMMENT             
Lx:     = 25dBHz -> 1; 26-27dBHz -> 2; 28-31dBHz -> 3       COMMENT             
       32-35dBHz -> 4; 36-38dBHz -> 5; 39-41dBHz -> 6       COMMENT             
       42-44dBHz -> 7; 45-48dBHz -> 8; >=49dBHz -> 9        COMMENT             
                                                            END OF HEADER       
 15 03 06 00 00  0.0000000  0  5G16G18G21G22G27
  21019593.380   110458715.71206  21019590.780    86071715.97548
  22209328.800   116710827.23805  22209327.000    90943496.67546
  21780179.680   114455628.06006  21780177.020    89186198.71048
  23144431.540   121624819.98604  23144429.820    94772583.88246
  22161392.960   116458913.42605  22161393.440    90747212.63247
 15 03 06 00 00 30.0000000  0  5G16G18G21G22G27
  21009655.580   110406492.44206  21009653.060    86031022.51548
  22200885.180   116666455.32405  22200883.040    90908921.17246
  21790379.620   114509228.80406  21790376.860    89227965.53048
  23127284.840   121534714.32604  23127283.080    94702371.80446
  22150341.460   116400837.60905  22150341.980    90701958.76147
 15 03 06 00 01  0.0000000  0  5G16G18G21G22G27
  20999793.120   110354664.98306  20999790.620    85990637.48248
  22192519.380   116622492.45405  22192517.180    90874664.41047
  21800629.480   114563092.61605  21800626.800    89269937.33148
  23110166.380   121444755.95404  23110164.360    94632274.48846
  22139315.960   116342898.32405  22139316.480    90656811.28448
 15 03 06 00 01 30.0000000  0  5G16G18G21G22G27
  20990003.200   110303218.39006  20990000.660    85950549.22648
  22184228.520   116578923.69105  22184226.320    90840714.74946
  21810926.040   114617201.66405  21810923.480    89312100.20948
  23093073.160   121354930.71004  23093070.900    94562280.91446
  22128313.200   116285078.67405  22128313.700    90611757.02448
 15 03 06 00 02  0.0000000  0  6G16G18G21G22G27G31
  20980285.900   110252153.49206  20980283.340    85910758.39748
  22176012.780   116535750.07705  22176010.800    90807072.98946
  21821268.640   114671552.54605  21821266.180    89354451.53848
  23076005.560   121265240.51604  23076003.100    94492392.57046
  22117333.080   116227377.82205  22117333.520    90566795.33748
  23920248.800   125701755.72413  23920249.740    97949423.20456
 15 03 06 00 02 30.0000000  0  5G16G18G21G22G27
  20970642.680   110201478.01406  20970640.140    85871271.00848
  22167873.500   116492978.57605  22167871.740    90773744.55947
  21831657.820   114726148.41005  21831655.400    89396993.77648
  23058965.080   121175693.11604  23058962.600    94422615.48846
  22106376.640   116169801.34905  22106377.040    90521930.57448
 15 03 06 00 03  0.0000000  0  6G16G18G21G22G27G31
  20961074.400   110151196.28706  20961071.840    85832090.44048
  22159811.600   116450612.91605  22159809.820    90740732.36847
  21842093.800   114780990.11505  21842091.360    89439727.57648
  23041952.860   121086293.70704  23041950.400    94352953.72546
  22095444.360   116112351.46705  22095444.660    90477164.44847
  23957481.900   125897417.13503  23957483.420    98101885.53846
 15 03 06 00 03 30.0000000  0  6G16G18G21G22G27G31
  20951579.960   110101302.21006  20951577.360    85793211.93548
  22151825.940   116408647.96405  22151824.220    90708032.43046
  21852574.800   114836068.22605  21852572.300    89482645.58548
  23024967.780   120997037.11904  23024965.320    94283403.25247
  22084534.760   116055020.70905  22084534.980    90432491.14748
  23976104.620   125995277.16003  23976107.540    98178152.62845
 15 03 06 00 04  0.0000000  0  5G16G18G21G22G27
  20942157.960   110051789.20606  20942155.380    85754630.37748
  22143915.060   116367076.15305  22143913.340    90675638.82647
  21863098.860   114891372.35105  21863096.360    89525739.69948
  23008008.680   120907917.06104  23008006.180    94213959.16046
  22073646.100   115997800.53805  22073646.360    90387904.01347
 15 03 06 00 04 30.0000000  0  5G16G18G21G22G27
  20932813.620   110002684.35206  20932811.060    85716366.85248
  22136084.200   116325924.43305  22136082.340    90643572.55447
  21873670.300   114946925.04906  21873667.780    89569027.50247
  22991081.020   120818961.70204  22991078.380    94144643.37846
  22062783.240   115940716.01005  22062783.540    90343422.57748
 15 03 06 00 05  0.0000000  0  6G16G18G21G22G27G31
  20923545.960   109953982.56206  20923543.440    85678417.40848
  22128332.120   116285186.86205  22128330.180    90611829.00746
  21884287.380   115002717.76906  21884284.760    89612502.35047
  22974183.840   120730166.40404  22974181.060    94075452.33846
  22051944.940   115883760.25405  22051945.100    90299041.48548
  24031994.140   126288980.28803  24031996.680    98407010.26447
 15 03 06 00 05 30.0000000  0  5G16G18G21G22G27
  20914351.340   109905664.91006  20914348.880    85640767.29348
  22120655.180   116244844.66705  22120653.260    90580393.55047
  21894945.700   115058727.27406  21894942.920    89656146.11347
  22957313.620   120641512.91704  22957310.820    94006371.77947
  22041127.160   115826912.45505  22041127.340    90254744.50248
 15 03 06 00 06  0.0000000  0  5G16G18G21G22G27
  20905234.180   109857754.23606  20905231.780    85603434.29948
  22113057.860   116204920.54905  22113055.920    90549283.85847
  21905649.060   115114973.39805  21905646.180    89699974.27147
  22940474.940   120553024.64704  22940472.080    93937419.99547
  22030334.000   115770193.65105  22030334.120    90210548.04848
 15 03 06 00 06 30.0000000  0  5G16G18G21G22G27
  20896195.060   109810253.44006  20896192.640    85566420.69148
  22105540.660   116165417.37805  22105538.660    90518502.18547
  21916397.160   115171454.80806  21916394.240    89743985.75448
  22923668.400   120464705.67804  22923665.540    93868600.11146
  22019565.660   115713605.17505  22019565.700    90166453.14448
 15 03 06 00 07  0.0000000  0  6G16G18G21G22G27G31
  20887234.340   109763164.32306  20887231.860    85529727.86548
  22098103.720   116126336.06305  22098101.760    90488049.22747
  21927189.700   115228169.81806  21927186.820    89788179.26647
  22906894.620   120376558.10204  22906891.520    93799913.78045
  22008821.980   115657146.68705  22008821.980    90122459.53848
  24106540.500   126680725.50703  24106542.520    98712262.45044
 15 03 06 00 07 30.0000000  0  5G16G18G21G22G27
  20878349.120   109716472.22706  20878346.660    85493344.41548
  22090744.260   116087661.62405  22090742.300    90457913.30647
  21938022.880   115285098.64205  21938020.040    89832539.38248
  22890150.640   120288567.92704  22890147.460    93731350.09646
  21998099.920   115600801.88405  21998099.880    90078554.50448
 15 03 06 00 08  0.0000000  0  5G16G18G21G22G27
  20869543.380   109670197.69006  20869540.920    85457286.33748
  22083466.220   116049414.68005  22083464.200    90428110.50547
  21948900.240   115342259.76205  21948897.420    89877080.51347
  22873440.580   120200756.66004  22873437.420    93662925.83247
  21987403.060   115544589.62905  21987403.040    90034752.76848
 15 03 06 00 08 30.0000000  0  5G16G18G21G22G27
  20860816.080   109624335.29806  20860813.620    85421549.40848
  22076268.320   116011589.61505  22076266.300    90398636.45546
  21959819.940   115399643.35405  21959817.140    89921795.00248
  22856763.820   120113120.00804  22856760.640    93594637.60746
  21976730.020   115488502.85405  21976730.080    89991048.79748
 15 03 06 00 09  0.0000000  0  5G16G18G21G22G27
  20852167.160   109578884.70906  20852164.680    85386133.36548
  22069150.420   115974184.86905  22069148.280    90369489.91247
  21970781.120   115457244.90905  21970778.340    89966679.32947
  22840120.220   120025657.53304  22840116.880    93526485.10447
  21966080.480   115432539.08305  21966080.580    89947440.69048
 15 03 06 00 09 30.0000000  0  5G16G18G21G22G27
  20843598.720   109533856.73806  20843596.140    85351046.62848
  22062114.520   115937211.50905  22062112.380    90340679.53247
  21981785.100   115515071.51905  21981782.460    90011739.01948
  22823512.000   119938381.27604  22823508.600    93458477.71946
  21955456.080   115376707.57905  21955456.200    89903935.63748
 15 03 06 00 10  0.0000000  0  5G16G18G21G22G27
  20835108.920   109489242.49106  20835106.280    85316282.27748
  22055158.920   115900660.10205  22055156.820    90312197.92547
  21992829.560   115573110.70905  21992827.040    90056964.34748
  22806937.560   119851282.96805  22806934.320    93390608.95846
  21944854.800   115320997.74405  21944855.000    89860525.39248
 15 03 06 00 10 30.0000000  0  5G16G18G21G22G27
  20826699.600   109445051.12906  20826696.900    85281847.44848
  22048285.360   115864539.60005  22048283.420    90284052.09547
  22003915.520   115631368.13705  22003913.060    90102359.74547
  22790398.960   119764372.40804  22790395.660    93322886.53046
  21934278.040   115265416.98905  21934278.380    89817215.71948
 15 03 06 00 11  0.0000000  0  5G16G18G21G22G27
  20818370.420   109401280.79906  20818367.680    85247740.69348
  22041493.400   115828847.58305  22041491.520    90256240.14847
  22015041.900   115689838.28105  22015039.460    90147920.89747
  22773895.880   119677648.62104  22773892.600    93255309.61947
  21923725.240   115209961.80905  21923725.620    89774003.91148
 15 03 06 00 11 30.0000000  0  5G16G18G21G22G27
  20810121.000   109357930.20606  20810118.340    85213961.01248
  22034782.720   115793582.88405  22034780.780    90228761.17747
  22026207.900   115748516.09405  22026205.440    90193643.87247
  22757428.360   119591111.41404  22757425.140    93187878.10546
  21913195.780   115154629.25105  21913196.160    89730887.63248
 15 03 06 00 12  0.0000000  0  5G16G18G21G22G27
  20801953.720   109315011.10206  20801951.120    85180517.55448
  22028155.500   115758756.42705  22028153.520    90201623.69447
  22037414.860   115807409.44205  22037412.520    90239534.79248
  22740998.680   119504773.06804  22740995.500    93120601.53746
  21902691.560   115099429.57905  21902691.900    89687874.90848
 15 03 06 00 12 30.0000000  0  5G16G18G21G22G27
  20793868.180   109272521.28406  20793865.580    85147408.60548
  22021611.280   115724365.54905  22021609.080    90174825.63247
  22048661.680   115866512.21605  22048659.460    90285588.87247
  22724606.280   119418631.55705  22724603.200    93053478.36147
  21892211.880   115044358.61205  21892212.160    89644962.47748
 15 03 06 00 13  0.0000000  0  5G16G18G21G22G27
  20785863.260   109230455.44206  20785860.700    85114630.02748
  22015148.760   115690404.82905  22015146.520    90148362.74847
  22059946.800   115925815.89605  22059944.620    90331799.52347
  22708250.800   119332683.15004  22708247.660    92986505.64247
  21881755.400   114989409.35705  21881755.640    89602144.88248
 15 03 06 00 13 30.0000000  0  5G16G18G21G22G27
  20777940.800   109188822.93906  20777938.300    85082189.11748
  22008769.680   115656883.14505  22008767.560    90122241.96946
  22071271.320   115985325.64105  22071268.920    90378170.76148
  22691934.120   119246938.30004  22691930.820    92919691.53947
  21871323.600   114934589.93105  21871323.820    89559428.46248
 15 03 06 00 14  0.0000000  0  5G16G18G21G22G27
  20770101.060   109147624.97106  20770098.580    85050086.80548
  22002474.300   115623801.12805  22002472.340    90096463.79046
  22082634.720   116045039.77305  22082631.980    90424701.26247
  22675656.440   119161398.34004  22675652.940    92853037.07447
  21860916.380   114879899.81805  21860916.620    89516812.80448
 15 03 06 00 14 30.0000000  0  5G16G18G21G22G27
  20762345.460   109106869.01306  20762343.020    85018328.91648
  21996263.960   115591165.87005  21996262.080    90071033.73047
  22094037.340   116104961.53205  22094034.620    90471393.53547
  22659419.320   119076071.63304  22659415.740    92786548.80147
  21850534.820   114825344.69805  21850535.140    89474302.32648
 15 03 06 00 15  0.0000000  0  5G16G18G21G22G27
  20754672.260   109066545.98806  20754669.820    84986908.38348
  21990136.900   115558967.76305  21990134.980    90045944.30647
  22105477.200   116165078.60905  22105474.520    90518238.00147
  22643221.160   118990950.12205  22643217.620    92720220.41047
  21840177.080   114770914.02905  21840177.340    89431888.82148
 15 03 06 00 15 30.0000000  0  5G16G18G21G22G27
  20747083.680   109026667.29506  20747081.180    84955834.07049
  21984095.060   115527217.47505  21984093.060    90021203.83447
  22116955.680   116225398.05805  22116953.000    90565240.16947
  22627064.320   118906045.78304  22627060.860    92654061.24247
  21829844.780   114716617.50505  21829845.020    89389579.85048
 15 03 06 00 16  0.0000000  0  5G16G18G21G22G27
  20739578.480   108987226.95806  20739575.940    84925101.33948
  21978137.260   115495909.06705  21978135.140    89996807.69047
  22128470.900   116285910.30205  22128468.240    90612392.55847
  22610947.860   118821353.41405  22610944.400    92588067.24947
  21819536.600   114662447.60905  21819536.820    89347369.55748
 15 03 06 00 16 30.0000000  0  5G16G18G21G22G27
  20732158.100   108948232.52506  20732155.540    84894716.06248
  21972264.860   115465049.78506  21972262.800    89972761.50947
  22140023.600   116346619.85805  22140020.940    90659698.70247
  22594873.380   118736881.70405  22594869.980    92522245.17646
  21809253.620   114608410.62505  21809253.860    89305262.82948
 15 03 06 00 17  0.0000000  0  5G16G18G21G22G27
  20724822.240   108909682.47006  20724819.700    84864677.05849
  21966477.580   115434637.25806  21966475.460    89949063.44647
  22151612.880   116407521.94405  22151610.220    90707154.86247
  22578840.620   118652629.77705  22578837.340    92456594.38047
  21798995.400   114554503.19705  21798995.540    89263257.04748
 15 03 06 00 17 30.0000000  0  5G16G18G21G22G27
  20717571.200   108871577.91906  20717568.660    84834985.20049
  21960775.460   115404672.14205  21960773.300    89925714.03247
  22163238.200   116468613.60205  22163235.520    90754758.75647
  22562850.140   118568599.77605  22562846.880    92391116.50847
  21788761.880   114500725.18005  21788761.880    89221352.11347
 15 03 06 00 18  0.0000000  0  5G16G18G21G22G27
  20710406.180   108833925.50306  20710403.660    84805645.65549
  21955159.620   115375160.91606  21955157.520    89902718.28247
  22174900.160   116529897.59405  22174897.460    90802512.51247
  22546903.380   118484799.36305  22546900.040    92325817.54247
  21778553.880   114447081.72505  21778553.860    89179552.03348
 15 03 06 00 18 30.0000000  0  5G16G18G21G22G27
  20703326.820   108796723.32506  20703324.280    84776656.94749
  21949629.560   115346100.87506  21949627.580    89880074.10447
  22186597.780   116591368.85005  22186595.120    90850412.19447
  22531000.200   118401227.27005  22530996.740    92260696.49247
  21768370.760   114393569.26305  21768370.800    89137854.01048
 15 03 06 00 19  0.0000000  0  5G16G18G21G22G27
  20696333.760   108759974.76206  20696331.220    84748021.70149
  21944185.840   115317494.74006  21944184.040    89857783.63847
  22198330.920   116653027.14005  22198328.400    90898457.59447
  22515141.120   118317887.61205  22515137.760    92195756.53647
  21758212.920   114340189.70305  21758213.000    89096259.56248
 15 03 06 00 19 30.0000000  0  5G16G18G21G22G27
  20689427.800   108723683.85006  20689425.280    84719743.06649
  21938829.320   115289346.12905  21938827.580    89835849.64947
  22210099.720   116714872.93005  22210097.280    90946649.11947
  22499327.220   118234785.21705  22499323.900    92131001.47847
  21748080.860   114286945.62305  21748080.940    89054770.67948
 15 03 06 00 20  0.0000000  0  5G16G18G21G22G27
  20682608.800   108687849.75006  20682606.300    84691820.39549
  21933559.660   115261653.84805  21933557.920    89814271.25847
  22221903.380   116776901.75805  22221900.960    90994983.26647
  22483558.420   118151920.26805  22483555.140    92066431.43547
  21737974.200   114233834.86905  21737974.260    89013385.67648
 15 03 06 00 20 30.0000000  0  5G16G18G21G22G27
  20675876.420   108652470.88106  20675873.920    84664252.44349
  21928376.540   115234416.00006  21928374.740    89793046.98446
  22233741.040   116839108.94205  22233738.540    91043456.38447
  22467834.840   118069292.19505  22467831.540    92002045.96346
  21727892.420   114180854.68605  21727892.400    88972102.42148
 15 03 06 00 21  0.0000000  0  5G16G18G21G22G27
  20669231.860   108617553.31406  20669229.320    84637043.94949
  21923280.880   115207637.81905  21923279.040    89772180.88347
  22245613.100   116901496.99105  22245610.560    91092070.44447
  22452157.720   117986908.15305  22452154.400    91937850.65047
  21717836.340   114128009.53205  21717836.260    88930924.38748
 15 03 06 00 21 30.0000000  0  5G16G18G21G22G27
  20662675.680   108583100.14506  20662673.120    84610197.32049
  21918273.200   115181321.94406  21918271.260    89751675.02147
  22257519.500   116964065.52105  22257517.000    91140825.12947
  22436527.620   117904771.92705  22436524.360    91873848.44347
  21707806.220   114075300.96106  21707806.140    88889852.78348
 15 03 06 00 22  0.0000000  0  5G16G18G21G22G27
  20656208.100   108549112.65706  20656205.520    84583713.56348
  21913353.600   115155469.19506  21913351.640    89731530.04246
  22269459.740   117026812.35505  22269457.380    91189718.75847
  22420945.060   117822885.78405  22420941.800    91810041.10846
  21697802.040   114022729.06405  21697801.960    88848887.68548
 15 03 06 00 22 30.0000000  0  5G16G18G21G22G27
  20649828.700   108515588.63606  20649826.120    84557590.94449
  21908521.680   115130077.05806  21908519.720    89711743.97247
  22281432.860   117089731.92805  22281430.540    91238746.97147
  22405409.920   117741248.77605  22405406.680    91746427.90547
  21687823.240   113970290.39405  21687823.160    88808026.38448
 15 03 06 00 23  0.0000000  0  5G16G18G21G22G27
  20643537.380   108482527.64006  20643534.880    84531829.12249
  21903777.100   115105143.94406  21903775.060    89692315.57747
  22293438.240   117152820.27105  22293435.820    91287906.72747
  22389922.240   117659860.94705  22389918.940    91683008.85847
  21677869.540   113917983.08506  21677869.440    88767267.45048
 15 03 06 00 23 30.0000000  0  5G16G18G21G22G27
  20637335.400   108449935.74406  20637332.920    84506432.84449
  21899120.940   115080675.61306  21899118.800    89673249.35347
  22305476.360   117216080.25405  22305473.740    91337200.22747
  22374483.420   117578729.28705  22374480.020    91619789.42547
  21667941.800   113865811.92806  21667941.640    88726614.61148
 15 03 06 00 24  0.0000000  0  6G16G18G19G21G22G27
  20631223.240   108417816.26106  20631220.780    84481404.67149
  21894553.780   115056675.00106  21894551.560    89654547.60347
  23627824.460   124165055.54303  23627820.660    96751978.33546
  22317547.020   117279511.96905  22317544.420    91386627.52947
  22359094.140   117497858.46105  22359090.740    91556773.24046
  21658040.280   113813778.96906  21658040.140    88686069.45348
 15 03 06 00 24 30.0000000  0  6G16G18G19G21G22G27
  20625202.120   108386174.94106  20625199.600    84456749.09249
  21890076.600   115033147.47706  21890074.380    89636214.47347
  23613497.180   124089766.02704  23613493.920    96693311.19844
  22329650.760   117343117.47005  22329648.220    91436190.24147
  22343755.700   117417254.97505  22343752.340    91493965.37047
  21648165.920   113761888.87506  21648165.840    88645635.61848
 15 03 06 00 25  0.0000000  0  5G16G18G21G22G27
  20619270.080   108355002.02006  20619267.560    84432458.50349
  21885687.340   115010081.91306  21885685.200    89618241.31647
  22341784.900   117406883.35305  22341782.600    91485877.93247
  22328466.500   117336909.68405  22328463.180    91431358.68046
  21638316.580   113710130.08406  21638316.500    88605304.09348
 15 03 06 00 25 30.0000000  0  5G16G18G21G22G27
  20613428.540   108324304.68306  20613426.020    84408538.49649
  21881387.280   114987485.26806  21881385.240    89600633.55547
  22353950.380   117470813.37405  22353948.120    91535693.52447
  22313228.100   117256830.86805  22313224.760    91368959.63446
  21628493.440   113658508.81406  21628493.340    88565079.72948
 15 03 06 00 26  0.0000000  0  5G16G18G21G22G27
  20607679.160   108294091.37206  20607676.640    84384995.65049
  21877178.080   114965365.74606  21877176.000    89583397.57947
  22366148.300   117534913.59505  22366145.940    91585641.75047
  22298042.100   117177027.62805  22298038.760    91306775.33447
  21618697.780   113607032.50706  21618697.780    88524968.33948
 15 03 06 00 26 30.0000000  0  6G16G18G19G21G22G27
  20602022.680   108264366.27906  20602020.160    84361833.23849
  21873060.160   114943726.29606  21873058.100    89566535.68647
  23556348.740   123789447.34804  23556346.400    96459303.09545
  22378378.700   117599184.12605  22378376.080    91635722.68047
  22282909.680   117097506.06405  22282906.280    91244810.52647
  21608930.200   113555703.84806  21608930.300    88484971.98648
 15 03 06 00 27  0.0000000  0  6G16G18G19G21G22G27
  20596454.740   108235106.91506  20596452.280    84339033.72949
  21869029.360   114922544.35706  21869027.240    89550030.29147
  23542101.200   123714575.43403  23542098.700    96400961.37646
  22390636.440   117663599.22705  22390633.800    91685916.26346
  22267826.500   117018244.37205  22267823.160    91183048.20647
  21599186.300   113504499.40506  21599186.440    88445072.42448
 15 03 06 00 27 30.0000000  0  6G16G18G19G21G22G27
  20590978.980   108206331.88806  20590976.560    84316611.62649
  21865089.080   114901838.28206  21865086.960    89533895.69347
  23527870.360   123639790.70903  23527867.720    96342687.57745
  22402924.820   117728174.93405  22402922.080    91736234.98947
  22252796.600   116939262.44205  22252793.300    91121503.88646
  21589469.400   113453436.77806  21589469.560    88405283.36748
 15 03 06 00 28  0.0000000  0  5G16G18G21G22G27
  20585593.800   108178032.66006  20585591.420    84294560.27849
  21861237.560   114881598.22406  21861235.440    89518124.22447
  22415241.460   117792899.11705  22415238.760    91786669.41847
  22237818.640   116860552.28505  22237815.280    91060171.33047
  21579777.560   113402505.98806  21579777.780    88365597.04848
 15 03 06 00 28 30.0000000  0  6G16G18G19G21G22G27
  20580306.200   108150245.87206  20580303.780    84272908.22749
  21857481.620   114861860.61306  21857479.540    89502744.27947
  23499458.780   123490486.45703  23499457.000    96226344.20345
  22427592.720   117857805.66505  22427590.180    91837245.93547
  22222899.600   116782151.58005  22222896.060    90999079.89747
  21570117.620   113351742.81806  21570117.860    88326041.33348
 15 03 06 00 29  0.0000000  0  6G16G18G19G21G22G27
  20575108.020   108122929.31706  20575105.600    84251622.60249
  21853813.040   114842582.43406  21853811.060    89487722.33847
  23485276.960   123415960.74704  23485274.540    96168272.24746
  22439969.820   117922848.49505  22439967.480    91887928.64347
  22208031.520   116704019.18505  22208027.840    90938197.54947
  21560481.400   113301103.81506  21560481.560    88286582.38048
 15 03 06 00 29 30.0000000  0  6G16G18G19G21G22G27
  20570002.200   108096098.15706  20569999.800    84230715.20249
  21850234.580   114823777.73406  21850232.640    89473069.32747
  23471111.220   123341517.70204  23471108.760    96110264.69947
  22452375.260   117988039.61705  22452372.940    91938726.92247
  22193217.440   116626170.97105  22193213.840    90877536.64147
  21550871.420   113250603.01606  21550871.500    88247231.11848
 15 03 06 00 30  0.0000000  0  6G16G18G19G21G22G27
  20564991.260   108069765.68706  20564988.880    84210196.38849
  21846748.840   114805460.01706  21846746.840    89458795.79847
  23456963.000   123267168.80604  23456960.800    96052330.55245
  22464810.840   118053389.08405  22464808.500    91989648.58247
  22178460.360   116548622.08205  22178456.720    90817108.97847
  21541290.060   113200252.57906  21541290.100    88207997.01648
 15 03 06 00 30 30.0000000  0  6G16G18G19G21G22G27
  20560073.500   108043922.70506  20560071.100    84190058.99549
  21843353.840   114787619.06206  21843351.780    89444893.77347
  23442830.900   123192904.47904  23442828.680    95994462.29243
  22477274.400   118118885.31505  22477271.980    92040684.59847
  22163758.680   116471364.16605  22163755.000    90756908.03947
  21531735.420   113150042.66006  21531735.480    88168872.40948
 15 03 06 00 31  0.0000000  0  6G16G18G19G21G22G27
  20555249.360   108018571.73306  20555246.980    84170304.98749
  21840049.840   114770256.45906  21840047.780    89431364.47247
  23428715.140   123118725.33104  23428712.760    95936660.36146
  22489765.600   118184526.52605  22489763.080    92091833.58747
  22149112.840   116394399.94905  22149109.140    90696935.96347
  21522207.780   113099974.16906  21522207.760    88129858.00348
 15 03 06 00 31 30.0000000  0  6G16G18G19G21G22G27
  20550519.160   107993714.58206  20550516.860    84150935.77749
  21836837.260   114753374.44206  21836835.260    89418209.66847
  23414615.900   123044632.41303  23414612.900    95878925.67146
  22502284.380   118250312.85405  22502281.800    92143095.66347
  22134523.600   116317733.28005  22134519.960    90637195.73447
  21512707.300   113050048.81706  21512707.260    88090955.14048
 15 03 06 00 32  0.0000000  0  6G16G18G19G21G22G27
  20545884.360   107969358.44906  20545882.040    84131956.97049
  21833717.160   114736978.70206  21833715.280    89405433.76747
  23400533.880   122970631.11904  23400530.800    95821262.33345
  22514831.340   118316247.27405  22514828.640    92194473.11946
  22119992.500   116241372.21005  22119988.960    90577693.63047
  21503235.080   113000272.11806  21503235.040    88052168.09948
 15 03 06 00 32 30.0000000  0  6G16G18G19G21G22G27
  20541343.860   107945497.67206  20541341.480    84113364.15249
  21830688.520   114721062.83706  21830686.660    89393031.81247
  23386468.180   122896714.56804  23386464.940    95763665.03146
  22527404.800   118382321.24705  22527402.080    92245959.33247
  22105518.660   116165311.87305  22105515.160    90518425.87447
  21493789.860   112950637.39106  21493789.860    88013491.68648
 15 03 06 00 33  0.0000000  0  6G16G18G19G21G22G27
  20536898.920   107922139.29906  20536896.520    84095162.81949
  21827752.520   114705633.55606  21827750.560    89381009.00647
  23372419.660   122822888.80804  23372416.380    95706138.52046
  22540005.520   118448538.71105  22540002.880    92297557.34247
  22091103.580   116089560.60505  22091100.120    90459398.93847
  21484372.940   112901151.13706  21484372.980    87974930.96948
 15 03 06 00 33 30.0000000  0  6G16G18G19G21G22G27
  20532548.780   107899279.28006  20532546.400    84077349.81349
  21824908.120   114690685.90706  21824906.080    89369361.49847
  23358387.400   122749148.44804  23358384.020    95648678.50946
  22552632.320   118514893.27205  22552629.820    92349262.18447
  22076746.840   116014115.13505  22076743.260    90400610.29247
  21474983.280   112851808.09906  21474983.320    87936481.85048
 15 03 06 00 34  0.0000000  0  6G16G18G19G21G22G27
  20528294.140   107876921.32406  20528291.860    84059928.02949
  21822156.100   114676223.64706  21822153.960    89358092.21347
  23344371.960   122675496.42204  23344368.460    95591287.35947
  22565285.440   118581385.60605  22565282.960    92401074.38246
  22062449.400   115938981.11805  22062445.700    90342064.34147
  21465621.520   112802611.90906  21465621.540    87898147.16248
 15 03 06 00 34 30.0000000  0  6G16G18G19G21G22G27
  20524136.120   107855070.89006  20524133.880    84042901.70849
  21819497.040   114662250.18506  21819494.880    89347203.81547
  23330373.940   122601936.28604  23330370.460    95533967.77446
  22577965.180   118648017.73505  22577962.660    92452995.51547
  22048212.180   115864164.49805  22048208.540    90283765.72147
  21456288.300   112753566.01206  21456288.380    87859929.58748
 15 03 06 00 35  0.0000000  0  6G16G18G19G21G22G27
  20520074.740   107833728.04106  20520072.460    84026270.91549
  21816931.000   114648765.68006  21816928.820    89336696.41847
  23316393.160   122528467.36604  23316389.800    95476719.29046
  22590671.020   118714787.00905  22590668.400    92505023.51147
  22034035.560   115789666.55305  22034032.020    90225715.40148
  21446983.760   112704670.24006  21446983.820    87821828.99048
 15 03 06 00 35 30.0000000  0  6G16G18G19G21G22G27
  20516109.360   107812889.81606  20516107.100    84010033.32949
  21814457.400   114635766.96306  21814455.200    89326567.55347
  23302428.860   122455085.39704  23302425.640    95419538.58246
  22603401.700   118781686.96905  22603399.080    92557153.33946
  22019919.300   115715485.47905  22019915.780    90167911.99248
  21437707.080   112655920.72606  21437707.160    87783842.36848
 15 03 06 00 36  0.0000000  0  6G16G18G19G21G22G27
  20512241.400   107792563.55406  20512239.160    83994194.68349
  21812077.420   114623259.96006  21812075.120    89316821.85247
  23288482.240   122381796.74604  23288479.420    95362430.56146
  22616158.200   118848722.68704  22616155.460    92609388.96246
  22005865.000   115641629.75505  22005861.460    90110362.12647
  21428459.480   112607323.91906  21428459.520    87745974.73648
 15 03 06 00 36 30.0000000  0  6G16G18G19G21G22G27
  20508469.240   107772740.50406  20508466.960    83978748.14749
  21809789.240   114611235.73506  21809787.000    89307452.33647
  23274551.700   122308591.57704  23274548.900    95305387.59347
  22628938.240   118915882.45005  22628935.520    92661721.25147
  21991871.160   115568092.02905  21991867.580    90053060.01647
  21419239.120   112558870.52106  21419239.160    87708218.84648
 15 03 06 00 37  0.0000000  0  6G16G18G19G21G22G27
  20504795.160   107753432.63606  20504792.820    83963703.04549
  21807595.020   114599705.27806  21807592.820    89298467.58147
  23260639.160   122235480.65404  23260636.420    95248418.08347
  22641743.740   118983175.55705  22641740.980    92714157.42247
  21977940.340   115494885.30405  21977936.760    89996015.85247
  21410048.100   112510571.68206  21410048.180    87670583.39148
 15 03 06 00 37 30.0000000  0  6G16G18G19G21G22G27
  20501217.920   107734633.77206  20501215.540    83949054.57549
  21805493.440   114588661.56406  21805491.280    89289862.09647
  23246743.280   122162456.91004  23246740.420    95191516.48947
  22654572.820   119050592.41505  22654569.980    92766690.02647
  21964071.520   115422004.27605  21964067.880    89939225.46947
  21400885.180   112462420.28106  21400885.280    87633062.82148
 15 03 06 00 38  0.0000000  0  6G16G18G19G21G22G27
  20497738.960   107716351.51106  20497736.560    83934808.64949
  21803485.900   114578112.04806  21803483.780    89281641.70247
  23232865.200   122089526.93904  23232862.120    95134687.95546
  22667426.240   119118137.74005  22667423.560    92819322.74547
  21950266.420   115349458.00705  21950262.720    89882695.93947
  21391751.660   112414423.56706  21391751.860    87595662.79648
 15 03 06 00 38 30.0000000  0  6G16G18G19G21G22G27
  20494357.760   107698583.16706  20494355.360    83920963.18649
  21801571.740   114568052.91706  21801569.540    89273803.42947
  23219004.180   122016686.92904  23219001.140    95077929.54247
  22680303.100   119185806.68005  22680300.540    92872051.77247
  21936524.760   115277244.96305  21936521.040    89826426.05747
  21382646.900   112366577.89506  21382647.120    87558380.44748
 15 03 06 00 39  0.0000000  0  6G16G18G19G21G22G27
  20491074.760   107681331.00106  20491072.360    83907519.93249
  21799751.140   114558485.75206  21799748.920    89266348.51147
  23205160.500   121943938.08104  23205157.340    95021242.15347
  22693203.380   119253598.15104  22693200.820    92924876.28946
  21922847.140   115205368.38505  21922843.340    89770418.35647
  21373571.120   112318884.84906  21373571.400    87521217.04048
 15 03 06 00 39 30.0000000  0  6G16G18G19G21G22G27
  20487890.340   107664597.02406  20487887.960    83894480.46149
  21798024.380   114549412.02406  21798022.240    89259278.08247
  23191334.420   121871281.65904  23191331.140    94964626.79146
  22706126.980   119321511.85604  22706124.420    92977796.05646
  21909234.200   115133831.56805  21909230.360    89714675.40947
  21364524.760   112271345.90106  21364524.980    87484173.70648
 15 03 06 00 40  0.0000000  0  6G16G18G19G21G22G27
  20484804.500   107648380.79406  20484802.120    83881844.43949
  21796391.360   114540830.51206  21796389.220    89252591.19947
  23177525.560   121798715.85404  23177522.420    94908082.04947
  22719073.080   119389544.42305  22719070.540    93030808.43946
  21895686.080   115062635.48905  21895682.240    89659197.97547
  21355507.480   112223959.80606  21355507.680    87447249.47648
 15 03 06 00 40 30.0000000  0  6G16G18G19G21G22G27
  20481818.180   107632687.31306  20481815.760    83869615.74349
  21794852.860   114532745.54506  21794850.680    89246291.22947
  23163734.760   121726245.13104  23163731.720    94851611.36247
  22732042.280   119457698.15505  22732039.600    93083915.24146
  21882203.960   114991786.38805  21882200.100    89603990.89847
  21346520.240   112176731.37806  21346520.420    87410448.10648
 15 03 06 00 41  0.0000000  0  6G16G18G19G21G22G27
  20478930.720   107617513.28506  20478928.260    83857791.82149
  21793407.960   114525152.60806  21793405.780    89240374.66547
  23149961.280   121653865.02104  23149958.240    94795211.31446
  22745033.520   119525967.26705  22745030.740    93137111.97246
  21868787.440   114921281.89805  21868783.500    89549052.36747
  21337562.240   112129656.48406  21337562.400    87373766.36648
 15 03 06 00 41 30.0000000  0  6G16G18G19G21G22G27
  20476142.700   107602862.14106  20476140.240    83846375.33949
  21792057.260   114518054.96506  21792055.140    89234844.05147
  23136205.580   121581578.32204  23136202.480    94738884.04647
  22758046.720   119594352.11805  22758043.880    93190398.85146
  21855437.420   114851127.09805  21855433.380    89494386.32447
  21328634.040   112082738.08806  21328634.140    87337206.57748
 15 03 06 00 42  0.0000000  0  6G16G18G19G21G22G27
  20473454.720   107588736.74006  20473452.300    83835368.52549
  21790801.260   114511454.93506  21790799.280    89229701.18047
  23122467.940   121509387.08304  23122464.760    94682631.14947
  22771082.060   119662853.57905  22771079.320    93243776.60847
  21842154.560   114781326.09405  21842150.600    89439995.95447
  21319736.040   112035978.68206  21319736.080    87300770.68548
 15 03 06 00 42 30.0000000  0  6G16G18G19G21G22G27
  20470866.000   107575133.03206  20470863.620    83824768.23349
  21789639.100   114505347.65106  21789637.120    89224942.25847
  23108747.600   121437286.37304  23108744.300    94626448.77147
  22784138.240   119731464.60404  22784135.640    93297239.73747
  21828938.440   114711875.69505  21828934.580    89385878.77447
  21310867.320   111989373.50906  21310867.380    87264454.97048
 15 03 06 00 43  0.0000000  0  6G16G18G19G21G22G27
  20468377.800   107562057.27206  20468375.400    83814579.32549
  21788571.660   114499738.25006  21788569.740    89220571.31647
  23095045.400   121365281.33304  23095042.280    94570340.97647
  22797215.900   119800188.45204  22797213.440    93350790.77145
  21815790.620   114642783.31305  21815786.640    89332040.57747
  21302028.980   111942928.29206  21302029.160    87228263.89148
 15 03 06 00 43 30.0000000  0  6G16G18G19G21G22G27
  20465989.620   107549506.85506  20465987.100    83804799.77149
  21787598.420   114494623.66306  21787596.380    89216585.92847
  23081360.900   121293368.76804  23081357.880    94514305.23746
  22810314.060   119869020.44904  22810311.660    93404426.09546
  21802710.860   114574047.97706  21802706.720    89278480.60048
  21293220.640   111896639.96606  21293220.780    87192195.06648
 15 03 06 00 44  0.0000000  0  6G16G18G19G21G22G27
  20463701.440   107537482.23506  20463698.860    83795429.93149
  21786719.260   114490003.56206  21786717.140    89212985.86647
  23067694.120   121221548.72904  23067691.020    94458341.60147
  22823432.600   119937958.41104  22823430.040    93458143.99046
  21789699.480   114505671.74206  21789695.140    89225200.45147
  21284442.300   111850509.00306  21284442.360    87156248.86048
 15 03 06 00 44 30.0000000  0  6G16G18G19G21G22G27
  20461514.040   107525987.84606  20461511.560    83786473.26649
  21785934.940   114485881.74606  21785932.760    89209774.07547
  23054045.600   121149824.50804  23054042.340    94402452.60747
  22836571.580   120007004.40404  22836568.920    93511946.04146
  21776757.260   114437659.83006  21776752.920    89172204.17947
  21275694.580   111804539.14806  21275694.560    87120428.20748
 15 03 06 00 45  0.0000000  0  6G16G18G19G21G22G27
  20459427.260   107515022.10306  20459424.860    83777928.52849
  21785245.040   114482255.87406  21785242.760    89206948.72747
  23040414.980   121078193.78204  23040411.380    94346636.46546
  22849730.400   120076154.30704  22849727.660    93565829.08746
  21763884.100   114370011.83706  21763879.980    89119491.48447
  21266977.020   111758728.28406  21266977.000    87084731.43848
 15 03 06 00 45 30.0000000  0  6G16G18G19G21G22G27
  20457443.080   107504594.96506  20457440.680    83769803.47449
  21784651.060   114479134.93706  21784648.880    89204516.83647
  23026803.600   121006665.57304  23026800.140    94290900.22347
  22862910.440   120145415.55304  22862907.700    93619798.88946
  21751082.440   114302739.28805  21751078.440    89067071.32847
  21258291.520   111713086.15706  21258291.560    87049166.14648
 15 03 06 00 46  0.0000000  0  6G16G18G19G21G22G27
  20455559.180   107494694.99806  20455556.800    83762089.21349
  21784150.860   114476506.92006  21784148.800    89202469.04147
  23013209.460   120935228.09804  23013206.080    94235234.66847
  22876109.140   120214774.24404  22876106.300    93673844.61647
  21738350.500   114235831.98206  21738346.360    89014935.78548
  21249635.940   111667600.97706  21249636.020    87013723.15348
 15 03 06 00 46 30.0000000  0  6G16G18G19G21G22G27
  20453777.380   107485331.67806  20453775.000    83754793.11349
  21783746.260   114474380.46006  21783744.140    89200812.06347
  22999634.140   120863890.20604  22999630.840    94179646.72346
  22889327.540   120284237.08204  22889324.700    93727971.47846
  21725690.100   114169300.75206  21725685.820    88963093.28947
  21241011.980   111622281.96406  21241012.120    86978409.64449
 15 03 06 00 47  0.0000000  0  6G16G18G19G21G22G27
  20452097.260   107476502.70906  20452094.900    83747913.39549
  21783436.640   114472752.80206  21783434.360    89199543.77247
  22986077.200   120792649.10904  22986074.040    94124134.18446
  22902564.940   120353800.03804  22902562.140    93782176.37946
  21713100.940   114103144.35406  21713096.640    88911542.88247
  21232419.200   111577126.55506  21232419.360    86943223.61248
 15 03 06 00 47 30.0000000  0  6G16G18G19G21G22G27
  20450518.680   107468207.27306  20450516.320    83741449.41249
  21783221.540   114471622.17306  21783219.120    89198662.77347
  22972538.560   120721503.17804  22972535.400    94068695.80746
  22915820.680   120423459.69504  22915818.060    93836456.61547
  21700583.320   114037363.92006  21700579.080    88860285.42348
  21223857.360   111532133.67706  21223857.480    86908164.22848
 15 03 06 00 48  0.0000000  0  6G16G18G19G21G22G27
  20449042.220   107460448.39206  20449039.820    83735403.52349
  21783101.320   114470991.07006  21783099.040    89198171.01247
  22959018.560   120650454.86204  22959015.440    94013333.51747
  22929094.960   120493216.71004  22929092.340    93890812.72046
  21688137.900   113971963.33706  21688133.860    88809323.95048
  21215326.940   111487306.16706  21215327.040    86873233.70548
 15 03 06 00 48 30.0000000  0  6G16G18G19G21G22G27
  20447667.940   107453226.51706  20447665.560    83729776.08649
  21783076.160   114470858.92606  21783073.920    89198068.04647
  22945517.080   120579503.84604  22945513.880    93958047.01947
  22942387.280   120563069.06104  22942384.780    93945243.12246
  21675765.180   113906944.25006  21675761.160    88758659.74547
  21206827.980   111442644.21006  21206828.120    86838432.18848
 15 03 06 00 49  0.0000000  0  6G16G18G19G21G22G27
  20446396.740   107446546.12206  20446394.360    83724570.57749
  21783146.680   114471229.03106  21783144.380    89198356.44747
  22932034.760   120508654.16704  22932031.580    93902839.49447
  22955698.340   120633019.08804  22955695.920    93999749.62847
  21663466.180   113842312.75806  21663462.120    88708297.57048
  21198361.380   111398152.01306  21198361.580    86803762.94848
 15 03 06 00 49 30.0000000  0  6G16G18G19G21G22G27
  20445227.520   107440401.62906  20445225.140    83719782.65749
  21783311.720   114472096.16206  21783309.420    89199032.14747
  22918570.680   120437900.29904  22918567.520    93847706.62847
  22969026.620   120703059.23904  22969024.140    94054326.35846
  21651240.200   113778064.96206  21651236.060    88658234.36747
  21189926.080   111353824.27006  21189926.360    86769221.85748
 15 03 06 00 50  0.0000000  0  6G16G18G19G21G22G27
  20444160.800   107434796.20906  20444158.480    83715414.79149
  21783571.660   114473462.32106  21783569.380    89200096.69847
  22905125.400   120367244.47604  22905122.240    93792650.17547
  22982372.180   120773190.10904  22982369.620    94108973.76646
  21639088.020   113714205.18006  21639083.940    88608473.52448
  21181522.620   111309663.76306  21181522.920    86734811.07348
 15 03 06 00 50 30.0000000  0  6G16G18G19G21G22G27
  20443197.660   107429734.89806  20443195.340    83711470.90449
  21783927.160   114475331.71006  21783925.100    89201553.37747
  22891699.540   120296691.29204  22891696.380    93737673.70347
  22995735.480   120843414.46204  22995732.920    94163694.04946
  21627010.960   113650739.63606  21627006.920    88559019.87448
  21173151.920   111265675.31706  21173152.180    86700534.36448
 15 03 06 00 51  0.0000000  0  6G16G18G19G21G22G27
  20442337.620   107425215.36506  20442335.280    83707949.19049
  21784377.860   114477701.32906  21784376.020    89203399.84247
  22878292.520   120226237.78804  22878289.440    93682774.91047
  23009115.660   120913728.11104  23009113.180    94218483.90547
  21615008.760   113587667.40206  21615004.720    88509872.69748
  21164813.560   111221856.69006  21164813.740    86666389.98549
 15 03 06 00 51 30.0000000  0  6G16G18G19G21G22G27
  20441580.300   107421235.47506  20441577.900    83704847.96449
  21784923.360   114480568.15606  21784921.540    89205633.72847
  22864904.260   120155881.75004  22864901.040    93627952.04146
  23022512.120   120984126.57104  23022509.520    94273339.80546
  21603081.300   113524987.94806  21603077.200    88461031.58248
  21156507.040   111178205.65406  21156507.180    86632376.19148
 15 03 06 00 52  0.0000000  0  6G16G18G19G21G22G27
  20440926.560   107417799.98206  20440924.120    83702170.95349
  21785564.300   114483935.95906  21785562.360    89208258.00447
  22851535.320   120085627.33304  22851532.040    93573208.36647
  23035925.120   121054612.47204  23035922.580    94328263.87546
  21591229.720   113462707.20406  21591225.580    88412501.15747
  21148233.280   111134726.95106  21148233.480    86598496.68849
 15 03 06 00 52 30.0000000  0  6G16G18G19G21G22G27
  20440376.100   107414907.34206  20440373.680    83699916.94249
  21786300.320   114487803.20206  21786298.220    89211271.44347
  22838185.440   120015472.89304  22838182.100    93518542.59647
  23049354.000   121125182.12804  23049351.640    94383253.21646
  21579453.940   113400825.02006  21579449.760    88364281.28648
  21139992.120   111091419.09806  21139992.300    86564750.31348
 15 03 06 00 53  0.0000000  0  6G16G18G19G21G22G27
  20439929.980   107412563.06906  20439927.600    83698090.22949
  21787132.020   114492173.83406  21787129.900    89214677.14647
  22824855.440   119945423.45704  22824852.100    93463958.65647
  23062799.520   121195838.97304  23062797.220    94438310.49346
  21567755.240   113339348.39906  21567751.140    88316377.45048
  21131784.500   111048287.48006  21131784.660    86531141.26848
 15 03 06 00 53 30.0000000  0  6G16G18G19G21G22G27
  20439587.420   107410762.88806  20439585.040    83696687.47849
  21788058.560   114497042.98406  21788056.420    89218471.29447
  22811544.480   119875474.24204  22811541.060    93409452.80847
  23076260.500   121266576.93704  23076258.160    94493430.97246
  21556133.240   113278274.78706  21556129.180    88268787.64148
  21123609.580   111005327.98306  21123609.780    86497666.34648
 15 03 06 00 54  0.0000000  0  6G16G18G19G21G22G27
  20439349.280   107409511.20406  20439346.840    83695712.13449
  21789080.780   114502414.94706  21789078.580    89222657.24547
  22798253.460   119805630.02604  22798250.140    93355028.77547
  23089737.420   121337398.65604  23089735.120    94548616.72346
  21544588.980   113217610.03806  21544585.080    88221516.42648
  21115468.320   110962545.47006  21115468.520    86464329.32949
 15 03 06 00 54 30.0000000  0  6G16G18G19G21G22G27
  20439214.120   107408801.06206  20439211.700    83695158.77149
  21790197.120   114508281.26906  21790194.920    89227228.41347
  22784981.100   119735882.93804  22784977.780    93300680.43246
  23103228.340   121408294.40804  23103226.180    94603860.14246
  21533121.420   113157348.27006  21533117.620    88174559.21948
  21107359.300   110919932.57106  21107359.540    86431124.48349
 15 03 06 00 55  0.0000000  0  6G16G18G19G21G22G27
  20439183.860   107408642.11606  20439181.480    83695034.90649
  21791409.320   114514651.06806  21791407.100    89232191.90347
  22771728.980   119666242.32804  22771725.520    93246415.05447
  23116734.860   121479271.99604  23116732.780    94659167.33946
  21521732.660   113097500.40306  21521728.940    88127924.54648
  21099284.440   110877499.00606  21099284.680    86398059.36548
 15 03 06 00 55 30.0000000  0  6G16G18G19G21G22G27
  20439258.320   107409033.05606  20439255.900    83695339.52749
  21792717.060   114521522.93906  21792714.820    89237546.61047
  22758496.780   119596706.94204  22758493.200    93192231.65946
  23130256.460   121550328.92504  23130254.540    94714536.34446
  21510422.940   113038067.15006  21510419.160    88081612.92648
  21091243.680   110835244.15106  21091243.880    86365133.50849
 15 03 06 00 56  0.0000000  0  6G16G18G19G21G22G27
  20439437.080   107409972.33106  20439434.660    83696071.42549
  21794119.800   114528894.22706  21794117.520    89243290.48347
  22745284.280   119527275.20604  22745280.740    93138129.03047
  23143792.500   121621461.02704  23143790.420    94769963.94646
  21499191.920   112979048.18806  21499188.260    88035624.14948
  21083236.540   110793166.37006  21083236.760    86332345.63549
 15 03 06 00 56 30.0000000  0  6G16G18G19G21G22G27
  20439720.060   107411459.16406  20439717.600    83697229.98049
  21795617.100   114536763.25906  21795614.940    89249422.20247
  22732091.460   119457946.60804  22732087.900    93084106.76146
  23157342.440   121692666.39304  23157340.280    94825448.64446
  21488039.920   112920444.38206  21488036.340    87989958.86248
  21075263.060   110751265.56006  21075263.260    86299695.66049
 15 03 06 00 57  0.0000000  0  6G16G18G19G21G22G27
  20440107.480   107413495.00206  20440105.000    83698816.34349
  21797209.320   114545130.56306  21797207.200    89255942.18347
  22718918.380   119388721.65304  22718914.820    93030165.27647
  23170906.020   121763943.84704  23170903.940    94880989.53245
  21476967.480   112862258.14906  21476963.840    87944618.95948
  21067323.400   110709542.69406  21067323.580    86267184.33949
 15 03 06 00 57 30.0000000  0  6G16G18G19G21G22G27
  20440600.300   107416084.58306  20440597.780    83700834.18749
  21798897.240   114554000.08306  21798894.980    89262853.50647
  22705765.960   119319605.12704  22705762.360    92976308.25347
  23184483.960   121835296.46104  23184481.900    94936588.96145
  21465975.620   112804495.90806  21465971.960    87899609.43948
  21059418.600   110668002.93906  21059418.760    86234815.71149
 15 03 06 00 58  0.0000000  0  6G16G18G19G21G22G27
  20441197.840   107419224.83006  20441195.360    83703281.12649
  21800680.040   114563368.45506  21800677.680    89270153.55947
  22692633.640   119250594.32804  22692630.100    92922533.64347
  23198075.360   121906719.46304  23198073.300    94992243.24147
  21455064.160   112747156.38506  21455060.500    87854929.30748
  21051548.220   110626643.78906  21051548.420    86202587.81149
 15 03 06 00 58 30.0000000  0  6G16G18G19G21G22G27
  20441901.140   107422920.56006  20441898.680    83706160.90749
  21802558.440   114573239.60106  21802556.020    89277845.36847
  22679522.020   119181693.43504  22679518.780    92868844.65447
  23211680.860   121978216.04204  23211678.760    95047954.82846
  21444234.380   112690245.82206  21444230.780    87810583.43148
  21043713.200   110585470.26806  21043713.400    86170504.56048
 15 03 06 00 59  0.0000000  0  6G16G18G19G21G22G27
  20442707.980   107427160.87906  20442705.560    83709465.04649
  21804530.240   114583601.92106  21804527.900    89285919.90647
  22666429.520   119112891.88504  22666426.300    92815233.07847
  23225297.920   122049773.62604  23225295.860    95103713.97046
  21433484.460   112633754.58706  21433480.880    87766564.29948
  21035911.400   110544471.87406  21035911.680    86138557.77249
 15 03 06 00 59 30.0000000  0  6G16G18G19G21G22G27
  20443620.080   107431954.10506  20443617.640    83713200.01549
  21806596.960   114594462.90206  21806594.700    89294383.01247
  22653357.580   119044198.45304  22653354.280    92761705.76747
  23238927.820   122121398.84204  23238925.720    95159525.80446
  21422816.380   112577692.98106  21422812.780    87722879.95148
  21028144.680   110503657.58006  21028144.940    86106754.43848
 15 03 06 01 00  0.0000000  0  6G16G18G19G21G22G27
  20444638.580   107437306.18006  20444636.100    83717370.45649
  21808759.640   114605827.91506  21808757.380    89303238.88547
  22640307.100   118975618.16504  22640303.840    92708266.58347
  23252571.300   122193095.68804  23252569.140    95215393.45946
  21412231.500   112522068.11006  21412227.720    87679535.90848
  21020414.100   110463033.22606  21020414.340    86075099.10549
 15 03 06 01 00 30.0000000  0  6G16G18G19G21G22G27
  20445761.480   107443206.82306  20445759.020    83721968.35249
  21811016.080   114617685.75006  21811013.880    89312478.75647
  22627276.520   118907141.49504  22627273.260    92654908.16447
  23266226.180   122264852.53004  23266223.840    95271307.87546
  21401728.000   112466871.23506  21401724.020    87636525.38148
  21012717.900   110422589.26706  21012718.080    86043584.34049
 15 03 06 01 01  0.0000000  0  6G16G18G19G21G22G27
  20446990.860   107449666.93806  20446988.360    83727002.19949
  21813368.360   114630046.55806  21813366.040    89322110.55847
  22614267.620   118838779.13304  22614264.280    92601638.81547
  23279894.320   122336678.44104  23279891.760    95327276.12245
  21391308.100   112412114.37006  21391304.060    87593857.71248
  21005058.120   110382336.94906  21005058.320    86012218.90949
 15 03 06 01 01 30.0000000  0  6G16G18G19G21G22G27
  20448325.520   107456680.30506  20448322.980    83732467.15149
  21815815.000   114642903.38306  21815812.640    89332128.87247
  22601279.240   118770524.95004  22601275.880    92548453.75447
  23293574.160   122408565.64704  23293571.300    95383292.15446
  21380971.100   112357793.45506  21380967.180    87551529.74448
  20997433.720   110342270.63506  20997433.960    85980998.41149
 15 03 06 01 02  0.0000000  0  6G16G18G19G21G22G27
  20449765.680   107464248.23206  20449763.120    83738364.23049
  21818356.120   114656257.10306  21818353.780    89342534.36847
  22588311.780   118702380.86104  22588308.420    92495354.49146
  23307265.560   122480513.97504  23307262.500    95439355.80646
  21370717.600   112303911.25106  21370713.820    87509543.62848
  20989845.120   110302392.30706  20989845.360    85949924.40449
 15 03 06 01 02 30.0000000  0  6G16G18G19G21G22G27
  20451311.520   107472371.73906  20451308.960    83744694.22849
  21820991.820   114670107.88706  21820989.540    89353327.18147
  22575365.460   118634347.55104  22575362.160    92442341.53847
  23320968.300   122552522.85604  23320965.480    95495466.60646
  21360548.080   112250470.15706  21360544.340    87467901.23748
  20982292.580   110262703.17306  20982292.760    85918997.81949
 15 03 06 01 03  0.0000000  0  6G16G18G19G21G22G27
  20452962.940   107481050.14906  20452960.400    83751456.61949
  21823721.920   114684454.39706  21823719.560    89364506.29547
  22562440.100   118566424.45704  22562436.800    92389414.46847
  23334682.160   122624590.29704  23334679.460    95551623.04146
  21350462.760   112197471.41406  21350458.940    87426603.53448
  20974776.120   110223203.44406  20974776.160    85888218.81149
 15 03 06 01 03 30.0000000  0  6G16G18G19G21G22G27
  20454720.440   107490285.97106  20454717.900    83758653.35749
  21826546.700   114699298.30306  21826544.280    89376072.99447
  22549536.340   118498614.87504  22549533.000    92336575.85547
  23348407.200   122696717.07004  23348404.780    95607825.66247
  21340462.280   112144918.53906  21340458.360    87385653.25848
  20967296.200   110183896.06006  20967296.180    85857589.69749
 15 03 06 01 04  0.0000000  0  6G16G18G19G21G22G27
  20456583.500   107500076.05706  20456580.900    83766281.98849
  21829465.360   114714636.13006  21829462.880    89388024.55047
  22536653.660   118430915.92404  22536650.380    92283823.44048
  23362142.840   122768898.60004  23362140.520    95664071.00045
  21330546.460   112092810.58506  21330542.500    87345049.67448
  20959852.400   110144778.75106  20959852.380    85827108.68549
 15 03 06 01 04 30.0000000  0  6G16G18G19G21G22G27
  20458552.060   107510421.11206  20458549.520    83774343.06149
  21832477.740   114730467.34006  21832475.440    89400360.57047
  22523792.200   118363328.14804  22523788.940    92231157.65847
  23375888.820   122841134.21004  23375886.460    95720358.47846
  21320715.580   112041149.14306  21320711.620    87304794.02448
  20952445.000   110105852.47506  20952444.980    85796776.52849
 15 03 06 01 05  0.0000000  0  6G16G18G19G21G22G27
  20460627.060   107521325.52106  20460624.580    83782839.99949
  21835584.660   114746795.39705  21835582.620    89413083.73147
  22510952.720   118295856.23104  22510949.480    92178582.15047
  23389645.720   122913426.94704  23389643.400    95776690.48145
  21310970.940   111989940.65706  21310966.940    87264891.32148
  20945074.940   110067122.49306  20945074.980    85766597.32549
 15 03 06 01 05 30.0000000  0  5G16G18G19G22G27
  20462807.860   107532785.57906  20462805.360    83791769.90449
  21838785.640   114763616.96306  21838783.680    89426191.44547
  22498134.760   118228497.34104  22498131.520    92126094.73047
  21301312.120   111939183.22806  21301308.080    87225340.10348
  20937741.700   110028586.13506  20937741.780    85736568.99949
 15 03 06 01 06  0.0000000  0  6G16G18G19G21G22G27
  20465094.420   107544801.40406  20465091.920    83801132.87749
  21842080.460   114780930.82806  21842078.380    89439682.77347
  22485338.220   118161251.58204  22485335.060    92073695.46647
  23417189.260   123058157.99104  23417186.760    95889463.69444
  21291739.440   111888878.31106  21291735.300    87186141.48048
  20930445.360   109990243.97206  20930445.480    85706692.00149
 15 03 06 01 06 30.0000000  0  6G16G18G19G21G22G27
  20467487.640   107557377.80706  20467485.180    83810932.66349
  21845469.620   114798740.50106  21845467.420    89453560.45047
  22472564.200   118094124.01104  22472561.080    92021388.27647
  23430976.020   123130608.09604  23430973.600    95945918.34445
  21282254.000   111839032.05506  21282249.820    87147300.26348
