     2.11           OBSERVATION DATA    G                   RINEX VERSION / TYPE
SPIDER V4,0,0,3554                      2015 03 16 01:02    PGM / RUN BY / DATE 
OBBL                                                        MARKER NAME         
OBBL                                                        MARKER NUMBER       
                                                            OBSERVER / AGENCY   
496644              LEICA GRX1200+GNSS  8.20/4.007          REC # / TYPE / VERS 
10321016            LEIAR25         NONE                    ANT # / TYPE        
  5247771.7331  -137806.0861  3611675.3627                  APPROX POSITION XYZ 
        0.1200        0.0000        0.0000                  ANTENNA: DELTA H/E/N
     1     1                                                WAVELENGTH FACT L1/2
     4    C1    L1    P2    L2                              # / TYPES OF OBSERV 
    30.000                                                  INTERVAL            
  2015    03    06    00    00    0.0000000     GPS         TIME OF FIRST OBS   
  2015    03    06    23    59   30.0000000     GPS         TIME OF LAST OBS    
    16                                                      LEAP SECONDS        
    30                                                      # OF SATELLITES     
   G 1   795   790   790   787                              PRN / # OF OBS      
   G 2   853   842   836   831                              PRN / # OF OBS      
   G 3   824   818   819   817                              PRN / # OF OBS      
   G 4   830   818   824   818                              PRN / # OF OBS      
   G 5   643   641   639   637                              PRN / # OF OBS      
   G 6   621   620   617   617                              PRN / # OF OBS      
   G 7   641   641   639   639                              PRN / # OF OBS      
   G 9   770   766   769   766                              PRN / # OF OBS      
   G10   723   717   717   713                              PRN / # OF OBS      
   G11   756   750   742   740                              PRN / # OF OBS      
   G12   796   796   795   795                              PRN / # OF OBS      
   G13   798   795   784   782                              PRN / # OF OBS      
   G14   850   844   824   824                              PRN / # OF OBS      
   G15   685   683   678   678                              PRN / # OF OBS      
   G16   666   664   656   656                              PRN / # OF OBS      
   G17   861   846   843   839                              PRN / # OF OBS      
   G18   856   850   819   817                              PRN / # OF OBS      
   G19   726   726   725   725                              PRN / # OF OBS      
   G20   732   727   723   722                              PRN / # OF OBS      
   G21   698   698   698   698                              PRN / # OF OBS      
   G22   660   660   637   637                              PRN / # OF OBS      
   G23   717   717   717   717                              PRN / # OF OBS      
   G24   807   806   800   800                              PRN / # OF OBS      
   G25   850   850   849   849                              PRN / # OF OBS      
   G27   792   790   784   784                              PRN / # OF OBS      
   G28   814   806   782   778                              PRN / # OF OBS      
   G29   727   727   727   727                              PRN / # OF OBS      
   G30   683   683   683   683                              PRN / # OF OBS      
   G31   692   685   680   679                              PRN / # OF OBS      
   G32   729   729   729   729                              PRN / # OF OBS      
BIT 2 OF LLI FLAGS DATA COLLECTED UNDER A/S CONDITION       COMMENT             
SNR is mapped to RINEX snr flag value [2-9]                 COMMENT             
Lx:     = 25dBHz -> 1; 26-27dBHz -> 2; 28-31dBHz -> 3       COMMENT             
       32-35dBHz -> 4; 36-38dBHz -> 5; 39-41dBHz -> 6       COMMENT             
       42-44dBHz -> 7; 45-48dBHz -> 8; >=49dBHz -> 9        COMMENT             
                                                            END OF HEADER       
 15 03 06 00 00  0.0000000  0  6G16G18G21G22G27G31
  20957004.480   110129826.03109  20957001.440    85815452.45848
  22437671.260   117910914.63309  22437669.100    91878682.09547
  22024647.900   115740325.16009  22024643.840    90187256.88547
  23141970.780   121612125.69609  23141967.660    94762780.08847
  21934440.560   115266293.67909  21934440.180    89817890.90848
  23590771.500   123970240.02208  23590774.240    96600148.85646
 15 03 06 00 00 30.0000000  0  6G16G18G21G22G27G31
  20947400.160   110079354.39709  20947397.080    85776123.91548
  22429951.620   117870348.75709  22429949.300    91847072.32747
  22035920.060   115799560.39009  22035915.960    90233414.20747
  23125650.260   121526359.37909  23125646.360    94695949.35347
  21924847.100   115215879.24108  21924846.620    89778606.96147
  23609546.560   124068904.97608  23609549.780    96677030.69245
 15 03 06 00 01  0.0000000  0  6G16G18G21G22G27G31
  20937863.960   110029240.50309  20937860.820    85737074.12348
  22422306.540   117830174.06609  22422303.780    91815767.40447
  22047239.780   115859045.13709  22047235.540    90279765.95448
  23109355.740   121440730.89109  23109351.480    94629226.04447
  21915280.540   115165607.06308  21915279.960    89739433.83747
  23628335.180   124167641.59307  23628338.600    96753968.43045
 15 03 06 00 01 30.0000000  0  6G16G18G21G22G27G31
  20928394.260   109979476.27309  20928391.020    85698296.79548
  22414734.700   117790382.40709  22414731.580    91784760.94547
  22058604.820   115918768.31009  22058600.620    90326303.51048
  23093085.740   121355233.19008  23093081.340    94562604.58047
  21905739.040   115115466.92508  21905738.600    89700363.60247
  23647135.240   124266437.13208  23647138.580    96830952.23147
 15 03 06 00 02  0.0000000  0  6G16G18G21G22G27G31
  20918991.420   109930063.64809  20918987.980    85659793.45548
  22407236.340   117750976.11209  22407232.900    91754054.77647
  22070014.660   115978727.62609  22070010.760    90373025.06148
  23076841.100   121269869.21909  23076836.740    94496087.35247
  21896223.040   115065459.09009  21896222.600    89661396.49347
  23665946.060   124365288.39608  23665948.920    96907979.42346
 15 03 06 00 02 30.0000000  0  6G16G18G21G22G27G31
  20909657.620   109881013.44409  20909653.880    85621572.51448
  22399813.040   117711965.27209  22399809.660    91723656.74647
  22081470.520   116038929.29408  22081466.860    90419935.45647
  23060624.080   121184649.95909  23060619.960    94429682.85447
  21886733.840   115015591.87308  21886733.180    89622538.93547
  23684768.420   124464200.75207  23684770.760    96985054.27744
 15 03 06 00 03  0.0000000  0  6G16G18G21G22G27G31
  20900391.580   109832319.47609  20900387.660    85583629.15748
  22392463.340   117673343.10008  22392460.040    91693561.55347
  22092970.580   116099363.50008  22092967.080    90467027.03948
  23044433.820   121099570.10209  23044430.020    94363387.00347
  21877269.660   114965856.85608  21877268.960    89583784.40548
  23703600.580   124563163.80608  23703602.780    97062168.74246
 15 03 06 00 03 30.0000000  0  6G16G18G21G22G27G31
  20891193.780   109783985.24409  20891189.860    85545966.15248
  22385188.260   117635114.14409  22385185.140    91663772.79547
  22104514.940   116160030.47008  22104511.460    90514299.98447
  23028271.000   121014634.22209  23028267.600    94297203.35447
  21867830.920   114916256.13908  21867830.260    89545134.54448
  23722442.020   124662175.50608  23722444.400    97139320.79446
 15 03 06 00 04  0.0000000  0  6G16G18G21G22G27G31
  20882062.680   109736001.85109  20882058.800    85508576.49948
  22377986.260   117597268.58709  22377983.240    91634282.78147
  22116101.120   116220917.31008  22116097.720    90561744.27547
  23012133.700   120929833.72309  23012130.860    94231125.16247
  21858415.760   114866778.53509  21858415.140    89506580.59148
  23741288.660   124761324.95308  23741292.360    97216619.13347
 15 03 06 00 04 30.0000000  0  6G16G18G21G22G27G31
  20873004.180   109688399.82709  20873000.180    85471483.99748
  22370863.300   117559836.82209  22370860.000    91605115.18747
  22127734.040   116282049.98408  22127730.880    90609380.10647
  22996027.940   120845200.26209  22996025.760    94165177.14047
  21849029.460   114817452.40509  21849028.720    89468144.68448
  23760148.500   124860432.83009  23760151.940    97293832.20446
 15 03 06 00 05  0.0000000  0  6G16G18G21G22G27G31
  20864016.420   109641169.23709  20864012.420    85434680.93748
  22363817.040   117522808.13209  22363813.440    91576261.69047
  22139411.200   116343415.05108  22139408.120    90657197.02947
  22979952.120   120760724.49308  22979950.380    94099351.96947
  21839669.700   114768265.95109  21839668.940    89429817.57548
  23779017.480   124959587.03406  23779020.360    97371095.36745
 15 03 06 00 05 30.0000000  0  6G16G18G21G22G27G31
  20855099.520   109594310.56909  20855095.500    85398167.68148
  22356847.460   117486183.15209  22356843.820    91547722.76947
  22151132.020   116405008.58908  22151128.780    90705191.99248
  22963906.760   120676407.59609  22963904.860    94033650.60447
  21830336.020   114719217.50708  21830335.520    89391598.03348
  23797893.320   125058782.48907  23797895.720    97448390.72445
 15 03 06 00 06  0.0000000  0  6G16G18G21G22G27G31
  20846254.160   109547827.62809  20846250.200    85361947.22048
  22349955.320   117449965.62309  22349952.080    91519501.33147
  22162896.600   116466831.24608  22162893.200    90753365.49348
  22947892.980   120592253.95409  22947890.460    93968076.46247
  21821028.760   114670308.88908  21821028.340    89353487.48748
  23816776.220   125158018.21307  23816778.320    97525717.33244
 15 03 06 00 06 30.0000000  0  6G16G18G21G22G27G31
  20837479.260   109501714.72609  20837475.420    85326015.08748
  22343139.520   117414149.92109  22343136.780    91491593.00047
  22174703.040   116528873.18009  22174699.500    90801709.84147
  22931909.620   120508259.30409  22931906.540    93902626.23947
  21811746.560   114621532.71708  21811746.200    89315480.11347
  23835665.420   125257284.08408  23835667.020    97603074.19345
 15 03 06 00 07  0.0000000  0  7G16G18G19G21G22G27G31
  20828772.760   109455961.43209  20828769.140    85290363.16748
  22336398.200   117378724.68109  22336395.700    91463988.91947
  23765651.060   124889345.26304  23765643.100    97316342.31543
  22186548.720   116591120.37309  22186544.760    90850214.13947
  22915954.420   120424413.38208  22915951.140    93837291.84847
  21802487.240   114572876.21708  21802486.980    89277565.95147
  23854558.100   125356564.21808  23854559.880    97680434.76447
 15 03 06 00 07 30.0000000  0  6G16G18G21G22G27G31
  20820138.060   109410586.40009  20820134.640    85255005.98748
  22329734.960   117343708.32309  22329732.320    91436703.48947
  22198436.020   116653586.13409  22198431.640    90898888.75147
  22900030.900   120340735.53909  22900027.960    93772088.47047
  21793254.080   114524356.19108  21793254.000    89239758.16348
  23873456.420   125455872.39108  23873459.380    97757822.06545
 15 03 06 00 08  0.0000000  0  6G16G18G21G22G27G31
  20811577.780   109365602.57309  20811574.560    85219953.66748
  22323152.120   117309113.86209  22323148.920    91409746.80247
  22210366.780   116716281.40808  22210362.120    90947742.22447
  22884142.000   120257239.95408  22884139.480    93707027.06148
  21784049.140   114475983.80508  21784049.180    89202065.37248
  23892361.880   125555217.32108  23892364.640    97835232.85546
 15 03 06 00 08 30.0000000  0  6G16G18G21G22G27G31
  20803089.780   109320997.89309  20803086.640    85185196.76148
  22316647.320   117274929.01509  22316643.760    91383109.28747
  22222337.760   116779189.53709  22222333.140    90996761.54647
  22868285.700   120173915.49208  22868283.500    93642099.01747
  21774869.760   114427744.99409  21774869.740    89164476.69547
  23911271.060   125654582.76307  23911274.240    97912659.74445
 15 03 06 00 09  0.0000000  0  6G16G18G21G22G27G31
  20794677.220   109276789.26809  20794673.980    85150748.47648
  22310223.400   117241169.63209  22310219.820    91356803.29747
  22234351.640   116842323.27608  22234347.180    91045956.66348
  22852465.380   120090779.21209  22852462.900    93577317.61347
  21765718.620   114379654.51709  21765718.460    89127003.60248
  23930185.720   125753980.05708  23930189.920    97990111.58046
 15 03 06 00 09 30.0000000  0  6G16G18G21G22G27G31
  20786337.460   109232962.43309  20786333.960    85116597.69148
  22303877.520   117207821.63709  22303874.000    91330817.86347
  22246404.980   116905664.44909  22246400.900    91095313.40247
  22836678.580   120007817.99609  22836675.340    93512672.61447
  21756592.600   114331696.17008  21756592.160    89089633.47447
  23949102.980   125853390.48808  23949107.640    98067573.57847
 15 03 06 00 10  0.0000000  0  6G16G18G21G22G27G31
  20778070.000   109189515.41609  20778066.300    85082742.85849
  22297609.200   117174882.63109  22297606.060    91305151.11747
  22258496.660   116969207.49708  22258493.040    91144827.45847
  22820924.800   119925030.55609  22820920.900    93448163.02147
  21747490.940   114283866.13009  21747490.300    89052363.32348
  23968021.920   125952807.55508  23968026.420    98145040.89548
 15 03 06 00 10 30.0000000  0  6G16G18G21G22G27G31
  20769876.020   109146454.65909  20769872.140    85049189.04049
  22291419.940   117142358.77209  22291417.200    91279807.87947
  22270627.280   117032955.21908  22270623.900    91194501.01347
  22805205.340   119842424.05809  22805201.020    93383794.44247
  21738414.580   114236168.99009  21738413.940    89015196.76548
  23986942.660   126052232.11208  23986946.420    98222513.83246
 15 03 06 00 11  0.0000000  0  7G16G18G19G21G22G27G31
  20761745.500   109103727.64709  20761741.440    85015895.26649
  22285299.660   117110197.05909  22285297.080    91254746.81647
  23654948.260   124307592.77806  23654946.900    96863053.10643
  22282786.320   117096851.35009  22282782.760    91244290.19447
  22789510.260   119759946.93608  22789506.100    93319526.66347
  21729353.020   114188550.33108  21729352.520    88978091.32948
  24005854.260   126151607.94408  24005857.040    98299949.07845
 15 03 06 00 11 30.0000000  0  7G16G18G19G21G22G27G31
  20753711.260   109061506.80309  20753707.100    84982995.91448
  22279281.160   117078570.02509  22279278.480    91230102.38647
  23641211.840   124235399.00405                                
  22295005.840   117161064.46509  22295002.020    91294326.39647
  22773872.580   119677772.65308  22773869.160    93255494.83447
  21720338.580   114141180.72708  21720338.460    88941179.97948
  24024788.140   126251101.74608  24024790.160    98377475.89745
 15 03 06 00 12  0.0000000  0  7G16G18G19G21G22G27G31
  20745741.920   109019627.22609  20745737.620    84950362.48348
  22273333.080   117047312.00709  22273329.960    91205745.51247
  23627486.920   124163276.38205  23627479.780    96750591.81543
  22307253.440   117225425.70909  22307249.560    91344478.01647
  22758261.240   119595736.98008  22758258.660    93191571.01547
  21711339.940   114093893.50808  21711339.840    88904332.79647
  24043711.920   126350544.38508  24043714.580    98454990.86447
 15 03 06 00 12 30.0000000  0  6G16G18G21G22G27G31
  20737845.440   108978131.77709  20737841.080    84918028.36748
  22267463.440   117016465.40909  22267459.720    91181709.23847
  22319536.440   117289973.90908  22319532.800    91394775.32347
  22742684.680   119513882.94509  22742682.500    93127788.73647
  21702365.040   114046729.43109  21702364.580    88867581.54047
  24062633.260   126449973.77008  24062635.940    98532467.60544
 15 03 06 00 13  0.0000000  0  6G16G18G21G22G27G31
  20730028.160   108937052.76809  20730023.760    84886018.74748
  22261678.080   116986062.42509  22261674.060    91158018.63247
  22331860.420   117354738.05408  22331857.240    91445240.86648
  22727149.400   119432244.39009  22727147.140    93064174.37047
  21693419.460   113999718.87109  21693418.400    88830949.92748
  24081557.400   126549417.59408  24081560.600    98609955.32647
 15 03 06 00 13 30.0000000  0  6G16G18G21G22G27G31
  20722288.120   108896379.46809  20722283.800    84854325.26948
  22255974.780   116956091.92509  22255970.900    91134665.00847
  22344222.700   117419703.19008  22344219.920    91495863.03647
  22711653.420   119350811.88709  22711650.780    93000720.55847
  21684500.640   113952849.65709  21684499.660    88794428.47448
  24100481.580   126648860.71108  24100485.440    98687442.66947
 15 03 06 00 14  0.0000000  0  6G16G18G21G22G27G31
  20714622.880   108856098.88609  20714618.440    84822937.79648
  22250351.000   116926540.29109  22250347.600    91111637.76347
  22356620.300   117484853.24708  22356617.680    91546629.30348
  22696194.220   119269572.49209  22696190.800    92937417.23747
  21675605.740   113906106.83109  21675604.860    88758005.48047
  24119402.660   126748285.89008  24119406.720    98764916.15346
 15 03 06 00 14 30.0000000  0  6G16G18G21G22G27G31
  20707034.400   108816221.38009  20707029.940    84791864.39548
  22244808.820   116897417.44609  22244805.800    91088944.64647
  22369054.260   117550194.24708  22369051.540    91597544.35747
  22680773.860   119188537.48809  22680769.820    92874273.16847
  21666736.520   113859498.69209  21666735.460    88721687.44448
  24138321.280   126847698.49208  24138325.060    98842379.90146
 15 03 06 00 15  0.0000000  0  6G16G18G21G22G27G31
  20699523.180   108776750.31809  20699518.860    84761107.70448
  22239348.840   116868726.43509  22239346.300    91066588.02347
  22381524.540   117615726.20008  22381521.560    91648608.22647
  22665393.240   119107711.28009  22665388.760    92811291.79547
  21657893.340   113813027.04909  21657892.020    88685475.79548
  24157237.020   126947097.40307  24157240.820    98919863.42543
 15 03 06 00 15 30.0000000  0  6G16G18G21G22G27G31
  20692091.400   108737696.65709  20692087.400    84730676.28048
  22233973.180   116840477.28209  22233970.860    91044575.71347
  22394032.440   117681455.72408  22394029.140    91699826.01547
  22650054.480   119027105.46209  22650050.080    92748482.14347
  21649077.740   113766700.83009  21649076.580    88649377.44048
  24176147.780   127046520.85907  24176152.640    98997305.18245
 15 03 06 00 16  0.0000000  0  6G16G18G21G22G27G31
  20684735.540   108699041.67209  20684731.820    84700555.50548
  22228678.200   116812651.43609  22228675.500    91022893.25447
  22406573.680   117747360.27208  22406570.120    91751180.19147
  22634754.220   118946702.05309  22634750.180    92685830.21248
  21640285.920   113720499.56909  21640285.140    88613376.47448
  24195054.460   127145880.53108  24195061.000    99074727.99646
 15 03 06 00 16 30.0000000  0  7G16G18G19G21G22G27G31
  20677462.740   108660822.88709  20677459.220    84670774.62948
  22223470.820   116785286.04909  22223467.780    91001569.59847
  23504881.340   123519000.37903  23504882.460    96248563.51443
  22419154.880   117813474.31209  22419151.100    91802697.63747
  22619499.860   118866539.81109  22619496.360    92623366.21748
  21631524.700   113674459.30009  21631524.120    88577500.94348
  24213963.320   127245235.41406                                
 15 03 06 00 17  0.0000000  0  6G16G18G21G22G27G31
  20670267.180   108623009.78009  20670263.720    84641309.86849
  22218345.060   116758349.77709  22218342.020    90980580.31447
  22431769.640   117879763.85209  22431765.260    91854351.81847
  22604285.800   118786588.84209  22604282.580    92561066.82948
  21622787.860   113628547.42909  21622787.200    88541725.48648
  24232864.900                                                  
 15 03 06 00 17 30.0000000  0  7G16G18G19G21G22G27G31
  20663150.200   108585610.14709  20663146.820    84612167.30848
  22213302.200   116731849.99709  22213299.640    90959931.14347
  23477866.560   123377022.38505  23477860.920    96137907.45643
  22444418.480   117946232.56209  22444413.720    91906145.61847
  22589113.480   118706857.97009  22589110.760    92498938.95448
  21614076.680   113582770.26609  21614076.020    88506054.96348
  24251763.360   127443865.55704  24251767.820    99306940.52244
 15 03 06 00 18  0.0000000  0  7G16G18G19G21G22G27G31
  20656108.860   108548608.48909  20656105.540    84583334.85748
  22208339.500   116705771.02409  22208337.280    90939609.86847
  23464382.840   123306170.21504  23464377.200    96082698.10243
  22457097.540   118012860.97808  22457092.860    91958063.84647
  22573980.120   118627332.78309  22573977.320    92436971.34148
  21605387.880   113537110.57909  21605387.240    88470476.01348
  24270650.420   127543122.25506                                
 15 03 06 00 18 30.0000000  0  7G16G18G19G21G22G27G31
  20649156.320   108512073.10209  20649153.000    84554865.73248
  22203469.820   116680180.26009  22203467.620    90919669.03147
  23450928.260   123235471.35705  23450923.900    96027608.12844
  22469819.100   118079713.94208  22469815.180    92010157.07947
  22558899.000   118548082.11009  22558895.580    92375217.65047
  21596734.020   113491634.66609  21596733.500    88435040.26248
  24289538.220                                                  
 15 03 06 00 19  0.0000000  0  7G16G18G19G21G22G27G31
  20642279.660   108475936.13809  20642276.360    84526707.05148
  22198680.040   116655009.32909  22198677.480    90900055.33847
  23437490.420   123164856.01106  23437485.160    95972583.15644
  22482569.780   118146720.04008  22482566.260    92062369.61347
  22543857.380   118469038.95709  22543853.340    92313625.67747
  21588101.860   113446273.09709  21588101.260    88399693.60748
  24308412.080                                                  
 15 03 06 00 19 30.0000000  0  7G16G18G19G21G22G27G31
  20635482.460   108440216.89509  20635479.340    84498873.88748
  22193973.700   116630277.04009  22193970.720    90880783.43847
  23424072.200   123094341.78506  23424066.220    95917637.07044
  22495352.400   118213894.78508  22495349.020    92114713.55047
  22528859.080   118390223.40409  22528854.560    92252211.03647
  21579494.920   113401043.46709  21579494.120    88364449.71748
  24327282.720   127840726.55604  24327287.080    99616160.53243
 15 03 06 00 20  0.0000000  0  7G16G18G19G21G22G27G31
  20628770.300   108404944.02809  20628767.080    84471388.51548
  22189356.080   116606011.68309  22189352.800    90861875.38347
  23410677.800   123023955.58006  23410673.600    95862790.71144
  22508171.820   118281263.10508  22508168.800    92167208.33647
  22513909.620   118311665.11409  22513905.040    92190996.84647
  21570918.460   113355972.77209  21570917.200    88329329.70948
  24346149.400   127939876.73608  24346152.900    99693415.08348
 15 03 06 00 20 30.0000000  0  7G16G18G19G21G22G27G31
  20622138.380   108370092.38009  20622134.940    84444231.36748
  22184822.460   116582187.78209  22184819.140    90843311.32147
  23397302.960   122953670.45006  23397299.780    95808023.06344
  22521022.900   118348796.65408  22521020.100    92219831.88547
  22499004.720   118233339.96909  22499000.400    92129964.32748
  21562367.120   113311034.44409  21562365.740    88294312.84748
  24365005.040   128038966.69908  24365008.300    99770637.48645
 15 03 06 00 21  0.0000000  0  7G16G18G19G21G22G27G31
  20615586.960   108335663.70509  20615583.340    84417403.82248
  22180373.060   116558806.19109  22180369.880    90825091.90747
  23383947.700   122883486.17806  23383943.580    95753334.04444
  22533905.180   118416493.46808  22533902.400    92272582.61947
  22484145.040   118155250.73909  22484140.900    92069115.63348
  21553840.800   113266228.40909  21553839.720    88259399.08249
  24383851.180   128138002.48305  24383856.820    99847801.18145
 15 03 06 00 21 30.0000000  0  7G16G18G19G21G22G27G31
  20609116.240   108301659.31709  20609112.480    84390906.88948
  22176008.120   116535867.80809  22176004.960    90807217.86247
  23370611.960   122813402.38906  23370607.020    95698723.48243
  22546818.120   118484351.25508  22546815.320    92325458.80447
  22469330.720   118077399.53809  22469326.640    92008452.41248
  21545339.560   113221554.18109  21545338.760    88224588.02149
  24402686.800   128236977.60506  24402690.780    99924921.83645
 15 03 06 00 22  0.0000000  0  7G16G18G19G21G22G27G31
  20602730.120   108268099.65409  20602726.340    84364756.50148
  22171731.400   116513392.65009  22171727.820    90789704.76547
  23357298.240   122743437.69005  23357292.720    95644205.64543
  22559764.800   118552386.85908  22559762.060    92378473.54847
  22454565.800   117999807.74109  22454561.560    91947991.33348
  21536867.120   113177030.81709  21536866.300    88189894.50749
  24421515.540   128335927.36908  24421518.080   100002022.52847
 15 03 06 00 22 30.0000000  0  7G16G18G19G21G22G27G31
  20596428.400   108234983.42709  20596424.620    84338951.65648
  22167542.340   116491378.98009  22167538.660    90772551.27147
  23344004.720   122673585.61805  23343999.500    95589781.52144
  22572744.460   118620595.38808  22572741.940    92431623.04547
  22439850.060   117922475.22209  22439845.820    91887732.28948
  21528422.760   113132655.38709  21528422.060    88155316.23649
  24440334.280   128434815.56506  24440337.560   100079094.80446
 15 03 06 00 23  0.0000000  0  7G16G18G19G21G22G27G31
  20590208.240   108202295.56409  20590204.400    84313480.57649
  22163437.800   116469810.60409  22163434.580    90755744.74847
  23330735.640   122603834.15006  23330728.420    95535433.43242
  22585753.540   118688958.28708  22585751.060    92484892.80547
  22425180.680   117845387.46209  22425176.480    91827663.97748
  21520003.380   113088411.18909  21520002.700    88120840.25249
  24459139.260                                                  
 15 03 06 00 23 30.0000000  0  7G16G18G19G21G22G27G31
  20584072.560   108170051.67209  20584068.680    84288355.46048
  22159420.900   116448702.78509  22159418.240    90739297.09547
  23317481.820   122534188.89905  23317479.120    95481161.55144
  22598794.420   118757487.67008  22598791.760    92538292.32247
  22410560.820   117768561.00609  22410556.920    91767799.25148
  21511611.660   113044312.31009  21511610.820    88086477.50649
  24477934.620                                                  
 15 03 06 00 24  0.0000000  0  7G16G18G19G21G22G27G31
  20578014.280   108138214.75709  20578010.440    84263547.47249
  22155484.780   116428018.16909  22155482.380    90723179.22747
  23304246.360   122464627.51907  23304241.340    95426957.85643
  22611859.440   118826143.25509  22611856.620    92591790.18147
  22395983.800   117691960.20909  22395980.160    91708110.38548
  21503240.320   113000320.21709  21503239.280    88052197.97949
  24496714.980   128731113.79507  24496716.020   100309972.17744
 15 03 06 00 24 30.0000000  0  7G16G18G19G21G22G27G31
  20572044.080   108106840.43809  20572040.060    84239099.94248
  22151639.800   116407811.95809  22151637.300    90707434.15447
  23291034.260   122395194.41406  23291027.960    95372854.21844
  22624958.460   118894976.82109  22624955.200    92645426.72247
  22381460.560   117615641.37909  22381456.880    91648641.21847
  21494899.580   112956489.14909  21494898.480    88018043.91249
  24515486.480   128829753.81409  24515487.820   100386827.03247
 15 03 06 00 25  0.0000000  0  7G16G18G19G21G22G27G31
  20566156.940   108075903.31109  20566152.860    84214993.10648
  22147880.760   116388057.32609  22147877.880    90692040.96547
  23277841.380   122325862.19905  23277833.060    95318829.24843
  22638085.800   118963959.15409  22638081.940    92699179.18747
  22366986.560   117539579.73309  22366982.620    91589372.46347
  21486584.240   112912791.65509  21486583.100    87983993.93648
  24534241.040   128928302.81907  24534244.680   100463605.15045
 15 03 06 00 25 30.0000000  0  7G16G18G19G21G22G27G31
  20560358.080   108045430.58709  20560354.140    84191248.11648
  22144212.640   116368781.27809  22144209.780    90677020.65447
  23264671.700   122256656.85006  23264664.600    95264902.90443
  22651245.800   119033113.91809  22651241.480    92753065.98347
  22352566.880   117463803.55109  22352562.860    91530326.13847
  21478299.200   112869253.70709  21478298.220    87950068.26649
  24552988.260   129026824.55507  24552991.600   100540383.52144
 15 03 06 00 26  0.0000000  0  7G16G18G19G21G22G27G31
  20554646.020   108015413.57509  20554642.220    84167858.23948
  22140633.640   116349974.76209  22140630.960    90662366.25047
  23251523.780   122187567.63707  23251515.800    95211075.20244
  22664436.300   119102429.80108  22664431.880    92807078.37047
  22338199.920   117388304.86309  22338196.080    91471496.03748
  21470042.540   112825865.34709  21470041.840    87916259.16248
  24571723.520   129125278.05906  24571725.360   100617101.13842
 15 03 06 00 26 30.0000000  0  7G16G18G19G21G22G27G31
  20549016.220   107985828.65509  20549012.480    84144805.05548
  22137139.360   116331612.96109  22137136.640    90648058.38247
  23238393.600   122118569.37107  23238386.940    95157310.34245
  22677651.920   119171879.05409  22677647.540    92861194.67947
  22323881.700   117313061.80209  22323877.760    91412865.13848
  21461809.440   112782601.12309  21461808.840    87882546.78248
  24590440.340   129223639.66407  24590442.920   100693744.19543
 15 03 06 00 27  0.0000000  0  7G16G18G19G21G22G27G31
  20543474.120   107956704.59709  20543470.300    84122110.97548
  22133735.180   116313724.51609  22133732.440    90634119.33647
  23225286.240   122049689.14607  23225280.380    95103637.49944
  22690897.640   119241487.01008  22690893.600    92915434.63047
  22309617.860   117238103.91609  22309613.740    91354456.45448
  21453605.400   112739488.60509  21453604.500    87848952.61848
  24609143.760   129321928.01107  24609146.820   100770330.83544
 15 03 06 00 27 30.0000000  0  7G16G18G19G21G22G27G31
  20538020.160   107928044.11209  20538016.220    84099778.12448
  22130421.660   116296311.80909  22130418.740    90620551.00347
  23212201.680   121980928.03406  23212196.020    95050057.47145
  22704173.560   119311253.63808  22704169.900    92969798.21047
  22295409.040   117163435.02509  22295404.600    91296272.94648
  21445430.620   112696529.19709  21445429.460    87815477.72448
  24627835.480   129420153.34208  24627837.720   100846878.26455
 15 03 06 00 28  0.0000000  0  7G16G18G19G21G22G27G31
  20532651.840   107899834.20409  20532647.840    84077796.35948
  22127196.180   116279360.49909  22127193.040    90607342.22947
  23199136.100   121912271.45305  23199130.820    94996558.84244
  22717476.620   119381162.21309  22717473.060    93024272.43347
  22281252.700   117089042.78809  22281248.080    91238305.02247
  21437282.100   112653708.18309  21437281.020    87782110.70748
  24646510.100   129518292.37709  24646511.400   100923350.33045
 15 03 06 00 28 30.0000000  0  7G16G18G19G21G22G27G31
  20527365.640   107872055.81109  20527361.600    84056150.86848
  22124054.900   116262851.30809  22124051.560    90594477.95147
  23186086.140   121843699.26507  23186081.700    94943125.97544
  22730802.640   119451190.71609  22730799.060    93078840.09947
  22267145.440   117014909.10909  22267140.760    91180538.58947
  21429155.960   112611005.39709  21429155.120    87748835.85748
  24665164.540   129616322.46007  24665162.560   100999717.56642
 15 03 06 00 29  0.0000000  0  7G16G18G19G21G22G27G31
  20522172.480   107844765.98609  20522168.420    84034886.05548
  22121008.140   116246840.49009  22121005.180    90582001.98847
  23173063.060   121775266.51207  23173058.980    94889801.68644
  22744161.600   119521392.16209  22744157.820    93133542.49047
  22253098.420   116941092.04109  22253093.420    91123018.83947
  21421062.860   112568476.31109  21421062.060    87715696.31248
  24683808.780   129714297.02107  24683807.720   101076061.80945
 15 03 06 00 29 30.0000000  0  6G16G18G19G21G22G27
  20517060.940   107817905.27909  20517056.920    84013955.64648
  22118044.520   116231267.39709  22118041.780    90569867.11347
  23160055.300   121706911.89507  23160050.780    94836538.43644
  22757541.540   119591703.86408  22757537.280    93188330.82346
  22239100.220   116867532.86609  22239095.260    91065700.05347
  21412991.200   112526060.06609  21412990.480    87682644.72748
 15 03 06 00 30  0.0000000  0  6G16G18G19G21G22G27
  20512039.560   107791518.14909  20512035.640    83993394.24448
  22115172.660   116216176.55109  22115169.900    90558108.03547
  23147070.780   121638678.06308  23147066.440    94783369.28644
  22770950.080   119662166.82708  22770945.580    93243236.99747
  22225159.720   116794277.88709  22225155.100    91008618.29247
  21404949.220   112483799.69409  21404948.460    87649714.56548
 15 03 06 00 30 30.0000000  0  6G16G18G19G21G22G27
  20507106.220   107765592.87209  20507102.500    83973192.72849
  22112390.300   116201555.24509  22112387.460    90546714.81847
  23134107.320   121570552.64508  23134103.480    94730284.57643
  22784384.460   119732766.71008  22784380.380    93298249.89746
  22211275.140   116721316.07609  22211270.540    90951764.97348
  21396934.460   112441682.51809  21396933.780    87616895.98948
 15 03 06 00 31  0.0000000  0  6G16G18G19G21G22G27
  20502261.860   107740134.54009  20502258.200    83953355.06248
  22109698.140   116187407.54709  22109695.060    90535690.65547
  23121164.980   121502538.50808  23121161.000    94677286.66544
  22797844.980   119803504.21908  22797841.420    93353370.01846
  22197447.620   116648652.74109  22197442.920    90895144.25647
  21388947.680   112399711.72709  21388947.080    87584191.48448
 15 03 06 00 31 30.0000000  0  6G16G18G19G21G22G27
  20497507.100   107715146.82609  20497503.260    83933884.11448
  22107096.660   116173737.53109  22107093.720    90525038.70147
  23108243.820   121434638.48607  23108240.640    94624377.54143
  22811332.340   119874381.16608  22811328.920    93408598.80847
  22183678.060   116576293.51709  22183673.680    90838760.50048
  21380989.440   112357890.56009  21380988.880    87551603.54148
 15 03 06 00 32  0.0000000  0  6G16G18G19G21G22G27
  20492840.080   107690620.57709  20492836.020    83914772.74548
  22104583.880   116160534.50709  22104581.300    90514750.64947
  23095342.380   121366841.23507  23095338.680    94571548.62043
  22824843.900   119945383.96508  22824840.600    93463925.65647
  22169964.940   116504230.10409  22169960.900    90782607.23348
  21373057.740   112316207.93409  21373057.000    87519123.58148
 15 03 06 00 32 30.0000000  0  6G16G18G19G21G22G27
  20488260.960   107666557.24909  20488256.940    83896022.07948
  22102160.320   116147799.10209  22102157.740    90504826.97347
  23082460.800   121299146.83507  23082456.600    94518799.75844
  22838379.180   120016511.08608  22838376.020    93519349.36647
  22156308.560   116432464.71509  22156304.700    90726686.17748
  21365152.340   112274663.94609  21365151.280    87486751.65348
 15 03 06 00 33  0.0000000  0  6G16G18G19G21G22G27
  20483771.260   107642964.74409  20483767.300    83877638.30748
  22099827.340   116135538.81509  22099824.740    90495273.51347
  23069600.080   121231561.99707  23069595.180    94466136.21343
  22851938.900   120087767.07308  22851935.760    93574873.51447
  22142710.680   116361006.38809  22142706.680    90671004.40248
  21357274.300   112233265.56209  21357273.420    87454493.21348
 15 03 06 00 33 30.0000000  0  6G16G18G19G21G22G27
  20479371.980   107619846.98909  20479367.920    83859624.45148
  22097585.240   116123756.56809  22097582.900    90486092.54147
  23056760.440   121164088.83104  23056755.620    94413559.76844
  22865523.400   120159153.33008  22865520.040    93630499.13647
  22129172.120   116289859.91009  22129167.740    90615565.66448
  21349424.320   112192015.30209  21349423.780    87422350.15748
 15 03 06 00 34  0.0000000  0  6G16G18G19G21G22G27
  20475065.320   107597215.41709  20475061.220    83841989.46449
  22095436.360   116112463.89109  22095434.080    90477293.06547
  23043943.340   121096737.96604  23043939.860    94361078.62944
  22879134.240   120230678.17008  22879130.560    93686232.76546
  22115695.280   116219038.59809  22115690.800    90560380.24948
  21341604.880   112150924.21409  21341604.520    87390331.12848
 15 03 06 00 34 30.0000000  0  5G16G18G21G22G27
  20470847.360   107575049.85809  20470843.440    83824717.58448
  22093376.480   116101638.36009  22093373.920    90468857.60147
  22892766.900   120302317.66708  22892762.840    93742055.75247
  22102276.460   116148522.61509  22102272.000    90505432.77748
  21333811.540   112109969.73709  21333811.140    87358418.55848
 15 03 06 00 35  0.0000000  0  5G16G18G21G22G27
  20466719.880   107553359.45809  20466716.040    83807815.95349
  22091407.180   116091289.23009  22091404.660    90460793.36647
  22906422.600   120374078.12709  22906418.020    93797972.97747
  22088917.640   116078322.31209  22088913.440    90450731.26248
  21326045.800   112069160.41109  21326045.080    87326619.06548
 15 03 06 00 35 30.0000000  0  5G16G18G21G22G27
  20462683.020   107532145.19709  20462679.280    83791285.35449
  22089528.660   116081417.24109  22089525.900    90453100.90947
  22920100.680   120445956.85708  22920095.800    93853982.38747
  22075619.520   116008439.72609  22075615.400    90396277.34448
  21318307.640   112028496.08209  21318306.660    87294932.58748
 15 03 06 00 36  0.0000000  0  6G16G18G19G21G22G27
  20458736.920   107511408.19709  20458733.300    83775126.65348
  22087740.800   116072021.96309  22087737.820    90445779.92647
  22992878.360   120828381.39504  22992868.620    94151981.89744
  22933800.940   120517952.50608  22933796.180    93910082.87947
  22062382.480   115938877.08209  22062378.060    90342072.75048
  21310597.040   111987976.66109  21310596.100    87263359.01448
 15 03 06 00 36 30.0000000  0  6G16G18G19G21G22G27
  20454882.520   107491153.36409  20454878.800    83759343.65448
  22086044.560   116063108.05109  22086041.340    90438834.02947
  22980157.540   120761539.12605  22980156.200    94099907.54844
  22947523.780   120590066.83008  22947519.400    93966275.85247
  22049207.600   115869640.56809  22049202.860    90288122.25748
  21302914.720   111947606.10909  21302914.080    87231901.43149
 15 03 06 00 37  0.0000000  0  6G16G18G19G21G22G27
  20451115.500   107471357.62709  20451111.660    83743918.39048
  22084435.320   116054651.43309  22084431.960    90432244.47647
  22967462.000   120694808.36807  22967456.960    94047909.49744
  22961264.280   120662273.89908  22961260.360    94022541.09747
  22036090.460   115800708.20009  22036085.740    90234408.77448
  21295256.140   111907360.29709  21295255.840    87200541.10349
 15 03 06 00 37 30.0000000  0  6G16G18G19G21G22G27
  20447441.960   107452053.21009  20447438.100    83728875.99148
  22082919.100   116046683.31509  22082915.780    90426035.57947
  22954787.660   120628194.92107  22954780.540    93996002.99943
  22975027.840   120734602.35808  22975024.240    94078900.93747
  22023037.180   115732112.94209  22023032.660    90180957.95148
  21287627.400   111867270.14109  21287626.860    87169301.99648
 15 03 06 00 38  0.0000000  0  6G16G18G19G21G22G27
  20443865.180   107433258.01809  20443861.500    83714230.37748
  22081499.020   116039221.51409  22081495.880    90420221.19547
  22942137.740   120561715.66608  22942130.020    93944200.90944
  22988817.280   120807066.98508  22988813.960    94135366.87247
  22010051.260   115663874.10509  22010047.200    90127784.85948
  21280031.580   111827352.87809  21280030.800    87138197.62749
 15 03 06 00 38 30.0000000  0  6G16G18G19G21G22G27
  20440381.220   107414950.91209  20440377.880    83699965.09349
  22080171.060   116032243.56809  22080167.840    90414783.82047
  22929508.260   120495347.78408  22929500.560    93892485.71546
  23002628.220   120879644.27408  23002625.000    94191920.59647
  21997129.320   115595971.57909  21997125.480    90074873.82948
  21272464.260   111787586.00209  21272463.260    87107210.47948
 15 03 06 00 39  0.0000000  0  6G16G18G19G21G22G27
  20436989.300   107397126.82509  20436986.120    83686076.17449
  22078934.160   116025743.65909  22078930.900    90409718.97747
  22916898.920   120429085.10808  22916891.360    93840852.46346
  23016458.940   120952325.63508  23016455.800    94248555.39947
  21984270.960   115528401.19509  21984266.980    90022221.61348
  21264924.160   111747963.48609  21264923.280    87076335.79448
 15 03 06 00 39 30.0000000  0  6G16G18G19G21G22G27
  20433690.580   107379791.53209  20433687.320    83672568.14949
  22077789.220   116019726.96109  22077785.900    90405030.65747
  22904310.500   120362932.24708  22904303.520    93789304.82847
  23030310.080   121025114.27608  23030307.020    94305273.83247
  21971477.500   115461170.01409  21971473.000    89969833.72248
  21257412.240   111708490.22909  21257411.760    87045577.42748
 15 03 06 00 40  0.0000000  0  7G04G16G18G19G21G22G27
  24606370.440   129307343.28007  24606376.760   100758994.30244
  20430485.680   107362949.45909  20430482.260    83659444.44349
  22076736.940   116014197.03709  22076733.620    90400721.63447
  22891743.380   120296891.98508  22891737.200    93737844.90447
  23044182.060   121098011.59808  23044179.000    94362076.92947
  21958749.740   115394283.64609  21958744.380    89917714.53048
  21249929.600   111669169.51309  21249929.320    87014937.90749
 15 03 06 00 40 30.0000000  0  7G04G16G18G19G21G22G27
  24586741.760   129204195.06007  24586748.220   100678619.00945
  20427382.680   107346642.78709  20427379.180    83646737.93848
  22075785.360   116009195.30309  22075781.900    90396824.20147
  22879205.440   120231005.73208  22879199.740    93686505.00847
  23058082.220   121171056.77708  23058078.680    94418995.22447
  21946095.720   115327785.56609  21946090.100    89865897.88948
  21242484.220   111630043.00209  21242483.980    86984449.72948
 15 03 06 00 41  0.0000000  0  7G04G16G18G19G21G22G27
  24567131.720   129101143.21107  24567137.480   100598319.16143
  20424364.600   107330782.21209  20424361.060    83634379.04648
  22074917.040   116004631.16809  22074913.380    90393267.74047
  22866679.440   120165182.75308  22866674.160    93635214.40748
  23071992.940   121244157.83608  23071989.060    94475957.06847
  21933498.480   115261587.29809  21933493.180    89814314.84548
  21235058.620   111591020.22509  21235058.340    86954042.36749
 15 03 06 00 41 30.0000000  0  7G04G16G18G19G21G22G27
  24547550.020   128998240.64807  24547555.200   100518135.54544
  20421441.680   107315421.33609  20421438.100    83622409.52049
  22074142.100   116000557.91909  22074138.280    90390093.79247
  22854175.500   120099475.62308  22854170.680    93584014.07848
  23085923.860   121317365.14208  23085919.800    94533001.71546
  21920968.580   115195743.96609  21920963.800    89763008.38448
  21227662.680   111552153.89409  21227662.300    86923756.93248
 15 03 06 00 42  0.0000000  0  7G04G16G18G19G21G22G27
  24527995.760   128895483.12807  24528000.820   100438064.91244
  20418612.940   107300555.84509  20418609.400    83610826.02049
  22073459.480   115996970.66909  22073455.560    90387298.54947
  22841692.460   120033878.93908  22841687.920    93532899.83347
  23099873.860   121390672.13009  23099869.940    94590124.05046
  21908505.760   115130252.40109  21908501.280    89711976.01648
  21220295.540   111513438.99409  21220294.960    86893589.47548
 15 03 06 00 42 30.0000000  0  7G04G16G18G19G21G22G27
  24508469.380   128792870.63808  24508474.180   100358106.98443
  20415878.540   107286186.23909  20415875.060    83599628.90749
  22072869.040   115993868.97309  22072865.180    90384881.64847
  22829230.640   119968392.10308  22829226.180    93481871.13048
  23113842.380   121464076.06509  23113838.460    94647321.92346
  21896110.240   115065113.84709  21896105.660    89661218.73248
  21212957.220   111474875.02409  21212956.240    86863539.63348
 15 03 06 00 43  0.0000000  0  7G04G16G18G19G21G22G27
  24488971.360   128690407.74407  24488975.900   100278265.62444
  20413239.160   107272316.45609  20413235.780    83588821.27348
  22072371.520   115991255.56309  22072367.800    90382845.23847
  22816790.100   119903017.59108  22816785.820    93430929.97847
  23127829.480   121537577.69208  23127825.300    94704595.90846
  21883782.960   115000333.37509  21883778.160    89610740.48148
  21205648.200   111436464.98709  21205646.980    86833609.72349
 15 03 06 00 43 30.0000000  0  7G04G16G18G19G21G22G27
  24469501.740   128588094.15807  24469505.800   100198540.92244
  20410694.680   107258945.59409  20410691.440    83578402.41549
  22071966.720   115989128.98909  22071962.980    90381188.17247
  22804370.660   119837753.62708  22804366.240    93380074.94747
  23141834.460   121611173.91208  23141829.880    94761943.60646
  21871523.880   114935911.59809  21871519.160    89560541.74348
  21198368.080   111398207.23009  21198366.800    86803798.48349
 15 03 06 00 44  0.0000000  0  7G04G16G18G19G21G22G27
  24450061.120   128485935.29606  24450065.840   100118936.81744
  20408246.140   107246078.93409  20408242.980    83568376.45249
  22071655.500   115987493.57509  22071651.820    90379913.83947
  22791973.060   119772604.70808  22791968.700    93329309.57147
  23155857.500   121684867.01608  23155853.380    94819366.78647
  21859334.320   114871855.24909  21859329.660    89510627.74848
  21191117.660   111360106.60709  21191116.420    86774109.71849
 15 03 06 00 44 30.0000000  0  7G04G16G18G19G21G22G27
  24430649.480   128383928.20506  24430653.940   100039451.03944
  20405893.100   107233713.86409  20405889.900    83558741.32348
  22071437.160   115986346.07209  22071433.680    90379019.67747
  22779596.900   119707566.84909  22779592.240    93278630.72447
  23169897.740   121758651.90808  23169894.420    94876861.54746
  21847213.800   114808162.45109  21847209.300    89460997.04148
  21183896.460   111322159.50709  21183895.220    86744540.53548
 15 03 06 00 45  0.0000000  0  7G04G16G18G19G21G22G27
  24411267.400   128282074.56907  24411271.660    99960084.89244
  20403636.000   107221852.03009  20403632.740    83549498.32349
  22071311.820   115985687.17509  22071308.520    90378506.25147
  22767241.940   119642640.53709  22767237.080    93228038.81847
  23183955.300   121832527.41208  23183952.560    94934426.84846
  21835162.800   114744835.88709  21835158.760    89411651.70348
  21176704.660   111284366.63209  21176703.460    86715091.54249
 15 03 06 00 45 30.0000000  0  7G04G16G18G19G21G22G27
  24391915.000   128180376.48506  24391919.480    99880839.95345
  20401475.080   107210495.35209  20401471.720    83540648.96349
  22071279.600   115985517.78909  22071276.380    90378374.28047
  22754908.260   119577826.57909  22754903.400    93177534.47947
  23198030.100   121906492.75608  23198027.480    94992062.17346
  21823182.260   114681878.95909  21823178.780    89362594.39348
  21169542.520   111246729.39009  21169541.420    86685763.82549
 15 03 06 00 46  0.0000000  0  7G04G16G18G19G21G22G27
  24372591.960   128078834.60408  24372597.180    99801716.72145
  20399410.400   107199644.54409  20399406.840    83532193.75449
  22071340.440   115985837.90509  22071337.080    90378623.71547
  22742596.080   119513124.90909  22742590.960    93127117.60548
  23212121.820   121980545.86208  23212119.120    95049765.88846
  21811272.660   114619293.48909  21811269.540    89313826.49948
  21162409.900   111209247.69709  21162409.040    86656557.33948
 15 03 06 00 46 30.0000000  0  7G04G16G18G19G21G22G27
  24353298.580   127977448.71108  24353303.760    99722714.68944
  20397441.860   107189299.58709  20397438.100    83524132.74048
  22071494.380   115986646.53109  22071490.760    90379253.83647
  22730305.140   119448534.60609  22730299.980    93076787.57348
  23226229.900   122054683.76308  23226227.140    95107535.66946
  21799434.140   114557080.72109  21799431.040    89265349.04648
  21155306.880   111171920.99409  21155306.140    86627471.58648
 15 03 06 00 47  0.0000000  0  7G04G16G18G19G21G22G27
  24334035.160   127876219.80108  24334039.920    99643835.02744
  20395569.400   107179460.43409  20395565.660    83516465.86848
  22071741.360   115987943.12709  22071737.200    90380264.19547
  22718035.020   119384054.73209  22718030.120    93026543.54248
  23240353.880   122128904.48308  23240350.740    95165369.95846
  21787666.720   114495241.57609  21787663.300    89217162.72648
  21148233.160   111134748.57009  21148232.360    86598506.07848
 15 03 06 00 47 30.0000000  0  7G04G16G18G19G21G22G27
  24314802.660   127775152.88007  24314807.260    99565081.70443
  20393794.060   107170132.12309  20393790.620    83509197.04648
  22072081.900   115989731.61509  22072077.540    90381657.84547
  22705786.500   119319689.35009  22705781.900    92976388.74448
  23254494.120   122203210.20208  23254490.460    95223270.50146
  21775971.740   114433782.85909  21775967.680    89169272.84348
  21141189.760   111097734.87509  21141188.700    86569664.21948
 15 03 06 00 48  0.0000000  0  7G04G16G18G19G21G22G27
  24295600.340   127674244.24408  24295605.300    99486451.88844
  20392115.100   107161310.28508  20392111.980    83502322.87248
  22072515.000   115992006.96709  22072510.740    90383430.85047
  22693558.760   119255433.07209  22693554.260    92926318.97948
  23268649.160   122277593.98108  23268645.160    95281231.86746
  21764348.400   114372700.97009  21764343.820    89121676.61148
  21134175.640   111060874.88509  21134174.480    86540942.14449
 15 03 06 00 48 30.0000000  0  7G04G16G18G19G21G22G27
  24276429.920   127573502.81508  24276435.140    99407952.45445
  20390534.340   107153004.05009  20390531.380    83495850.47948
  22073042.120   115994777.21109  22073038.200    90385589.49147
  22681353.260   119191293.98209  22681348.980    92876340.47748
  23282820.200   122352062.12408  23282815.800    95339259.00646
  21752798.600   114312006.09909  21752793.760    89074381.93748
  21127192.320   111024177.13009  21127191.300    86512346.50449
 15 03 06 00 49  0.0000000  0  7G04G16G18G19G21G22G27
  24257291.100   127472927.88707  24257296.000    99329582.71444
  20389051.800   107145212.77609  20389048.640    83489779.34748
  22073663.000   115998040.39409  22073659.500    90388132.20847
  22669169.880   119127270.70309  22669165.960    92826452.20948
  23297006.800   122426611.75408  23297002.320    95397349.61046
  21741322.560   114251699.21209  21741317.700    89027389.58848
  21120239.560   110987640.40009  21120238.740    86483876.34749
 15 03 06 00 49 30.0000000  0  7G04G16G18G19G21G22G27
  24238183.280   127372517.06608  24238188.120    99251340.74343
  20387666.820   107137933.64809  20387663.480    83484107.28749
  22074377.200   116001793.90609  22074373.980    90391057.01447
  22657008.040   119063359.90009  22657004.000    92776651.63747
  23311207.860   122501237.76208  23311203.360    95455499.74046
  21729919.900   114191778.85909  21729914.840    88980698.44148
  21113316.880   110951261.65509  21113316.000    86455529.24648
 15 03 06 00 50  0.0000000  0  7G04G16G18G19G21G22G27
  24219107.420   127272275.49608  24219112.640    99173230.70345
  20386380.160   107131171.33509  20386376.720    83478837.94749
  22075185.400   116006041.14909  22075182.160    90394366.55247
  22644868.320   118999565.23009  22644864.320    92726941.52747
  23325423.720   122575942.08208  23325419.120    95513710.88446
  21718591.860   114132250.88909  21718586.820    88934313.02048
  21106424.840   110915044.85209  21106424.140    86427308.37148
 15 03 06 00 50 30.0000000  0  7G04G16G18G19G21G22G27
  24200063.260   127172200.04008  24200068.820    99095250.12546
  20385191.160   107124922.77709  20385187.780    83473968.92949
  22076086.800   116010778.06409  22076083.320    90398057.67347
  22632750.040   118935882.74509  22632745.980    92677318.82847
  23339653.380   122650719.02408  23339648.620    95571978.64046
  21707338.340   114073113.24809  21707333.380    88888231.78448
  21099562.800   110878986.33309  21099562.320    86399210.85048
 15 03 06 00 51  0.0000000  0  7G04G16G18G19G21G22G27
  24181050.940   127072291.16908  24181056.360    99017399.35245
  20384099.900   107119188.01209  20384096.580    83469500.28949
  22077081.220   116016003.93109  22077077.580    90402129.80647
  22620652.940   118872311.49809  22620648.400    92627782.81847
  23353896.620   122725566.63109  23353891.660    95630301.43646
  21696159.540   114014367.14909  21696154.380    88842455.63848
  21092731.140   110843085.88309  21092730.780    86371236.46449
 15 03 06 00 51 30.0000000  0  7G04G16G18G19G21G22G27
  24162071.960   126972557.03608  24162077.340    98939684.71945
  20383107.980   107113975.05409  20383104.480    83465438.24549
  22078170.080   116021725.78209  22078166.280    90406588.42047
  22608578.420   118808859.08609  22608573.540    92578339.38047
  23368154.260   122800490.26808  23368149.240    95688683.48247
  21685057.020   113956022.21609  21685051.500    88796992.09548
  21085931.200   110807351.01109  21085930.720    86343391.10949
 15 03 06 00 52  0.0000000  0  7G04G16G18G19G21G22G27
  24143125.680   126872995.02908  24143130.940    98862104.39545
  20382214.700   107109280.58909  20382211.020    83461780.21348
  22079352.480   116027939.14409  22079348.720    90411430.01947
  22596525.620   118745521.24208  22596520.720    92528985.20647
  23382425.160   122875484.24308  23382420.240    95747120.33446
  21674030.240   113898076.19309  21674024.660    88751839.38148
  21079162.060   110771777.96309  21079161.520    86315671.85949
 15 03 06 00 52 30.0000000  0  7G04G16G18G19G21G22G27
  24124211.900   126773604.40207  24124216.840    98784657.55344
  20381419.920   107105103.92109  20381416.180    83458525.66849
  22080628.160   116034643.15109  22080624.600    90416653.92647
  22584494.200   118682296.77508  22584490.020    92479719.40047
  23396708.860   122950545.49308  23396704.180    95805609.62847
  21663079.380   113840529.49809  21663074.000    88706997.83948
  21072423.480   110736365.71109  21072422.760    86288077.88649
 15 03 06 00 53  0.0000000  0  7G04G16G18G19G21G22G27
  24105332.240   126674394.15607  24105337.180    98707351.25744
  20380725.300   107101453.84709  20380721.480    83455681.42849
  22081998.440   116041844.97709  22081995.080    90422265.73147
  22572485.880   118619193.73708  22572481.960    92430548.24647
  23411006.560   123025680.46108  23411002.020    95864156.36446
  21652206.320   113783392.36209  21652201.400    88662475.42248
  21065717.080   110701122.57909  21065716.140    86260615.70749
 15 03 06 00 53 30.0000000  0  7G04G16G18G19G21G22G27
  24086485.100   126575354.24007  24086490.240    98630177.68545
  20380128.860   107098319.95109  20380125.220    83453239.41149
  22083461.220   116049533.44909  22083458.260    90428256.74247
  22560498.700   118556200.84608  22560494.580    92381462.93047
  23425315.880   123100876.67708  23425311.300    95922750.80146
  21641409.460   113726655.94809  21641405.060    88618265.24048
  21059040.680   110666037.91309  21059039.780    86233277.01749
 15 03 06 00 54  0.0000000  0  7G04G16G18G19G21G22G27
  24067671.560   126476490.59807  24067676.860    98553141.37845
  20379631.600   107095707.36309  20379628.260    83451203.63449
  22085017.540   116057713.41609  22085014.780    90434630.76147
  22548533.640   118493323.14608  22548529.300    92332467.34047
  23439637.460   123176137.30308  23439632.800    95981395.43346
  21630690.280   113670326.67709  21630685.960    88574372.32548
  21052395.540   110631116.92009  21052394.600    86206065.84349
 15 03 06 00 54 30.0000000  0  7G04G16G18G19G21G22G27
  24048891.820   126377802.83408  24048896.960    98476242.19045
  20379233.460   107093615.71409  20379230.360    83449573.77849
  22086667.120   116066382.93209  22086664.420    90441386.22947
  22536590.100   118430559.07808  22536585.540    92283560.29047
  23453970.760   123251458.99008  23453965.900    96040087.63846
  21620048.900   113614405.09909  21620044.260    88530797.10448
  21045781.360   110596358.42109  21045780.400    86178981.29449
 15 03 06 00 55  0.0000000  0  7G04G16G18G19G21G22G27
  24030146.980   126279298.98908  24030152.020    98399486.31644
  20378936.080   107092052.98009  20378932.960    83448356.06549
  22088411.400   116075549.26909  22088408.640    90448528.85247
  22524669.500   118367915.93908  22524664.900    92234747.43647
  23468316.760   123326847.49808  23468311.900    96098831.90146
  21609486.940   113558900.30009  21609481.860    88487546.65148
  21039199.420   110561770.03509  21039198.500    86152029.32149
 15 03 06 00 55 30.0000000  0  7G04G16G18G19G21G22G27
  24011436.000   126180973.16608  24011440.860    98322869.09244
  20378738.100   107091012.21209  20378734.800    83447545.07949
  22090248.980   116085205.19709  22090246.200    90456052.95647
  22512770.540   118305386.43508  22512766.060    92186023.17047
  23482673.700   123402294.41308  23482669.200    96157621.71346
  21599003.140   113503807.22309  21598997.900    88444617.00548
  21032648.460   110527345.03609  21032647.560    86125204.67749
 15 03 06 00 56  0.0000000  0  7G04G16G18G19G21G22G27
  23992759.940   126082831.90208  23992764.340    98246395.79044
  20378640.680   107090499.83309  20378637.160    83447145.81248
  22092180.920   116095355.91009  22092177.640    90463962.61547
  22500894.320   118242976.55408  22500889.600    92137392.12847
  23497042.320   123477803.34508  23497038.320    96216459.81346
  21588598.820   113449133.35509  21588593.880    88402014.00648
  21026129.700   110493089.47009  21026128.900    86098512.02649
 15 03 06 00 56 30.0000000  0  7G04G16G18G19G21G22G27
  23974119.040   125984875.52908  23974123.740    98170066.59345
  20378643.700   107090515.47409  20378640.200    83447157.97048
  22094206.720   116106000.04809  22094202.800    90472256.76747
  22489040.820   118180685.87808  22489035.720    92088853.97246
  23511422.220   123553372.49108  23511418.560    96275344.86146
  21578274.420   113394879.81509  21578269.980    88359738.53448
  21019643.280   110459003.18909  21019642.500    86071951.29749
 15 03 06 00 57  0.0000000  0  7G04G16G18G19G21G22G27
  23955512.820   125887100.51308  23955517.240    98093878.57344
  20378746.580   107091055.82309  20378743.140    83447579.02149
  22096325.280   116117133.18209  22096321.300    90480931.95547
  22477209.140   118118509.84008  22477203.680    92040405.12246
  23525812.480   123628995.77008  23525809.320    96334272.08746
  21568029.640   113341044.11309  21568025.720    88317788.66948
  21013188.420   110425082.04309  21013187.620    86045519.22649
 15 03 06 00 57 30.0000000  0  7G04G16G18G19G21G22G27
  23936941.840   125789510.61508  23936946.020    98017834.94044
  20378949.820   107092123.72009  20378946.300    83448411.13049
  22098537.120   116128757.23409  22098533.220    90489989.65147
  22465399.600   118056450.79908  22465394.120    91992047.47446
  23540213.440   123704673.88308  23540210.700    96393242.03746
  21557865.320   113287630.61109  21557861.540    88276167.78748
  21006765.340   110391328.88209  21006764.540    86019218.07049
 15 03 06 00 58  0.0000000  0  7G04G16G18G19G21G22G27
  23918405.780   125692103.52208  23918409.560    97941933.70844
  20379252.880   107093716.70009  20379249.520    83449652.41348
  22100841.720   116140869.28109  22100838.080    90499427.62547
  22453611.820   117994506.47908  22453606.700    91943779.22146
  23554624.120   123780402.60908  23554621.440    96452251.41846
