     2.11           OBSERVATION DATA    G                   RINEX VERSION / TYPE
SPIDER V4,0,0,3554                      2015 03 19 03:45    PGM / RUN BY / DATE 
OBHM                                                        MARKER NAME         
OBHM                                                        MARKER NUMBER       
                                                            OBSERVER / AGENCY   
496638              LEICA GRX1200+GNSS  8.20/4.007          REC # / TYPE / VERS 
10321015            LEIAR25         NONE                    ANT # / TYPE        
  5268006.0133   -44062.8765  3585543.8986                  APPROX POSITION XYZ 
        0.1200        0.0000        0.0000                  ANTENNA: DELTA H/E/N
     1     1                                                WAVELENGTH FACT L1/2
     4    C1    L1    P2    L2                              # / TYPES OF OBSERV 
    30.000                                                  INTERVAL            
  2015    03    06    00    00    0.0000000     GPS         TIME OF FIRST OBS   
  2015    03    06    23    59   30.0000000     GPS         TIME OF LAST OBS    
    16                                                      LEAP SECONDS        
    30                                                      # OF SATELLITES     
   G 1   844   844   844   844                              PRN / # OF OBS      
   G 2   919   919   919   919                              PRN / # OF OBS      
   G 3   842   842   842   842                              PRN / # OF OBS      
   G 4   853   853   853   853                              PRN / # OF OBS      
   G 5   682   681   681   681                              PRN / # OF OBS      
   G 6   645   645   644   644                              PRN / # OF OBS      
   G 7   739   739   739   739                              PRN / # OF OBS      
   G 9   779   779   779   779                              PRN / # OF OBS      
   G10   795   795   795   795                              PRN / # OF OBS      
   G11   808   808   808   808                              PRN / # OF OBS      
   G12   812   812   812   812                              PRN / # OF OBS      
   G13   834   834   833   833                              PRN / # OF OBS      
   G14   926   920   911   910                              PRN / # OF OBS      
   G15   743   743   743   743                              PRN / # OF OBS      
   G16   702   702   702   702                              PRN / # OF OBS      
   G17   925   925   924   924                              PRN / # OF OBS      
   G18   941   939   939   939                              PRN / # OF OBS      
   G19   802   802   802   802                              PRN / # OF OBS      
   G20   803   802   802   802                              PRN / # OF OBS      
   G21   685   668   652   652                              PRN / # OF OBS      
   G22   817   817   817   817                              PRN / # OF OBS      
   G23   722   722   722   722                              PRN / # OF OBS      
   G24   850   845   836   836                              PRN / # OF OBS      
   G25   862   861   861   861                              PRN / # OF OBS      
   G27   843   843   843   843                              PRN / # OF OBS      
   G28   916   916   916   916                              PRN / # OF OBS      
   G29   738   738   738   738                              PRN / # OF OBS      
   G30   688   688   688   688                              PRN / # OF OBS      
   G31   749   749   747   747                              PRN / # OF OBS      
   G32   734   734   734   734                              PRN / # OF OBS      
BIT 2 OF LLI FLAGS DATA COLLECTED UNDER A/S CONDITION       COMMENT             
SNR is mapped to RINEX snr flag value [2-9]                 COMMENT             
Lx:     = 25dBHz -> 1; 26-27dBHz -> 2; 28-31dBHz -> 3       COMMENT             
       32-35dBHz -> 4; 36-38dBHz -> 5; 39-41dBHz -> 6       COMMENT             
       42-44dBHz -> 7; 45-48dBHz -> 8; >=49dBHz -> 9        COMMENT             
                                                            END OF HEADER       
 15 03 06 00 00  0.0000000  0  7G16G18G19G21G22G27G31
  20998646.520   110348654.83509  20998643.420    85985959.11948
  22357938.460   117491892.18009  22357935.720    91552174.97447
  24055879.260   126414513.32708  24055876.180    98504814.43746
  21995290.740   115586393.66709  21995287.400    90067472.25748
  23080472.260   121288923.23709  23080469.720    94510944.13447
  22009732.840   115662092.89009  22009732.580    90126365.00748
  23583265.140   123930864.76908  23583267.000    96569500.17946
 15 03 06 00 00 30.0000000  0  7G16G18G19G21G22G27G31
  20988754.840   110296673.72709  20988751.720    85945454.35348
  22350313.800   117451824.83909  22350311.100    91520953.69447
  24041686.660   126339930.79508  24041683.600    98446698.25046
  22006494.560   115645270.33309  22006491.180    90113350.17647
  23064103.780   121202906.47309  23064101.020    94443918.22547
  21999944.400   115610653.89109  21999944.020    90086282.68248
  23601890.520   124028740.13109  23601892.460    96645766.32047
 15 03 06 00 01  0.0000000  0  7G16G18G19G21G22G27G31
  20978930.200   110245044.88809  20978927.060    85905224.08548
  22342763.660   117412148.65409  22342760.940    91490037.21347
  24027513.200   126265448.77808  24027510.180    98388660.39946
  22017743.940   115704386.10309  22017740.500    90159414.40747
  23047761.620   121117028.10509  23047758.680    94377000.17047
  21990180.400   115559343.25909  21990179.900    90046300.39748
  23620528.240   124126680.51308  23620530.280    96722083.04647
 15 03 06 00 01 30.0000000  0  7G16G18G19G21G22G27G31
  20969172.780   110193769.30009  20969169.640    85865269.08148
  22335288.100   117372864.45209  22335285.360    91459426.17547
  24013358.660   126191066.03708  24013355.640    98330699.88746
  22029038.420   115763738.94109  22029034.920    90205663.36548
  23031446.160   121031290.02809  23031443.180    94310191.44147
  21980440.580   115508159.78709  21980439.960    90006417.18648
  23639177.620   124224682.19408  23639179.800    96798447.53447
 15 03 06 00 02  0.0000000  0  7G16G18G19G21G22G27G31
  20959482.640   110142847.33109  20959479.560    85825589.62248
  22327887.280   117333972.94909  22327884.480    91429121.13047
  23999222.760   126116781.14508  23999219.680    98272815.62946
  22040377.300   115823324.92108  22040373.680    90252093.99548
  23015157.620   120945693.64809  23015154.680    94243493.12147
  21970724.640   115457102.11209  21970723.980    89966632.00948
  23657837.860   124322740.82808  23657840.220    96874856.44947
 15 03 06 00 02 30.0000000  0  7G16G18G19G21G22G27G31
  20949860.840   110092284.47209  20949857.800    85786189.98048
  22320562.120   117295478.80009  22320559.160    91399125.70447
  23985106.080   126042597.33508  23985102.800    98215010.10046
  22051760.740   115883144.94509  22051757.020    90298706.99048
  22998897.100   120860244.64609  22998894.180    94176909.65947
  21961033.140   115406173.25309  21961032.520    89926947.19748
  23676508.940   124420856.44708  23676511.440    96951309.78147
 15 03 06 00 03  0.0000000  0  7G16G18G19G21G22G27G31
  20940307.200   110042079.78909  20940304.200    85747069.44448
  22313312.280   117257380.42909  22313309.200    91369438.69247
  23971007.940   125968511.11808  23971004.460    98157280.63946
  22063187.860   115943194.40109  22063184.020    90345498.77248
  22982664.560   120774942.79009  22982661.700    94110440.85047
  21951365.480   115355370.05109  21951365.060    89887360.30648
  23695189.740   124519023.07408  23695192.320    97027802.76646
 15 03 06 00 03 30.0000000  0  7G16G18G19G21G22G27G31
  20930822.540   109992237.70109  20930819.580    85708231.45348
  22306138.740   117219683.22409  22306135.560    91340064.27247
  23956928.840   125894525.27908  23956925.240    98099629.40146
  22074658.800   116003474.31609  22074654.880    90392470.13447
  22966461.080   120689793.62109  22966458.200    94044090.99847
  21941722.280   115304695.39409  21941722.040    89847873.58948
  23713880.260   124617240.75608  23713882.920    97104335.53346
 15 03 06 00 04  0.0000000  0  7G16G18G19G21G22G27G31
  20921406.880   109942758.32609  20921403.980    85669676.09848
  22299041.400   117182386.29109  22299038.080    91311001.75047
  23942868.400   125820637.81408  23942864.720    98042054.80946
  22086172.820   116063980.90508  22086168.920    90439618.12448
  22950286.680   120604797.44309  22950283.780    93977860.35547
  21932103.160   115254147.16409  21932103.020    89808485.38248
  23732579.500   124715504.42308  23732582.400    97180904.10046
 15 03 06 00 04 30.0000000  0  7G16G18G19G21G22G27G31
  20912061.300   109893647.00609  20912058.440    85631407.53148
  22292021.180   117145494.80909  22292017.800    91282255.16647
  23928827.200   125746851.90608  23928823.520    97984559.34746
  22097730.100   116124714.90309  22097726.300    90486943.31148
  22934142.700   120519960.76009  22934139.740    93911753.97847
  21922508.780   115203728.55609  21922508.640    89769198.16648
  23751287.600   124813814.50708  23751290.840    97257508.85746
 15 03 06 00 05  0.0000000  0  7G16G18G19G21G22G27G31
  20902785.340   109844901.49209  20902782.520    85593424.01348
  22285077.440   117109005.65309  22285074.120    91253822.08247
  23914804.600   125673163.22108  23914800.960    97927139.64846
  22109329.560   116185670.47108  22109325.860    90534441.15447
  22918028.740   120435281.82509  22918025.740    93845770.53247
  21912938.300   115153435.33609  21912938.080    89730008.67048
  23770003.280   124912163.84908  23770006.600    97334144.14846
 15 03 06 00 05 30.0000000  0  7G16G18G19G21G22G27G31
  20893578.860   109796520.97309  20893576.000    85555724.90648
  22278210.120   117072918.12609  22278206.880    91225701.94647
  23900799.920   125599568.55608  23900796.340    97869793.21846
  22120970.120   116246842.42408  22120966.580    90582107.60248
  22901944.780   120350760.48909  22901941.660    93779909.87547
  21903391.180   115103264.60109  21903390.820    89690914.59948
  23788725.320   125010546.69408  23788728.780    97410805.60047
 15 03 06 00 06  0.0000000  0  7G16G18G19G21G22G27G31
  20884444.380   109748518.87009  20884441.520    85518320.66848
  22271421.800   117037245.45609  22271418.540    91197905.08647
  23886815.360   125526079.44708  23886811.820    97812529.03046
  22132653.840   116308240.98908  22132650.420    90629950.63848
  22885893.480   120266410.75109  22885890.240    93714182.92947
  21893869.540   115053227.72709  21893869.040    89651924.83348
  23807455.400   125108971.56208  23807458.920    97487499.81547
 15 03 06 00 06 30.0000000  0  7G16G18G19G21G22G27G31
  20875380.800   109700889.25509  20875377.880    85481206.68248
  22264711.320   117001981.73209  22264708.020    91170426.88747
  23872849.380   125452688.13708  23872845.860    97755341.05746
  22144378.760   116369856.03008  22144375.460    90677962.35548
  22869873.980   120182227.97309  22869870.660    93648586.07647
  21884371.920   115003317.10509  21884371.340    89613033.45048
  23826191.420   125207427.99308  23826195.040    97564218.71346
 15 03 06 00 07  0.0000000  0  7G16G18G19G21G22G27G31
  20866388.580   109653634.57009  20866385.600    85444384.83948
  22258078.920   116967128.41109  22258075.660    91143268.46747
  23858902.000   125379394.61808  23858898.540    97698229.27746
  22156144.680   116431686.34709  22156141.420    90726141.80847
  22853886.780   120098214.80409  22853883.420    93583121.38347
  21874898.300   114953532.79409  21874897.680    89574240.48648
  23844932.940   125305913.49608  23844936.660    97640960.33746
 15 03 06 00 07 30.0000000  0  7G16G18G19G21G22G27G31
  20857468.840   109606760.76509  20857465.800    85407859.79648
  22251525.660   116932691.09409  22251522.440    91116434.21947
  23844973.980   125306202.77008  23844970.540    97641196.73446
  22167951.680   116493732.59209  22167948.420    90774489.52947
  22837933.100   120014377.86209  22837929.720    93517794.01347
  21865449.500   114903878.87609  21865448.860    89535549.14048
  23863680.080   125404428.78708  23863683.960    97717725.11446
 15 03 06 00 08  0.0000000  0  7G16G18G19G21G22G27G31
  20848621.080   109560265.35409  20848617.960    85371629.61448
  22245051.060   116898667.35409  22245047.880    91089922.23647
  23831064.540   125233108.29508  23831060.960    97584240.04446
  22179798.980   116555990.24009  22179795.660    90823001.97847
  22822012.720   119930715.77409  22822009.320    93452602.89147
  21856024.660   114854351.02309  21856024.000    89496956.02448
  23882431.440   125502966.65008  23882435.420    97794507.45646
 15 03 06 00 08 30.0000000  0  7G16G18G19G21G22G27G31
  20839845.960   109514151.51109  20839842.740    85335696.74848
  22238655.700   116865060.04909  22238652.560    91063734.74247
  23817173.900   125160112.63908  23817170.220    97527360.36146
  22191686.240   116618457.80909  22191682.860    90871678.00447
  22806126.380   119847232.65709  22806122.960    93387551.21747
  21846624.020   114804950.44409  21846623.360    89458462.07748
  23901186.860   125601525.61108  23901190.900    97871306.22646
 15 03 06 00 09  0.0000000  0  7G16G18G19G21G22G27G31
  20831144.040   109468422.41909  20831140.720    85300063.69748
  22232340.000   116831871.18909  22232336.880    91037873.32347
  23803302.180   125087216.39808  23803298.440    97470558.15046
  22203613.260   116681134.29609  22203609.760    90920516.82747
  22790274.680   119763931.72909  22790271.260    93322641.52847
  21837247.760   114755678.08909  21837247.120    89420068.05048
  23919945.940   125700103.62508  23919950.060    97948119.87846
 15 03 06 00 09 30.0000000  0  7G16G18G19G21G22G27G31
  20822515.900   109423081.05609  20822512.460    85264732.76448
  22226104.580   116799103.94609  22226101.460    91012340.43547
  23789449.500   125014420.27808  23789445.780    97413833.95847
  22215579.860   116744018.80709  22215576.240    90969517.74647
  22774458.420   119680817.20309  22774455.060    93257877.07547
  21827896.060   114706535.14109  21827895.500    89381774.85548
  23938708.320   125798699.31308  23938712.480    98024947.36346
 15 03 06 00 10  0.0000000  0  7G16G18G19G21G22G27G31
  20813961.580   109378127.54809  20813958.020    85229704.05548
  22219949.380   116766757.86309  22219946.180    90987135.70547
  23775615.540   124941722.77208  23775611.800    97357186.59646
  22227585.300   116807107.81509  22227581.640    91018678.00047
  22758677.720   119597889.77409  22758674.420    93193258.40447
  21818568.660   114657519.77509  21818568.160    89343581.07948
  23957473.200   125897307.62008  23957477.280    98101784.71345
 15 03 06 00 10 30.0000000  0  7G16G18G19G21G22G27G31
  20805481.720   109333565.33409  20805478.060    85194980.24848
  22213874.940   116734836.05809  22213871.620    90962261.59447
  23761800.580   124869125.13508  23761796.940    97300617.04946
  22239629.540   116870401.06708  22239625.940    91067997.40747
  22742933.380   119515153.50009  22742930.140    93128788.68448
  21809265.860   114608633.49209  21809265.400    89305487.87948
  23976240.240   125995927.20308  23976244.200    98178630.77447
 15 03 06 00 11  0.0000000  0  7G16G18G19G21G22G27G31
  20797075.860   109289392.26009  20797072.200    85160559.67348
  22207880.760   116703335.84609  22207877.340    90937715.99747
  23748003.920   124796623.52308  23748000.340    97244122.34046
  22251711.540   116933892.67408  22251708.020    91117471.38947
  22727225.140   119432607.22409  22727221.980    93064467.02347
  21799986.940   114559872.29609  21799986.480    89267492.16348
  23995008.180   126094551.78009  23995012.080    98255481.04048
 15 03 06 00 11 30.0000000  0  7G16G18G19G21G22G27G31
  20788745.500   109245616.02209  20788741.880    85126448.31148
  22201968.200   116672264.92409  22201964.740    90913504.90947
  23734226.520   124724223.18908  23734222.980    97187706.53647
  22263832.000   116997586.43609  22263828.560    91167102.87947
  22711554.720   119350259.58009  22711551.560    93000300.12547
  21790732.920   114511241.95909  21790732.440    89229598.40048
  24013777.440   126193183.66608  24013781.320    98332336.92546
 15 03 06 00 12  0.0000000  0  7G16G18G19G21G22G27G31
  20780490.220   109202234.43509  20780486.660    85092644.47548
  22196136.740   116641620.29709  22196133.200    90889626.00247
  23720467.720   124651920.02808  23720464.060    97131366.45046
  22275989.800   117061476.22708  22275986.420    91216887.13047
  22695921.900   119268109.07709  22695918.680    92936286.84247
  21781503.080   114462738.57809  21781502.540    89191803.57248
  24032546.800   126291816.65708  24032550.820    98409194.03446
 15 03 06 00 12 30.0000000  0  7G16G18G19G21G22G27G31
  20772310.560   109159250.25309  20772307.100    85059150.30249
  22190386.820   116611404.14809  22190383.260    90866080.96947
  23706727.620   124579714.86108  23706723.920    97075102.72847
  22288184.660   117125560.69908  22288181.340    91266823.07047
  22680327.200   119186158.53609  22680323.760    92872429.36748
  21772297.460   114414362.70509  21772296.880    89154108.09748
  24051315.720   126390448.15708  24051319.840    98486050.09347
 15 03 06 00 13  0.0000000  0  7G16G18G19G21G22G27G31
  20764207.040   109116666.16509  20764203.680    85025967.89448
  22184718.940   116581618.98809  22184715.300    90842871.77447
  23693006.320   124507608.26508  23693002.460    97018915.80746
  22300416.480   117189839.21009  22300413.180    91316910.21347
  22664771.340   119104412.16309  22664767.780    92808730.98747
  21763116.240   114366115.13109  21763115.620    89116512.59948
  24070083.800   126489076.14007  24070087.920    98562903.54344
 15 03 06 00 13 30.0000000  0  7G16G18G19G21G22G27G31
  20756179.900   109074483.34909  20756176.640    84993098.16348
  22179133.240   116552265.50509  22179129.520    90819998.94947
  23679303.780   124435599.98808  23679299.740    96962805.50047
  22312684.620   117254308.66609  22312681.280    91367146.14547
  22649254.760   119022872.34509  22649251.080    92745193.56547
  21753959.400   114317995.58609  21753958.720    89079016.86648
  24088850.460   126587697.29108  24088854.180    98639832.84845
 15 03 06 00 14  0.0000000  0  7G16G18G19G21G22G27G31
  20748230.420   109032708.36809  20748227.180    84960546.22849
  22173630.820   116523349.62809  22173627.020    90797467.11347
  23665620.680   124363694.16308  23665616.400    96906775.02647
  22324989.820   117318972.61309  22324986.420    91417533.63447
  22633778.720   118941545.69409  22633774.960    92681822.24147
  21744827.800   114270008.64609  21744827.080    89041624.46248
  24107616.000   126686313.46508  24107619.900    98716677.22847
 15 03 06 00 14 30.0000000  0  7G16G18G19G21G22G27G31
  20740357.700   108991336.72709  20740354.480    84928308.58249
  22168210.720   116494866.34309  22168206.860    90775272.35947
  23651955.720   124291884.10308  23651951.360    96850819.18947
  22337330.340   117383822.12909  22337326.860    91468065.71847
  22618342.580   118860428.57009  22618338.720    92618614.17447
  21735720.140   114222147.78309  21735719.480    89004330.29348
  24126378.540   126784914.31509  24126378.740    98793487.47057
 15 03 06 00 15  0.0000000  0  7G16G18G19G21G22G27G31
  20732563.840   108950379.43809  20732560.560    84896393.80949
  22162874.900   116466826.16709  22162871.060    90753422.89247
  23638310.600   124220178.96008  23638306.360    96794945.10147
  22349707.640   117448864.93509  22349704.080    91518748.41847
  22602948.580   118779533.00609  22602944.740    92555578.75547
  21726638.240   114174422.33109  21726637.680    88967141.64348
  24145139.520   126883506.64208  24145141.580    98870312.97345
 15 03 06 00 15 30.0000000  0  7G16G18G19G21G22G27G31
  20724847.260   108909828.58109  20724843.980    84864795.74049
  22157621.700   116439220.26209  22157617.860    90731911.81247
  23624683.480   124148568.89108  23624679.420    96739145.10546
  22362119.360   117514088.59909  22362115.720    91569572.04847
  22587595.320   118698851.64509  22587591.540    92492710.24247
  21717580.160   114126822.38809  21717579.760    88930050.80148
  24163896.600   126982078.03108  24163899.600    98947122.19346
 15 03 06 00 16  0.0000000  0  7G16G18G19G21G22G27G31
  20717209.480   108869692.08109  20717206.220    84833520.54248
  22152452.580   116412056.64809  22152448.820    90710745.36947
  23611075.620   124077059.98508  23611071.740    96683423.92446
  22374566.300   117579497.36009  22374562.580    91620539.90447
  22572284.500   118618393.16309  22572280.780    92430015.40148
  21708547.140   114079354.14909  21708546.920    88893062.58248
  24182650.420   127080631.99608  24182653.840    99023918.08846
 15 03 06 00 16 30.0000000  0  7G16G18G19G21G22G27G31
  20709649.740   108829965.76009  20709646.520    84802564.95749
  22147366.700   116385330.65909  22147363.120    90689919.93447
  23597485.880   124005646.26208  23597482.180    96627776.92147
  22387047.040   117645083.81109  22387043.240    91671646.21647
  22557015.560   118538154.49509  22557011.800    92367491.83548
  21699538.140   114032011.86609  21699537.980    88856172.50148
  24201399.240   127179159.47309  24201402.200    99100693.15547
 15 03 06 00 17  0.0000000  0  7G16G18G19G21G22G27G31
  20702169.060   108790654.98609  20702165.900    84771933.19549
  22142364.940   116359046.79509  22142361.540    90669439.02847
  23583914.880   123934330.58308  23583911.320    96572206.32747
  22399561.940   117710849.93109  22399558.080    91722892.54847
  22541789.540   118458141.61909  22541785.840    92305144.23048
  21690553.840   113984798.90309  21690553.560    88819383.20848
  24220143.240   127277661.55808                                
 15 03 06 00 17 30.0000000  0  7G16G18G19G21G22G27G31
  20694767.340   108751759.38709  20694764.280    84741624.93048
  22137447.180   116333204.14409  22137443.900    90649301.90347
  23570362.240   123863111.21808  23570358.740    96516710.76746
  22412110.120   117776791.17709  22412106.300    91774275.32547
  22526606.580   118378355.14809  22526602.900    92242973.03248
  21681593.880   113937713.33109  21681593.380    88782693.15648
  24238881.320   127376132.51706  24238883.660    99254174.69343
 15 03 06 00 18  0.0000000  0  7G16G18G19G21G22G27G31
  20687447.660   108713294.76809  20687444.680    84711652.49448
  22132616.340   116307818.29009  22132613.200    90629520.73647
  23556830.620   123792002.16508  23556827.080    96461301.16646
  22424693.880   117842919.37409  22424690.080    91825803.77847
  22511469.880   118298811.93309  22511466.260    92180991.37148
  21672660.820   113890769.25809  21672660.160    88746113.37148
  24257615.740   127474584.20108  24257618.300    99330890.70247
 15 03 06 00 18 30.0000000  0  7G16G18G19G21G22G27G31
  20680207.300   108675246.70909  20680204.380    84682004.64548
  22127869.480   116282873.88409  22127866.460    90610083.54947
  23543316.820   123720986.65908  23543313.300    96405964.45946
  22437309.860   117909216.66309  22437306.040    91877463.99747
  22496376.820   118219498.07209  22496373.280    92119188.43448
  21663751.580   113843950.25809  21663750.740    88709631.04048
  24276342.680   127572997.11507  24276345.700    99407576.62544
 15 03 06 00 19  0.0000000  0  7G16G18G19G21G22G27G31
  20673047.740   108637622.76509  20673044.800    84652687.28449
  22123207.920   116258377.78309  22123205.040    90590995.69347
  23529821.880   123650070.49608  23529818.340    96350705.16546
  22449958.780   117975686.95509  22449954.900    91929259.02547
  22481329.060   118140421.87009  22481325.580    92057570.69448
  21654867.220   113797262.23209  21654866.320    88673250.77048
  24295062.860   127671374.72409  24295066.040    99484235.16346
 15 03 06 00 19 30.0000000  0  7G16G18G19G21G22G27G31
  20665969.300   108600424.79409  20665966.320    84623701.83949
  22118631.920   116234331.34609  22118629.180    90572258.22147
  23516345.880   123579253.75108  23516342.220    96295523.32746
  22462640.220   118042328.33009  22462636.300    91981187.35347
  22466327.040   118061585.93509  22466323.480    91996140.15548
  21646007.800   113750705.32709  21646006.880    88636972.66248
  24313775.640   127769713.19909  24313778.700    99560862.80446
 15 03 06 00 20  0.0000000  0  7G16G18G19G21G22G27G31
  20658972.420   108563655.40509  20658969.380    84595050.36649
  22114141.940   116210736.70109  22114139.300    90553872.80247
  23502888.880   123508537.09408  23502885.200    96240419.48546
  22475353.960   118109139.64408  22475350.100    92033248.11247
  22451371.480   117982993.82409  22451367.780    91934899.61248
  21637173.480   113704280.53609  21637172.600    88600797.51848
  24332480.800   127868011.20408  24332483.840    99637458.97344
 15 03 06 00 20 30.0000000  0  7G16G18G19G21G22G27G31
  20652056.960   108527314.00509  20652053.860    84566732.38848
  22109737.800   116187592.88709  22109735.180    90535838.67347
  23489450.560   123437918.30808  23489446.820    96185391.90146
  22488099.300   118176117.09508  22488095.480    92085438.33147
  22436462.440   117904645.98509  22436458.600    91873849.41247
  21628363.920   113657985.86409  21628363.060    88564723.74848
  24351177.420   127966263.91108  24351180.480    99714019.78544
 15 03 06 00 21  0.0000000  0  7G16G18G19G21G22G27G31
  20645223.560   108491403.66509  20645220.340    84538750.30249
  22105419.840   116164901.99609  22105417.180    90518157.47647
  23476031.040   123367398.34208  23476027.300    96130441.31447
  22500876.100   118243260.02608  22500872.320    92137757.49047
  22421600.640   117826546.45509  22421596.660    91812992.70248
  21619579.320   113611822.50909  21619578.480    88528752.31349
  24369865.160   128064469.64608  24369868.140    99790544.07245
 15 03 06 00 21 30.0000000  0  7G16G18G19G21G22G27G31
  20638472.760   108455927.38809  20638469.400    84511106.44849
  22101188.540   116142666.48509  22101185.800    90500831.11647
  23462630.580   123296978.47808  23462626.840    96075568.73446
  22513684.280   118310567.78908  22513680.560    92190205.08747
  22406786.800   117748698.92109  22406782.660    91752332.35248
  21610819.900   113565791.65409  21610819.080    88492884.12849
  24388543.640   128162626.76708  24388546.460    99867030.40246
 15 03 06 00 22  0.0000000  0  7G16G18G19G21G22G27G31
  20631804.840   108420886.61209  20631801.340    84483801.93549
  22097044.120   116120887.34009  22097041.300    90483860.35847
  23449249.060   123226658.33608  23449245.360    96020773.85047
  22526523.380   118378038.20908  22526519.760    92242779.42247
  22392021.360   117671105.77709  22392017.120    91691870.22148
  21602085.680   113519893.32809  21602084.940    88457119.20149
  24407212.340   128260732.22608  24407215.080    99943476.15845
 15 03 06 00 22 30.0000000  0  7G16G18G19G21G22G27G31
  20625219.580   108386280.43309  20625215.980    84456836.08149
  22092986.240   116099563.11309  22092983.380    90467244.08947
  23435886.100   123156435.64208  23435882.480    95966054.90447
  22539392.580   118445666.84808  22539389.060    92295477.05447
  22377304.260   117593767.21009  22377300.100    91631606.46248
  21593376.200   113474125.02509  21593375.560    88421455.60349
  24425870.240   128358780.37008  24425872.920   100019877.03946
 15 03 06 00 23  0.0000000  0  7G16G18G19G21G22G27G31
  20618717.940   108352113.89709  20618714.260    84430212.81549
  22089015.640   116078697.69009  22089012.700    90450985.33747
  23422542.140   123086312.72408  23422538.660    95911413.72247
  22552292.200   118513455.16008  22552288.740    92348299.11247
  22362636.620   117516688.79009  22362632.600    91571545.43048
  21584692.080   113428490.15509  21584691.560    88385895.98449
  24444517.480   128456771.86508  24444520.220   100096233.78245
 15 03 06 00 23 30.0000000  0  7G16G18G19G21G22G27G31
  20612298.460   108318379.37609  20612294.760    84403926.17349
  22085130.780   116058283.01209  22085127.880    90435077.81247
  23409215.400   123016280.57708  23409211.980    95856843.25747
  22565220.100   118581392.08008  22565216.720    92401236.97447
  22348017.200   117439863.75809  22348013.300    91511681.83248
  21576031.620   113382979.53709  21576031.180    88350433.18249
  24463151.740   128554694.97906  24463155.480   100172531.91254
 15 03 06 00 24  0.0000000  0  7G16G18G19G21G22G27G31
  20605967.140   108285108.26209  20605963.440    84378000.62149
  22081337.580   116038350.00509  22081334.780    90419545.61147
  23395911.660   122946369.44508  23395908.320    95802367.08947
  22578181.660   118649505.62708  22578178.320    92454312.45447
  22333452.200   117363324.77109  22333448.420    91452041.11448
  21567400.480   113337623.01909  21567400.060    88315090.44649
  24481778.140   128652575.46908  24481781.940   100248802.48145
 15 03 06 00 24 30.0000000  0  7G16G18G19G21G22G27G31
  20599717.200   108252264.98609  20599713.560    84352408.45449
  22077629.220   116018862.60509  22077626.460    90404360.64047
  23382623.680   122876541.40908  23382620.460    95747955.67647
  22591169.340   118717756.42008  22591166.020    92507494.88447
  22318935.000   117287036.98809  22318931.300    91392596.15148
  21558791.660   113292383.67709  21558791.280    88279839.01948
  24500389.520   128750376.90008  24500393.220   100325010.95046
 15 03 06 00 25  0.0000000  0  7G16G18G19G21G22G27G31
  20593552.300   108219868.55209  20593548.780    84327164.47149
  22074009.040   115999838.32009  22074006.300    90389536.52947
  23369354.700   122806813.39408  23369351.580    95693622.19247
  22604186.060   118786159.59308  22604182.760    92560796.04747
  22304469.360   117211019.87809  22304465.700    91333362.08948
  21550208.380   113247278.39109  21550208.040    88244692.04348
  24518988.000   128848110.33908  24518991.660   100401166.56745
 15 03 06 00 25 30.0000000  0  7G16G18G19G21G22G27G31
  20587472.580   108187919.93609  20587469.220    84302269.44649
  22070477.160   115981277.82409  22070474.340    90375073.81447
  23356104.740   122737185.12808  23356101.580    95639366.44647
  22617231.380   118854712.60008  22617228.020    92614213.97147
  22290055.680   117135275.53109  22290051.980    91274340.57948
  21541650.660   113202306.94309  21541650.260    88209649.36549
  24537573.180   128945774.28008  24537576.800   100477268.44446
 15 03 06 00 26  0.0000000  0  7G16G18G19G21G22G27G31
  20581478.460   108156421.14309  20581475.260    84277724.92849
  22067033.840   115963182.75609  22067031.000    90360973.78247
  23342873.880   122667656.76308  23342870.580    95585188.54847
  22630305.080   118923414.81808  22630301.660    92667748.16147
  22275694.420   117059806.57409  22275690.680    91215533.65548
  21533118.600   113157470.06609  21533118.040    88174711.54748
  24556144.520   129043366.06108  24556147.960   100553313.94545
 15 03 06 00 26 30.0000000  0  7G16G18G19G21G22G27G31
  20575570.020   108125372.29109  20575566.880    84253531.01349
  22063678.820   115945551.88609  22063675.900    90347235.45847
  23329661.780   122598226.62708  23329658.280    95531087.17647
  22643406.380   118992262.18908  22643402.920    92721395.44847
  22261385.920   116984614.82809  22261382.160    91156942.73348
  21524611.780   113112766.02909  21524611.100    88139877.24848
  24574701.040   129140880.09708  24574704.240   100629298.43145
 15 03 06 00 27  0.0000000  0  7G16G18G19G21G22G27G31
  20569748.140   108094778.13409  20569745.040    84229691.39649
  22060412.960   115928389.79709  22060410.060    90333862.40747
  23316469.020   122528897.89008  23316465.300    95477064.82347
  22656535.580   119061256.06708  22656532.040    92775156.89447
  22247131.160   116909705.81309  22247127.420    91098572.12248
  21516130.860   113068198.44609  21516130.120    88105149.26248
  24593243.020   129238317.44808  24593246.080   100705223.10744
 15 03 06 00 27 30.0000000  0  7G16G18G19G21G22G27G31
  20564012.520   108064636.91409  20564009.380    84206204.73149
  22057235.880   115911694.30509  22057233.000    90320852.95447
  23303294.880   122459667.00208  23303291.020    95423118.71747
  22669691.740   119130391.85508  22669688.240    92829028.93047
  22232930.000   116835078.83109  22232926.360    91040421.29448
  21507675.260   113023764.15209  21507674.520    88070525.15148
  24611769.500   129335673.31008  24611772.660   100781084.52545
 15 03 06 00 28  0.0000000  0  7G16G18G19G21G22G27G31
  20558364.020   108034953.23109  20558360.760    84183074.58649
  22054148.200   115895468.61009  22054145.320    90308209.57047
  23290139.920   122390536.88208  23290135.960    95369251.13047
  22682875.060   119199670.47208  22682871.560    92883012.25247
  22218783.420   116760739.03209  22218779.880    90982494.23348
  21499245.520   112979466.09209  21499244.860    88036007.19448
  24630280.240   129432946.87308  24630283.460   100856881.69945
 15 03 06 00 28 30.0000000  0  7G16G18G19G21G22G27G31
  20552802.740   108005727.81109  20552799.320    84160301.51449
  22051150.000   115879713.13909  22051147.100    90295932.58347
  23277004.040   122321507.22208  23277000.020    95315461.81147
  22696085.120   119269089.65408  22696081.600    92937105.10647
  22204691.780   116686688.08309  22204688.340    90924792.24048
  21490841.620   112935303.81209  21490841.060    88001595.02649
  24648774.740   129530135.09307  24648778.040   100932612.59045
 15 03 06 00 29  0.0000000  0  7G16G18G19G21G22G27G31
  20547328.700   107976960.95909  20547325.120    84137885.78449
  22048241.140   115864427.24209  22048238.280    90284021.51747
  23263886.920   122252576.26208  23263882.880    95261749.41847
  22709321.200   119338645.65008  22709317.680    92991304.58247
  22190655.400   116612927.27809  22190651.960    90867316.34748
  21482463.340   112891276.08409  21482462.900    87967287.72449
  24667252.140   129627233.40108  24667255.400   101008273.12545
 15 03 06 00 29 30.0000000  0  7G16G18G19G21G22G27G31
  20541942.840   107948657.86909  20541939.200    84115831.42049
  22045422.400   115849614.88609  22045419.580    90272479.43047
  23250789.160   122183747.39208  23250785.180    95208116.56747
  22722583.600   119408340.43408  22722580.160    93045612.19847
  22176675.400   116539462.43409  22176671.860    90810071.05948
  21474111.380   112847386.67709  21474111.080    87933088.20748
  24685712.700   129724242.97708  24685716.180   101083864.68345
 15 03 06 00 30  0.0000000  0  6G16G18G19G21G22G27
  20536643.360   107920808.83209  20536639.700    84094130.87249
  22042691.920   115835266.40109  22042689.140    90261298.81147
  23237708.660   122115009.02408  23237704.740    95154554.24547
  22735869.920   119478160.78308  22735866.540    93100017.65847
  22162750.340   116466285.64709  22162746.620    90753050.23248
  21465783.620   112803624.48109  21465783.440    87898987.81549
 15 03 06 00 30 30.0000000  0  6G16G18G19G21G22G27
  20531433.420   107893430.75909  20531429.840    84072797.29949
  22040052.740   115821397.59209  22040049.980    90250491.95547
  23224648.460   122046377.31208  23224644.580    95101075.01847
  22749182.860   119548121.06408  22749179.580    93154532.15547
  22148883.500   116393414.49609  22148879.520    90696267.55348
  21457483.060   112760005.39009  21457483.020    87864998.91949
 15 03 06 00 31  0.0000000  0  6G16G18G19G21G22G27
  20526312.760   107866521.79109  20526309.280    84051829.26749
  22037504.240   115808005.51009  22037501.560    90240056.58747
  23211607.800   121977848.22608  23211603.820    95047675.76947
  22762521.240   119618214.94008  22762518.040    93209150.75347
  22135074.500   116320847.33609  22135070.320    90639721.76148
  21449209.140   112716525.70209  21449209.080    87831118.66149
 15 03 06 00 31 30.0000000  0  6G16G18G19G21G22G27
  20521280.580   107840077.68009  20521277.180    84031223.45849
  22035045.740   115795086.20809  22035043.160    90229989.61047
  23198585.620   121909416.52108  23198581.640    94994352.39547
  22775883.920   119688436.27908  22775880.720    93263868.66747
  22121322.820   116248581.74609  22121318.540    90583410.94748
  21440960.900   112673180.72209  21440960.760    87797343.35249
 15 03 06 00 32  0.0000000  0  6G16G18G19G21G22G27
  20516338.060   107814104.55609  20516334.720    84010984.65349
  22032678.080   115782644.16809  22032675.540    90220294.53047
  23185582.760   121841086.23308  23185578.700    94941108.05347
  22789271.220   119758786.81808  22789267.960    93318687.26547
  22107629.780   116176624.65509  22107625.520    90527340.52848
  21432739.160   112629974.60909  21432738.860    87763676.26049
 15 03 06 00 32 30.0000000  0  6G16G18G19G21G22G27
  20511485.460   107788603.85609  20511482.140    83991113.96649
  22030401.380   115770679.97609  22030398.820    90210971.78647
  23172599.160   121772857.28308  23172595.100    94887942.67347
  22802682.820   119829264.99208  22802679.540    93373605.31247
  22093995.820   116104978.25309  22093991.660    90471512.20348
  21424543.860   112586907.46009  21424543.440    87730117.44149
 15 03 06 00 33  0.0000000  0  6G16G18G19G21G22G27
  20506722.420   107763574.08509  20506719.140    83971610.24349
  22028215.260   115759191.62809  22028212.640    90202019.83647
  23159634.360   121704726.97008  23159630.320    94834854.15447
  22816117.760   119899865.88908  22816114.460    93428618.99647
  22080420.920   116033642.13209  22080416.800    90415925.66048
  21416374.560   112543976.89909  21416374.000    87696665.06049
 15 03 06 00 33 30.0000000  0  6G16G18G19G21G22G27
  20502049.640   107739018.66009  20502046.380    83952476.13349
  22026120.140   115748181.49809  22026117.440    90193440.52047
  23146688.680   121636697.03308  23146684.680    94781843.84647
  22829576.300   119970590.47608  22829572.940    93483729.05647
  22066905.880   115962620.49109  22066901.840    90360584.15648
  21408231.580   112501184.87209  21408230.960    87663320.62649
 15 03 06 00 34  0.0000000  0  6G16G18G19G21G22G27
  20497467.260   107714938.42209  20497464.040    83933712.30549
  22024116.160   115737650.35409  22024113.360    90185234.45547
  23133762.080   121568767.26808  23133758.140    94728911.58847
  22843057.880   120041436.36608  22843054.460    93538933.63747
  22053451.220   115891915.95409  22053447.180    90305489.75548
  21400115.020   112458531.81209  21400114.380    87630084.47349
 15 03 06 00 34 30.0000000  0  6G16G18G19G21G22G27
  20492975.760   107691335.74209  20492972.560    83915320.59949
  22022203.380   115727598.36009  22022200.460    90177401.73647
  23120854.580   121500937.82908  23120850.640    94676057.49947
  22856562.280   120112402.24808  22856558.780    93594231.72347
  22040057.420   115821531.27809  22040053.440    90250644.59448
  21392024.900   112416017.77909  21392024.240    87596956.65949
 15 03 06 00 35  0.0000000  0  6G16G18G19G21G22G27
  20488575.480   107668212.43809  20488572.320    83897302.43349
  22020382.100   115718027.31109  22020379.080    90169943.79247
  23107966.320   121433209.55508  23107962.420    94623282.23947
  22870089.300   120183487.07908  22870085.820    93649622.49647
  22026725.040   115751469.37909  22026721.100    90196050.95248
  21383961.400   112373643.97409  21383960.800    87563938.11849
 15 03 06 00 35 30.0000000  0  6G16G18G19G21G22G27
  20484267.020   107645571.31209  20484263.800    83879659.99149
  22018652.780   115708939.59409  22018649.720    90162862.46147
  23095097.560   121365583.68108  23095093.620    94570586.77347
  22883638.780   120254689.95408  22883635.300    93705105.24447
  22013454.800   115681734.08909  22013450.880    90141711.80648
  21375924.860   112331412.05709  21375924.320    87531030.13749
 15 03 06 00 36  0.0000000  0  6G16G18G19G21G22G27
  20480050.020   107623410.68309  20480046.740    83862391.95749
  22017014.840   115700332.01409  22017011.760    90156155.26847
  23082247.660   121298057.22908  23082243.720    94517968.78347
  22897209.940   120326006.68108  22897206.480    93760676.70947
  22000246.640   115612324.77109  22000242.720    90087626.66648
  21367914.720   112289319.09709  21367914.280    87498230.43249
 15 03 06 00 36 30.0000000  0  6G16G18G19G21G22G27
  20475925.420   107601735.38009  20475922.080    83845502.10449
  22015469.120   115692209.04909  22015466.040    90149825.68847
  23069417.280   121230633.65608  23069413.400    94465430.96247
  22910803.080   120397439.00608  22910799.620    93816338.25547
  21987101.740   115543247.49309  21987097.720    90033800.25248
  21359931.760   112247369.04209  21359931.420    87465542.08149
 15 03 06 00 37  0.0000000  0  6G16G18G19G21G22G27
  20471892.940   107580543.86109  20471889.500    83828989.22849
  22014015.100   115684568.04609  22014012.040    90143871.67847
  23056605.980   121163309.92208  23056602.040    94412970.93947
  22924417.340   120468982.45708  22924413.860    93872086.40147
  21974019.920   115474501.70509  21974015.840    89980232.14448
  21351975.540   112205559.25209  21351975.240    87432963.03249
 15 03 06 00 37 30.0000000  0  6G16G18G19G21G22G27
  20467953.200   107559839.82809  20467949.700    83812856.20149
  22012653.280   115677411.66209  22012650.260    90138295.27847
  23043814.180   121096088.54408  23043810.100    94360590.66647
  22938052.740   120540637.15908  22938049.280    93927921.21747
  21961001.980   115406091.82109  21960997.880    89926925.77248
  21344046.560   112163892.11509  21344046.200    87400495.13249
 15 03 06 00 38  0.0000000  0  6G16G18G19G21G22G27
  20464106.140   107539623.28909  20464102.660    83797103.04949
  22011383.580   115670739.62009  22011380.640    90133096.30247
  23031041.640   121028968.27209  23031037.440    94308289.18347
  22951708.660   120612399.99708  22951705.240    93983840.30847
  21948048.200   115338019.17209  21948044.120    89873882.18848
  21336144.660   112122367.00409  21336144.180    87368137.90849
 15 03 06 00 38 30.0000000  0  6G16G18G19G21G22G27
  20460351.820   107519894.18609  20460348.360    83781729.70849
  22010205.820   115664550.57809  22010202.960    90128273.68047
  23018288.060   120961947.49709  23018283.720    94256065.22847
  22965384.740   120684268.56608  22965381.380    94039841.78447
  21935158.740   115270284.72109  21935154.680    89821102.12948
  21328269.520   112080982.54809  21328268.920    87335890.28249
 15 03 06 00 39  0.0000000  0  6G16G18G19G21G22G27
  20456691.040   107500656.77809  20456687.640    83766739.51249
  22009120.680   115658847.92909  22009117.860    90123830.06847
  23005553.920   120895029.21808  23005549.600    94203921.14247
  22979081.020   120756243.53408  22979077.720    94095926.16447
  21922334.620   115202893.56509  21922330.600    89768589.57348
  21320421.760   112039741.95209  21320421.040    87303754.75349
 15 03 06 00 39 30.0000000  0  6G16G18G19G21G22G27
  20453123.980   107481911.85409  20453120.620    83752133.06949
  22008128.100   115653631.78309  22008125.260    90119765.55747
  22992839.200   120828213.11308  22992834.940    94151856.66747
  22992797.260   120828323.18008  22992794.000    94152092.11647
  21909576.280   115135847.72809  21909572.200    89716346.10148
  21312601.340   111998645.19409  21312600.580    87271731.31649
 15 03 06 00 40  0.0000000  0  6G16G18G19G21G22G27
  20449651.420   107463663.40109  20449648.080    83737913.49249
  22007228.720   115648905.20709  22007225.820    90116082.51747
  22980144.260   120761501.46008  22980140.220    94099873.58347
  23006533.620   120900508.42308  23006530.400    94208340.34547
  21896884.600   115069152.36309  21896880.460    89664375.72148
  21304808.820   111957695.13409  21304808.060    87239822.18349
 15 03 06 00 40 30.0000000  0  6G16G18G19G21G22G27
  20446272.900   107445908.92209  20446269.500    83724078.82249
  22006421.820   115644664.79609  22006418.920    90112778.30947
  22967468.540   120694890.99508  22967464.720    94047969.35648
  23020289.060   120972793.74508  23020285.820    94264666.56247
  21884259.280   115002806.10609  21884255.080    89612677.37048
  21297043.580   111916888.70609  21297042.880    87208024.96549
 15 03 06 00 41  0.0000000  0  6G16G18G19G21G22G27
  20442988.720   107428650.21109  20442985.280    83710630.47249
  22005707.540   115640911.04509  22005704.620    90109853.32047
  22954812.180   120628382.06808  22954808.540    93996144.25747
  23034063.400   121045178.32508  23034060.120    94321070.11846
  21871700.840   114936811.59909  21871696.620    89561253.11448
  21289305.760   111876226.53709  21289305.180    87176340.16449
 15 03 06 00 41 30.0000000  0  7G04G16G18G19G21G22G27
  24603621.020   129292899.68107  24603627.500   100747728.07843
  20439799.060   107411888.42409  20439795.640    83697569.33549
  22005086.020   115637644.71209  22005083.080    90107308.14247
  22942175.260   120561974.78708  22942171.660    93944398.36047
  23047856.240   121117660.02308  23047852.900    94377549.35747
  21859209.820   114871171.47209  21859205.640    89510104.99748
  21281595.460   111835709.02009  21281595.000    87144768.08649
 15 03 06 00 42  0.0000000  0  7G04G16G18G19G21G22G27
  24584210.800   129190897.63208  24584216.440   100668245.90344
  20436705.180   107395630.08309  20436701.760    83684900.47949
  22004558.300   115634871.59809  22004555.420    90105147.27847
  22929558.760   120495674.45808  22929555.080    93892735.78747
  23061668.400   121190243.10908  23061664.980    94434107.59447
  21846787.700   114805893.29009  21846783.540    89459238.90648
  21273913.840   111795341.87709  21273913.440    87113313.16849
 15 03 06 00 42 30.0000000  0  7G04G16G18G19G21G22G27
  24564826.980   129089034.12407  24564832.640   100588871.55344
  20433705.160   107379864.88509  20433701.740    83672615.90149
  22004122.280   115632580.44009  22004119.420    90103361.97047
  22916960.520   120429469.81408  22916956.660    93841147.78547
  23075497.280   121262914.08508  23075493.820    94490734.31447
  21834432.660   114740967.54209  21834428.580    89408647.44748
  21266258.740   111755113.82909  21266258.320    87081966.64249
 15 03 06 00 43  0.0000000  0  7G04G16G18G19G21G22G27
  24545471.700   128987320.75008  24545477.380   100509614.30645
  20430801.080   107364603.95709  20430797.640    83660724.26949
  22003779.880   115630781.08109  22003777.000    90101959.88747
  22904382.300   120363370.39108  22904378.200    93789641.78047
  23089344.400   121335680.86908  23089340.780    94547435.70047
  21822147.040   114676406.33609  21822143.000    89358340.05748
  21258632.080   111715035.10309  21258631.600    87050736.47449
 15 03 06 00 43 30.0000000  0  7G04G16G18G19G21G22G27
  24526144.480   128885755.10608  24526150.120   100430472.39744
  20427992.480   107349844.55109  20427989.000    83649223.43149
  22003530.380   115629470.08409  22003527.440    90100938.34347
  22891823.400   120297372.52609  22891819.120    93738214.90947
  23103208.800   121408538.42308  23103205.120    94604207.81646
  21809930.580   114612208.40809  21809926.560    89308315.73248
  21251033.120   111675102.15709  21251032.600    87019619.90249
 15 03 06 00 44  0.0000000  0  7G04G16G18G19G21G22G27
  24506845.580   128784338.78908  24506851.300   100351446.78844
  20425279.660   107335588.75209  20425276.220    83638115.00649
  22003374.060   115628648.57509  22003371.020    90100298.21248
  22879284.060   120231477.57409  22879279.620    93686868.20547
  23117090.320   121481485.95608  23117086.600    94661050.03747
  21797783.960   114548377.25509  21797779.900    89258577.20248
  21243462.160   111635316.71409  21243461.700    86988618.25949
 15 03 06 00 44 30.0000000  0  7G04G16G18G19G21G22G27
  24487575.560   128683074.36608  24487581.140   100272539.52944
  20422663.100   107321838.81509  20422659.720    83627400.75749
  22003311.120   115628318.05909  22003308.080    90100040.67447
  22866764.440   120165686.39009  22866759.860    93635602.37247
  23130988.880   121554523.19208  23130985.000    94717962.15747
  21785707.720   114484915.83109  21785703.540    89209126.76848
  21235919.500   111595680.02009  21235919.120    86957732.52649
 15 03 06 00 45  0.0000000  0  7G04G16G18G19G21G22G27
  24468334.400   128581962.13308  24468339.860   100193751.07442
  20420142.860   107308595.10809  20420139.540    83617080.98249
  22003341.480   115628477.90709  22003338.420    90100165.24147
  22854264.400   120099998.15809  22854259.760    93584416.76347
  23144904.060   121627647.63108  23144900.140    94774942.24146
  21773702.080   114421825.45409  21773697.760    89159965.46448
  21228405.000   111556191.52409  21228404.720    86926962.27349
 15 03 06 00 45 30.0000000  0  7G04G16G18G19G21G22G27
  24449122.700   128481004.94907  24449128.240   100115083.42844
  20417719.460   107295860.30509  20417716.240    83607157.75849
  22003465.440   115629129.67109  22003462.360    90100673.12947
  22841784.220   120034414.39809  22841779.520    93533312.56247
  23158835.780   121700859.29008  23158831.940    94831990.28946
  21761767.800   114359110.24509  21761763.360    89111096.50548
  21220919.140   111516853.37209  21220918.940    86896309.17549
 15 03 06 00 46  0.0000000  0  7G04G16G18G19G21G22G27
  24429940.280   128380201.86207  24429945.660   100036535.75944
  20415392.840   107283633.96809  20415389.680    83597630.73749
  22003682.780   115630272.11009  22003679.680    90101563.35247
  22829323.680   119968933.91609  22829319.000    93482288.83247
  23172783.460   121774154.98008  23172779.740    94889103.79947
  21749905.020   114296770.85009  21749900.420    89062520.37748
  21213461.720   111477664.42309  21213461.540    86865772.33049
 15 03 06 00 46 30.0000000  0  7G04G16G18G19G21G22G27
  24410787.920   128279556.83707  24410793.220    99958111.26543
  20413163.660   107271919.53509  20413160.540    83588502.59749
  22003993.940   115631907.62409  22003990.840    90102837.78247
  22816883.240   119903559.17809  22816878.680    93431347.49847
  23186747.220   121847535.16808  23186743.680    94946283.15446
  21738114.560   114234811.81409  21738109.900    89014240.63648
  21206033.260   111438627.46809  21206033.020    86835353.92449
 15 03 06 00 47  0.0000000  0  7G04G16G18G19G21G22G27
  24391664.900   128179066.54707  24391670.380    99879807.42744
  20411031.200   107260713.27709  20411028.080    83579770.44449
  22004398.140   115634031.91509  22004395.000    90104493.08847
  22804462.040   119838285.57509  22804457.620    93380484.98347
  23200725.960   121920994.12408  23200722.520    95003523.89147
  21726395.960   114173230.41009  21726391.280    88966255.15748
  21198632.940   111399738.19809  21198632.560    86805050.60149
 15 03 06 00 47 30.0000000  0  7G04G16G18G19G21G22G27
  24372572.860   128078739.27007  24372578.640    99801630.67844
  20408997.060   107250023.65209  20408993.940    83571440.86049
  22004896.760   115636652.23309  22004893.600    90106534.89847
  22792061.480   119773120.54209  22792057.200    93329707.06247
  23214720.760   121994537.52008  23214717.460    95060830.42346
  21714751.140   114112036.80409  21714746.520    88918571.85548
  21191262.180   111361004.46209  21191261.680    86774868.46649
 15 03 06 00 48  0.0000000  0  7G04G16G18G19G21G22G27
  24353511.120   127978571.49907  24353517.140    99723578.32444
  20407060.520   107239846.98409  20407057.380    83563510.98049
  22005488.980   115639764.15709  22005485.740    90108959.78747
  22779680.660   119708059.42209  22779676.500    93279010.11847
  23228730.480   122068159.07408  23228727.280    95118197.86646
  21703179.580   114051228.01209  21703175.000    88871188.40648
  21183920.140   111322421.93609  21183919.580    86744804.15649
 15 03 06 00 48 30.0000000  0  7G04G16G18G19G21G22G27
  24334480.080   127878564.96607  24334486.100    99645651.60843
  20405221.920   107230184.90009  20405218.760    83555982.07549
  22006174.840   115643368.18709  22006171.540    90111768.13047
  22767319.700   119643102.66209  22767315.560    93228394.48947
  23242754.840   122141857.64108  23242751.660    95175625.30946
  21691681.760   113990806.68609  21691677.200    88824106.88448
  21176607.040   111283991.74109  21176606.480    86714858.54849
 15 03 06 00 49  0.0000000  0  7G04G16G18G19G21G22G27
  24315479.800   127778719.80107  24315485.860    99567850.50544
  20403481.300   107221037.66509  20403478.080    83548854.35549
  22006954.080   115647463.14109  22006950.800    90114959.01647
  22754978.600   119578249.88809  22754974.400    93177859.89347
  23256793.500   122215631.22108  23256790.380    95233111.21746
  21680258.000   113930774.58209  21680253.500    88777328.65948
  21169322.860   111245713.48709  21169322.300    86685031.34349
 15 03 06 00 49 30.0000000  0  7G04G16G18G19G21G22G27
  24296510.680   127679038.09507  24296516.660    99490176.68545
  20401839.000   107212407.13109  20401835.740    83542129.25049
  22007827.060   115652051.02909  22007823.880    90118533.99747
  22742657.640   119513502.40409  22742653.300    93127407.32547
  23270846.340   122289479.35508  23270843.240    95290655.20146
  21668908.900   113871134.96709  21668904.460    88730856.25548
  21162067.900   111207588.85609  21162067.420    86655323.83249
 15 03 06 00 50  0.0000000  0  7G04G16G18G19G21G22G27
  24277573.100   127579521.71208  24277578.960    99412631.66145
  20400295.300   107204294.85909  20400292.020    83535807.99349
  22008793.860   115657132.08109  22008790.800    90122493.27547
  22730356.840   119448860.71009  22730352.320    93077037.19647
  23284913.120   122363400.85608  23284910.080    95348256.36946
  21657635.020   113811890.42709  21657630.600    88684691.71248
  21154842.380   111169618.74209  21154842.000    86625736.73749
 15 03 06 00 50 30.0000000  0  7G04G16G18G19G21G22G27
  24258666.760   127480169.57807  24258672.660    99335214.82344
  20398849.900   107196699.28909  20398846.640    83529889.36249
  22009854.060   115662703.65609  22009851.040    90126834.77447
  22718075.700   119384322.34209  22718071.020    93026747.58148
  23298993.100   122437391.61108  23298990.020    95405911.49646
  21646436.240   113753040.43009  21646431.800    88638834.60348
  21147645.900   111131800.99509  21147645.580    86596268.37049
 15 03 06 00 51  0.0000000  0  7G04G16G18G19G21G22G27
  24239792.560   127380986.41507  24239798.360    99257929.65445
  20397503.780   107189625.18609  20397500.460    83524377.07049
  22011008.400   115668769.68009  22011005.340    90131561.55447
  22705814.920   119319891.13509  22705810.160    92976541.47348
  23313086.720   122511454.31808  23313083.680    95463622.68246
  21635313.720   113694590.85409  21635309.180    88593289.50348
  21140479.300   111094140.11309  21140479.000    86566922.24149
 15 03 06 00 51 30.0000000  0  7G04G16G18G19G21G22G27
  24220950.680   127281973.12207  24220956.540    99180776.82545
  20396257.040   107183073.32609  20396253.680    83519271.72149
  22012256.820   115675329.85409  22012253.720    90136673.39447
  22693574.520   119255567.35209  22693569.800    92926419.06048
  23327193.740   122585587.10808  23327190.620    95521388.48546
  21624267.780   113636543.99509  21624263.160    88548058.21148
  21133342.660   111056636.35209  21133342.280    86537698.53949
 15 03 06 00 52  0.0000000  0  7G04G16G18G19G21G22G27
  24202140.920   127183128.44408  24202146.540    99103755.40944
  20395109.380   107177042.15809  20395105.960    83514572.10449
  22013598.740   115682381.39909  22013595.620    90142168.11147
  22681354.000   119191348.50309  22681349.420    92876378.41848
  23341313.360   122659786.10508  23341310.160    95579205.87646
  21613298.320   113578899.28809  21613293.720    88503140.28248
  21126235.560   111019287.80809  21126235.100    86508595.78649
 15 03 06 00 52 30.0000000  0  7G04G16G18G19G21G22G27
  24183364.020   127084456.46308  24183369.420    99026868.51645
  20394061.540   107171535.63009  20394058.120    83510281.29449
  22015034.820   115689928.06409  22015031.760    90148048.63947
  22669154.000   119127238.05309  22669149.680    92826422.25048
  23355445.840   122734052.89108  23355442.680    95637076.09946
  21602406.340   113521661.77609  21602401.760    88458539.65148
  21119158.680   110982098.11109  21119158.140    86479616.80249
 15 03 06 00 53  0.0000000  0  7G04G16G18G19G21G22G27
  24164619.980   126985956.94608  24164625.220    98950116.03045
  20393113.420   107166553.23409  20393110.040    83506398.89749
  22016564.660   115697967.58209  22016561.680    90154313.20747
  22656974.340   119063234.75109  22656970.280    92776549.57548
  23369590.700   122808384.58408  23369587.580    95694996.89346
  21591592.020   113464832.37209  21591587.460    88414257.02448
  21112111.860   110945066.26509  21112111.200    86450760.82049
 15 03 06 00 53 30.0000000  0  7G04G16G18G19G21G22G27
  24145908.700   126887629.54608  24145913.700    98873497.78045
  20392264.940   107162094.23609  20392261.560    83502924.35049
  22018187.960   115706498.40209  22018185.040    90160960.61447
  22644814.840   118999336.93009  22644810.880    92726759.08848
  23383747.380   122882778.39508  23383744.300    95752966.08646
  21580855.500   113408411.76009  21580850.960    88370292.93748
  21105094.860   110908191.31109  21105094.100    86422027.09549
 15 03 06 00 54  0.0000000  0  7G04G16G18G19G21G22G27
  24127230.160   126789474.45108  24127235.000    98797013.65545
  20391516.000   107158158.42009  20391512.660    83499857.46549
  22019904.660   115715519.99209  22019901.840    90167990.43447
  22632675.480   118935544.25709  22632671.460    92677050.52648
  23397915.480   122957232.12408  23397912.400    95810981.96347
  21570196.980   113352401.05909  21570192.440    88326648.25948
  21098107.660   110871473.12009  21098106.800    86393415.50949
 15 03 06 00 54 30.0000000  0  7G04G16G18G19G21G22G27
  24108585.240   126691496.37008  24108590.100    98720667.57145
  20390867.500   107154750.35309  20390864.200    83497201.82349
  22021715.260   115725035.20809  22021712.520    90175404.89947
  22620556.860   118871860.20109  22620552.680    92627426.60648
  23412095.340   123031747.32608  23412092.160    95869045.74646
  21559617.520   113296805.65009  21559612.920    88283327.18448
  21091150.960   110834915.50109  21091150.040    86364929.05349
 15 03 06 00 55  0.0000000  0  7G04G16G18G19G21G22G27
  24089973.980   126593695.30908  24089978.820    98644459.39945
  20390319.460   107151870.28409  20390316.180    83494957.60749
  22023619.720   115735043.58909  22023617.040    90183203.64747
  22608458.900   118808284.23009  22608454.400    92577886.89348
  23426286.560   123106322.14908  23426283.240    95927155.98246
  21549117.360   113241626.89509  21549112.700    88240330.77248
  21084224.800   110798518.38409  21084223.860    86336567.67049
 15 03 06 00 55 30.0000000  0  7G04G16G18G19G21G22G27
  24071396.360   126496070.83108  24071401.020    98568388.78945
  20389871.540   107149516.70309  20389868.360    83493123.64449
  22025617.680   115745543.22309  22025615.020    90191385.18947
  22596381.200   118744814.52409  22596376.320    92528429.99347
  23440488.540   123180953.59808  23440485.180    95985310.34546
  21538696.500   113186865.02409  21538691.860    88197659.21148
  21077328.940   110762280.48209  21077328.020    86308330.35049
 15 03 06 00 56  0.0000000  0  7G04G16G18G19G21G22G27
  24052852.860   126398625.87308  24052857.420    98492458.00545
  20389524.420   107147692.75109  20389521.280    83491702.37049
  22027709.560   115756535.99009  22027706.860    90199950.98548
  22584324.200   118681453.83109  22584319.060    92479058.03748
