     2.11           OBSERVATION DATA    G                   RINEX VERSION / TYPE
SPIDER V4,0,0,3554                      2015 03 24 09:15    PGM / RUN BY / DATE 
OJGS                                                        MARKER NAME         
OJGS                                                        MARKER NUMBER       
                                                            OBSERVER / AGENCY   
496552              LEICA GRX1200+GNSS  8.20/4.007          REC # / TYPE / VERS 
10401003            LEIAR25         NONE                    ANT # / TYPE        
  5198100.9450    88691.2920  3684205.7148                  APPROX POSITION XYZ 
        0.1200        0.0000        0.0000                  ANTENNA: DELTA H/E/N
     1     1                                                WAVELENGTH FACT L1/2
     4    C1    L1    P2    L2                              # / TYPES OF OBSERV 
    30.000                                                  INTERVAL            
  2015    03    06    00    00    0.0000000     GPS         TIME OF FIRST OBS   
  2015    03    06    23    59   30.0000000     GPS         TIME OF LAST OBS    
    16                                                      LEAP SECONDS        
    30                                                      # OF SATELLITES     
   G 1   832   832   832   832                              PRN / # OF OBS      
   G 2   925   925   925   925                              PRN / # OF OBS      
   G 3   840   839   839   839                              PRN / # OF OBS      
   G 4   844   844   844   844                              PRN / # OF OBS      
   G 5   673   673   673   673                              PRN / # OF OBS      
   G 6   733   733   733   733                              PRN / # OF OBS      
   G 7   720   720   720   720                              PRN / # OF OBS      
   G 9   782   782   782   782                              PRN / # OF OBS      
   G10   784   784   784   784                              PRN / # OF OBS      
   G11   797   797   797   797                              PRN / # OF OBS      
   G12   812   811   811   811                              PRN / # OF OBS      
   G13   822   822   822   822                              PRN / # OF OBS      
   G14   932   931   928   928                              PRN / # OF OBS      
   G15   734   733   733   733                              PRN / # OF OBS      
   G16   694   694   694   694                              PRN / # OF OBS      
   G17   929   929   929   929                              PRN / # OF OBS      
   G18   939   938   938   938                              PRN / # OF OBS      
   G19   790   790   790   790                              PRN / # OF OBS      
   G20   790   790   790   790                              PRN / # OF OBS      
   G21   682   667   648   646                              PRN / # OF OBS      
   G22   803   803   803   803                              PRN / # OF OBS      
   G23   727   726   726   726                              PRN / # OF OBS      
   G24   837   826   818   818                              PRN / # OF OBS      
   G25   854   854   854   854                              PRN / # OF OBS      
   G27   831   831   831   831                              PRN / # OF OBS      
   G28   914   913   913   913                              PRN / # OF OBS      
   G29   742   742   742   742                              PRN / # OF OBS      
   G30   692   692   692   692                              PRN / # OF OBS      
   G31   796   796   796   796                              PRN / # OF OBS      
   G32   738   738   738   738                              PRN / # OF OBS      
BIT 2 OF LLI FLAGS DATA COLLECTED UNDER A/S CONDITION       COMMENT             
SNR is mapped to RINEX snr flag value [2-9]                 COMMENT             
Lx:     = 25dBHz -> 1; 26-27dBHz -> 2; 28-31dBHz -> 3       COMMENT             
       32-35dBHz -> 4; 36-38dBHz -> 5; 39-41dBHz -> 6       COMMENT             
       42-44dBHz -> 7; 45-48dBHz -> 8; >=49dBHz -> 9        COMMENT             
                                                            END OF HEADER       
 15 03 06 00 00  0.0000000  0  7G16G18G19G21G22G27G31
  20990977.140   110308358.86109  20990973.620    85954561.20648
  22303852.620   117207643.74609  22303849.780    91330668.86046
  24170780.220   127018315.59408  24170777.040    98975300.02645
  21886652.020   115015595.80109  21886648.900    89622740.25848
  23134648.200   121573459.60209  23134644.680    94732583.29647
  22061355.880   115933299.47109  22061356.300    90337661.46948
  23725545.180   124678569.62908  23725545.780    97152137.71947
 15 03 06 00 00 30.0000000  0  7G16G18G19G21G22G27G31
  20981157.260   110256755.00409  20981153.660    85914350.41348
  22295749.360   117165061.10909  22295746.620    91297487.60446
  24156104.940   126941196.75508  24156101.780    98915207.49245
  21897351.580   115071821.90609  21897348.320    89666552.80147
  23117867.600   121485278.18109  23117864.040    94663870.74647
  22050948.320   115878608.03109  22050948.800    90295044.77048
  23744216.680   124776687.57108  23744217.300    97228592.86746
 15 03 06 00 01  0.0000000  0  7G16G18G19G21G22G27G31
  20971407.760   110205520.78609  20971404.120    85874427.64348
  22287720.860   117122871.29009  22287718.200    91264612.44446
  24141447.240   126864170.69507  24141444.220    98855187.23046
  21908098.220   115128295.67509  21908094.860    89710558.33147
  23101112.640   121397231.44909  23101109.020    94595263.15347
  22040565.480   115824046.18809  22040566.020    90252529.06348
  23762898.000   124874857.02809  23762898.660    97305088.15446
 15 03 06 00 01 30.0000000  0  7G16G18G19G21G22G27G31
  20961728.640   110154656.71709  20961724.920    85834793.29848
  22279767.180   117081074.66109  22279764.620    91232043.66346
  24126806.900   126787235.80908  24126803.900    98795238.05645
  21918891.500   115185014.67108  21918888.140    89754754.94747
  23084383.560   121309320.82509  23084380.000    94526761.56947
  22030207.120   115769612.38109  22030207.660    90210113.12448
  23781588.300   124973073.68808  23781589.000    97381620.23246
 15 03 06 00 02  0.0000000  0  7G16G18G19G21G22G27G31
  20952120.040   110104163.27009  20952116.380    85795447.75948
  22271888.540   117039672.06809  22271885.960    91199781.91847
  24112183.600   126710390.83108  24112180.820    98735358.89645
  21929730.720   115241975.11708  21929727.280    89799139.70847
  23067680.720   121221547.93109  23067677.200    94458367.35747
  22019872.880   115715305.46809  22019873.360    90167796.06748
  23800286.740   125071333.15108  23800287.620    97458185.63146
 15 03 06 00 02 30.0000000  0  7G16G18G19G21G22G27G31
  20942582.740   110054044.26809  20942579.080    85756393.99548
  22264085.440   116998666.51209  22264082.820    91167829.56347
  24097577.820   126633637.37008  24097574.840    98675551.05145
  21940615.700   115299176.27208  21940612.300    89843712.02947
  23051004.780   121133916.50409  23051001.340    94390083.30147
  22009563.100   115661126.90109  22009563.500    90125579.01248
  23818993.060   125169633.90408  23818993.960    97534783.20846
 15 03 06 00 03  0.0000000  0  7G16G18G19G21G22G27G31
  20933117.000   110004301.39709  20933113.340    85717633.31548
  22256358.120   116958059.11609  22256355.440    91136187.45747
  24082989.320   126556974.68508  24082986.380    98615813.95545
  21951546.160   115356616.24308  21951542.640    89888470.44447
  23034356.320   121046429.15709  23034352.840    94321911.49847
  21999277.660   115607076.25209  21999277.940    90083461.62948
  23837706.680   125267972.87608  23837707.640    97611410.54846
 15 03 06 00 03 30.0000000  0  7G16G18G19G21G22G27G31
  20923722.760   109954934.42709  20923719.080    85679165.55048
  22248706.700   116917850.62409  22248704.000    91104856.17747
  24068417.940   126480400.98808  24068415.000    98556146.18245
  21962521.420   115414291.46308  21962517.880    89933412.17647
  23017735.460   120959086.72109  23017731.860    94253852.61847
  21989016.260   115553151.84509  21989016.500    90041442.62948
  23856426.640   125366345.30308  23856427.700    97688063.96946
 15 03 06 00 04  0.0000000  0  7G16G18G19G21G22G27G31
  20914400.480   109905945.79909  20914396.900    85640992.59548
  22241131.480   116878042.51409  22241128.720    91073836.89147
  24053863.600   126403916.58508  24053860.620    98496547.99746
  21973541.080   115472200.52208  21973537.460    89978536.11647
  23001142.660   120871891.89309  23001139.000    94185908.73847
  21978779.000   115499354.05009  21978779.140    89999522.29248
  23875152.460   125464748.50608  23875153.660    97764741.35446
 15 03 06 00 04 30.0000000  0  7G16G18G19G21G22G27G31
  20905151.360   109857341.44509  20905147.800    85603119.07248
  22233633.540   116838640.60209  22233630.720    91043134.11346
  24039326.960   126327525.52708  24039323.540    98437022.54345
  21984605.520   115530344.79708  21984601.840    90023843.33447
  22984579.280   120784851.70609  22984575.600    94118085.35447
  21968566.620   115445686.69809  21968566.480    89957703.59248
  23893884.320   125563183.39008  23893885.660    97841443.44546
 15 03 06 00 05  0.0000000  0  7G16G18G19G21G22G27G31
  20895975.080   109809119.82909  20895971.560    85565543.79148
  22226212.460   116799642.51609  22226209.580    91012746.01646
  24024807.420   126251224.13308  24024803.820    98377566.96845
  21995713.800   115588719.23108  21995710.080    90069329.90947
  22968045.180   120697965.16009  22968041.500    94050381.69147
  21958378.480   115392146.39709  21958378.020    89915983.89848
  23912621.060   125661643.83608  23912622.500    97918165.47446
 15 03 06 00 05 30.0000000  0  7G16G18G19G21G22G27G31
  20886872.540   109761285.76609  20886869.080    85528270.49748
  22218869.160   116761053.19409  22218866.220    90982676.42647
  24010305.340   126175014.94408  24010301.820    98318183.25245
  22006866.020   115647324.31109  22006862.180    90114996.21747
  22951541.360   120611237.72509  22951537.660    93982801.99947
  21948215.020   115338735.99509  21948214.300    89874365.41548
  23931362.560   125760129.32808  23931364.040    97994906.98846
 15 03 06 00 06  0.0000000  0  7G16G18G19G21G22G27G31
  20877843.760   109713839.50409  20877840.360    85491299.38448
  22211603.600   116722872.76009  22211600.700    90952925.44947
  23995820.500   126098896.37008  23995816.600    98258870.11445
  22018061.600   115706157.15008  22018057.700    90160839.99247
  22935067.960   120524670.20409  22935064.300    93915346.91147
  21938075.900   115285453.81109  21938074.980    89832846.85148
  23950107.960   125858635.28608  23950109.540    98071664.38146
 15 03 06 00 06 30.0000000  0  7G16G18G19G21G22G27G31
  20868889.820   109666786.52109  20868886.520    85454634.72248
  22204416.880   116685106.72709  22204414.060    90923497.39647
  23981353.540   126022872.22908  23981349.640    98199630.57345
  22029300.640   115765219.08208  22029296.940    90206862.26947
  22918626.240   120438269.43609  22918622.680    93848021.76047
  21927961.900   115232303.73409  21927960.800    89791431.21848
  23968857.420   125957162.63508  23968859.140    98148438.43746
 15 03 06 00 07  0.0000000  0  7G16G18G19G21G22G27G31
  20860010.420   109620125.19309  20860007.080    85418275.24948
  22197308.580   116647752.56409  22197305.740    90894390.27447
  23966903.660   125946938.49308  23966900.220    98140461.50445
  22040582.280   115824504.93708  22040578.700    90253059.03047
  22902216.020   120352033.97308  22902212.500    93780825.41247
  21917872.240   115179281.91009  21917871.120    89750115.53048
  23987609.720   126055704.96208  23987611.500    98225224.17146
 15 03 06 00 07 30.0000000  0  7G16G18G19G21G22G27G31
  20851205.880   109573857.33809  20851202.600    85382222.37148
  22190278.960   116610811.77709  22190276.100    90865605.25247
  23952470.960   125871094.99408  23952467.460    98081362.70645
  22051905.960   115884011.23808  22051902.420    90299427.57247
  22885837.740   120265966.30908  22885834.280    93713759.81447
  21907806.920   115126388.37009  21907805.860    89708899.79748
  24006364.240   126154258.97508  24006366.100    98302018.99646
 15 03 06 00 08  0.0000000  0  7G16G18G19G21G22G27G31
  20842477.200   109527988.12209  20842473.940    85346480.12848
  22183329.020   116574289.61709  22183326.140    90837146.45047
  23938056.100   125795345.15508  23938052.580    98022336.91845
  22063272.260   115943741.18709  22063268.700    90345970.38847
  22869492.560   120180072.74308  22869489.200    93646829.87447
  21897766.620   115073626.57909  21897765.600    89667786.72948
  24025121.120   126252825.16108  24025123.100    98378823.24546
 15 03 06 00 08 30.0000000  0  7G16G18G19G21G22G27G31
  20833823.300   109482511.72109  20833820.060    85311043.96848
  22176457.620   116538180.00809  22176454.740    90809009.10947
  23923657.780   125719681.60408  23923654.180    97963378.33945
  22074679.160   116003684.38909  22074675.560    90392679.37447
  22853179.580   120094348.38008  22853176.340    93580031.77947
  21887749.860   115020988.84409  21887748.920    89626770.33748
  24043878.360   126351393.16208  24043880.600    98455628.96746
 15 03 06 00 09  0.0000000  0  7G16G18G19G21G22G27G31
  20825246.580   109437440.82109  20825243.400    85275923.77948
  22169666.920   116502494.48609  22169664.040    90781202.21847
  23909277.760   125644114.44108  23909274.040    97904494.86445
  22086128.200   116063849.39508  22086124.700    90439561.18547
  22836901.240   120008805.98708  22836898.060    93513375.46447
  21877758.680   114968485.74809  21877757.860    89585858.84848
  24062637.380   126449970.25208  24062639.620    98532441.71145
 15 03 06 00 09 30.0000000  0  7G16G18G19G21G22G27G31
  20816746.420   109392772.28709  20816743.280    85241117.13148
  22162956.300   116467230.18509  22162953.460    90753723.56347
  23894915.060   125568638.38708  23894911.440    97845682.42245
  22097618.020   116124229.29508  22097614.660    90486610.44647
  22820657.180   119923443.65608  22820654.080    93446859.45847
  21867792.220   114916112.50309  21867791.500    89545048.54248
  24081396.760   126548548.92908  24081398.980    98609255.71846
 15 03 06 00 10  0.0000000  0  7G16G18G19G21G22G27G31
  20808322.900   109348506.54809  20808319.840    85206624.34748
  22156325.820   116432386.97709  22156322.980    90726573.02847
  23880569.620   125493252.36508  23880566.000    97786940.10245
  22109148.200   116184820.86608  22109144.860    90533824.65647
  22804447.580   119838262.39508  22804444.580    93380484.54947
  21857850.220   114863867.66309  21857849.620    89504338.29548
  24100155.540   126647124.71608  24100157.840    98686067.47046
 15 03 06 00 10 30.0000000  0  7G16G18G19G21G22G27G31
  20799977.220   109304649.89009  20799974.220    85172450.32248
  22149776.620   116397970.92209  22149773.760    90699755.33147
  23866242.040   125417960.58408  23866238.600    97728271.22146
  22120719.220   116245626.83408  22120715.900    90581205.91647
  22788273.760   119753269.17008  22788270.820    93314256.14847
  21847933.540   114811755.74909  21847932.960    89463731.62348
  24118914.040   126745699.21208  24118916.440    98762878.22246
 15 03 06 00 11  0.0000000  0  7G16G18G19G21G22G27G31
  20791708.480   109261197.35209  20791705.460    85138591.20048
  22143307.680   116363976.50209  22143304.800    90673266.18746
  23851931.220   125342756.41808  23851927.940    97669670.63346
  22132329.420   116306638.52608  22132325.980    90628747.49447
  22772134.980   119668459.96308  22772132.060    93248171.14447
  21838040.900   114759770.02709  21838040.320    89423223.28348
  24137670.480   126844262.74908  24137673.020    98839680.46846
 15 03 06 00 11 30.0000000  0  7G16G18G19G21G22G27G31
  20783518.700   109218160.00209  20783515.680    85105055.60048
  22136921.080   116330414.94509  22136918.260    90647114.32747
  23837638.660   125267648.69508  23837635.340    97611145.16146
  22143980.100   116367863.22908  22143976.540    90676455.04947
  22756033.560   119583846.86608  22756030.660    93182238.94447
  21828174.040   114707919.80109  21828173.500    89382820.51748
  24156426.040   126942821.67308  24156428.680    98916479.06046
 15 03 06 00 12  0.0000000  0  7G16G18G19G21G22G27G31
  20775407.220   109175533.85209  20775404.140    85071840.41448
  22130615.940   116297281.42909  22130613.180    90621296.01647
  23823363.340   125192631.52408  23823360.120    97552690.28646
  22155669.780   116429293.01708  22155666.260    90724322.41247
  22739968.880   119499426.53708  22739965.920    93116456.95647
  21818331.920   114656199.46609  21818331.420    89342518.97448
  24175179.100   127041367.31708  24175181.880    98993267.38646
 15 03 06 00 12 30.0000000  0  7G16G18G19G21G22G27G31
  20767374.520   109133321.64509  20767371.440    85038947.78148
  22124392.700   116264578.21809  22124389.900    90595813.01247
  23809105.460   125117705.87508  23809102.200    97494306.70946
  22167398.260   116490926.67908  22167394.760    90772348.63247
  22723941.420   119415201.86808  22723938.440    93050827.42247
  21808514.680   114604609.74209  21808514.180    89302319.20448
  24193929.180   127139897.30008  24193932.080    99070043.44245
 15 03 06 00 13  0.0000000  0  7G16G18G19G21G22G27G31
  20759421.200   109091526.58009  20759418.120    85006380.19348
  22118251.940   116232308.38509  22118249.100    90570667.69847
  23794865.240   125042872.94008  23794861.740    97435995.37646
  22179165.600   116552764.08208  22179162.020    90820533.61547
  22707952.120   119331177.55608  22707949.060    92985354.00947
  21798722.600   114553152.01509  21798722.100    89262222.28148
  24212676.000   127238410.51308  24212679.080    99146806.43845
 15 03 06 00 13 30.0000000  0  7G16G18G19G21G22G27G31
  20751547.420   109050149.56009  20751544.360    84974138.36448
  22112193.760   116200472.41409  22112190.940    90545860.45947
  23780642.520   124968132.29908  23780639.060    97377755.96946
  22190971.040   116614801.97808  22190967.480    90868874.84147
  22692001.360   119247355.77509  22691998.240    92920038.42647
  21788955.580   114501825.86309  21788955.100    89222227.89948
  24231418.920   127336903.03908  24231422.080    99223553.33246
 15 03 06 00 14  0.0000000  0  7G16G18G19G21G22G27G31
  20743753.540   109009192.30809  20743750.480    84942223.60848
  22106218.380   116169071.41709  22106215.500    90521392.16047
  23766437.380   124893483.33008  23766433.460    97319587.96845
  22202814.400   116677039.10208  22202810.700    90917371.29747
  22676089.500   119163738.27909  22676086.300    92854882.01147
  21779213.600   114450631.14909  21779213.100    89182335.92348
  24250157.420   127435372.33208  24250160.800    99300282.12645
 15 03 06 00 14 30.0000000  0  7G16G18G19G21G22G27G31
  20736039.980   108968656.92409  20736036.860    84910637.59548
  22100326.080   116138107.05309  22100323.120    90497264.09347
  23752249.680   124818926.08008  23752245.520    97261491.45845
  22214695.160   116739473.24108  22214691.420    90966021.27147
  22660217.080   119080328.07509  22660213.760    92789887.11347
  21769496.700   114399568.10609  21769496.200    89142546.54948
  24268890.920   127533815.21408  24268894.460    99376990.25846
 15 03 06 00 15  0.0000000  0  7G16G18G19G21G22G27G31
  20728407.680   108928548.43109  20728404.500    84879384.22748
  22094517.700   116107583.91309  22094514.700    90473479.85447
  23738079.820   124744463.76208  23738075.660    97203468.92445
  22226613.800   116802106.16608  22226610.040    91014826.15247
  22644385.280   118997131.23409  22644381.840    92725058.47948
  21759805.560   114348640.19909  21759805.000    89102862.48848
  24287619.540   127632232.36708  24287623.180    99453678.40445
 15 03 06 00 15 30.0000000  0  7G16G18G19G21G22G27G31
  20720856.500   108888866.39909  20720853.240    84848463.16048
  22088793.060   116077500.72409  22088790.060    90450038.41947
  23723927.500   124670094.19808  23723923.400    97145518.67446
  22238569.360   116864933.02408  22238565.660    91063782.14147
  22628594.120   118914147.90009  22628590.580    92660396.20647
  21750139.660   114297845.13409  21750139.040    89063281.92448
  24306342.240   127730618.47808  24306346.040    99530342.29745
 15 03 06 00 16  0.0000000  0  7G16G18G19G21G22G27G31
  20713387.240   108849614.95809  20713383.940    84817877.61748
  22083152.980   116047861.78009  22083150.000    90426943.14447
  23709793.200   124595819.80208  23709789.600    97087642.56246
  22250561.840   116927954.34708  22250558.420    91112889.65147
  22612844.500   118831382.99909  22612840.860    92595904.13947
  21740499.500   114247185.45409  21740498.820    89023806.85348
  24325058.960   127828973.14608  24325062.840    99606981.74946
 15 03 06 00 16 30.0000000  0  7G16G18G19G21G22G27G31
  20705998.900   108810788.91409  20705995.580    84787623.55748
  22077596.340   116018661.44009  22077593.360    90404189.64447
  23695675.920   124521633.62608  23695672.960    97029835.21946
  22262589.720   116991161.79808  22262586.460    91162142.19647
  22597135.680   118748832.48509  22597131.980    92531579.13947
  21730883.820   114196654.53609  21730883.120    88984432.12248
  24343767.880   127927287.02408  24343771.960    99683589.38445
 15 03 06 00 17  0.0000000  0  7G16G18G19G21G22G27G31
  20698693.140   108772396.89109  20698689.840    84757707.69348
  22072124.640   115989907.53309  22072121.700    90381784.01947
  23681576.700   124447541.97208  23681573.580    96972101.49646
  22274654.040   117054560.62708  22274650.800    91211543.88347
  22581469.380   118666505.60609  22581465.560    92467428.38647
  21721293.860   114146259.10409  21721293.240    88945162.97048
  24362469.780   128025563.91808  24362474.060    99760168.24845
 15 03 06 00 17 30.0000000  0  7G16G18G19G21G22G27G31
  20691469.660   108734437.47109  20691466.380    84728128.92048
  22066737.540   115961598.18709  22066734.660    90359724.80247
  23667495.020   124373542.17808  23667491.720    96914439.35646
  22286753.820   117118145.39208  22286750.560    91261090.43947
  22565845.560   118584401.98109  22565841.680    92403451.59248
  21711729.180   114095996.34709  21711728.560    88905997.19848
  24381163.500   128123797.97008  24381168.000    99836713.83646
 15 03 06 00 18  0.0000000  0  7G16G18G19G21G22G27G31
  20684329.000   108696913.00209  20684325.680    84698889.07048
  22061435.440   115933735.56809  22061432.580    90338013.68447
  23653431.060   124299634.88108  23653427.760    96856849.29146
  22298888.680   117181914.48008  22298885.380    91310780.63847
  22550264.860   118502525.03309  22550260.960    92339651.43348
  21702189.900   114045867.05609  21702189.280    88866935.43148
  24399848.580   128221986.68308  24399853.180    99913224.03146
 15 03 06 00 18 30.0000000  0  7G16G18G19G21G22G27G31
  20677271.680   108659826.28309  20677268.300    84669990.32948
  22056218.720   115906321.64309  22056215.860    90316652.19647
  23639384.780   124225820.63708  23639381.360    96799331.77246
  22311058.540   117245867.38208  22311055.240    91360614.06147
  22534727.940   118420878.09709  22534724.040    92276030.51148
  21692676.220   113995872.16409  21692675.620    88827978.39748
  24418524.620   128320127.95508  24418529.320    99989697.07146
 15 03 06 00 19  0.0000000  0  7G16G18G19G21G22G27G31
  20670298.520   108623182.11709  20670295.140    84641436.42948
  22051088.160   115879360.56009  22051085.320    90295643.57447
  23625356.680   124152102.64308  23625353.300    96741889.20846
  22323263.600   117310005.30008  22323260.320    91410591.65647
  22519235.820   118339466.77409  22519231.920    92212593.17848
  21683188.720   113946014.95509  21683188.060    88789128.62848
  24437191.700   128418221.90008  24437196.600   100066133.02546
 15 03 06 00 19 30.0000000  0  7G16G18G19G21G22G27G31
  20663409.140   108586977.96009  20663405.740    84613225.40048
  22046043.240   115852849.38209  22046040.320    90274985.52747
  23611346.000   124078476.69008  23611342.680    96684518.38646
  22335502.760   117374321.99908  22335499.440    91460708.55847
  22503788.220   118258289.33009  22503784.280    92149338.07648
  21673726.620   113896291.31009  21673725.880    88750382.93749
  24455848.560   128516261.74408  24455853.680   100142526.66846
 15 03 06 00 20  0.0000000  0  7G16G18G19G21G22G27G31
  20656603.720   108551215.43609  20656600.420    84585358.49848
  22041084.180   115826789.29009  22041081.280    90254678.98347
  23597352.880   124004942.58708  23597349.460    96627219.12046
  22347775.560   117438815.42308  22347772.140    91510963.16647
  22488385.660   118177348.36309  22488381.600    92086267.25248
  21664289.880   113846701.35309  21664289.180    88711741.42648
  24474494.700   128614244.74408  24474500.180   100218875.92846
 15 03 06 00 20 30.0000000  0  7G16G18G19G21G22G27G31
  20649882.880   108515897.26509  20649879.600    84557837.84448
  22036211.400   115801182.73009  22036208.560    90234725.82747
  23583377.460   123931501.59308  23583374.040    96569992.42746
  22360081.920   117503485.20608  22360078.320    91561355.19547
  22473028.760   118096647.65809  22473024.680    92023383.64148
  21654878.820   113797246.59809  21654878.200    88673205.24948
  24493129.940   128712169.78108  24493135.560   100295180.18346
 15 03 06 00 21  0.0000000  0  7G16G18G19G21G22G27G31
  20643246.580   108481023.56709  20643243.320    84530663.53648
  22031424.800   115776028.92209  22031421.960    90215125.47348
  23569419.520   123858151.78108  23569416.080    96512836.77746
  22372421.100   117568327.79308  22372417.360    91611881.88847
  22457717.780   118016188.34909  22457713.720    91960688.13948
  21645493.220   113747925.40509  21645492.600    88634773.17148
  24511753.320   128810032.26008  24511759.020   100371435.86845
 15 03 06 00 21 30.0000000  0  7G16G18G19G21G22G27G31
  20636695.840   108446599.38309  20636692.580    84503839.49248
  22026725.280   115751332.43609  22026722.380    90195881.47347
  23555479.480   123784896.59508  23555475.940    96455754.86546
  22384793.460   117633344.66608  22384789.580    91662544.38847
  22442453.860   117935976.20409  22442449.760    91898185.22448
  21636133.680   113698741.14209  21636133.060    88596447.78048
  24530364.860   128907832.64208  24530370.760   100447643.20746
 15 03 06 00 22  0.0000000  0  7G16G18G19G21G22G27G31
  20630230.780   108412625.45009  20630227.580    84477366.29748
  22022112.820   115727093.65309  22022109.820    90176994.11847
  23541557.240   123711735.17108  23541553.460    96398745.97146
  22397198.380   117698533.03708  22397194.540    91713340.51947
  22427237.320   117856012.98909  22427233.200    91835876.27448
  21626800.080   113649693.31109  21626799.460    88558228.70348
  24548963.940   129005568.17807  24548970.040   100523800.32944
 15 03 06 00 22 30.0000000  0  7G16G18G19G21G22G27G31
  20623852.720   108379108.43709  20623849.500    84451249.14248
  22017588.620   115703318.76409  22017585.580    90158468.24647
  23527653.840   123638672.83708  23527649.840    96341814.34146
  22409636.580   117763896.11108  22409632.800    91764272.78946
  22412069.620   117776306.48409  22412065.500    91773767.36748
  21617493.460   113600787.08709  21617492.800    88520119.95748
  24567550.760   129103239.77308  24567557.040   100599907.46345
 15 03 06 00 23  0.0000000  0  7G16G18G19G21G22G27G31
  20617560.220   108346041.21309  20617557.020    84425482.47648
  22013151.120   115679999.52309  22013148.080    90140297.42648
  23513767.600   123565699.94808  23513763.420    96284952.37346
  22422105.940   117829423.27408  22422102.160    91815332.89747
  22396949.540   117696850.13209  22396945.400    91711853.37448
  21608212.120   113552013.86209  21608211.500    88482114.85748
  24586123.240   129200836.33308  24586129.560   100675956.30946
 15 03 06 00 23 30.0000000  0  7G16G18G19G21G22G27G31
  20611354.820   108313431.59209  20611351.600    84400072.37648
  22008801.740   115657143.44209  22008798.740    90122487.50348
  23499899.720   123492823.05008  23499895.780    96228165.21946
  22434607.420   117895118.94708  22434603.680    91866524.32347
  22381878.720   117617652.66209  22381874.600    91650141.10948
  21598957.320   113503380.04609  21598956.740    88444218.39148
  24604682.020   129298361.52308  24604688.520   100751949.59344
 15 03 06 00 24  0.0000000  0  7G16G18G19G21G22G27G31
  20605234.980   108281271.33709  20605231.680    84375012.43548
  22004538.820   115634741.88309  22004535.900    90105031.75747
  23486048.400   123420032.91108  23486044.440    96171445.66246
  22447138.820   117960971.63108  22447135.060    91917838.09647
  22366855.860   117538707.14709  22366851.780    91588625.17448
  21589727.300   113454876.03709  21589726.680    88406423.07248
  24623224.580   129395918.06908  24623232.400   100828009.95646
 15 03 06 00 24 30.0000000  0  7G16G18G19G21G22G27G31
  20599205.540   108249586.06409  20599202.180    84350322.61248
  22000367.220   115612820.05809  22000364.320    90087949.83047
  23472218.040   123347352.91908  23472214.060    96114811.93746
  22459704.280   118027003.23808  22459700.420    91969291.29047
  22351886.000   117460040.02609  22351881.860    91527326.15548
  21580526.600   113406526.19809  21580526.040    88368747.88348
  24641755.380   129493297.07409  24641762.600   100903903.44847
 15 03 06 00 25  0.0000000  0  7G16G18G19G21G22G27G31
  20593262.340   108218354.07709  20593258.920    84325985.99548
  21996282.540   115591354.83109  21996279.600    90071223.68748
  23458404.040   123274759.39708  23458399.880    96058245.60346
  22472298.880   118093188.26008  22472294.980    92020864.03546
  22336965.040   117381630.05109  22336960.900    91466227.52148
  21571350.820   113358306.89109  21571350.260    88331174.40348
  24660269.160   129590586.92708  24660276.620   100979713.63646
 15 03 06 00 25 30.0000000  0  7G16G18G19G21G22G27G31
  20587407.580   108187586.88509  20587404.140    84302011.55148
  21992286.840   115570357.52709  21992283.940    90054862.15647
  23444608.160   123202262.80108  23444604.260    96001754.77646
  22484924.180   118159534.80108  22484920.220    92072562.62846
  22322095.440   117303489.94709  22322091.280    91405339.16948
  21562201.920   113310228.56409  21562201.360    88293710.77748
  24678767.260   129687795.36708  24678774.840   101055460.81241
 15 03 06 00 26  0.0000000  0  6G16G18G19G21G22G27
  20581639.560   108157275.69609  20581636.140    84278392.43448
  21988378.480   115549819.08009  21988375.580    90038858.18848
  23430828.660   123129852.58808  23430824.880    95945331.28647
  22497578.060   118226031.53108  22497574.180    92124378.25446
  22307275.680   117225611.60109  22307271.460    91344654.78448
  21553077.980   113262281.30509  21553077.440    88256349.28348
 15 03 06 00 26 30.0000000  0  6G16G18G19G21G22G27
  20575961.680   108127438.26109  20575958.340    84255142.49048
  21984560.560   115529755.94409  21984557.680    90023224.59148
  23417068.900   123057544.91008  23417064.940    95888987.67046
  22510263.060   118292692.09008  22510259.320    92176321.53847
  22292509.440   117148014.50709  22292505.200    91284189.55748
  21543982.000   113214481.17109  21543981.480    88219102.43648
 15 03 06 00 27  0.0000000  0  6G16G18G19G21G22G27
  20570372.800   108098068.42809  20570369.500    84232256.89748
  21980831.880   115510161.91309  21980829.040    90007956.52148
  23403327.160   122985332.14908  23403323.280    95832718.02346
  22522977.500   118359507.04708  22522973.840    92228385.13547
  22277795.720   117070693.32309  22277791.460    91223939.32548
  21534912.680   113166821.04209  21534912.060    88181964.67148
 15 03 06 00 27 30.0000000  0  6G16G18G19G21G22G27
  20564872.900   108069166.01109  20564869.580    84209735.53148
  21977192.420   115491036.45109  21977189.540    89993053.58048
  23389603.280   122913212.47908  23389599.060    95776520.89646
  22535720.720   118426473.43508  22535717.320    92280566.71946
  22263134.660   116993649.01709  22263130.360    91163904.84048
  21525869.680   113119299.45109  21525869.000    88144934.86448
 15 03 06 00 28  0.0000000  0  6G16G18G19G21G22G27
  20559462.980   108040736.26709  20559459.540    84187582.47548
  21973642.900   115472383.51809  21973640.020    89978518.83848
  23375897.820   122841189.58508  23375893.500    95720399.20146
  22548493.020   118493592.95808  22548489.760    92332867.63646
  22248527.400   116916887.42909  22248523.060    91104090.65648
  21516853.680   113071920.19609  21516853.080    88108015.96848
 15 03 06 00 28 30.0000000  0  6G16G18G19G21G22G27
  20554142.860   108012778.52909  20554139.340    84165797.22648
  21970183.120   115454202.24709  21970180.220    89964351.62548
  23362210.500   122769261.97808  23362206.220    95664351.75046
  22561293.760   118560862.04708  22561290.620    92385285.09647
  22233974.020   116840408.92209  22233969.640    91044497.05948
  21507864.480   113024681.58709  21507863.900    88071206.66448
 15 03 06 00 29  0.0000000  0  6G16G18G19G21G22G27
  20548912.500   107985292.66509  20548908.940    84144379.66548
  21966812.940   115436491.63409  21966809.980    89950551.16448
  23348540.920   122697427.54808  23348536.500    95608376.87246
  22574122.260   118628276.61108  22574119.200    92437815.92147
  22219474.660   116764214.40709  22219470.280    90985124.74148
  21498901.760   112977582.10709  21498901.200    88034505.76948
 15 03 06 00 29 30.0000000  0  6G16G18G19G21G22G27
  20543773.300   107958285.72409  20543769.700    84123335.28348
  21963533.440   115419257.57709  21963530.400    89937122.03948
  23334890.120   122625691.71008  23334885.560    95552478.81847
  22586979.280   118695840.53308  22586976.300    92490463.11347
  22205030.820   116688311.58209  22205026.400    90925979.71948
  21489966.600   112930627.51109  21489965.940    87997917.77248
 15 03 06 00 30  0.0000000  0  6G16G18G19G21G22G27
  20538724.660   107931754.90009  20538721.020    84102661.91649
  21960344.100   115402497.43509  21960341.060    89924062.20548
  23321257.220   122554049.95908  23321252.740    95496654.12646
  22599863.520   118763547.65108  22599860.500    92543221.90147
  22190642.340   116612699.53809  22190637.840    90867061.29248
  21481058.220   112883813.80009  21481057.500    87961439.56448
 15 03 06 00 30 30.0000000  0  6G16G18G19G21G22G27
  20533766.980   107905702.37609  20533763.360    84082361.23948
  21957245.160   115386212.37209  21957242.100    89911372.55548
  23307642.500   122482503.86508  23307637.900    95440903.93547
  22612775.000   118831397.67608  22612772.040    92596092.03847
  22176309.760   116537381.22409  22176305.140    90808371.73048
  21472176.860   112837142.28509  21472176.140    87925072.15848
 15 03 06 00 31  0.0000000  0  6G16G18G19G21G22G27
  20528901.700   107880135.22509  20528898.140    84062438.77248
  21954237.760   115370408.46509  21954234.700    89899057.83348
  23294046.720   122411058.48108  23294042.380    95385232.24746
  22625714.280   118899393.29408  22625711.160    92649075.63346
  22162034.440   116462363.96409  22162029.760    90749916.75348
  21463323.600   112790618.36309  21463322.880    87888819.75148
 15 03 06 00 31 30.0000000  0  6G16G18G19G21G22G27
  20524128.000   107855049.36009  20524124.600    84042891.34648
  21951321.180   115355082.01509  21951318.200    89887115.16348
  23280469.020   122339708.88108  23280465.120    95329635.19247
  22638680.100   118967528.64408  22638676.800    92702168.10647
  22147815.980   116387645.57609  22147811.320    90691694.67548
  21454497.580   112744237.62209  21454496.880    87852678.93048
 15 03 06 00 32  0.0000000  0  6G16G18G19G21G22G27
  20519446.380   107830447.30709  20519443.060    84023720.91348
  21948495.680   115340234.04309  21948492.700    89875545.32748
  23266909.760   122268455.65008  23266906.180    95274113.22347
  22651672.200   119035801.97908  22651668.660    92755368.10646
  22133655.040   116313229.47309  22133650.380    90633708.13948
  21445698.960   112698000.84309  21445698.260    87816650.28048
 15 03 06 00 32 30.0000000  0  6G16G18G19G21G22G27
  20514856.720   107806328.64909  20514853.400    84004927.14248
  21945761.020   115325863.32409  21945758.020    89864347.36448
  23253368.600   122197297.02008  23253365.240    95218664.96547
  22664689.920   119104209.89708  22664686.280    92808672.97146
  22119551.680   116239116.04209  22119547.000    90575957.44448
  21436927.420   112651906.39409  21436926.800    87780732.53348
 15 03 06 00 33  0.0000000  0  6G16G18G19G21G22G27
  20510359.800   107782697.09909  20510356.420    83986512.94548
  21943117.800   115311973.22409  21943114.800    89853523.92648
  23239846.040   122126235.64008  23239842.360    95163292.49847
  22677733.240   119172752.90108  22677729.480    92862083.10546
  22105506.800   116165310.15709  22105502.180    90518446.40748
  21428183.540   112605957.28409  21428183.060    87744928.04048
 15 03 06 00 33 30.0000000  0  6G16G18G19G21G22G27
  20505955.660   107759553.23709  20505952.300    83968478.76248
  21940565.960   115298563.35409  21940562.940    89843074.69148
  23226341.840   122055270.54808  23226337.940    95107995.03847
  22690801.900   119241429.16008  22690798.080    92915597.06646
  22091520.740   116091813.24909  22091516.160    90461176.11648
  21419467.240   112560152.78909  21419466.800    87709236.22848
 15 03 06 00 34  0.0000000  0  6G16G18G19G21G22G27
  20501644.580   107736898.56309  20501641.260    83950825.76448
  21938105.760   115285635.22609  21938102.780    89833000.84148
  23212856.080   121984402.45408  23212852.360    95052773.18047
  22703895.580   119310237.07308  22703891.840    92969213.62247
  22077594.160   116018628.70909  22077589.580    90404149.24148
  21410778.660   112514494.17409  21410778.280    87673658.09748
 15 03 06 00 34 30.0000000  0  6G16G18G19G21G22G27
  20497426.940   107714735.26709  20497423.720    83933555.66348
  21935737.260   115273188.97909  21935734.300    89823302.47148
  23199388.920   121913631.46708  23199385.240    94997626.99247
  22717014.040   119379175.26908  22717010.340    93022931.68446
  22063727.500   115945759.19409  22063722.940    90347367.83248
  21402117.820   112468981.49209  21402117.500    87638193.67148
 15 03 06 00 35  0.0000000  0  6G16G18G19G21G22G27
  20493303.260   107693065.52409  20493300.100    83916670.13948
  21933460.900   115261226.82409  21933457.960    89813981.32348
  23185940.560   121842958.88608  23185936.560    94942557.47347
  22730157.180   119448243.13808  22730153.620    93076750.78947
  22049921.420   115873208.03009  22049916.900    90290834.49048
  21393485.040   112423616.44509  21393484.840    87602844.28148
 15 03 06 00 35 30.0000000  0  6G16G18G19G21G22G27
  20489273.840   107671891.19709  20489270.820    83900170.66148
  21931276.940   115249750.34109  21931273.980    89805038.62448
  23172510.900   121772385.19908  23172506.800    94887565.02747
  22743324.680   119517438.91708  22743321.020    93130669.58446
  22036176.440   115800978.16709  22036172.000    90234551.52448
  21384880.580   112378399.93309  21384880.440    87567610.64248
 15 03 06 00 36  0.0000000  0  6G16G18G19G21G22G27
  20485338.160   107651209.48709  20485335.300    83884055.04148
  21929184.580   115238755.30409  21929181.640    89796471.07148
  23159099.320   121701906.46308  23159095.100    94832646.55447
  22756515.560   119586757.44108  22756511.920    93184683.99646
  22022492.320   115729067.97509  22022487.920    90178517.63948
  21376303.680   112333328.08009  21376303.520    87532489.72448
 15 03 06 00 36 30.0000000  0  6G16G18G19G21G22G27
  20481497.720   107631027.92309  20481494.920    83868329.14349
  21927185.280   115228249.01909  21927182.340    89788284.36448
  23145706.940   121631529.03408  23145702.560    94777807.02147
  22769730.720   119656203.26308  22769727.160    93238797.61946
  22008870.760   115657486.29409  22008866.340    90122739.73948
  21367755.620   112288407.72409  21367755.380    87497486.85348
 15 03 06 00 37  0.0000000  0  6G16G18G19G21G22G27
  20477752.040   107611343.98709  20477749.200    83852991.00948
  21925278.340   115218227.94509  21925275.360    89780475.75148
  23132333.020   121561248.99608  23132328.760    94723043.39647
  22782969.060   119725771.03608  22782965.480    93293006.26946
  21995311.400   115586231.67309  21995307.000    90067216.69248
  21359235.760   112243635.40309  21359235.480    87462599.33648
 15 03 06 00 37 30.0000000  0  6G16G18G19G21G22G27
  20474102.100   107592163.18609  20474099.180    83838044.91649
  21923464.620   115208696.68509  21923461.620    89773048.80348
  23118978.540   121491070.92008  23118974.440    94668359.19947
  22796230.880   119795462.79108  22796227.260    93347311.50846
  21981815.520   115515310.43209  21981811.100    90011953.41248
  21350744.980   112199015.49009  21350744.580    87427830.57148
 15 03 06 00 38  0.0000000  0  6G16G18G19G21G22G27
  20470547.120   107573481.64509  20470544.200    83823487.87149
  21921743.340   115199651.19009  21921740.360    89766000.38048
  23105642.560   121420989.77708  23105638.600    94613750.54947
  22809515.060   119865271.64908  22809511.400    93401708.02346
  21968382.600   115444720.08709  21968378.180    89956947.98548
  21342282.420   112154543.64609  21342281.880    87393177.20148
 15 03 06 00 38 30.0000000  0  6G16G18G19G21G22G27
  20467087.820   107555302.56509  20467084.860    83809322.34449
  21920114.860   115191093.46209  21920111.920    89759332.02648
  23092325.340   121351007.42908  23092321.480    94559218.87047
  22822821.700   119935198.57408  22822818.160    93456196.52446
  21955013.440   115374464.96809  21955009.080    89902203.76848
  21333848.440   112110221.91309  21333847.760    87358640.79348
 15 03 06 00 39  0.0000000  0  6G16G18G19G21G22G27
  20463724.780   107537629.25809  20463721.740    83795550.92748
  21918579.720   115183026.10209  21918576.720    89753045.77848
  23079027.340   121281126.14608  23079023.460    94504765.92847
  22836150.800   120005243.42008  22836147.220    93510776.92246
  21941708.900   115304549.31809  21941704.580    89847724.06748
  21325443.520   112066052.77709  21325442.620    87324223.29148
 15 03 06 00 39 30.0000000  0  6G16G18G19G21G22G27
  20460457.340   107520458.65309  20460454.280    83782171.23549
  21917137.180   115175445.43509  21917134.120    89747138.78148
  23065747.860   121211341.85308  23065743.800    94450388.57747
  22849501.340   120075400.67708  22849497.840    93565444.90546
  21928468.640   115234971.36809  21928464.280    89793507.51548
  21317066.880   112022032.49109  21317065.740    87289921.77748
 15 03 06 00 40  0.0000000  0  6G16G18G19G21G22G27
  20457286.520   107503795.92609  20457283.420    83769187.28448
  21915788.060   115168355.86709  21915784.980    89741614.44448
  23052487.440   121141658.25608  23052483.200    94396089.68547
  22862873.640   120145672.59008  22862870.180    93620202.23046
  21915293.900   115165737.57709  21915289.460    89739559.12748
  21308719.280   111978165.27609  21308717.980    87255739.53848
 15 03 06 00 40 30.0000000  0  6G16G18G19G21G22G27
  20454212.480   107487641.61809  20454209.400    83756599.51449
  21914532.380   115161757.12109  21914529.260    89736472.58148
  23039246.120   121072075.23908  23039241.960    94341869.20347
  22876267.240   120216056.75908  22876263.760    93675047.03546
  21902184.980   115096849.70009  21902180.480    89685880.29948
  21300400.780   111934451.30209  21300399.440    87221676.71648
 15 03 06 00 41  0.0000000  0  6G16G18G19G21G22G27
  20451235.500   107471997.43609  20451232.440    83744409.23749
  21913370.180   115155649.73209  21913367.140    89731713.58348
  23026024.040   121002593.30208  23026019.940    94287727.45747
  22889682.060   120286552.41908  22889678.640    93729978.70646
  21889142.380   115028310.41209  21889137.800    89632473.08448
  21292111.500   111890891.29709  21292110.220    87187733.84848
 15 03 06 00 41 30.0000000  0  6G16G18G19G21G22G27
  20448354.800   107456859.24209  20448351.720    83732613.23849
  21912300.640   115150029.28209  21912297.620    89727334.01648
  23012820.360   120933207.38208  23012816.280    94233660.52547
  22903116.740   120357152.24608  22903113.360    93784991.54646
  21876165.580   114960117.10909  21876160.980    89579335.47048
  21283850.600   111847480.50509  21283849.440    87153907.25948
 15 03 06 00 42  0.0000000  0  6G16G18G19G21G22G27
  20445571.660   107442233.69509  20445568.560    83721216.71248
  21911324.920   115144901.85509  21911321.880    89723338.63448
  22999636.180   120863923.19408  22999631.940    94179672.88547
  22916572.040   120427860.81108  22916568.800    93840089.11946
  21863256.140   114892277.63309  21863251.500    89526473.57148
  21275619.240   111804225.00709  21275618.220    87120201.68348
 15 03 06 00 42 30.0000000  0  6G16G18G19G21G22G27
  20442885.940   107428119.92109  20442882.760    83710218.96049
  21910442.720   115140265.69509  21910439.640    89719726.05048
  22986471.060   120794738.92108  22986466.440    94125763.08647
  22930047.340   120498674.06408  22930044.200    93895268.26746
  21850414.020   114824791.96309  21850409.360    89473887.37048
  21267417.100   111761123.10409  21267416.280    87086615.79048
 15 03 06 00 43  0.0000000  0  6G16G18G19G21G22G27
  20440298.420   107414522.05609  20440295.160    83699623.21749
  21909654.540   115136123.78909  21909651.480    89716498.59948
  22973325.480   120725657.43108  22973320.740    94071933.37647
  22943542.760   120569593.10108  22943539.620    93950529.85046
  21837640.240   114757665.33009  21837635.540    89421580.92748
  21259244.820   111718178.22409  21259244.220    87053152.24748
 15 03 06 00 43 30.0000000  0  6G16G18G19G21G22G27
  20437809.100   107401440.55209  20437805.860    83689429.83148
  21908960.400   115132476.05609  21908957.360    89713656.22648
  22960199.240   120656678.39308  22960194.420    94018183.50548
  22957058.020   120640616.21708  22957054.900    94005872.52946
  21824935.160   114690899.79009  21824930.440    89369555.85748
  21251102.460   111675390.22409  21251101.960    87019810.95148
 15 03 06 00 44  0.0000000  0  6G16G18G19G21G22G27
  20435417.920   107388874.70109  20435414.660    83679638.25948
  21908359.980   115129320.91909  21908356.960    89711197.68648
  22947092.200   120587800.56408  22947087.400    93964512.50647
  22970592.420   120711739.89808  22970589.180    94061293.57146
  21812298.960   114624496.10209  21812294.240    89317812.75948
  21242989.820   111632758.20309  21242989.400    86986591.20048
 15 03 06 00 44 30.0000000  0  6G16G18G19G21G22G27
  20433125.240   107376826.59409  20433121.960    83670250.10949
  21907853.580   115126659.84509  21907850.580    89709124.13448
  22934004.580   120519024.80908  22933999.800    93910921.03147
  22984145.880   120782963.84508  22984142.540    94116792.75146
  21799732.160   114558457.20209  21799727.400    89266353.90048
  21234907.140   111590283.42509  21234906.780    86953493.96648
 15 03 06 00 45  0.0000000  0  6G16G18G19G21G22G27
  20430931.640   107365299.28209  20430928.360    83661267.78449
  21907441.660   115124495.03909  21907438.560    89707437.28248
  22920936.680   120450353.21408  22920931.940    93857410.73147
  22997718.460   120854288.42108  22997715.160    94172370.32246
  21787235.520   114492787.20909  21787230.720    89215182.50448
  21226854.860   111547968.22109  21226854.500    86920521.08048
 15 03 06 00 45 30.0000000  0  6G16G18G19G21G22G27
  20428836.240   107354287.99409  20428833.000    83652687.56448
  21907123.060   115122820.70309  21907119.900    89706132.61948
  22907887.440   120381780.01708  22907882.720    93803977.10347
  23011308.840   120925706.21008  23011305.560    94228020.55046
  21774808.480   114427482.88109  21774803.640    89164296.04948
  21218831.980   111505807.43709  21218831.600    86887668.52948
 15 03 06 00 46  0.0000000  0  6G16G18G19G21G22G27
  20426840.820   107343802.23309  20426837.620    83644516.83749
  21906899.480   115121645.67509  21906896.280    89705217.02548
  22894858.600   120313314.12008  22894854.140    93750627.08247
  23024918.260   120997224.16408  23024914.900    94283748.82146
  21762453.060   114362554.91009  21762448.200    89113702.85248
  21210840.220   111463810.08909  21210839.760    86854943.32348
 15 03 06 00 46 30.0000000  0  7G04G16G18G19G21G22G27
  24585314.320   129196703.74508  24585320.120   100672758.40045
  20424944.200   107333835.54009  20424940.980    83636750.57348
  21906769.520   115120962.59109  21906766.300    89704684.76648
  22881848.940   120244948.35508  22881844.540    93697355.07247
  23038545.020   121068832.93708  23038541.460    94339547.85946
  21750168.260   114297998.07109  21750163.400    89063398.85048
  21202878.320   111421969.26809  21202877.720    86822340.09248
 15 03 06 00 47  0.0000000  0  7G04G16G18G19G21G22G27
  24566035.000   129095392.31808  24566040.700   100593815.04045
  20423150.960   107324412.20809  20423147.760    83629407.71648
  21906737.680   115120795.30509  21906734.440    89704554.42248
  22868862.880   120176706.25508  22868858.400    93644179.43048
  23052193.340   121140554.94308  23052189.680    94395435.13246
  21737958.920   114233837.75409  21737954.060    89013403.82848
  21194950.740   111380308.85009  21194950.020    86789877.43748
 15 03 06 00 47 30.0000000  0  7G04G16G18G19G21G22G27
  24546779.400   128994205.63208  24546785.380   100514968.82244
  20421453.720   107315493.15209  20421450.480    83622457.79848
  21906796.420   115121103.63909  21906793.120    89704794.69648
  22855892.700   120108547.95608  22855888.300    93591069.08147
  23065855.280   121212348.44208  23065851.520    94451378.11046
  21725817.940   114170036.69109  21725813.080    88963688.74548
  21187049.920   111338789.33509  21187049.040    86757524.56848
 15 03 06 00 48  0.0000000  0  7G04G16G18G19G21G22G27
  24527551.680   128893165.43608  24527557.660   100436236.70844
  20419856.560   107307099.83509  20419853.280    83615917.54448
  21906949.600   115121908.46609  21906946.220    89705421.83648
  22842942.380   120040494.10108  22842938.160    93538040.12848
  23079534.420   121284232.43208  23079530.680    94507391.61346
  21713749.580   114106617.17309  21713744.740    88914270.95748
  21179179.860   111297431.73309  21179178.840    86725297.86548
 15 03 06 00 48 30.0000000  0  7G04G16G18G19G21G22G27
  24508351.980   128792272.18408  24508357.860   100357619.07944
  20418359.480   107299232.51909  20418356.200    83609787.16148
  21907197.120   115123209.00809  21907193.700    89706435.26248
  22830011.820   119972543.95208  22830007.900    93485091.98848
  23093230.280   121356204.46808  23093226.540    94563473.70846
  21701754.060   114043580.57709  21701749.300    88865151.55648
  21171340.500   111256235.95209  21171339.480    86693197.25748
 15 03 06 00 49  0.0000000  0  7G04G16G18G19G21G22G27
  24489180.880   128691528.91408  24489186.700   100279118.31045
  20416962.960   107291893.77009  20416959.680    83604068.65748
  21907539.200   115125006.57509  21907535.760    89707835.98048
  22817101.400   119904699.67508  22817097.540    93432226.31547
  23106942.940   121428265.05608  23106939.300    94619624.80446
  21689832.260   113980931.10309  21689827.520    88816333.81348
  21163532.340   111215204.14909  21163531.300    86661224.43348
 15 03 06 00 49 30.0000000  0  7G04G16G18G19G21G22G27
  24470037.940   128590934.04008  24470043.480   100200733.12644
  20415666.720   107285082.04909  20415663.480    83598760.81648
  21907975.640   115127299.88009  21907972.200    89709622.98148
  22804210.540   119836959.33808  22804206.840    93379441.64948
  23120671.740   121500410.38708  23120668.140    94675841.94546
  21677984.100   113918668.71209  21677979.360    88767817.69148
  21155755.080   111174334.77109  21155754.040    86629378.16348
 15 03 06 00 50  0.0000000  0  7G04G16G18G19G21G22G27
  24450924.000   128490491.32808  24450929.220   100122466.65345
  20414471.340   107278800.38409  20414468.120    83593866.00748
  21908506.700   115130090.76409  21908503.240    89711797.70248
  22791339.920   119769325.15308  22791336.460    93326739.70348
  23134416.700   121572640.93108  23134413.020    94732125.47546
  21666210.400   113856797.61609  21666205.680    88719606.47448
  21148009.180   111133630.37509  21148008.260    86597660.45448
 15 03 06 00 50 30.0000000  0  7G04G16G18G19G21G22G27
  24431838.400   128390197.58408  24431843.540   100044316.19545
  20413376.300   107273045.88109  20413373.080    83589381.97449
  21909131.660   115133375.38709  21909128.240    89714357.16748
  22778488.940   119701793.48608  22778485.660    93274117.64548
  23148176.960   121644951.34908  23148173.380    94788471.24346
  21654510.840   113795316.04009  21654506.120    88671698.77348
  21140294.040   111093087.67109  21140293.280    86566068.74148
 15 03 06 00 51  0.0000000  0  7G04G16G18G19G21G22G27
  24412782.360   128290059.09108  24412787.260    99966286.68345
  20412382.640   107267824.37309  20412379.460    83585313.25648
  21909851.520   115137158.88909  21909848.240    89717305.35248
  22765658.580   119634369.47308  22765655.460    93221579.45548
  23161953.140   121717345.52908  23161949.660    94844882.27946
  21642886.740   113734231.06409  21642882.060    88624100.10848
  21132610.840   111052712.40609  21132610.120    86534607.49348
 15 03 06 00 51 30.0000000  0  7G04G16G18G19G21G22G27
  24393755.460   128190073.59108  24393760.140    99888376.31945
  20411489.940   107263133.33709  20411486.820    83581657.89349
  21910665.680   115141437.79109  21910662.520    89720639.57048
  22752848.200   119567050.27208  22752845.040    93169122.93948
  23175744.320   121789818.48308  23175740.860    94901354.69446
  21631337.940   113673541.80209  21631333.260    88576809.79548
  21124959.000   111012501.76809  21124958.260    86503274.52248
 15 03 06 00 52  0.0000000  0  7G04G16G18G19G21G22G27
  24374758.260   128090244.19008  24374762.820    99810587.64245
  20410698.720   107258975.52909  20410695.660    83578418.03949
  21911574.460   115146213.76409  21911571.400    89724361.11248
  22740058.020   119499837.89308  22740054.800    93116749.67748
  23189550.540   121862370.67708  23189547.100    94957888.85446
  21619865.160   113613252.12509  21619860.520    88529830.84948
  21117339.020   110972458.32209  21117338.240    86472071.84348
 15 03 06 00 52 30.0000000  0  7G04G16G18G19G21G22G27
  24355790.800   127990570.84408  24355795.160    99732920.55644
  20410008.900   107255350.44509  20410005.840    83575593.29448
  21912577.740   115151486.24109  21912574.740    89728469.55048
  22727288.080   119432731.52408  22727284.780    93064459.00848
  23203371.320   121934999.41808  23203367.800    95014482.67946
  21608468.560   113553362.74809  21608463.940    88483163.83248
  21109750.700   110932581.44709  21109749.940    86440998.96348
 15 03 06 00 53  0.0000000  0  7G04G16G18G19G21G22G27
  24336853.640   127891056.91008  24336857.780    99655377.69045
  20409421.120   107252261.39609  20409418.020    83573186.23549
  21913675.820   115157256.91609  21913672.880    89732966.18248
  22714538.860   119365733.93108  22714535.560    93012253.10848
  23217206.900   122007705.75108  23217203.420    95071136.95446
  21597149.080   113493878.49809  21597144.480    88436812.49348
  21102194.620   110892874.14409  21102193.980    86410058.21248
 15 03 06 00 53 30.0000000  0  7G04G16G18G19G21G22G27
  24317946.700   127791701.81508  24317950.760    99577958.61445
  20408935.120   107249707.33309  20408932.020    83571196.04648
  21914868.340   115163524.05309  21914865.500    89737849.67748
  22701809.900   119298843.37508  22701806.820    92960130.61748
  23231056.740   122080486.70408  23231053.260    95127849.38146
  21585906.820   113434799.91809  21585902.160    88390777.25448
  21094670.600   110853335.35409  21094670.120    86379248.77648
 15 03 06 00 54  0.0000000  0  7G04G16G18G19G21G22G27
  24299070.420   127692508.29108  24299074.380    99500665.43445
  20408551.300   107247690.25409  20408548.220    83569624.28748
  21916155.700   115170289.49609  21916152.880    89743121.45548
  22689101.680   119232061.95908  22689098.740    92908093.18348
  23244920.680   122153342.47908  23244917.200    95184620.09646
  21574742.420   113376130.44209  21574737.760    88345060.80448
  21087179.060   110813967.34309  21087178.700    86348572.40548
 15 03 06 00 54 30.0000000  0  7G04G16G18G19G21G22G27
  24280224.600   127593474.78508  24280228.300    99423496.89045
  20408269.420   107246208.75909  20408266.340    83568469.87249
  21917537.360   115177550.23209  21917534.500    89748779.18448
  22676413.920   119165387.33808  22676410.880    92856138.94748
  23258798.060   122226268.73808  23258794.700    95241445.73446
  21563655.740   113317869.61609  21563651.100    88299662.78148
  21079719.700   110774768.14409  21079719.420    86318027.58148
 15 03 06 00 55  0.0000000  0  7G04G16G18G19G21G22G27
  24261409.660   127494603.77908  24261413.320    99346455.04145
  20408089.860   107245264.98109  20408086.760    83567734.44649
  21919013.620   115185307.86709  21919010.760    89754824.09948
  22663746.820   119098821.07608  22663743.640    92804269.15148
  23272688.900   122299265.64408  23272685.680    95298326.42646
  21552647.480   113260020.84109  21552642.780    88254585.82748
  21072292.840   110735739.76309  21072292.600    86287615.84948
 15 03 06 00 55 30.0000000  0  7G04G16G18G19G21G22G27
  24242625.880   127395896.65508  24242629.680    99269540.84445
  20408012.740   107244859.52409  20408009.580    83567418.50149
  21920584.500   115193562.72409  21920581.620    89761256.46348
  22651100.360   119032363.65108  22651097.260    92752484.17948
  23286593.080   122372332.47508  23286589.740    95355261.61646
  21541718.080   113202586.56109  21541713.360    88209831.87648
  21064898.660   110696883.24509  21064898.440    86257338.04548
 15 03 06 00 56  0.0000000  0  7G04G16G18G19G21G22G27
  24223873.340   127297353.27708  24223876.980    99192754.21545
  20408037.960   107244992.09809  20408034.800    83567521.79948
  21922249.780   115202313.38609  21922246.840    89768075.17248
  22638474.600   118966014.66608  22638471.500    92700783.70048
  23300509.940   122445466.23008  23300506.580    95412248.93846
  21530867.700   113145567.70809  21530863.000    88165401.62148
  21057537.060   110658198.10709  21057536.900    86227193.78648
 15 03 06 00 56 30.0000000  0  7G04G16G18G19G21G22G27
  24205152.820   127198977.93308  24205156.420    99116098.50645
  20408166.200   107245666.06609  20408163.040    83568046.95448
  21924009.900   115211562.28209  21924006.840    89775282.10948
  22625870.120   118899777.44008  22625866.940    92649170.29248
  23314439.920   122518669.00608  23314436.680    95469290.04146
  21520097.360   113088969.18709  21520092.680    88121298.89548
  21050208.820   110619688.18709  21050208.660    86197186.05148
 15 03 06 00 57  0.0000000  0  7G04G16G18G19G21G22G27
  24186463.400   127100765.82608  24186466.660    99039570.04045
  20408396.560   107246876.61409  20408393.420    83568990.23148
  21925863.700   115221303.54409  21925860.460    89782872.71348
  22613285.680   118833646.20808  22613282.540    92597639.49648
  23328381.600   122591933.23608  23328378.540    95526379.04046
  21509406.280   113032787.12409  21509401.600    88077520.68548
  21042912.880   110581348.00009  21042912.640    86167310.58448
