     2.11           OBSERVATION DATA    G                   RINEX VERSION / TYPE
SPIDER V4,0,0,3554                      2015 03 16 02:19    PGM / RUN BY / DATE 
OLHC                                                        MARKER NAME         
OLHC                                                        MARKER NUMBER       
                                                            OBSERVER / AGENCY   
496563              LEICA GRX1200+GNSS  8.20/4.007          REC # / TYPE / VERS 
10401012            LEIAR25         NONE                    ANT # / TYPE        
  5213038.6056  -137570.4416  3660672.8464                  APPROX POSITION XYZ 
        0.0750        0.0000        0.0000                  ANTENNA: DELTA H/E/N
     1     1                                                WAVELENGTH FACT L1/2
     4    C1    L1    P2    L2                              # / TYPES OF OBSERV 
    30.000                                                  INTERVAL            
  2015    03    06    00    00    0.0000000     GPS         TIME OF FIRST OBS   
  2015    03    06    23    59   30.0000000     GPS         TIME OF LAST OBS    
    16                                                      LEAP SECONDS        
    30                                                      # OF SATELLITES     
   G 1   841   841   841   841                              PRN / # OF OBS      
   G 2   914   914   914   914                              PRN / # OF OBS      
   G 3   834   834   833   833                              PRN / # OF OBS      
   G 4   848   847   847   847                              PRN / # OF OBS      
   G 5   684   684   684   684                              PRN / # OF OBS      
   G 6   647   647   647   647                              PRN / # OF OBS      
   G 7   778   778   778   778                              PRN / # OF OBS      
   G 9   771   771   771   771                              PRN / # OF OBS      
   G10   795   795   795   795                              PRN / # OF OBS      
   G11   808   808   808   808                              PRN / # OF OBS      
   G12   802   802   802   802                              PRN / # OF OBS      
   G13   832   832   832   832                              PRN / # OF OBS      
   G14   921   910   898   898                              PRN / # OF OBS      
   G15   746   746   745   745                              PRN / # OF OBS      
   G16   706   706   705   705                              PRN / # OF OBS      
   G17   922   922   922   922                              PRN / # OF OBS      
   G18   947   946   945   945                              PRN / # OF OBS      
   G19   803   803   803   803                              PRN / # OF OBS      
   G20   803   802   802   802                              PRN / # OF OBS      
   G21   701   701   701   701                              PRN / # OF OBS      
   G22   838   838   838   838                              PRN / # OF OBS      
   G23   716   716   716   716                              PRN / # OF OBS      
   G24   848   845   842   842                              PRN / # OF OBS      
   G25   855   855   855   855                              PRN / # OF OBS      
   G27   841   841   841   841                              PRN / # OF OBS      
   G28   924   922   922   922                              PRN / # OF OBS      
   G29   731   731   730   730                              PRN / # OF OBS      
   G30   682   682   681   681                              PRN / # OF OBS      
   G31   736   731   729   724                              PRN / # OF OBS      
   G32   727   727   727   727                              PRN / # OF OBS      
BIT 2 OF LLI FLAGS DATA COLLECTED UNDER A/S CONDITION       COMMENT             
SNR is mapped to RINEX snr flag value [2-9]                 COMMENT             
Lx:     = 25dBHz -> 1; 26-27dBHz -> 2; 28-31dBHz -> 3       COMMENT             
       32-35dBHz -> 4; 36-38dBHz -> 5; 39-41dBHz -> 6       COMMENT             
       42-44dBHz -> 7; 45-48dBHz -> 8; >=49dBHz -> 9        COMMENT             
                                                            END OF HEADER       
 15 03 06 00 00  0.0000000  0  7G16G18G19G21G22G27G31
  20932276.380   109999871.33909  20932273.000    85714187.43348
  22457924.040   118017326.46009  22457920.600    91961612.84446
  23956281.740   125891123.84408  23956277.980    98096977.75846
  21999829.600   115610319.93309  21999826.080    90086154.60647
  23191833.360   121874138.76908  23191830.700    94966950.36546
  21914193.240   115160009.92409  21914192.920    89735133.18448
  23645193.180   124256306.95908  23645195.500    96823095.40047
 15 03 06 00 00 30.0000000  0  7G16G18G19G21G22G27G31
  20922841.820   109950292.49709  20922838.420    85675554.57348
  22449985.040   117975606.52409  22449981.540    91929103.82346
  23941908.880   125815593.80508  23941905.060    98038123.24746
  22010958.140   115668800.87909  22010954.580    90131724.16647
  23175386.580   121787710.82509  23175383.800    94899604.04446
  21904473.700   115108933.02609  21904473.300    89695333.01648
  23664063.400   124355470.10808  23664065.600    96900365.51245
 15 03 06 00 01  0.0000000  0  7G16G18G19G21G22G27G31
  20913475.760   109901073.40609  20913472.340    85637202.04748
  22442119.180   117934271.42409  22442115.720    91896894.69547
  23927557.140   125740175.06308  23927553.260    97979355.47046
  22022134.380   115727532.68508  22022130.860    90177489.21647
  23158964.460   121701412.12009  23158961.480    94832358.44346
  21894781.260   115057998.88209  21894780.820    89655644.10348
  23682945.500   124454696.53708  23682947.700    96977685.30247
 15 03 06 00 01 30.0000000  0  7G16G18G19G21G22G27G31
  20904178.760   109852217.05509  20904175.260    85599132.16948
  22434327.140   117893324.10609  22434323.740    91864987.72147
  23913226.680   125664868.42908  23913222.860    97920675.05446
  22033358.380   115786515.39009  22033354.900    90223449.77147
  23142567.700   121615246.64808  23142564.400    94765216.65746
  21885116.180   115007208.43609  21885115.700    89616067.15248
  23701838.860   124553983.16408  23701841.120    97055051.63646
 15 03 06 00 02  0.0000000  0  7G16G18G19G21G22G27G31
  20894949.920   109803718.84509  20894946.320    85561341.36048
  22426608.160   117852760.39809  22426604.780    91833379.65747
  23898916.300   125589667.66808  23898912.520    97862077.11946
  22044628.500   115845740.14609  22044624.960    90269598.92247
  23126195.500   121529210.87408  23126191.980    94698175.92746
  21875477.180   114956555.37709  21875476.760    89576597.25548
  23720741.940   124653321.63508  23720744.440    97132458.47047
 15 03 06 00 02 30.0000000  0  7G16G18G19G21G22G27G31
  20885789.860   109755582.18209  20885786.180    85523832.27648
  22418962.740   117812583.01609  22418959.420    91802072.63147
  23884626.300   125514574.00208  23884622.540    97803562.63446
  22055944.460   115905205.84709  22055940.860    90315935.82547
  23109848.660   121443308.42508  23109845.000    94631239.08746
  21865864.480   114906040.72609  21865864.140    89537235.21448
  23739654.480   124752709.76608  23739657.120    97209904.14646
 15 03 06 00 03  0.0000000  0  7G16G18G19G21G22G27G31
  20876700.160   109707815.60909  20876696.500    85486611.57048
  22411392.380   117772799.98309  22411389.000    91771072.88547
  23870357.800   125439593.58208  23870354.120    97745136.38046
  22067307.240   115964917.38809  22067303.600    90362464.29348
  23093529.000   121357548.69508  23093525.260    94564413.44846
  21856279.420   114855670.89109  21856279.040    89497985.99948
  23758577.300   124852151.16808  23758579.780    97287391.15546
 15 03 06 00 03 30.0000000  0  7G16G18G19G21G22G27G31
  20867679.760   109660413.10809  20867676.120    85449674.55648
  22403896.060   117733406.34009  22403892.660    91740376.56747
  23856109.460   125364718.81208  23856105.940    97686792.46046
  22078715.040   116024865.47709  22078711.360    90409177.08947
  23077235.560   121271926.80208  23077231.720    94497695.22546
  21846720.560   114805438.34309  21846720.080    89458843.77348
  23777508.460   124951635.29308  23777510.600    97364911.35945
 15 03 06 00 04  0.0000000  0  7G16G18G19G21G22G27G31
  20858729.960   109613381.45009  20858726.320    85413026.50748
  22396474.900   117694407.99709  22396471.500    91709988.26847
  23841882.160   125289954.45508  23841878.760    97628534.57546
  22090168.380   116085053.02209  22090164.700    90456076.47147
  23060969.720   121186449.78808  23060965.860    94431089.88646
  21837188.660   114755347.73109  21837188.100    89419812.14648
  23796448.220   125051163.88608  23796449.840    97442466.11346
 15 03 06 00 04 30.0000000  0  7G16G18G19G21G22G27G31
  20849850.660   109566720.39809  20849847.080    85376667.24848
  22389128.860   117655804.66409  22389125.580    91679907.76547
  23827675.440   125215298.26808  23827672.120    97570360.96046
  22101666.440   116145475.22509  22101662.640    90503158.70347
  23044731.720   121101118.62709  23044727.840    94364598.19347
  21827683.400   114705396.73809  21827682.600    89380889.31048
  23815395.440   125150731.83108  23815396.760    97520051.46746
 15 03 06 00 05  0.0000000  0  7G16G18G19G21G22G27G31
  20841042.540   109520433.33909  20841039.040    85340599.40748
  22381858.440   117617598.97909  22381855.320    91650137.12847
  23813489.600   125140751.59408  23813486.440    97512272.69846
  22113209.100   116206131.96109  22113205.240    90550423.69447
  23028522.280   121015937.27409  23028518.480    94298223.23447
  21818204.900   114655586.80509  21818203.960    89342076.39248
  23834349.740   125250337.40008  23834351.120    97597665.81546
 15 03 06 00 05 30.0000000  0  7G16G18G19G21G22G27G31
  20832305.320   109474519.24309  20832301.920    85304822.18148
  22374663.540   117579790.11809  22374660.520    91620675.69547
  23799323.980   125066311.18408  23799320.940    97454267.25746
  22124795.340   116267017.89209  22124791.420    90597867.27347
  23012341.320   120930905.41609  23012337.540    94231964.75247
  21808752.620   114605914.91709  21808751.660    89303371.05148
  23853310.080   125349974.78008  23853311.800    97675304.84746
 15 03 06 00 06  0.0000000  0  7G16G18G19G21G22G27G31
  20823639.860   109428982.31309  20823636.560    85269338.85848
  22367544.980   117542382.20409  22367542.000    91591526.69347
  23785179.180   124991979.38808  23785175.860    97396346.42646
  22136425.360   116328134.05409  22136421.380    90645490.25647
  22996189.680   120846027.90409  22996186.060    94165826.54647
  21799327.100   114556383.30209  21799326.080    89264775.00648
  23872276.540   125449643.69008  23872278.640    97752968.48745
 15 03 06 00 06 30.0000000  0  7G16G18G19G21G22G27G31
  20815046.640   109383825.03409  20815043.420    85234151.35548
  22360503.200   117505377.90409  22360500.260    91562692.18647
  23771055.240   124917757.03308  23771051.620    97338510.87046
  22148098.860   116389478.81609  22148094.800    90693291.35947
  22980068.060   120761308.57709  22980064.640    94099811.58847
  21789928.340   114506992.76809  21789927.400    89226288.88648
  23891248.760   125549342.10709  23891251.200    97830655.08448
 15 03 06 00 07  0.0000000  0  7G16G18G19G21G22G27G31
  20806526.200   109339049.91709  20806522.980    85199261.64748
  22353538.540   117468778.84209  22353535.640    91534173.46347
  23756952.120   124843644.27708  23756948.340    97280760.74246
  22159815.640   116451051.08908  22159811.580    90741269.75647
  22963977.020   120676750.22909  22963973.800    94033922.06647
  21780556.500   114457743.58809  21780555.620    89187912.91848
  23910226.240   125649067.52209  23910228.960    97908362.78648
 15 03 06 00 07 30.0000000  0  7G16G18G19G21G22G27G31
  20798080.120   109294665.51709  20798076.920    85164676.40048
  22346652.600   117432593.35409  22346649.660    91505977.00147
  23742871.140   124769647.70708  23742867.180    97223101.14546
  22171576.300   116512854.19208  22171572.320    90789428.02647
  22947918.340   120592362.12709  22947915.260    93968165.21847
  21771212.840   114408642.48809  21771212.020    89149652.34148
  23929209.660   125748823.64009  23929213.380    97986127.32248
 15 03 06 00 08  0.0000000  0  7G16G18G19G21G22G27G31
  20789706.440   109250661.46609  20789703.180    85130387.52548
  22339843.500   117396811.24709  22339840.440    91478094.85247
  23728809.940   124695755.27708  23728805.760    97165522.65946
  22183378.520   116574875.77909  22183374.680    90837756.52747
  22931890.240   120508135.07809  22931887.200    93902533.86047
  21761895.020   114359677.33209  21761894.280    89111497.69248
  23948196.080   125848595.60408  23948199.860    98063875.35845
 15 03 06 00 08 30.0000000  0  7G16G18G19G21G22G27G31
  20781406.880   109207046.79509  20781403.540    85096402.06348
  22333112.860   117361441.36109  22333109.740    91450533.91847
  23714769.780   124621974.35308  23714765.600    97108031.07946
  22195223.220   116637120.30009  22195219.480    90886258.74547
  22915894.760   120424079.14808  22915891.560    93837035.83347
  21752604.460   114310855.25109  21752603.680    89073454.53148
  23967186.240   125948387.71908  23967189.420    98141634.90346
 15 03 06 00 09  0.0000000  0  7G16G18G19G21G22G27G31
  20773180.740   109163817.79609  20773177.260    85062717.12548
  22326459.760   117326478.93009  22326456.520    91423290.49247
  23700749.680   124548298.79508  23700745.600    97050621.60446
  22207108.900   116699579.89908  22207105.220    90934928.55847
  22899931.180   120340190.73408  22899927.780    93771668.34847
  21743340.080   114262170.38009  21743339.260    89035518.27448
  23986178.420   126048190.78208  23986181.320    98219403.06344
 15 03 06 00 09 30.0000000  0  7G16G18G19G21G22G27G31
  20765029.560   109120982.50409  20765025.880    85029338.97348
  22319885.720   117291932.33909  22319882.360    91396371.09247
  23686750.760   124474734.44408  23686746.840    96993298.78346
  22219036.320   116762258.81708  22219032.620    90983769.27647
  22884001.240   120256479.14909  22883997.620    93706438.65047
  21734102.960   114213629.01309  21734102.180    88997693.84848
  24005173.380   126148008.25208  24005176.120    98297181.96646
 15 03 06 00 10  0.0000000  0  7G16G18G19G21G22G27G31
  20756952.800   109078538.53609  20756949.040    84996265.74648
  22313390.200   117257798.71409  22313386.860    91369773.47847
  23672772.260   124401277.38808  23672768.380    96936059.55146
  22231004.340   116825151.04709  22231000.600    91032776.20447
  22868104.740   120172942.66709  22868100.920    93641345.38847
  21724892.320   114165226.87009  21724891.580    88959977.89748
  24024169.980   126247833.49207  24024172.760    98374967.19645
 15 03 06 00 10 30.0000000  0  7G16G18G19G21G22G27G31
  20748951.340   109036490.48009  20748947.600    84963501.03148
  22306974.160   117224082.51409  22306970.900    91343501.13247
  23658814.680   124327930.20208  23658810.780    96878905.93246
  22243013.160   116888257.58609  22243009.400    91081950.13147
  22852242.540   120089586.58709  22852238.680    93576392.70147
  21715708.640   114116966.73209  21715708.040    88922372.61348
  24043168.160   126347665.99908  24043170.940    98452757.96347
 15 03 06 00 11  0.0000000  0  7G16G18G19G21G22G27G31
  20741024.980   108994837.39009  20741021.320    84931044.08148
  22300637.300   117190782.30009  22300634.100    91317552.92647
  23644877.580   124254690.26308  23644873.600    96821835.88947
  22255061.920   116951573.78409  22255058.100    91131287.42647
  22836414.660   120006410.99209  22836410.900    93511580.64347
  21706551.480   114068845.79909  21706550.920    88884875.79548
  24062166.920   126447500.63208  24062169.600    98530550.49246
 15 03 06 00 11 30.0000000  0  7G16G18G19G21G22G27G31
  20733174.360   108953582.30809  20733170.800    84898897.26748
  22294380.280   117157901.30409  22294377.100    91291931.38947
  23630961.140   124181558.35908  23630957.060    96764850.02746
  22267150.380   117015098.87309  22267146.560    91180787.48947
  22820621.940   119923419.96709  22820618.260    93446912.39847
  21697421.120   114020865.33109  21697420.480    88847488.42948
  24081165.800   126547336.09309  24081168.460    98608343.91147
 15 03 06 00 12  0.0000000  0  7G16G18G19G21G22G27G31
  20725400.520   108912730.66409  20725397.020    84867064.82248
  22288204.040   117125444.27109  22288200.780    91266640.21347
  23617065.820   124108538.04608  23617061.860    96707951.13147
  22279278.820   117078834.35309  22279275.020    91230451.50647
  22804865.540   119840619.67309  22804861.860    93382392.77847
  21688318.260   113973029.04809  21688317.460    88810213.41848
  24100164.720   126647172.29508  24100168.320    98686156.78546
 15 03 06 00 12 30.0000000  0  7G16G18G19G21G22G27G31
  20717703.460   108872282.64509  20717700.060    84835546.88848
  22282108.460   117093410.93609  22282105.100    91241679.18947
  23603191.460   124035627.73208  23603187.560    96651137.93246
  22291446.540   117142776.44009  22291442.760    91280276.50247
  22789145.520   119758010.46009  22789141.820    93318022.04747
  21679242.480   113925335.06609  21679241.620    88773049.28248
  24119162.680   126747004.95208  24119166.060    98763948.02644
 15 03 06 00 13  0.0000000  0  7G16G18G19G21G22G27G31
  20710083.620   108832240.17409  20710080.260    84804344.96648
  22276093.840   117061803.17509  22276090.360    91217049.78347
  23589338.000   123962827.33508  23589334.140    96594410.38846
  22303653.340   117206923.69608  22303649.580    91330261.36947
  22773462.540   119675595.82809  22773458.800    93253802.94447
  21670193.700   113877783.43209  21670192.880    88735996.07148
  24138159.200   126846831.47708  24138162.800    98841734.53746
 15 03 06 00 13 30.0000000  0  7G16G18G19G21G22G27G31
  20702541.640   108792606.63009  20702538.280    84773461.67748
  22270160.720   117030624.03509  22270157.200    91192754.35447
  23575505.760   123890138.87508  23575501.960    96537770.06346
  22315899.060   117271275.36309  22315895.300    91380405.51247
  22757817.520   119593380.49109  22757813.640    93189739.12047
  21661172.300   113830376.11809  21661171.540    88699055.30948
  24157154.100   126946650.28708  24157157.980    98919514.97744
 15 03 06 00 14  0.0000000  0  7G16G18G19G21G22G27G31
  20695077.140   108753379.87209  20695073.720    84742895.37848
  22264308.600   116999870.84209  22264305.160    91168790.85147
  23561694.020   123817557.95908  23561690.160    96481213.54646
  22328182.740   117335826.29209  22328178.920    91430704.94447
  22742209.960   119511362.38009  22742205.860    93125829.00647
  21652177.600   113783109.10809  21652176.920    88662223.89348
  24176146.320   127046455.16807  24176151.080    98997295.53946
 15 03 06 00 14 30.0000000  0  7G16G18G19G21G22G27G31
  20687690.820   108714563.84409  20687687.280    84712649.11448
  22258538.160   116969547.17809  22258534.860    91145162.04247
  23547903.120   123745086.42208  23547899.120    96424742.25146
  22340504.260   117400576.08809  22340500.360    91481159.32347
  22726640.720   119429546.40209  22726636.540    93062076.38647
  21643209.980   113735984.40409  21643209.320    88625503.35448
  24195135.820   127146244.66607  24195140.440    99075052.96046
 15 03 06 00 15  0.0000000  0  7G16G18G19G21G22G27G31
  20680382.780   108676159.16409  20680379.040    84682723.38248
  22252849.440   116939653.29609  22252846.300    91121868.11547
  23534132.740   123672723.10408  23534128.760    96368355.28346
  22352863.120   117465522.10509  22352859.160    91531766.59247
  22711110.220   119347934.26109  22711106.060    92998482.57847
  21634269.300   113689000.98909  21634268.700    88588892.90348
  24214121.900   127246014.60707  24214126.400    99152794.93442
 15 03 06 00 15 30.0000000  0  7G16G18G19G21G22G27G31
  20673152.600   108638163.90709  20673148.680    84653116.69248
  22247242.000   116910186.47009  22247238.960    91098906.97347
  23520382.300   123600464.30908  23520378.360    96312049.77146
  22365258.120   117530657.99409  22365254.180    91582521.82447
  22695618.220   119266524.65809  22695614.280    92935046.60347
  21625354.820   113642155.01509  21625354.260    88552389.56948
  24233103.320   127345759.42408  24233108.360    99230509.60146
 15 03 06 00 16  0.0000000  0  7G16G18G19G21G22G27G31
  20666002.720   108600591.26009  20665998.740    84623839.30148
  22241718.400   116881160.14809  22241715.480    91076289.06947
  23506653.900   123528321.48808  23506649.920    96255834.62746
  22377691.080   117595993.29809  22377687.120    91633432.44247
  22680167.460   119185331.64009  22680163.780    92871779.39647
  21616468.740   113595457.99709  21616468.100    88516002.29548
  24252081.540   127445487.05906  24252086.040    99308239.90544
 15 03 06 00 16 30.0000000  0  7G16G18G19G21G22G27G31
  20658932.120   108563435.66609  20658928.240    84594886.88848
  22236277.500   116852568.39309  22236274.700    91054009.78247
  23492946.100   123456287.36908  23492942.200    96199704.18146
  22390160.320   117661519.29708  22390156.360    91684491.66047
  22664757.300   119104350.83709  22664753.660    92808677.53547
  21607609.700   113548902.91509  21607608.920    88479725.61848
  24271054.620   127545188.10108  24271058.840    99385928.39245
 15 03 06 00 17  0.0000000  0  7G16G18G19G21G22G27G31
  20651941.720   108526701.55509  20651937.980    84566262.90148
  22230920.000   116824414.93209  22230917.360    91032072.03247
  23479259.520   123384363.98708  23479255.580    96143660.02746
  22402666.020   117727237.08109  22402662.060    91735700.31347
  22649388.620   119023587.34509  22649384.900    92745745.01047
  21598778.080   113502492.20309  21598777.200    88443561.43748
  24290022.820                    24290026.960                  
 15 03 06 00 17 30.0000000  0  7G16G18G19G21G22G27G31
  20645032.000   108490391.15109  20645028.340    84537969.08448
  22225646.280   116796701.56209  22225643.680    91010477.21547
  23465594.240   123312552.32208  23465590.260    96087702.94046
  22415207.840   117793144.77109  22415203.980    91787056.94647
  22634062.000   118943044.47509  22634058.080    92682984.40647
  21589974.040   113456226.62109  21589973.140    88407510.34848
  24308984.900   127744575.29508  24308989.860    99541250.38146
 15 03 06 00 18  0.0000000  0  7G16G18G19G21G22G27G31
  20638203.240   108454505.92809  20638199.620    84510006.57248
  22220456.520   116769429.69909  22220454.000    90989226.42347
  23451950.200   123240852.15308  23451946.140    96031832.71846
  22427785.300   117859239.89109  22427781.560    91838559.63347
  22618777.880   118862724.81809  22618773.680    92620397.72147
  21581197.620   113410106.03809  21581196.700    88371572.24748
  24327940.660   127844188.12408  24327945.260    99618872.68346
 15 03 06 00 18 30.0000000  0  7G16G18G19G21G22G27G31
  20631453.640   108419036.46909  20631450.020    84482368.03148
  22215348.840   116742589.13509  22215346.340    90968311.71447
  23438325.220   123169251.80608  23438321.020    95976040.27046
  22440395.940   117925509.67109  22440392.360    91890198.42147
  22603534.460   118782619.56209  22603530.020    92557978.10847
  21572446.600   113364119.07609  21572445.640    88335738.26448
  24346886.980   127943755.69305                                
 15 03 06 00 19  0.0000000  0  7G16G18G19G21G22G27G31
  20624786.820   108384001.98309  20624783.240    84455068.43248
  22210326.800   116716198.51209  22210324.320    90947747.59847
  23424722.560   123097768.87508  23424718.280    95920339.32646
  22453042.740   117991969.72408  22453039.360    91941985.46347
  22588335.500   118702748.77909  22588330.860    92495741.19547
  21563724.340   113318283.36109  21563723.320    88300022.12548
  24365828.000   128043286.54608  24365832.940    99774007.94746
 15 03 06 00 19 30.0000000  0  7G16G18G19G21G22G27G31
  20618201.800   108349397.38609  20618198.240    84428103.81448
  22205389.380   116690252.38709  22205386.820    90927529.85747
  23411140.900   123026396.56208  23411136.660    95864724.60247
  22465724.100   118058611.22808  22465720.880    91993913.90947
  22573180.260   118623108.18909  22573175.480    92433683.65347
  21555029.540   113272592.17609  21555028.520    88264418.62048
  24384760.800   128142778.15107                                
 15 03 06 00 20  0.0000000  0  7G16G18G19G21G22G27G31
  20611700.520   108315233.19409  20611697.060    84401482.36248
  22200538.580   116664760.94309  22200535.860    90907666.40247
  23397581.900   122955143.61808  23397577.640    95809202.87046
  22478441.300   118125441.04608  22478438.240    92045989.07847
  22558070.940   118543709.35609  22558066.140    92371814.47447
  21546363.880   113227054.45009  21546362.940    88228934.68648
  24403686.820   128242236.96307                                
 15 03 06 00 20 30.0000000  0  7G16G18G19G21G22G27G31
  20605277.180   108281478.67409  20605273.860    84375180.13748
  22195768.520   116639693.19209  22195765.560    90888133.11247
  23384039.420   122883977.73408  23384035.200    95753748.95946
  22491187.860   118192425.25408  22491184.940    92098184.55447
  22543002.020   118464522.65609  22542997.360    92310110.61347
  21537721.320   113181638.13209  21537720.500    88193545.35448
  24422599.420                    24422604.660                  
 15 03 06 00 21  0.0000000  0  7G16G18G19G21G22G27G31
  20598939.780   108248175.57609  20598936.520    84349229.67448
  22191086.900   116615090.11709  22191083.720    90868961.91347
  23370521.000   122812938.68508  23370516.920    95698393.91147
  22503971.100   118259601.95108  22503968.280    92150530.02747
  22527981.660   118385590.90909  22527977.220    92248605.41947
  21529109.540   113136383.17209  21529108.820    88158281.76348
  24441506.300   128440977.26707                                
 15 03 06 00 21 30.0000000  0  7G16G18G19G21G22G27G31
  20592685.360   108215308.22709  20592682.060    84323618.74548
  22186490.560   116590935.59609  22186487.220    90850140.22547
  23357023.420   122742009.17208  23357019.520    95643124.19846
  22516787.320   118326951.84708  22516784.600    92203010.45947
  22513007.040   118306899.19409  22513002.760    92187287.25947
  21520525.200   113091272.13809  21520524.460    88123130.31348
  24460402.380   128540277.62108  24460407.980   100161285.00746
 15 03 06 00 22  0.0000000  0  7G16G18G19G21G22G27G31
  20586514.880   108182881.93309  20586511.500    84298351.49548
  22181980.380   116567234.62409  22181977.100    90831671.95647
  23343547.440   122671192.80808  23343543.480    95587942.65346
  22529636.880   118394476.72208  22529634.180    92255627.22847
  22498079.400   118228453.88709  22498075.200    92126161.10147
  21511969.020   113046309.00809  21511968.200    88088094.11548
  24479288.820   128639506.88409  24479292.840   100238597.53947
 15 03 06 00 22 30.0000000  0  7G16G18G19G21G22G27G31
  20580425.740   108150883.28409  20580422.320    84273417.48548
  22177553.820   116543973.41909  22177550.660    90813546.35847
  23330090.220   122600474.90808  23330086.240    95532837.82847
  22542516.520   118462159.66108  22542513.780    92308367.17647
  22483196.360   118150242.75009  22483192.220    92065217.42047
  21503438.180   113001478.81609  21503437.300    88053161.51448
  24498161.720   128738685.33709  24498163.800   100315884.63958
 15 03 06 00 23  0.0000000  0  7G16G18G19G21G22G27G31
  20574423.700   108119342.40909  20574420.280    84248840.17748
  22173216.420   116521181.07509  22173213.420    90795786.10247
  23316657.040   122529882.93908  23316653.060    95477831.13247
  22555431.280   118530027.26208  22555428.420    92361251.00947
  22468363.740   118072296.50909  22468359.700    92004480.14247
  21494938.040   112956810.10009  21494937.080    88018354.73548
  24517026.020   128837820.18607  24517028.980   100393133.13845
 15 03 06 00 23 30.0000000  0  7G16G18G19G21G22G27G31
  20568505.260   108088240.81209  20568501.840    84224605.16548
  22168964.600   116498838.81109  22168961.860    90778376.56447
  23303244.040   122459397.25308  23303240.020    95422907.26046
  22568377.040   118598057.64808  22568374.100    92414261.69547
  22453578.140   117994597.63609  22453574.160    91943935.62747
  21486464.820   112912282.91309  21486463.820    87983658.23948
  24535877.440   128936887.99606  24535880.960   100470329.51244
 15 03 06 00 24  0.0000000  0  7G16G18G19G21G22G27G31
  20562669.220   108057571.85509  20562665.680    84200707.26648
  22164797.080   116476939.68009  22164794.580    90761312.31447
  23289849.800   122389010.08908  23289845.600    95368060.13946
  22581351.920   118666240.85508  22581348.860    92467391.45547
  22438838.620   117917140.85109  22438834.560    91883579.73447
  21478016.940   112867889.12709  21478015.960    87949065.68548
  24554713.960   129035878.29008  24554715.460   100547442.62646
 15 03 06 00 24 30.0000000  0  7G16G18G19G21G22G27G31
  20556919.720   108027357.51909  20556916.060    84177163.62848
  22160718.100   116455505.31809  22160715.760    90744610.22847
  23276478.080   122318741.19208  23276473.780    95313305.20046
  22594359.380   118734595.11908  22594356.140    92520654.52247
  22424149.500   117839948.97909  22424145.320    91823430.27447
  21469598.360   112823649.41409  21469597.440    87914593.20048
  24573539.140   129134809.17009  24573541.760   100624535.84347
 15 03 06 00 25  0.0000000  0  7G16G18G19G21G22G27G31
  20551257.300   107997600.87509  20551253.540    84153976.62548
  22156727.960   116434537.43209  22156725.680    90728271.62647
  23263129.040   122248591.67108  23263124.660    95258643.26646
  22607399.220   118803119.70208  22607395.860    92574050.28847
  22409511.480   117763025.60609  22409507.200    91763490.03547
  21461209.400   112779564.81409  21461208.440    87880241.56548
  24592351.560   129233677.15506                                
 15 03 06 00 25 30.0000000  0  7G16G18G19G21G22G27G31
  20545678.160   107968282.16309  20545674.420    84131130.86848
  22152822.880   116414016.10609  22152820.580    90712280.98947
  23249798.720   122178540.61608  23249794.260    95204058.07346
  22620467.020   118871791.36308  22620463.580    92627560.65747
  22394921.000   117686352.21409  22394916.620    91703744.58547
  21452845.980   112735614.40109  21452845.020    87845994.49548
  24611148.440                    24611151.180                  
 15 03 06 00 26  0.0000000  0  6G16G18G19G21G22G27
  20540185.500   107939418.12409  20540181.880    84108639.40948
  22149005.960   116393957.87209  22149003.580    90696651.21747
  23236490.000   122108603.02608  23236485.660    95149561.30147
  22633565.480   118940624.26608  22633562.000    92681196.67747
  22380381.380   117609946.22909  22380376.880    91644207.50947
  21444511.020   112691813.70109  21444510.040    87811864.08748
 15 03 06 00 26 30.0000000  0  7G16G18G19G21G22G27G31
  20534781.080   107911017.96009  20534777.560    84086509.40548
  22145278.740   116374370.75509  22145276.280    90681388.53647
  23223204.300   122038786.44008  23223200.140    95095158.81647
  22646695.560   119009623.51208  22646692.080    92734962.30947
  22365894.740   117533818.70309  22365890.180    91584887.40247
  21436205.900   112648170.16709  21436204.920    87777856.14548
  24648701.620   129529798.94708                                
 15 03 06 00 27  0.0000000  0  7G16G18G19G21G22G27G31
  20529460.560   107883058.65109  20529457.100    84064722.92348
  22141636.840   116355231.66609  22141634.180    90666474.97347
  23209936.960   121969066.31008  23209932.820    95040831.48747
  22659852.260   119078762.68408  22659848.800    92788836.97747
  22351456.740   117457947.39709  22351452.320    91525766.94747
  21427926.120   112604659.66009  21427925.160    87743951.86048
  24667452.160                    24667454.200                  
 15 03 06 00 27 30.0000000  0  7G16G18G19G21G22G27G31
  20524228.600   107855564.69509  20524225.200    84043299.05448
  22138084.840   116336564.86809  22138081.920    90651929.43047
  23196692.300   121899465.50708  23196688.220    94986597.13847
  22673039.700   119148063.54608  22673036.340    92842837.64447
  22337072.300   117382358.03409  22337068.160    91466866.19447
  21419676.060   112561305.37309  21419675.120    87710169.31148
  24686189.700   129726802.49707  24686191.860   101085824.12645
 15 03 06 00 28  0.0000000  0  6G16G18G19G21G22G27
  20519083.700   107828528.03609  20519080.300    84022231.51848
  22134620.960   116318361.02609  22134617.720    90637744.63047
  23183468.540   121829974.34508  23183464.460    94932448.22147
  22686255.720   119217514.40208  22686252.380    92896955.18246
  22322740.120   117307043.17309  22322736.220    91408179.33447
  21411453.840   112518097.64909  21411452.940    87676500.97148
 15 03 06 00 28 30.0000000  0  6G16G18G19G21G22G27
  20514026.780   107801953.72409  20514023.360    84001524.25648
  22131246.040   116300625.07909  22131242.580    90623924.43047
  23170266.380   121760597.00908  23170262.360    94878388.00347
  22699500.720   119287117.35008  22699497.320    92951191.24146
  22308461.340   117232008.89909  22308457.580    91349711.12047
  21403260.220   112475040.42709  21403259.360    87642949.89748
 15 03 06 00 29  0.0000000  0  6G16G18G19G21G22G27
  20509057.840   107775841.73709  20509054.360    83981177.24448
  22127959.880   116283356.19909  22127956.380    90610468.17147
  23157085.480   121691331.51708  23157081.620    94824414.92047
  22712773.960   119356868.41008  22712770.500    93005542.70847
  22294236.260   117157256.30409  22294232.540    91291462.39447
  21395094.920   112432132.20309  21395094.160    87609514.93048
 15 03 06 00 29 30.0000000  0  6G16G18G19G21G22G27
  20504176.600   107750190.72409  20504173.080    83961189.43448
  22124762.020   116266551.91009  22124758.640    90597373.93147
  23143925.300   121622174.76408  23143921.560    94770526.57047
  22726074.540   119426762.97508  22726071.020    93060005.99847
  22280064.820   117082784.72909  22280061.080    91233432.63847
  21386957.520   112389370.23509  21386956.780    87576193.92248
 15 03 06 00 30  0.0000000  0  6G16G18G19G21G22G27
  20499384.520   107725008.28609  20499381.020    83941566.75748
  22121654.000   116250220.06109  22121650.800    90584647.83647
  23130786.960   121553132.61008  23130783.320    94716727.52247
  22739403.280   119496805.26508  22739399.620    93114584.39747
  22265948.800   117008603.70009  22265944.840    91175629.29047
  21378849.280   112346760.82809  21378848.440    87542991.79948
 15 03 06 00 30 30.0000000  0  6G16G18G19G21G22G27
  20494680.240   107700287.23309  20494676.760    83922303.59549
  22118634.320   116234352.49709  22118631.300    90572283.51147
  23117668.960   121484197.23308  23117665.280    94663011.66747
  22752758.260   119566985.57009  22752754.540    93169270.33047
  22251886.820   116934706.79409  22251882.640    91118047.32948
  21370768.500   112304295.80109  21370767.640    87509902.17949
 15 03 06 00 31  0.0000000  0  6G16G18G19G21G22G27
  20490065.740   107676037.80309  20490062.240    83903407.93648
  22115704.800   116218958.53309  22115701.860    90560288.23047
  23104572.820   121415376.81308  23104569.100    94609385.38847
  22766140.660   119637309.72608  22766136.860    93224068.36247
  22237880.880   116861104.55509  22237876.620    91060694.98347
  21362716.760   112261983.65609  21362715.920    87476931.68948
 15 03 06 00 31 30.0000000  0  6G16G18G19G21G22G27
  20485540.500   107652257.55909  20485537.000    83884877.87148
  22112865.060   116204036.12409  22112862.120    90548660.39847
  23091497.880   121346667.95008  23091494.160    94555846.04247
  22779549.640   119707773.43309  22779545.640    93278975.13447
  22223930.880   116787796.47909  22223926.640    91003571.84447
  21354693.540   112219821.49709  21354692.760    87444078.06548
 15 03 06 00 32  0.0000000  0  6G16G18G19G21G22G27
  20481104.900   107628948.80509  20481101.440    83866715.20548
  22110115.360   116189586.17209  22110112.360    90537400.70747
  23078444.240   121278071.00808  23078440.540    94502393.91247
  22792984.760   119778374.68709  22792980.640    93333989.08847
  22210037.440   116714785.79109  22210033.180    90946680.44448
  21346698.940   112177809.80609  21346698.240    87411341.70148
 15 03 06 00 32 30.0000000  0  6G16G18G19G21G22G27
  20476759.360   107606113.03209  20476755.940    83848921.09548
  22107455.800   116175609.38509  22107452.720    90526509.71947
  23065411.980   121209586.07208  23065408.180    94449029.05447
  22806445.740   119849111.96009  22806441.540    93389109.03747
  22196201.040   116642074.81309  22196196.720    90890022.57848
  21338733.020   112135948.73009  21338732.340    87378722.68648
 15 03 06 00 33  0.0000000  0  6G16G18G19G21G22G27
  20472504.240   107583752.15009  20472500.860    83831497.02448
  22104886.580   116162107.37609  22104883.480    90515988.68347
  23052401.240   121141213.92208  23052397.400    94395752.08147
  22819932.340   119919983.88309  22819928.060    93444333.90647
  22182422.260   116569666.64609  22182417.820    90833600.66947
  21330795.940   112094239.34809  21330795.240    87346221.87548
 15 03 06 00 33 30.0000000  0  6G16G18G19G21G22G27
  20468339.820   107561867.71009  20468336.420    83814444.19948
  22102407.840   116149080.80709  22102404.700    90505838.11647
  23039412.000   121072954.55108  23039408.120    94342562.98947
  22833444.340   119990989.55708  22833440.080    93499662.98447
  22168701.540   116497563.72909  22168696.980    90777416.61248
  21322887.780   112052681.83609  21322887.060    87313839.39548
 15 03 06 00 34  0.0000000  0  6G16G18G19G21G22G27
  20464266.720   107540462.72009  20464263.220    83797764.98148
  22100020.080   116136532.73909  22100016.920    90496060.41547
  23026444.560   121004810.03608  23026440.560    94289463.37347
  22846981.720   120062128.82208  22846977.500    93555096.16347
  22155039.820   116425770.97409  22155035.060    90721474.24548
  21315009.000   112011278.83809  21315008.300    87281577.33148
 15 03 06 00 34 30.0000000  0  6G16G18G19G21G22G27
  20460284.580   107519535.62409  20460280.920    83781458.13848
  22097722.580   116124459.58909  22097719.420    90486652.77247
  23013498.280   120936776.75709  23013494.120    94236450.44347
  22860543.520   120133396.48608  22860539.340    93610629.39847
  22141436.880   116354287.30709  22141431.960    90665772.72547
  21307158.960   111970026.52909  21307158.220    87249432.67648
 15 03 06 00 35  0.0000000  0  6G16G18G19G21G22G27
  20456394.020   107499090.03109  20456390.240    83765526.50348
  22095516.080   116112865.09509  22095512.980    90477618.12147
  23000573.660   120868857.36808  23000569.540    94183526.27447
  22874129.860   120204793.36308  22874125.680    93666263.32447
  22127893.600   116283117.55209  22127888.680    90610315.80848
  21299338.200   111928927.99209  21299337.480    87217407.84848
 15 03 06 00 35 30.0000000  0  6G16G18G19G21G22G27
  20452594.720   107479124.60409  20452590.920    83749969.02148
  22093400.360   116101747.66509  22093397.340    90468955.20147
  22987670.180   120801049.10708  22987666.060    94130688.68347
  22887739.840   120276314.42508  22887735.640    93721994.01947
  22114410.000   116212261.47409  22114405.200    90555103.32048
  21291546.260   111887980.77709  21291545.560    87185500.92348
 15 03 06 00 36  0.0000000  0  6G16G18G19G21G22G27
  20448887.580   107459643.67509  20448883.900    83734789.06448
  22091376.040   116091110.27009  22091373.040    90460666.32447
  22974788.400   120733355.09608  22974784.340    94077940.12547
  22901373.780   120347961.59908  22901369.660    93777822.97447
  22100987.120   116141724.61209  22100982.480    90500139.56547
  21283783.720   111847188.03609  21283782.880    87153714.36648
 15 03 06 00 36 30.0000000  0  6G16G18G19G21G22G27
  20445272.760   107440647.74609  20445269.180    83719987.04249
  22089443.160   116080953.19509  22089440.140    90452751.73547
  22961928.200   120665774.57008  22961924.260    94025280.00647
  22915031.240   120419732.30908  22915027.200    93833748.20147
  22087625.360   116071508.76209  22087620.820    90445425.95848
  21276050.480   111806549.45709  21276049.600    87122047.95148
 15 03 06 00 37  0.0000000  0  6G16G18G19G21G22G27
  20441750.300   107422137.14409  20441746.740    83705563.19448
  22087601.640   116071275.86909  22087598.560    90445210.98347
  22949089.380   120598306.48908  22949085.600    93972707.52447
  22928711.720   120491624.04308  22928707.760    93889767.73946
  22074325.020   116001615.37909  22074320.580    90390963.63148
  21268346.440   111766064.30909  21268345.480    87090501.09448
 15 03 06 00 37 30.0000000  0  6G16G18G19G21G22G27
  20438321.160   107404116.89209  20438317.600    83691521.43348
  22085852.240   116062082.39209  22085849.120    90438047.25847
  22936272.680   120530954.78308  22936268.900    93920225.70847
  22942415.500   120563638.25508  22942411.580    93945882.70846
  22061087.200   115932050.29709  22061082.860    90336757.11948
  21260672.260   111725736.35709  21260671.300    87059076.72348
 15 03 06 00 38  0.0000000  0  6G16G18G19G21G22G27
  20434984.420   107386581.99209  20434980.820    83677857.87149
  22084193.960   116053367.65709  22084190.820    90431256.56147
  22923476.980   120463713.25908  22923473.040    93867829.73647
  22956141.040   120635766.90708  22956137.160    94002086.84647
  22047911.200   115862809.95509  22047906.940    90282803.64048
  21253026.900   111685560.02909  21253025.980    87027770.49749
 15 03 06 00 38 30.0000000  0  6G16G18G19G21G22G27
  20431741.360   107369539.18409  20431737.680    83664577.75048
  22082627.820   116045137.27309  22082624.640    90424843.28547
  22910703.320   120396587.23308  22910699.280    93815523.76447
  22969889.240   120708014.43008  22969885.400    94058383.60547
  22034798.480   115793902.23309  22034794.260    90229109.34248
  21245411.440   111645540.79309  21245410.500    86996586.67748
 15 03 06 00 39  0.0000000  0  6G16G18G19G21G22G27
  20428591.780   107352987.99809  20428588.040    83651680.70848
  22081153.560   116037390.05509  22081150.400    90418806.49447
  22897951.260   120329575.09208  22897947.240    93763306.54247
  22983659.320   120780376.80108  22983655.580    94114769.85047
  22021749.060   115725327.60409  22021744.860    90175674.59148
  21237825.620   111605677.21609  21237824.700    86965524.14948
 15 03 06 00 39 30.0000000  0  6G16G18G19G21G22G27
  20425535.860   107336929.15909  20425532.100    83639167.32148
  22079771.300   116030126.22409  22079768.120    90413146.37447
  22885220.820   120262676.53508  22885216.800    93711177.82747
  22997451.000   120852852.29008  22997447.300    94171244.24746
  22008763.400   115657088.14409  22008759.240    90122501.02447
  21230269.400   111565969.24009  21230268.540    86934582.86948
 15 03 06 00 40  0.0000000  0  6G16G18G19G21G22G27
  20422574.020   107321364.86609  20422570.280    83627039.29648
  22078481.300   116023347.19209  22078478.060    90407864.02847
  22872512.180   120195892.15308  22872508.120    93659138.07747
  23011264.080   120925440.07708  23011260.320    94227806.15047
  21995842.240   115589187.33409  21995838.060    90069591.33747
  21222743.020   111526417.98009  21222742.220    86903763.71248
 15 03 06 00 40 30.0000000  0  7G04G16G18G19G21G22G27
  24621754.160                                                  
  20419706.340   107306295.27409  20419702.620    83615296.74448
  22077283.440   116017052.39209  22077280.140    90402958.99347
  22859825.200   120129221.45708  22859820.980    93607186.90947
  23025098.040   120998137.34208  23025094.180    94284453.35946
  21982985.820   115521626.57209  21982981.500    90016946.62048
  21215246.400   111487023.12309  21215245.640    86873066.42548
 15 03 06 00 41  0.0000000  0  7G04G16G18G19G21G22G27
  24602024.820   129284511.99508  24602030.560   100741197.27245
  20416934.860   107291731.50209  20416931.220    83603948.34148
  22076179.640   116011251.80009  22076176.260    90398439.06647
  22847161.760   120062674.19508  22847157.360    93555331.92347
  23038954.460   121070952.61608  23038950.500    94341192.53046
  21970196.520   115454417.94709  21970191.900    89964576.30348
  21207781.400   111447794.63009  21207780.780    86842498.77448
 15 03 06 00 41 30.0000000  0  7G04G16G18G19G21G22G27
  24582320.440   129180965.25008  24582326.300   100660511.71244
  20414256.440   107277656.46009  20414252.860    83592980.76549
  22075166.540   116005928.06309  22075163.040    90394290.70547
  22834518.360   119996232.31108  22834513.860    93503559.06447
  23052829.420   121143865.57408  23052825.360    94398007.80747
  21957471.340   115387545.93209  21957466.480    89912468.26948
  21200344.740   111408714.69509  21200344.160    86812046.87248
 15 03 06 00 42  0.0000000  0  7G04G16G18G19G21G22G27
  24562643.180   129077561.04208  24562648.980   100579937.34044
  20411673.200   107264081.58709  20411669.720    83582402.93648
  22074246.280   116001092.10609  22074242.680    90390522.44247
  22821896.980   119929906.21008  22821892.400    93451876.41447
  23066724.660   121216885.49008  23066720.600    94454906.43546
  21944812.640   115321023.16809  21944807.620    89860632.38848
  21192938.460   111369794.04209  21192937.820    86781719.09548
 15 03 06 00 42 30.0000000  0  7G04G16G18G19G21G22G27
  24542993.080   128974299.63208  24542998.640   100499474.27245
  20409185.180   107251006.89009  20409181.780    83572214.86548
  22073418.660   115996743.11009  22073415.080    90387133.62347
  22809297.420   119863694.94609  22809292.820    93400283.25947
  23080639.580   121290009.17408  23080635.620    94511885.92746
  21932220.480   115254850.52909  21932215.460    89809069.32648
  21185562.360   111331031.76509  21185561.600    86751514.73448
 15 03 06 00 43  0.0000000  0  7G04G16G18G19G21G22G27
  24523370.860   128871185.26508  24523376.260   100419125.73645
  20406793.340   107238437.33209  20406789.940    83562420.39948
  22072684.460   115992884.89709  22072680.980    90384127.24047
  22796720.360   119797602.04208  22796715.800    93348782.32747
  23094574.540   121363238.42708  23094570.620    94568947.67546
  21919696.060   115189034.10009  21919691.140    89757783.82948
  21178217.160   111292431.93209  21178216.280    86721436.95448
 15 03 06 00 43 30.0000000  0  7G04G16G18G19G21G22G27
  24503776.060   128768214.71908  24503781.120   100338888.81844
  20404497.080   107226369.84409  20404493.580    83553017.15649
  22072042.980   115989513.92009  22072039.600    90381500.51747
  22784164.960   119731623.58708  22784160.500    93297370.57547
  23108528.560   121436567.97008  23108524.760    94626087.57446
  21907239.140   115123572.42009  21907234.300    89706774.75548
  21170902.140   111253990.76409  21170901.180    86691482.80148
 15 03 06 00 44  0.0000000  0  7G04G16G18G19G21G22G27
  24484208.900   128665388.97708  24484213.820   100258764.77845
  20402296.260   107214804.17909  20402292.700    83544004.93548
  22071494.040   115986629.09009  22071490.760    90379252.60247
  22771631.180   119665758.69108  22771626.760    93246047.29147
  23122501.080   121509994.67508  23122497.340    94683303.18346
  21894849.900   115058466.72709  21894845.120    89656043.07248
  21163617.160   111215707.67109  21163616.160    86661651.81748
 15 03 06 00 44 30.0000000  0  7G04G16G18G19G21G22G27
  24464670.520   128562713.97108  24464675.540   100178758.35745
  20400192.000   107203746.13109  20400188.420    83535388.26648
  22071038.620   115984235.62309  22071035.420    90377387.57947
  22759119.900   119600011.90408  22759115.580    93194816.04947
  23136492.740   121583521.89708  23136489.100    94740597.12346
  21882529.660   114993723.66509  21882524.880    89605593.97448
  21156363.160   111177587.53009  21156362.100    86631947.82448
 15 03 06 00 45  0.0000000  0  7G04G16G18G19G21G22G27
  24445160.560   128460188.64207  24445165.680   100098868.74644
  20398184.040   107193194.47209  20398180.480    83527166.17848
  22070676.320   115982331.45609  22070673.160    90375903.82147
  22746630.620   119534380.84708  22746626.420    93143674.98847
  23150502.780   121657145.58208  23150499.140    94797966.22146
  21870278.420   114929343.06209  21870273.620    89555427.29948
  21149139.700   111139628.20509  21149138.640    86602369.12549
 15 03 06 00 45 30.0000000  0  7G04G16G18G19G21G22G27
  24425679.220   128357815.06207  24425684.620   100019097.49444
  20396272.800   107183151.07209  20396269.280    83519340.14348
  22070407.280   115980917.51309  22070404.060    90374802.05347
  22734163.580   119468866.38008  22734159.400    93092624.77947
  23164531.080   121730864.95908  23164527.480    94855409.89346
  21858096.820   114865328.39309  21858092.020    89505545.77548
  21141947.060   111101831.09909  21141946.020    86572916.84348
 15 03 06 00 46  0.0000000  0  7G04G16G18G19G21G22G27
  24406226.440   128255592.16208  24406232.040    99939443.48145
  20394458.100   107173615.20009  20394454.600    83511909.58248
  22070231.260   115979992.41109  22070227.920    90374081.20047
  22721718.540   119403467.07509  22721714.260    93041664.29147
  23178577.020   121804676.61508  23178573.300    94912925.45946
  21845984.860   114801680.08109  21845980.080    89455949.72148
  21134785.060   111064194.86109  21134784.060    86543589.90248
 15 03 06 00 46 30.0000000  0  7G04G16G18G19G21G22G27
  24386803.160   128153523.40608  24386808.800    99859909.56945
  20392740.540   107164589.78709  20392737.100    83504876.78248
  22070148.680   115979558.21609  22070145.220    90373742.87547
  22709295.940   119338185.03609  22709291.600    92990795.18447
  23192640.480   121878580.55408  23192636.740    94970512.93346
  21833943.380   114738402.32309  21833938.680    89406642.40448
  21127654.140   111026721.78109  21127653.260    86514390.10448
 15 03 06 00 47  0.0000000  0  7G04G16G18G19G21G22G27
  24367409.100   128051607.15408  24367414.440    99780494.60344
  20391119.740   107156072.65909  20391116.400    83498240.05548
  22070158.960   115979612.31409  22070155.420    90373785.04047
  22696895.040   119273017.23809  22696890.620    92940015.10947
  23206720.720   121952572.63008  23206717.040    95028169.08546
  21821972.200   114675494.03609  21821967.680    89357622.99048
  21120553.740   110989409.14009  21120552.940    86485315.32349
 15 03 06 00 47 30.0000000  0  7G04G16G18G19G21G22G27
  24348045.180   127949848.72808  24348050.120    99701202.66145
  20389596.740   107148069.13309  20389593.480    83492003.54349
  22070262.940   115980159.03209  22070259.360    90374211.06847
  22684516.660   119207968.12808  22684512.160    92889327.52047
  23220818.260   122026655.44308  23220814.640    95085895.93546
  21810072.700   114612962.38209  21810068.340    89308897.06948
  21113484.780   110952261.75709  21113484.040    86456369.32449
 15 03 06 00 48  0.0000000  0  7G04G16G18G19G21G22G27
  24328710.900   127848246.19108  24328715.400    99622032.18444
  20388171.100   107140577.09909  20388167.900    83486165.58749
  22070460.160   115981195.62209  22070456.640    90375018.80747
  22672160.240   119143034.68209  22672155.800    92838730.05048
  23234932.200   122100824.29908  23234928.580    95143689.83746
  21798244.660   114550806.06209  21798240.320    89260463.59548
  21106446.740   110915276.87209  21106446.040    86427549.93548
 15 03 06 00 48 30.0000000  0  7G04G16G18G19G21G22G27
  24309407.260   127746804.75208  24309411.420    99542987.18844
  20386843.740   107133601.51509  20386840.540    83480730.05148
  22070751.400   115982726.07009  22070747.920    90376211.37147
  22659826.580   119078220.77209  22659822.200    92788225.72747
  23249062.920   122175081.39508  23249059.280    95201552.50346
  21786489.260   114489031.17809  21786484.880    89212327.35148
  21099440.500   110878458.96709  21099439.860    86398860.65848
 15 03 06 00 49  0.0000000  0  7G04G16G18G19G21G22G27
  24290133.860   127645522.99008  24290137.860    99464066.69044
  20385614.280   107127140.41509  20385611.060    83475695.42149
  22071136.000   115984747.16409  22071132.540    90377786.26047
  22647515.100   119013523.89408  22647510.700    92737812.61247
  23263209.620   122249422.61008  23263206.040    95259480.71746
  21774806.440   114427637.40009  21774801.980    89164488.07248
  21092465.580   110841805.50909  21092464.940    86370299.52748
 15 03 06 00 49 30.0000000  0  7G04G16G18G19G21G22G27
  24270891.660   127544406.21008  24270895.700    99385274.67945
  20384483.700   107121199.08009  20384480.460    83471065.79949
  22071615.040   115987264.49509  22071611.620    90379747.82347
  22635226.840   118948948.86509  22635222.260    92687494.43447
  23277372.840   122323850.89908  23277369.260    95317476.78046
  21763197.440   114366631.51509  21763192.820    89116951.04748
  21085522.940   110805321.61909  21085522.320    86341870.53649
 15 03 06 00 50  0.0000000  0  7G04G16G18G19G21G22G27
  24251679.980   127443450.50708  24251684.180    99306608.27445
  20383451.180   107115772.97209  20383447.860    83466837.65748
  22072187.440   115990272.35109  22072184.060    90382091.61347
  22622960.720   118884490.19309  22622956.060    92637266.91347
  23291551.200   122398359.06808  23291547.740    95375535.07846
  21751661.660   114306010.16909  21751656.780    89069713.66048
  21078611.620   110769002.17209  21078610.940    86313569.67648
 15 03 06 00 50 30.0000000  0  7G04G16G18G19G21G22G27
  24232499.700   127342660.60808  24232504.220    99228071.07345
  20382517.640   107110866.80509  20382514.180    83463014.67848
  22072853.860   115993774.53809  22072850.560    90384820.61047
  22610717.500   118820151.77109  22610712.880    92587133.11847
  23305745.060   122472949.32008  23305741.860    95433657.36146
  21740200.140   114245779.21009  21740195.100    89022780.48148
  21071732.340   110732851.31109  21071731.660    86285400.19349
 15 03 06 00 51  0.0000000  0  7G04G16G18G19G21G22G27
  24213350.980   127242036.56608  24213355.880    99149663.07545
  20381682.960   107106480.25909  20381679.400    83459596.58249
  22073614.160   115997770.04609  22073610.820    90387933.99747
  22598496.920   118755932.44209  22598492.360    92537092.10847
  23319954.060   122547619.27508  23319951.180    95491841.73546
  21728813.120   114185939.55809  21728808.060    88976152.20448
  21064885.100   110696868.49909  21064884.340    86257361.63249
 15 03 06 00 51 30.0000000  0  7G04G16G18G19G21G22G27
  24194234.080   127141579.10108  24194239.260    99071384.82845
  20380947.260   107102613.73309  20380943.600    83456583.70049
  22074468.240   116002258.35409  22074464.880    90391431.39647
  22586298.980   118691832.19209  22586294.460    92487143.89947
  23334177.880   122622366.74408  23334175.180    95550086.51546
  21717500.880   114126493.23109  21717495.880    88929830.42348
  21058069.820   110661053.65609  21058068.960    86229453.97448
 15 03 06 00 52  0.0000000  0  7G04G16G18G19G21G22G27
  24175148.740   127041286.12408  24175153.880    98993234.74845
  20380309.980   107099264.69609  20380306.300    83453974.04848
  22075415.360   116007235.88109  22075412.080    90395309.99747
  22574123.100   118627847.66109  22574118.520    92437285.82647
  23348415.640   122697186.89608  23348413.140    95608387.93046
  21706263.120   114067438.86109  21706258.300    88883814.05648
  21051285.960   110625403.96609  21051285.020    86201674.99948
 15 03 06 00 52 30.0000000  0  7G04G16G18G19G21G22G27
  24156095.580   126941161.44408  24156100.460    98915215.90545
  20379771.740   107096436.45709  20379768.200    83451770.21649
  22076456.200   116012705.89509  22076453.060    90399572.35047
  22561969.800   118563981.73509  22561965.180    92387520.18847
  23362667.480   122772080.72108  23362664.980    95666746.75246
  21695100.800   114008780.96709  21695096.180    88838106.63548
  21044534.040   110589922.44709  21044533.120    86174027.06849
 15 03 06 00 53  0.0000000  0  7G04G16G18G19G21G22G27
  24137075.020   126841208.29208  24137079.620    98837330.76545
  20379333.160   107094132.04009  20379329.740    83449974.55649
  22077591.060   116018669.82709  22077587.980    90404219.57347
  22549839.540   118500236.79909  22549834.920    92337848.82647
  23376933.540   122847048.92008  23376930.940    95725163.52146
  21684014.840   113950524.09109  21684010.280    88792711.68948
  21037814.540   110554611.66709  21037813.680    86146512.17748
 15 03 06 00 53 30.0000000  0  7G04G16G18G19G21G22G27
  24118086.920   126741426.31708  24118091.320    98759579.00545
  20378994.140   107092350.74009  20378990.780    83448586.52449
  22078819.680   116025126.27909  22078816.640    90409250.59447
  22537732.040   118436611.27909  22537727.420    92288270.53147
  23391213.300   122922088.77008  23391210.540    95783636.12246
  21673005.420   113892669.08509  21673000.720    88747629.89348
  21031127.440   110519470.75409  21031126.560    86119129.65348
 15 03 06 00 54  0.0000000  0  7G04G16G18G19G21G22G27
  24099131.740   126641818.12008  24099136.080    98681962.56845
  20378755.020   107091094.37709  20378751.660    83447607.53548
  22080142.440   116032076.96209  22080139.280    90414666.72447
  22525647.620   118373107.01009  22525642.960    92238786.69447
  23405506.720   122997200.14808  23405503.680    95842164.44846
  21662073.100   113835219.26909  21662068.220    88702863.82748
  21024473.120   110484501.63309  21024472.180    86091880.99148
 15 03 06 00 54 30.0000000  0  7G04G16G18G19G21G22G27
  24080209.300   126542382.12908  24080213.680    98604480.36745
  20378615.480   107090361.25209  20378612.080    83447036.26748
  22081558.600   116039518.59709  22081555.260    90420465.41947
  22513585.740   118309721.23509  22513581.100    92189395.20748
  23419812.860   123072378.37508  23419809.580    95900744.87346
  21651217.740   113778173.82809  21651212.740    88658412.86248
  21017851.020   110449701.89509  21017850.020    86064764.31848
 15 03 06 00 55  0.0000000  0  7G04G16G18G19G21G22G27
  24061320.480   126443122.51308  24061324.860    98527135.64545
  20378576.280   107090155.46009  20378572.900    83446875.91048
  22083068.800   116047454.75409  22083065.340    90426649.44647
  22501547.020   118246457.39509  22501542.420    92140098.72347
  23434132.080   123147625.49308  23434128.560    95959378.98346
  21640440.400   113721538.14809  21640435.300    88614281.18648
  21011261.840   110415075.37009  21011260.780    86037782.60548
 15 03 06 00 55 30.0000000  0  7G04G16G18G19G21G22G27
  24042465.480   126344040.02208  24042469.680    98449928.88445
  20378637.340   107090476.58509  20378634.040    83447126.13548
  22084672.920   116055884.74809  22084669.440    90433218.28547
  22489531.400   118183314.83509  22489526.780    92090896.74347
  23448464.040   123222939.63208  23448460.320    96018065.31446
  21629741.300   113665313.65109  21629736.160    88570469.91948
  21004705.540   110380621.87809  21004704.520    86010935.73448
 15 03 06 00 56  0.0000000  0  7G04G16G18G19G21G22G27
  24023644.400   126245135.74108  24023648.360    98372860.99445
  20378798.940   107091325.73309  20378795.640    83447787.80048
  22086371.000   116064808.58909  22086367.540    90440171.94047
  22477538.940   118120294.35809  22477534.440    92041789.89848
  23462808.360   123298319.09808  23462804.560    96076802.54846
  21619120.840   113609502.66009  21619115.800    88526980.86148
  20998182.320   110346342.21509  20998181.300    85984224.31748
