     2.11           OBSERVATION DATA    M                   RINEX VERSION / TYPE
SPIDER V4,0,0,3554                      2015 03 19 00:36    PGM / RUN BY / DATE 
ABKD                                                        MARKER NAME         
ABKD                                                        MARKER NUMBER       
                                                            OBSERVER / AGENCY   
496503              LEICA GRX1200+GNSS  8.20/4.007          REC # / TYPE / VERS 
10301028            LEIAR25         NONE                    ANT # / TYPE        
  5126847.8297   206786.8373  3776118.0908                  APPROX POSITION XYZ 
        0.0000        0.0000        0.0000                  ANTENNA: DELTA H/E/N
     1     1                                                WAVELENGTH FACT L1/2
     4    C1    L1    P2    L2                              # / TYPES OF OBSERV 
    30.000                                                  INTERVAL            
  2015    03    05    00    00    0.0000000     GPS         TIME OF FIRST OBS   
  2015    03    05    23    59   30.0000000     GPS         TIME OF LAST OBS    
    16                                                      LEAP SECONDS        
    38                                                      # OF SATELLITES     
   G 1   823   822   822   822                              PRN / # OF OBS      
   G 2   930   930   930   930                              PRN / # OF OBS      
   G 3   828   828   828   828                              PRN / # OF OBS      
   G 4   836   836   835   835                              PRN / # OF OBS      
   G 5   665   665   665   665                              PRN / # OF OBS      
   G 6   734   734   734   734                              PRN / # OF OBS      
   G 7   699   699   699   699                              PRN / # OF OBS      
   G 9   783   783   782   782                              PRN / # OF OBS      
   G10   774   773   773   773                              PRN / # OF OBS      
   G11   787   787   787   787                              PRN / # OF OBS      
   G12   808   808   808   808                              PRN / # OF OBS      
   G13   811   811   811   811                              PRN / # OF OBS      
   G14   432   432   432   432                              PRN / # OF OBS      
   G15   724   724   724   724                              PRN / # OF OBS      
   G16   685   685   685   685                              PRN / # OF OBS      
   G17   934   934   934   934                              PRN / # OF OBS      
   G18   933   932   932   932                              PRN / # OF OBS      
   G19   780   780   780   780                              PRN / # OF OBS      
   G20   782   782   782   782                              PRN / # OF OBS      
   G21   710   710   709   709                              PRN / # OF OBS      
   G22   790   789   789   789                              PRN / # OF OBS      
   G23   716   716   716   716                              PRN / # OF OBS      
   G24   828   821   818   816                              PRN / # OF OBS      
   G25   847   847   847   847                              PRN / # OF OBS      
   G27   821   821   821   821                              PRN / # OF OBS      
   G28   910   910   910   910                              PRN / # OF OBS      
   G29   731   731   730   730                              PRN / # OF OBS      
   G30   687   687   687   687                              PRN / # OF OBS      
   G31   795   795   794   794                              PRN / # OF OBS      
   G32   733   733   727   727                              PRN / # OF OBS      
   R 2    30    30    30    30                              PRN / # OF OBS      
   R 3    30    30    30    30                              PRN / # OF OBS      
   R 9    30    30    30    30                              PRN / # OF OBS      
   R15    30    30    30    30                              PRN / # OF OBS      
   R16    30    30    30    30                              PRN / # OF OBS      
   R17    30    30    30    30                              PRN / # OF OBS      
   R18    30    30    30    30                              PRN / # OF OBS      
   R19    30    30    30    30                              PRN / # OF OBS      
BIT 2 OF LLI FLAGS DATA COLLECTED UNDER A/S CONDITION       COMMENT             
SNR is mapped to RINEX snr flag value [2-9]                 COMMENT             
Lx:     = 25dBHz -> 1; 26-27dBHz -> 2; 28-31dBHz -> 3       COMMENT             
       32-35dBHz -> 4; 36-38dBHz -> 5; 39-41dBHz -> 6       COMMENT             
       42-44dBHz -> 7; 45-48dBHz -> 8; >=49dBHz -> 9        COMMENT             
                                                            END OF HEADER       
 15 03 05 00 00  0.0000000  0 15G16G18G19G21G22G27G31R02R03R09R15R16
                                R17R18R19
  21066353.140   110704460.92709  21066350.140    86263222.00948
  22335548.520   117374143.13409  22335545.600    91460375.30047
  24397186.920   128208087.15108  24397182.540    99902397.91945
  21707521.580   114074049.45908  21707517.940    88888965.28248
  23333998.500   122621018.94108  23333994.260    95548852.29546
  22199114.840   116657174.25909  22199114.520    90901703.31848
  23711216.020   124603307.86308  23711213.420    97093496.17946
  22526571.560   120206116.09308  22526574.380    93493659.01307
  22562010.160   120776218.04907  22562011.200    93937064.64607
  21548572.400   115068184.57008  21548573.580    89497485.35605
  22546358.360   120480931.14907  22546363.500    93707417.07806
  19797053.560   105752324.58908  19797056.080    82251828.84308
  22559926.500   120723054.78508  22559927.400    93895698.51907
  20053914.760   107049315.76609  20053917.180    83260644.57608
  21740191.620   116295398.85808  21740191.700    90451997.28107
 15 03 05 00 00 30.0000000  0 15G16G18G19G21G22G27G31R02R03R09R15R16
                                R17R18R19
  21056065.660   110650399.51109  21056062.540    86221096.23448
  22326411.420   117326127.48109  22326408.520    91422960.51847
  24381945.940   128127995.04807  24381941.260    99839988.52145
  21717319.920   114125540.34108  21717316.340    88929088.04048
  23316673.380   122529975.30908  23316669.100    95477909.25146
  22187953.840   116598523.00809  22187953.480    90856001.06348
  23729851.640   124701238.42808  23729849.100    97169805.66346
  22525571.340   120200779.24708  22525574.160    93489508.15607
  22544669.560   120683392.07407  22544670.520    93864866.67806
  21534147.640   114991156.98008  21534148.760    89437575.00405
  22571032.880   120612784.40407  22571037.880    93809969.54706
  19804243.140   105790729.77308  19804245.640    82281699.51908
  22574981.180   120803615.79608  22574982.240    93958357.06407
  20058848.360   107075651.45009  20058850.780    83281127.88508
  21729375.620   116237540.79808  21729375.720    90406996.62307
 15 03 05 00 01  0.0000000  0 15G16G18G19G21G22G27G31R02R03R09R15R16
                                R17R18R19
  21045847.820   110596703.95009  21045844.560    86179255.55148
  22317345.660   117278486.82409  22317342.880    91385837.94947
  24366720.340   128047985.31007  24366715.700    99777643.34845
  21727169.260   114177299.06108  21727165.680    88969419.51548
  23299368.280   122439037.23308  23299364.000    95407048.46246
  22176817.080   116539998.67109  22176816.640    90810397.71448
  23748498.500   124799228.32608  23748496.020    97246161.38346
  22524708.180   120196173.70008  22524710.960    93485926.08907
  22527394.160   120590914.87308  22527394.960    93792939.99806
  21519842.060   114914765.26508  21519843.000    89378159.23005
  22595740.140   120744812.55307  22595745.040    93912658.04706
  19811584.260   105829944.13608  19811586.680    82312199.57508
  22590033.700   120884164.80708  22590034.720    94021006.28207
  20063822.480   107102203.98709  20063825.000    83301779.86108
  21718602.200   116179910.51708  21718602.220    90362173.11307
 15 03 05 00 01 30.0000000  0 15G16G18G19G21G22G27G31R02R03R09R15R16
                                R17R18R19
  21035699.720   110543375.20909  21035696.420    86137700.69748
  22308351.340   117231221.56909  22308348.620    91349007.90047
  24351510.240   127968057.05007  24351505.720    99715361.63146
  21737069.140   114229323.04009  21737065.480    89009957.68648
  23282083.660   122348206.33608  23282079.360    95336271.19046
  22165704.280   116481600.19709  22165703.760    90764892.44348
  23767155.720   124897273.25408  23767153.440    97322559.96746
  22523982.060   120192299.20908  22523984.840    93482912.63107
  22510184.440   120498789.48508  22510184.980    93721286.95606
  21505655.980   114839011.68508  21505656.760    89319239.78905
  22620479.160   120877010.42607  22620484.120    94015478.53806
  19819076.320   105869964.40108  19819078.540    82343326.44608
  22605083.660   120964699.70708  22605084.480    94083644.52707
  20068836.620   107128970.76009  20068839.320    83322598.46208
  21707871.020   116122506.15608  21707870.900    90317525.29407
 15 03 05 00 02  0.0000000  0 15G16G18G19G21G22G27G31R02R03R09R15R16
                                R17R18R19
  21025623.040   110490421.96909  21025619.700    86096438.44248
  22299430.140   117184340.66409  22299427.400    91312477.35647
  24336316.580   127888216.82907  24336312.860    99653148.57345
  21747020.380   114281616.70209  21747016.600    89050706.00148
  23264821.260   122257491.91408  23264817.000    95265584.68546
  22154616.660   116423334.22709  22154616.060    90719490.42348
  23785824.080   124995376.85708  23785822.040    97399004.27046
  22523394.380   120189163.13708  22523397.100    93480473.49307
  22493042.380   120407027.01207  22493042.680    93649916.18306
  21491591.280   114763906.07108  21491591.800    89260824.32504
  22645250.420   121009380.28807  22645255.260    94118432.81106
  19826720.060   105910795.26008  19826722.140    82375083.76408
  22620132.180   121045226.96208  22620133.000    94146276.80607
  20073891.920   107155956.90309  20073894.740    83343587.68008
  21697183.360   116065333.72908  21697182.980    90273057.88007
 15 03 05 00 02 30.0000000  0 15G16G18G19G21G22G27G31R02R03R09R15R16
                                R17R18R19
  21015616.640   110437837.99809  21015613.240    86055463.92748
  22290580.880   117137837.41809  22290578.060    91276241.07547
  24321138.180   127808456.43907  24321135.140    99590997.68645
  21757021.060   114334170.28609  21757017.140    89091656.84348
  23247580.060   122166888.46308  23247575.780    95194984.64346
  22143552.740   116365192.67209  22143552.140    90674185.32648
  23804501.580   125093528.01608  23804499.740    97475485.62646
  22522943.660   120186758.04108  22522946.360    93478602.88507
  22475967.460   120315623.64407  22475967.620    93578824.70207
  21477646.820   114689443.40408  21477647.260    89202908.93505
  22670051.420   121141908.70107  22670056.080    94221510.40106
  19834513.600   105952426.43908  19834515.620    82407463.56208
  22635177.500   121125737.23608  22635178.400    94208895.89707
  20078986.600   107183152.74709  20078989.500    83364740.01208
  21686537.320   116008384.17408  21686536.840    90228763.81407
 15 03 05 00 03  0.0000000  0 15G16G18G19G21G22G27G31R02R03R09R15R16
                                R17R18R19
  21005682.040   110385630.96009  21005678.520    86014783.12748
  22281804.940   117091719.76309  22281802.120    91240305.26246
  24305976.200   127728781.64307  24305973.480    99528913.43645
  21767071.820   114386987.51208  21767067.880    89132813.12548
  23230361.620   122076404.65308  23230357.280    95124477.80246
  22132513.500   116307181.45309  22132513.060    90628981.80148
  23823188.820   125191729.83908  23823187.120    97552006.46446
  22522631.180   120185090.58508  22522633.920    93477306.00807
  22458961.480   120224589.92507  22458961.780    93508020.74607
  21463824.480   114615632.98608  21463824.980    89145500.86205
  22694882.700   121274598.46907  22694887.120    94324713.49406
  19842457.700   105994861.62408  19842459.680    82440468.69308
  22650220.760   121206236.17608  22650221.600    94271506.18707
  20084121.420   107210562.93009  20084124.300    83386059.04508
  21675933.860   115951663.05908  21675933.600    90184647.42108
 15 03 05 00 03 30.0000000  0 15G16G18G19G21G22G27G31R02R03R09R15R16
                                R17R18R19
  20995818.480   110333797.16109  20995814.860    85974393.15948
  22273101.640   117045983.83409  22273098.760    91204666.88847
  24290829.620   127649186.57508  24290827.140    99466891.34945
  21777171.360   114440061.31308  21777167.460    89174169.33448
  23213165.200   121986037.01708  23213160.940    95054061.52346
  22121497.860   116249294.65408  22121497.620    90583875.22148
  23841884.040   125289973.05808  23841882.380    97628559.57046
  22522455.880   120184155.39108  22522458.580    93476578.65807
  22442024.200   120133923.76007  22442024.760    93437502.64207
  21450123.680   114542471.77708  21450124.340    89088597.72205
  22719742.280   121407439.44507  22719746.440    94428034.20706
  19850550.780   106038092.54708  19850552.660    82474092.73208
  22665260.540   121286716.65908  22665261.300    94334102.11707
  20089294.980   107238179.71009  20089297.780    83407538.76708
  21665371.820   115895163.61708  21665371.820    90140703.43308
 15 03 05 00 04  0.0000000  0 15G16G18G19G21G22G27G31R02R03R09R15R16
                                R17R18R19
  20986026.800   110282341.35909  20986023.120    85934297.74248
  22264471.760   117000633.80509  22264468.960    91169329.22047
  24275698.860   127569674.12308  24275696.740    99404933.66445
  21787319.820   114493392.24808  21787316.000    89215725.91148
  23195991.860   121895790.93708  23195987.680    94983739.96446
  22110506.520   116191535.22709  22110506.260    90538867.91248
  23860587.140   125388257.82908  23860585.520    97705145.05146
  22522418.580   120183955.86808  22522421.180    93476423.50907
  22425156.860   120043632.36308  22425157.700    93367276.04207
  21436545.620   114469965.93708  21436546.320    89032204.30405
  22744629.720   121540429.70307  22744633.820    94531471.01006
  19858792.860   106082120.17108  19858794.640    82508336.43108
  22680297.340   121367181.29208  22680298.240    94396685.70407
  20094507.560   107266004.63709  20094510.280    83429180.39008
  21654851.600   115838888.12308  21654851.660    90096933.63307
 15 03 05 00 04 30.0000000  0 15G16G18G19G21G22G27G31R02R03R09R15R16
                                R17R18R19
  20976306.920   110231263.07109  20976303.200    85894496.49348
  22255915.380   116955669.64109  22255912.540    91134292.22547
  24260583.520   127490241.65008  24260581.400    99343038.29445
  21797516.280   114546975.45908  21797512.540    89257479.06047
  23178841.740   121805666.69708  23178837.520    94913513.33346
  22099539.000   116133900.75209  22099538.700    90493957.96248
  23879296.920   125486578.67008  23879295.460    97781758.63046
  22522518.740   120184490.05008  22522521.280    93476838.99807
  22408359.980   119953718.03408  22408361.000    93297342.70607
  21423090.440   114398115.94208  21423091.120    88976320.98805
  22769543.760   121673562.23707  22769547.860    94635018.46106
  19867183.120   106126939.25808  19867184.820    82543195.70608
  22695330.580   121447626.82908  22695331.440    94459254.44706
  20099758.380   107294033.82609  20099761.060    83450980.87208
  21644372.480   115782833.16708  21644372.660    90053335.37408
 15 03 05 00 05  0.0000000  0 15G16G18G19G21G22G27G31R02R03R09R15R16
                                R17R18R19
  20966659.820   110180567.22109  20966656.060    85854993.24148
  22247433.260   116911095.77809  22247430.500    91099559.36147
  24245484.080   127410892.27008  24245481.660    99281207.67446
  21807761.000   114600812.18808  21807757.300    89299429.76348
  23161715.880   121715669.82408  23161711.540    94843385.95146
  22088595.860   116076394.25009  22088595.520    90449147.71948
  23898013.480   125584935.65508  23898012.120    97858400.37146
  22522757.080   120185761.84608  22522759.540    93477828.19407
  22391634.920   119864187.81008  22391635.940    93227708.12307
  21409759.280   114326928.08808  21409759.920    88920952.67405
  22794484.400   121806837.22207  22794488.560    94738676.70006
  19875721.680   106172550.76308  19875723.440    82578671.30708
  22710360.480   121528055.29907  22710361.180    94521809.89806
  20105047.760   107322268.76709  20105050.400    83472941.38608
  21633935.100   115727001.05108  21633935.280    90009910.44307
 15 03 05 00 05 30.0000000  0 15G16G18G19G21G22G27G31R02R03R09R15R16
                                R17R18R19
  20957086.140   110130257.13009  20957082.360    85815790.58348
  22239026.100   116866915.76009  22239023.260    91065133.38747
  24230400.660   127331627.08608  24230397.520    99219442.65645
  21818053.960   114654902.25808  21818050.280    89341577.87147
  23144615.080   121625804.44008  23144610.500    94773361.01947
  22077677.300   116019017.30009  22077676.960    90404438.42848
  23916736.700   125683327.10108  23916735.320    97935068.97945
  22523133.840   120187772.87808  22523136.460    93479392.36107
  22374982.740   119775047.26107  22374983.640    93158376.59807
  21396552.980   114256406.82008  21396553.680    88866102.81905
  22819450.900   121940250.35107  22819455.200    94842442.38406
  19884408.380   106218953.75808  19884410.120    82614762.51108
  22725387.420   121608467.99907  22725388.040    94584353.10706
  20110375.700   107350709.60409  20110378.280    83495062.04608
  21623539.580   115671392.67108  21623539.780    89966659.52007
 15 03 05 00 06  0.0000000  0 15G16G18G19G21G22G27G31R02R03R09R15R16
                                R17R18R19
  20947586.160   110080334.48009  20947582.420    85776889.83748
  22230694.120   116823130.77209  22230691.220    91031015.24847
  24215333.120   127252446.06608  24215329.500    99157743.23945
  21828394.740   114709243.34009  21828391.040    89383921.58947
  23127539.620   121536072.66308  23127535.060    94703440.21546
  22066783.300   115961769.51709  22066783.080    90359829.79848
  23935465.920   125781749.60808  23935464.560    98011761.80346
  22523649.020   120190523.21808  22523651.800    93481531.54907
  22358404.060   119686300.49007  22358404.860    93089351.39807
  21383471.980   114186554.82508  21383472.860    88811773.50905
  22844442.660   122073798.68807  22844447.120    94946313.24606
  19893242.700   106266145.14008  19893244.320    82651466.91208
  22740411.200   121688863.66808  22740411.880    94646883.07007
  20115741.840   107379354.56209  20115744.520    83517341.47108
  21613185.860   115616007.07908  21613186.000    89923581.85408
 15 03 05 00 06 30.0000000  0 15G16G18G19G21G22G27G31R02R03R09R15R16
                                R17R18R19
  20938160.000   110030800.08709  20938156.340    85738291.61948
  22222437.380   116779741.45009  22222434.420    90997205.40547
  24200281.260   127173347.82108  24200277.020    99096108.29845
  21838782.760   114763832.59309  21838779.080    89426458.67248
  23110489.880   121446476.20008  23110485.520    94633624.85946
  22055913.760   115904649.94809  22055913.640    90315321.07248
  23954200.260   125880199.29808  23954199.040    98088475.76546
  22524302.800   120194012.25708  22524305.600    93484245.26707
  22341899.620   119597950.88007  22341900.340    93020635.05907
  21370516.620   114117373.96808  21370517.560    88757966.19105
  22869458.580   122207476.21207  22869463.280    95050284.56206
  19902224.000   106314121.84308  19902225.660    82688782.11008
  22755431.620   121769240.95908  22755432.280    94709398.73906
  20121145.800   107408201.07009  20121148.460    83539777.63808
  21602873.440   115560842.36108  21602873.560    89880676.00808
 15 03 05 00 07  0.0000000  0 15G16G18G19G21G22G27G31R02R03R09R15R16
                                R17R18R19
  20928808.820   109981659.71209  20928805.160    85700000.43248
  22214256.980   116736753.36809  22214253.980    90963708.20247
  24185245.780   127094336.36908  24185241.240    99034540.99845
  21849218.320   114818671.78309  21849214.720    89469190.51147
  23093467.140   121357021.83108  23093462.940    94563920.20946
  22045069.380   115847662.48309  22045069.260    90270915.28248
  23972939.980   125978677.15708  23972938.600    98165211.68546
  22525095.960   120198244.20208  22525098.680    93487536.82107
  22325470.960   119510006.50007  22325471.580    92952233.92707
  21357688.280   114048871.32408  21357689.000    88704686.36305
  22894498.360   122341281.29207  22894503.360    95154355.08906
  19911352.460   106362884.91908  19911354.300    82726708.94608
  22770449.180   121849602.90507  22770449.940    94771902.43106
  20126588.020   107437251.63109  20126590.540    83562372.52908
  21592602.800   115505901.64408  21592603.120    89837944.36808
 15 03 05 00 07 30.0000000  0 15G16G18G19G21G22G27G31R02R03R09R15R16
                                R17R18R19
  20919532.500   109932912.33409  20919528.800    85662015.47148
  22206152.780   116694165.54709  22206149.780    90930522.89747
  24170226.100   127015408.83907  24170221.880    98973039.08046
  21859700.520   114873756.03508  21859696.980    89512113.30848
  23076471.340   121267708.99208  23076467.180    94494325.83146
  22034249.700   115790804.32909  22034249.440    90226610.24748
  23991684.000   126077176.99508  23991682.340    98241964.73246
  22526027.780   120203216.46008  22526030.520    93491404.14707
  22309118.080   119422468.47207  22309118.680    92884148.83407
  21344986.980   113981046.97408  21344987.440    88651934.08605
  22919560.940   122475208.13407  22919566.220    95258520.31507
  19920627.120   106412428.96808  19920629.040    82765243.18808
  22785463.260   121929946.13308  22785464.120    94834391.58706
  20132067.620   107466501.90209  20132070.140    83585122.74208
  21582373.340   115451181.42208  21582373.780    89795384.22108
 15 03 05 00 08  0.0000000  0 15G16G18G19G21G22G27G31R02R03R09R15R16
                                R17R18R19
  20910331.700   109884561.85409  20910328.080    85624339.78048
  22198125.440   116651981.43309  22198122.360    90897652.17747
  24155222.580   126936567.19307  24155218.940    98911604.11546
  21870229.340   114929085.36009  21870225.860    89555227.06248
  23059503.320   121178542.15208  23059499.200    94424845.22146
  22023454.940   115734077.49809  22023454.600    90182407.55048
  24010432.100   126175697.84308  24010430.020    98318734.16345
  22527098.720   120208931.40608  22527101.500    93495849.14507
  22292842.380   119335343.45407  22292843.020    92816384.96007
  21332413.540   113913905.44908  21332414.000    88599712.90405
  22944645.820   122609254.38107  22944651.240    95362778.42206
  19930047.820   106462753.21808  19930049.840    82804384.24808
  22800474.060   122010271.87008  22800474.880    94896867.15206
  20137584.740   107495952.40209  20137587.180    83608028.68808
  21572185.340   115396682.77008  21572185.740    89752996.41608
 15 03 05 00 08 30.0000000  0 15G16G18G19G21G22G27G31R02R03R09R15R16
                                R17R18R19
  20901206.500   109836608.76409  20901202.940    85586973.74448
  22190175.040   116610201.59409  22190171.860    90865096.46747
  24140235.060   126857809.60607  24140232.080    98850234.63245
  21880804.180   114984656.40109  21880800.640    89598529.17447
  23042563.340   121089522.48708  23042559.240    94355479.28947
  22012684.860   115677480.66909  22012684.540    90138306.16248
  24029183.440   126274235.80408  24029180.920    98395516.93646
  22528308.580   120215387.81408  22528311.180    93500870.80807
  22276644.240   119248634.00007  22276644.920    92748944.30607
  21319968.220   113847448.65608  21319968.940    88548024.30805
  22969751.940   122743414.20607  22969757.440    95467124.86706
  19939613.900   106513853.85308  19939615.960    82844129.17808
  22815481.300   122090578.26008  22815481.960    94959327.68406
  20143138.880   107525600.51709  20143141.280    83631088.34408
  21562038.400   115342403.56408  21562038.520    89710779.28407
 15 03 05 00 09  0.0000000  0 15G16G18G19G21G22G27G31R02R03R09R15R16
                                R17R18R19
  20892156.640   109789051.57909  20892153.120    85549916.20648
  22182301.160   116568824.28009  22182298.020    90832854.41647
  24125263.320   126779133.07008  24125260.580    98788928.29745
  21891424.020   115040463.94809  21891420.420    89642015.57848
  23025651.360   121000649.67708  23025647.260    94286227.81646
  22001938.980   115621010.71709  22001938.520    90094303.63548
  24047936.760   126372784.23908  24047933.980    98472307.86045
  22529656.780   120222582.55008  22529659.340    93506466.72907
  22260523.800   119162340.87907  22260524.580    92681827.47807
  21307650.920   113781675.89308  21307652.000    88496867.73105
  22994877.980   122877680.37507  22994883.480    95571554.03506
  19949324.320   106565725.02108  19949326.460    82884473.41208
  22830484.180   122170861.46908  22830484.820    95021770.19006
  20148729.100   107555441.42409  20148731.540    83654297.93408
  21551931.840   115288339.89708  21551931.760    89668729.80108
 15 03 05 00 09 30.0000000  0 15G16G18G19G21G22G27G31R02R03R09R15R16
                                R17R18R19
  20883182.380   109741891.44009  20883178.820    85513168.05448
  22174503.980   116527850.08509  22174500.920    90800926.47747
  24110307.200   126700536.59708  24110304.360    98727684.33446
  21902088.380   115096505.39808  21902084.720    89685684.24548
  23008767.700   120911925.11908  23008763.560    94217091.84647
  21991217.120   115564666.70809  21991216.600    90050399.23848
  24066691.480   126471339.68308  24066688.640    98549104.24345
  22531143.220   120230514.71908  22531145.860    93512636.22607
  22244481.940   119076467.85107  22244482.680    92615037.37907
  21295462.080   113716589.21108  21295463.380    88446244.77705
  23020022.860   123012047.24107  23020028.360    95676061.51606
  19959178.280   106618362.69808  19959180.400    82925413.80508
  22845482.360   122251119.80808  22845482.960    95084193.33907
  20154355.020   107585472.82309  20154357.400    83677655.70108
  21541865.300   115234489.98008  21541865.100    89626846.57308
 15 03 05 00 10  0.0000000  0 15G16G18G19G21G22G27G31R02R03R09R15R16
                                R17R18R19
  20874285.600   109695138.30909  20874282.000    85476737.05748
  22166785.300   116487288.47409  22166782.320    90769320.04147
  24095367.960   126622028.06408  24095365.020    98666508.91146
  21912798.420   115152786.97008  21912794.740    89729540.02347
  22991914.300   120823359.20308  22991910.080    94148079.49947
  21980520.740   115508456.61509  21980520.220    90006599.19148
  24085448.280   126569906.55408  24085445.620    98625909.52646
  22532769.420   120239192.58608  22532771.900    93519385.71607
  22228520.660   118991026.51507  22228521.380    92548583.05207
  21283403.860   113652199.24808  21283405.100    88396163.71905
  23045187.240   123146518.69207  23045192.880    95780650.32206
  19969176.760   106671772.11308  19969178.760    82966954.45908
  22860477.300   122331360.92408  22860477.900    95146603.08707
  20160017.780   107615701.33809  20160020.180    83701166.76408
  21531840.000   115180861.17108  21531839.800    89585135.30908
 15 03 05 00 10 30.0000000  0 15G16G18G19G21G22G27G31R02R03R09R15R16
                                R17R18R19
  20865465.920   109648790.37309  20865462.320    85440621.79248
  22159144.960   116447138.30309  22159142.000    90738034.20347
  24080444.540   126543603.92508  24080441.700    98605399.29246
  21923553.040   115209303.09008  21923549.340    89773578.56447
  22975090.920   120734951.40208  22975086.580    94079190.36847
  21969849.180   115452377.19409  21969848.740    89962900.96548
  24104206.040   126668478.92508  24104203.620    98702719.09246
  22534534.740   120248612.43108  22534537.200    93526712.28507
  22212640.420   118906018.21308  22212641.200    92482465.51507
  21271476.220   113588505.58708  21271477.140    88346624.20505
  23070369.980   123281087.34407  23070375.600    95885314.73606
  19979318.500   106725947.33408  19979320.460    83009090.72908
  22875468.320   122411580.76108  22875468.960    95208996.28807
  20165716.640   107646122.24009  20165718.980    83724827.46608
  21521855.140   115127449.37808  21521855.200    89543592.83908
 15 03 05 00 11  0.0000000  0 15G16G18G19G21G22G27G31R02R03R09R15R16
                                R17R18R19
  20856724.280   109602852.92109  20856720.740    85404826.37548
  22151583.780   116407403.82609  22151580.820    90707072.28247
  24065537.660   126465268.03308  24065534.740    98544358.37946
  21934352.420   115266054.26208  21934348.700    89817800.24847
  22958298.660   120646707.71708  22958294.240    94010429.08746
  21959203.100   115396431.89709  21959202.740    89919307.25048
  24122964.840   126767056.93208  24122962.580    98779533.04346
  22536439.680   120258778.01808  22536442.320    93534618.88807
  22196842.520   118821450.58708  22196843.300    92416690.71807
  21259680.120   113525514.25708  21259680.680    88297630.94805
  23095570.820   123415752.66307  23095576.300    95990054.32506
  19989603.620   106780888.81308  19989605.640    83051822.97008
  22890455.960   122491782.20108  22890456.680    95271375.14307
  20171451.900   107676737.45309  20171454.280    83748639.29408
  21511911.260   115074257.06908  21511911.680    89502221.06608
 15 03 05 00 11 30.0000000  0 15G16G18G19G21G22G27G31R02R03R09R15R16
                                R17R18R19
  20848060.400   109557324.16109  20848056.880    85369349.42948
  22144101.440   116368083.39109  22144098.500    90676432.99047
  24050646.640   126387016.25907  24050643.500    98483383.01846
  21945195.720   115323036.16408  21945191.980    89862201.74147
  22941537.420   120558627.15808  22941532.940    93941794.93946
  21948581.860   115340617.30109  21948581.460    89875815.38148
  24141723.440   126865634.12508  24141721.460    98856346.36046
  22538483.760   120269685.67108  22538486.380    93543102.64307
  22181126.980   118737323.79508  22181127.860    92351258.81907
  21248015.260   113463224.29308  21248015.780    88249183.21605
  23120788.240   123550506.46107  23120793.640    96094862.71406
  20000030.880   106836589.82108  20000033.020    83095145.96808
  22905439.500   122571961.13108  22905440.020    95333736.50007
  20177222.640   107707542.29509  20177225.140    83772598.62208
  21502007.760   115021280.06808  21502008.240    89461016.76508
 15 03 05 00 12  0.0000000  0 15G16G18G19G21G22G27G31R02R03R09R15R16
                                R17R18R19
  20839474.860   109512206.86209  20839471.300    85334193.10148
  22136698.300   116329179.11309  22136695.300    90646117.98447
  24035771.700   126308849.40907  24035768.240    98422473.86646
  21956082.700   115380247.61508  21956078.920    89906782.09647
  22924807.800   120470713.02408  22924803.300    93873290.46847
  21937985.640   115284934.32509  21937985.120    89832426.07248
  24160481.620   126964208.76108  24160479.680    98933157.68146
  22540667.060   120281336.16208  22540669.640    93552164.15707
  22165494.720   118653642.99808  22165495.500    92286173.78507
  21236482.360   113401639.57108  21236483.120    88201283.99605
  23146021.660   123685345.03407  23146026.960    96199737.06206
  20010600.100   106893048.62808  20010602.220    83139058.35208
  22920418.740   122652117.90107  22920419.260    95396080.65106
  20183028.740   107738536.03309  20183031.280    83796704.85208
  21492144.480   114968518.07408  21492144.660    89419979.69807
 15 03 05 00 12 30.0000000  0 15G16G18G19G21G22G27G31R02R03R09R15R16
                                R17R18R19
  20830968.200   109467503.98309  20830964.560    85299359.69748
  22129374.960   116290694.33109  22129371.860    90616129.86547
  24020913.080   126230768.76008  24020909.200    98361631.84845
  21967013.240   115437688.16108  21967009.540    89951540.96147
  22908110.640   120382969.26608  22908106.120    93804918.74347
  21927414.660   115229384.25709  21927414.160    89789140.31348
  24179238.940   127062778.65908  24179236.980    99009965.32845
  22542989.840   120293730.67108  22542992.360    93561804.35907
  22149946.840   118570413.64208  22149947.520    92221439.88807
  21225082.340   113340763.77508  21225083.120    88153936.15405
  23171270.680   123820266.75507  23171275.760    96304676.06606
  20021310.900   106950263.37408  20021312.940    83183558.69008
  22935393.880   122732253.43507  22935394.600    95458408.26307
  20188870.320   107769718.69309  20188872.780    83820958.03008
  21482321.620   114915972.19308  21482321.480    89379110.72608
 15 03 05 00 13  0.0000000  0 15G16G18G19G21G22G27G31R02R03R09R15R16
                                R17R18R19
  20822540.140   109423214.23109  20822536.420    85264848.21248
  22122130.940   116252626.97009  22122127.900    90586467.01547
  24006070.360   126152770.92208  24006066.300    98300854.38646
  21977986.240   115495351.69408  21977982.580    89996473.59547
  22891445.700   120295394.91208  22891441.280    93736679.03847
  21916868.500   115173963.78809  21916867.920    89745955.55348
  24197994.200   127161337.82408  24197992.340    99086764.60246
  22545451.320   120306865.57808  22545453.860    93572020.42707
  22134483.360   118487636.41708  22134484.000    92157057.64107
  21213814.900   113280596.01708  21213815.560    88107139.01405
  23196533.660   123955262.82507  23196538.380    96409672.90806
  20032161.980   107008227.46808  20032164.040    83228641.86808
  22950364.280   122812363.65307  22950365.240    95520716.19607
  20194746.440   107801085.41709  20194748.800    83845354.38808
  21472538.220   114863637.81208  21472537.880    89338406.25207
 15 03 05 00 13 30.0000000  0 15G16G18G19G21G22G27G31R02R03R09R15R16
                                R17R18R19
  20814191.240   109379340.55809  20814187.520    85230660.93848
  22114966.820   116214979.99809  22114963.980    90557131.73247
  23991243.980   126074857.16508  23991239.740    98240142.41745
  21989001.620   115553238.01208  21988998.000    90041579.81247
  22874813.860   120207994.11809  22874809.480    93668574.56246
  21906347.320   115118674.36509  21906346.760    89702872.92048
  24216747.000   127259884.69008  24216745.320    99163554.28145
  22548051.700   120320741.85608  22548054.320    93582813.09007
  22119105.360   118405316.66408  22119105.900    92093031.20407
  21202680.760   113221140.33908  21202681.380    88060895.71905
  23221809.980   124090330.32207  23221814.420    96514725.29106
  20043153.080   107066939.45208  20043155.140    83274306.72808
  22965329.980   122892449.18307  22965331.080    95583004.91806
  20200657.040   107832636.40909  20200659.360    83869894.04608
  21462794.320   114811515.56008  21462794.260    89297866.75708
 15 03 05 00 14  0.0000000  0 15G16G18G19G21G22G27G31R02R03R09R15R16
                                R17R18R19
  20805922.240   109335886.78809  20805918.540    85196800.86248
  22107883.280   116177756.81909  22107880.660    90528126.69047
  23976434.020   125997029.44108  23976429.840    98179497.51345
  22000059.360   115611347.06208  22000055.700    90086859.59947
  22858215.980   120120771.63108  22858211.700    93600609.02447
  21895851.500   115063518.17209  21895850.900    89659894.10948
  24235497.200   127358418.03107  24235495.680    99240333.42946
  22550791.420   120335361.50308  22550794.080    93594183.96607
  22103813.940   118323460.68808  22103814.540    92029365.46207
  21191680.760   113162401.41708  21191681.540    88015209.90705
  23247099.220   124225467.93407  23247103.700    96619832.18306
  20054283.920   107126398.32708  20054285.960    83320552.49408
  22980291.660   122972511.91607  22980292.800    95645275.91306
  20206602.240   107864372.34709  20206604.580    83894577.56108
  21453090.420   114759606.92308  21453090.820    89257493.40408
 15 03 05 00 14 30.0000000  0 15G16G18G19G21G22G27G31R02R03R09R15R16
                                R17R18R19
  20797733.740   109292855.94809  20797730.120    85163270.33348
  22100880.960   116140960.11409  22100878.400    90499453.94847
  23961640.640   125919289.12908  23961636.560    98118920.69146
  22011159.480   115669678.38908  22011155.780    90132312.57748
  22841652.640   120033730.95209  22841648.500    93532785.15147
  21885381.200   115008496.50309  21885380.600    89617020.10448
  24254244.500   127456936.39608  24254243.140    99317100.86745
  22553670.540   120350725.49508  22553673.260    93606133.74407
  22088610.080   118242073.72208  22088610.600    91966064.50507
  21180815.660   113104382.83508  21180816.580    87970084.35005
  23272400.860   124360671.91707  23272405.480    96724990.70106
  20065554.200   107186602.00908  20065556.240    83367377.56108
  22995249.280   123052552.47507  22995250.260    95707529.65506
  20212582.020   107896292.90409  20212584.400    83919404.65908
  21443426.560   114707912.05108  21443427.140    89217286.30508
 15 03 05 00 15  0.0000000  0  7G16G18G19G21G22G27G31
  20789625.900   109250248.60709  20789622.300    85130069.82248
  22093959.960   116104590.24509  22093957.380    90471113.82747
  23946863.500   125841634.72408  23946859.480    98058410.81246
  22022301.300   115728228.66209  22022297.540    90177936.17948
  22825124.140   119946873.55808  22825120.100    93465104.10447
  21874936.220   114953608.28009  21874935.640    89574250.08948
  24272988.400   127555435.71208  24272986.980    99393853.49045
 15 03 05 00 15 30.0000000  0  7G16G18G19G21G22G27G31
  20781598.700   109208064.92609  20781595.020    85097199.41948
  22087120.160   116068646.97709  22087117.480    90443106.11947
  23932102.420   125764064.59608  23932098.540    97997966.59446
  22033484.200   115786994.79309  22033480.400    90223727.96647
  22808630.720   119860200.25608  22808626.540    93397566.50947
  21864516.320   114898851.96609  21864515.920    89531582.85248
  24291728.020   127653911.16408  24291726.460    99470587.52546
 15 03 05 00 16  0.0000000  0  7G16G18G19G21G22G27G31
  20773652.680   109166308.40109  20773649.000    85064661.88248
  22080362.240   116033133.64409  22080359.380    90415433.43547
  23917357.620   125686580.60908  23917353.840    97937589.51246
  22044708.000   115845976.25008  22044704.180    90269687.55747
  22792173.280   119773715.67808  22792168.840    93330175.98047
  21854121.880   114844229.52209  21854121.740    89489019.94148
  24310462.940   127752362.01208  24310461.160    99547302.38645
 15 03 05 00 16 30.0000000  0  7G16G18G19G21G22G27G31
  20765788.580   109124982.74709  20765784.980    85032460.07148
  22073686.580   115998052.88809  22073683.620    90388097.80747
  23902629.540   125609184.63808  23902625.860    97877281.00446
  22055972.760   115905173.14708  22055968.940    90315815.00947
  22775752.600   119687424.21208  22775748.020    93262935.92647
  21843753.320   114789742.78709  21843753.340    89446562.77148
  24329192.800   127850786.93808  24329190.820    99623997.03746
 15 03 05 00 17  0.0000000  0  7G16G18G19G21G22G27G31
  20758006.460   109084087.78509  20758002.940    85000593.87348
  22067093.280   115963404.87609  22067090.280    90361099.38547
  23887917.800   125531874.62908  23887914.180    97817039.48646
  22067277.660   115964581.27308  22067273.880    90362107.05347
  22759368.720   119601326.44909  22759364.180    93195846.78847
  21833410.300   114735390.11009  21833410.320    89404210.04948
  24347916.760   127949181.05208  24347914.760    99700667.68345
 15 03 05 00 17 30.0000000  0  7G16G18G19G21G22G27G31
  20750307.040   109043627.37309  20750303.600    84969066.27748
  22060582.900   115929192.57909  22060579.840    90334440.48147
  23873222.820   125454652.35108  23873219.180    97756866.29946
  22078622.800   116024200.64408  22078619.040    90408563.71047
  22743022.480   119515426.72208  22743018.060    93128911.97547
  21823093.220   114681173.49409  21823093.100    89361963.35148
  24366634.600   128047543.44008  24366632.840    99777313.58746
 15 03 05 00 18  0.0000000  0  7G16G18G19G21G22G27G31
  20742690.300   109003601.11809  20742686.920    84937876.99248
  22054155.280   115895415.36609  22054152.160    90308120.60547
  23858544.180   125377515.64008  23858540.520    97696759.83046
  22090007.600   116084028.10908  22090003.820    90455182.52047
  22726714.120   119429726.04808  22726709.820    93062132.26847
  21812801.860   114627091.26509  21812801.520    89319821.38148
  24385345.320   128145869.43408  24385344.040    99853931.12445
 15 03 05 00 18 30.0000000  0  7G16G18G19G21G22G27G31
  20735156.380   108964010.08509  20735153.020    84907026.84548
  22047810.680   115862074.42609  22047807.480    90282140.68947
  23843881.940   125300464.59208  23843877.960    97636720.09546
  22101431.520   116144061.09808  22101427.740    90501961.47247
  22710444.060   119344226.45809  22710439.780    92995509.25447
  21802536.040   114573143.09209  21802535.500    89277783.86648
  24404048.420   128244155.69207  24404047.360    99930517.68746
 15 03 05 00 19  0.0000000  0  7G16G18G19G21G22G27G31
  20727706.180   108924859.20409  20727702.860    84876519.66748
  22041549.940   115829174.19409  22041546.760    90256504.17947
  23829236.460   125223501.79908  23829232.380    97576749.12946
  22112894.680   116204300.15008  22112890.940    90548900.98747
  22694213.340   119258933.26809  22694208.960    92929047.07147
  21792296.220   114519331.95409  21792295.660    89235853.13048
  24422743.960   128342402.27407  24422743.060   100007073.34546
 15 03 05 00 19 30.0000000  0  7G16G18G19G21G22G27G31
  20720339.880   108886149.17809  20720336.560    84846356.01048
  22035373.140   115796714.65709  22035369.940    90231211.06047
  23814607.600   125146626.71308  23814603.620    97516846.49546
  22124396.560   116264742.85609  22124392.880    90595999.19247
  22678022.260   119173848.32609  22678017.820    92862747.15547
  21782082.360   114465657.29009  21782081.720    89194028.73148
  24441431.400   128440605.60208  24441430.540   100083595.25546
 15 03 05 00 20  0.0000000  0  7G16G18G19G21G22G27G31
  20713057.880   108847882.21209  20713054.580    84816537.60948
  22029280.600   115764698.14509  22029277.460    90206263.16447
  23799995.360   125069839.31708  23799991.660    97457012.18946
  22135936.860   116325387.26109  22135933.160    90643254.58047
  22661871.320   119088974.40309  22661866.860    92796611.67647
  21771894.540   114412119.56709  21771893.780    89152311.04748
  24460110.320   128538762.88608  24460109.320   100160081.35445
 15 03 05 00 20 30.0000000  0  7G16G18G19G21G22G27G31
  20705860.300   108810058.67409  20705856.960    84787064.72248
  22023272.300   115733124.42409  22023269.200    90181660.29247
  23785399.620   124993138.77708  23785396.300    97397245.57246
  22147515.080   116386231.21708  22147511.320    90690665.46047
  22645760.760   119004312.90009  22645756.320    92730641.70847
  21761732.540   114358717.82809  21761731.800    89110699.32348
  24478779.740   128636870.23608  24478778.560   100236528.51345
 15 03 05 00 21  0.0000000  0  7G16G18G19G21G22G27G31
  20698747.620   108772680.90509  20698744.220    84757939.17648
  22017348.580   115701995.30409  22017345.500    90157403.84247
  23770820.620   124916525.07108  23770817.240    97337546.60446
  22159130.880   116447272.83208  22159127.120    90738230.33847
  22629691.220   118919867.23609  22629686.760    92664839.91747
  21751596.480   114305452.65209  21751595.740    89069194.00148
  24497439.100   128734925.24308  24497437.740   100312934.85445
 15 03 05 00 21 30.0000000  0  7G16G18G19G21G22G27G31
  20691719.940   108735749.73709  20691716.460    84729161.64348
  22011509.520   115671310.94709  22011506.380    90133493.97447
  23756258.120   124839997.75008  23756254.320    97277914.94846
  22170783.760   116508509.28208  22170780.020    90785947.05647
  22613663.040   118835638.95209  22613658.540    92599207.52947
  21741486.300   114252323.57609  21741485.520    89027794.73348
  24516087.900   128832924.46108  24516086.380   100389297.78245
 15 03 05 00 22  0.0000000  0  7G16G18G19G21G22G27G31
  20684778.860   108699273.74309  20684775.320    84700738.79448
  22005756.720   115641079.83409  22005753.580    90109937.28547
  23741713.160   124763563.50608  23741709.360    97218355.84646
  22182474.680   116569945.33908  22182470.960    90833819.30647
  22597678.020   118751637.25509  22597673.440    92533751.69747
  21731403.360   114199337.61809  21731402.480    88986506.98848
  24534726.820   128930872.06108  24534725.340   100465620.47145
 15 03 05 00 22 30.0000000  0  7G16G18G19G21G22G27G31
  20677923.180   108663246.21509  20677919.460    84672665.39048
  22000088.820   115611294.58509  22000085.640    90086728.00247
  23727184.400   124687214.13408  23727180.560    97158862.85146
  22194201.820   116631571.67608  22194198.060    90881839.82947
  22581735.060   118667856.81308  22581730.440    92468468.27147
  21721346.120   114146486.66509  21721345.180    88945324.43548
  24553353.640   129028756.51308  24553352.180   100541893.90645
 15 03 05 00 23  0.0000000  0  7G16G18G19G21G22G27G31
  20671153.500   108627670.72909  20671149.620    84644944.23748
  21994506.500   115581958.93009  21994503.180    90063869.07047
  23712672.260   124610951.69308  23712668.080    97099437.61446
  22205965.160   116693388.21908  22205961.340    90930008.54947
  22565834.960   118584302.02508  22565830.460    92403360.67547
  21711315.040   114093772.93909  21711314.040    88904248.81948
  24571968.300   129126577.23307  24571966.860   100618117.66845
 15 03 05 00 23 30.0000000  0  7G16G18G19G21G22G27G31
  20664470.500   108592551.23709  20664466.600    84617578.40248
  21989010.240   115553075.48909  21989006.740    90041362.49547
  23698177.060   124534778.31408  23698172.640    97040081.76746
  22217764.640   116755394.75308  22217760.780    90978325.33547
  22549978.640   118500977.43309  22549974.280    92338432.44247
  21701310.540   114041198.81309  21701309.640    88863281.98448
  24590570.840   129224333.69107  24590569.340   100694291.41745
 15 03 05 00 24  0.0000000  0  7G16G18G19G21G22G27G31
  20657874.660   108557890.05909  20657870.820    84590569.69148
  21983600.480   115524646.73809  21983596.980    90019210.23447
  23683698.800   124458694.55708  23683694.280    96980795.76146
  22229600.020   116817590.28908  22229596.180    91026789.37747
  22534166.940   118417886.71509  22534162.620    92273686.44847
  21691332.740   113988765.23909  21691331.920    88822424.66248
  24609160.740   129322023.56308  24609159.340   100770413.20845
 15 03 05 00 24 30.0000000  0  7G16G18G19G21G22G27G31
  20651365.900   108523686.98809  20651362.200    84563917.95648
  21978277.020   115496671.96709  21978273.560    89997411.72947
  23669237.220   124382698.73808  23669232.800    96921578.28546
  22241470.700   116879971.28809  22241466.860    91075397.94847
  22518399.900   118335030.38409  22518395.560    92209123.10847
  21681381.380   113936470.64109  21681380.460    88781675.64748
  24627737.240   129419642.49408  24627736.080   100846479.74445
 15 03 05 00 25  0.0000000  0  7G16G18G19G21G22G27G31
  20644945.200   108489946.72809  20644941.640    84537626.83848
  21973040.680   115469155.18509  21973037.320    89975970.10147
  23654792.960   124306793.95008  23654788.580    96862431.72846
  22253376.940   116942538.97508  22253373.060    91124151.98747
  22502678.440   118252413.87209  22502674.140    92144746.63847
  21671457.100   113884318.27109  21671456.100    88741037.45148
  24646300.180   129517190.31208  24646299.380   100922490.83045
 15 03 05 00 25 30.0000000  0  7G16G18G19G21G22G27G31
  20638612.340   108456667.83309  20638608.820    84511695.23448
  21967891.120   115442094.62909  21967887.820    89954883.97747
  23640365.500   124230977.18608  23640361.240    96803353.77346
  22265317.860   117005288.75008  22265313.940    91173047.91747
  22487002.580   118170036.99209  22486998.300    92080556.88647
  21661559.340   113832305.44909  21661558.420    88700507.99648
  24664848.520   129614661.75307  24664847.880   100998442.42846
 15 03 05 00 26  0.0000000  0  7G16G18G19G21G22G27G31
  20632367.820   108423853.20609  20632364.420    84486125.38848
  21962828.820   115415492.56709  21962825.620    89934155.11247
  23625955.040   124155249.91508  23625950.940    96744345.53246
  22277293.140   117068219.42608  22277289.240    91222084.79647
  22471373.220   118087903.72809  22471368.860    92016556.95347
  21651688.420   113780433.60909  21651687.620    88660088.37648
  24683381.960   129712055.15408  24683381.380   101074333.15945
 15 03 05 00 26 30.0000000  0  7G16G18G19G21G22G27G31
  20626212.340   108391506.53409  20626209.100    84460920.19148
  21957854.540   115389352.84709  21957851.460    89913786.52147
  23611562.100   124079614.73108  23611557.880    96685409.06646
  22289303.040   117131331.91808  22289299.200    91271263.35747
  22455791.180   118006018.74609  22455786.540    91952750.50847
  21641844.800   113728705.34109  21641844.060    88619780.64548
  24701900.460   129809370.19708  24701899.980   101150162.85845
 15 03 05 00 27  0.0000000  0  6G16G18G19G21G22G27
  20620143.380   108359614.16309  20620140.180    84436068.99148
  21952965.500   115363660.97309  21952962.420    89893766.88747
  23597183.700   124004056.17308  23597179.420    96626532.30646
  22301344.340   117194609.28008  22301340.520    91320570.39647
  22440253.960   117924369.14709  22440248.900    91889127.47147
  21632025.680   113677105.74309  21632024.960    88579573.17448
 15 03 05 00 27 30.0000000  0  6G16G18G19G21G22G27
  20614166.620   108328206.14009  20614163.420    84411595.20748
  21948167.260   115338445.96509  21948164.160    89874118.84147
  23582825.100   123928602.26108  23582820.740    96567737.10646
  22313422.020   117258077.86108  22313418.220    91370026.41947
  22424767.340   117842986.13209  22424762.120    91825712.15847
  21622236.540   113625663.35309  21622235.760    88539488.20148
 15 03 05 00 28  0.0000000  0  6G16G18G19G21G22G27
  20608278.580   108297264.37309  20608275.360    84387484.74148
  21943456.320   115313689.85009  21943453.240    89854828.37647
  23568482.760   123853233.59908  23568478.240    96509008.32746
  22325531.940   117321716.08608  22325528.220    91419614.64647
  22409328.060   117761852.46709  22409322.980    91762491.15847
  21612473.580   113574358.67209  21612472.760    88499510.54048
 15 03 05 00 28 30.0000000  0  6G16G18G19G21G22G27
  20602480.880   108266797.24009  20602477.660    84363744.12548
  21938834.200   115289400.55109  21938831.120    89835901.66047
  23554158.040   123777957.22608  23554153.460    96450351.46246
  22337675.160   117385529.30608  22337671.540    91469339.21347
  22393937.960   117680977.67409  22393933.140    91699471.86547
  21602738.300   113523199.15709  21602737.400    88459645.98548
 15 03 05 00 29  0.0000000  0  6G16G18G19G21G22G27
  20596773.440   108236804.61209  20596770.240    84340373.24148
  21934300.760   115265577.26209  21934297.660    89817338.08147
  23539850.560   123702771.30008  23539846.120    96391765.08646
  22349851.060   117449514.15008  22349847.480    91519197.52947
  22378597.300   117600362.62909  22378592.600    91636654.96947
  21593030.420   113472183.44709  21593029.400    88419893.49348
 15 03 05 00 29 30.0000000  0  6G16G18G19G21G22G27
  20591156.020   108207284.96209  20591152.860    84317370.91748
  21929855.580   115242217.63909  21929852.560    89799135.78347
  23525559.880   123627673.18308  23525555.720    96333247.11846
  22362058.660   117513665.47608  22362055.020    91569185.57147
  22363305.920   117520006.30709  22363301.260    91574039.66247
  21583349.300   113421308.60009  21583348.220    88380250.77048
 15 03 05 00 30  0.0000000  0  6G16G18G19G21G22G27
  20585630.420   108178247.62309  20585627.240    84294744.41848
  21925500.320   115219330.65909  21925497.340    89781301.78347
  23511287.300   123552670.65208  23511283.380    96274803.61646
  22374299.160   117577989.53308  22374295.460    91619308.20747
  22348065.840   117439919.27209  22348061.180    91511634.21147
  21573696.420   113370582.91909  21573695.500    88340724.27648
 15 03 05 00 30 30.0000000  0  6G16G18G19G21G22G27
  20580195.900   108149688.60709  20580192.640    84272490.64448
  21921234.140   115196912.01809  21921231.200    89763832.71947
  23497031.740   123477758.24808  23497028.180    96216430.34946
  22386571.100   117642478.88408  22386567.300    91669559.64747
  22332876.480   117360098.77609  22332871.860    91449436.44847
  21564070.940   113320001.12509  21564070.160    88301309.89448
 15 03 05 00 31  0.0000000  0  6G16G18G19G21G22G27
  20574853.100   108121611.72009  20574849.760    84250612.54648
  21917057.660   115174964.65409  21917054.700    89746730.88947
  23482793.780   123402938.35408  23482790.400    96158129.17046
  22398874.520   117707133.75108  22398870.700    91719940.05047
  22317738.780   117280550.12209  22317734.280    91387450.50447
  21554473.400   113269565.89009  21554472.740    88262009.72048
 15 03 05 00 31 30.0000000  0  6G16G18G19G21G22G27
  20569601.620   108094015.09309  20569598.340    84229108.69548
  21912970.500   115153486.70709  21912967.520    89729994.84447
  23468572.980   123328207.90008  23468569.560    96099897.68446
  22411208.580   117771949.82608  22411204.800    91770446.07947
  22302652.560   117201272.11009  22302648.200    91325675.46747
  21544903.160   113219274.18409  21544902.560    88222821.39648
 15 03 05 00 32  0.0000000  0  6G16G18G19G21G22G27
  20564441.760   108066900.10009  20564438.520    84207980.11748
  21908972.780   115132478.37009  21908969.680    89713624.71647
  23454369.260   123253566.46708  23454365.440    96041735.56546
  22423572.900   117836924.88708  22423569.120    91821075.97847
  22287618.380   117122266.90609  22287614.060    91264112.97947
  21535360.240   113169126.28709  21535359.700    88183745.11248
 15 03 05 00 32 30.0000000  0  6G16G18G19G21G22G27
  20559374.920   108040273.89409  20559371.700    84187232.42448
  21905065.700   115111946.27209  21905062.500    89697625.69847
  23440183.680   123179019.90308  23440179.520    95983647.37446
  22435968.240   117902062.92508  22435964.520    91871832.89547
  22272637.640   117043542.47809  22272633.280    91202769.30547
  21525845.820   113119128.26909  21525845.420    88144785.64448
 15 03 05 00 33  0.0000000  0  6G16G18G19G21G22G27
  20554400.960   108014135.53209  20554397.760    84166864.86348
  21901249.020   115091889.57009  21901245.820    89681997.11047
  23426015.660   123104566.05808  23426011.560    95925631.43946
  22448393.800   117967359.66808  22448390.120    91922713.45747
  22257710.480   116965099.64109  22257705.980    91141645.02147
  21516359.600   113069278.16909  21516359.300    88105941.41948
 15 03 05 00 33 30.0000000  0  6G16G18G19G21G22G27
  20549520.080   107988486.18509  20549516.800    84146878.36148
  21897522.800   115072308.15109  21897519.560    89666738.90147
  23411865.180   123030205.00208  23411861.220    95867687.78147
  22460849.220   118032813.12408  22460845.540    91973716.14447
  22242837.320   116886940.76109  22242832.720    91080742.02047
  21506901.620   113019576.00209  21506901.280    88067212.46248
 15 03 05 00 34  0.0000000  0  6G16G18G19G21G22G27
  20544733.060   107963329.88309  20544729.700    84127276.04448
  21893887.820   115053206.28409  21893884.520    89651854.34547
  23397732.820   122955939.21708  23397729.060    95809818.37947
  22473334.620   118098424.00408  22473330.900    92024841.49847
  22228019.100   116809070.43909  22228014.420    91020063.85747
  21497472.440   112970024.77209  21497471.940    88028601.11848
 15 03 05 00 34 30.0000000  0  6G16G18G19G21G22G27
  20540038.640   107938660.47909  20540035.300    84108053.12848
  21890342.640   115034576.62409  21890339.400    89637337.74547
  23383617.260   122881761.49108  23383613.580    95752017.58047
  22485848.320   118164183.62108  22485844.520    92076082.75147
  22213254.900   116731483.71909  22213250.160    90959606.69347
  21488070.700   112920617.38809  21488069.940    87990101.86248
 15 03 05 00 35  0.0000000  0  6G16G18G19G21G22G27
  20535438.600   107914487.13209  20535435.260    84089216.74748
  21886889.040   115016428.00409  21886885.920    89623195.98247
  23369520.000   122807679.56908  23369516.220    95694291.43247
  22498391.480   118230097.84608  22498387.520    92127444.47947
  22198546.520   116654190.80209  22198541.860    90899378.46147
  21478697.840   112871361.97509  21478696.920    87951721.03548
 15 03 05 00 35 30.0000000  0  6G16G18G19G21G22G27
  20530932.600   107890807.80609  20530929.260    84070765.32648
  21883526.520   114998757.80509  21883523.440    89609427.02947
  23355440.420   122733690.10108  23355436.180    95636637.34646
  22510963.040   118296161.39309  22510959.040    92178922.56647
  22183893.820   116577190.98509  22183889.340    90839378.62647
  21469353.280   112822255.52409  21469352.240    87913456.28648
 15 03 05 00 36  0.0000000  0  6G16G18G19G21G22G27
  20526521.280   107867625.93709  20526517.920    84052701.52648
  21880255.580   114981568.71609  21880252.420    89596032.95547
  23341378.760   122659795.38008  23341374.020    95579057.07446
  22523563.080   118362374.68809  22523559.120    92230517.32647
  22169297.840   116500488.74709  22169293.460    90779610.65847
  21460037.440   112773300.51209  21460036.360    87875309.52848
 15 03 05 00 36 30.0000000  0  6G16G18G19G21G22G27
  20522204.620   107844941.56209  20522201.220    84035025.38148
  21877076.100   114964860.57509  21877072.900    89583013.63547
  23327334.840   122585994.66808  23327329.960    95521550.06546
  22536191.020   118428734.60808  22536187.080    92282226.34347
  22154758.840   116424085.62609  22154754.440    90720075.77947
  21450750.280   112724496.24909  21450749.200    87837280.24648
 15 03 05 00 37  0.0000000  0  6G16G18G19G21G22G27
  20517982.840   107822755.84509  20517979.380    84017737.80648
  21873988.200   114948633.71609  21873985.040    89570369.34847
  23313308.760   122512287.38508  23313303.980    95464115.81947
  22548846.440   118495239.43408  22548842.560    92334048.26847
  22140277.080   116347983.48009  22140272.620    90660775.42847
  21441491.780   112675842.87109  21441490.780    87799368.53348
 15 03 05 00 37 30.0000000  0  6G16G18G19G21G22G27
  20513857.040   107801074.23109  20513853.520    84000843.03948
  21870992.840   114932892.99009  21870989.680    89558103.86247
  23299301.160   122438677.56808  23299296.760    95406757.54046
  22561529.940   118561892.03608  22561526.060    92385985.35747
  22125853.880   116272189.10209  22125849.400    90601714.88848
  21432262.780   112627344.77609  21432261.920    87761577.81248
 15 03 05 00 38  0.0000000  0  6G16G18G19G21G22G27
  20509826.220   107779891.80809  20509822.720    83984337.25148
  21868088.780   114917632.16509  21868085.680    89546212.32647
  23285311.040   122365159.39108  23285306.780    95349470.67547
  22574239.820   118628683.40308  22574235.980    92438030.56847
  22111488.540   116196698.57009  22111484.100    90542891.13047
  21423062.240   112578995.97709  21423061.520    87723903.43248
 15 03 05 00 38 30.0000000  0  6G16G18G19G21G22G27
  20505891.760   107759216.05509  20505888.300    83968226.27348
  21865277.620   114902859.12809  21865274.440    89534700.89347
