     2.11           OBSERVATION DATA    G                   RINEX VERSION / TYPE
SPIDER V4,0,0,3554                      2015 03 17 00:02    PGM / RUN BY / DATE 
ABZH                                                        MARKER NAME         
ABZH                                                        MARKER NUMBER       
                                                            OBSERVER / AGENCY   
462405              LEICA GRX1200PRO    8.20/2.127          REC # / TYPE / VERS 
103261              LEIAT504                                ANT # / TYPE        
  5106694.6829   270584.9059  3799508.1083                  APPROX POSITION XYZ 
        0.0770        0.0000        0.0000                  ANTENNA: DELTA H/E/N
     1     1                                                WAVELENGTH FACT L1/2
     4    C1    L1    P2    L2                              # / TYPES OF OBSERV 
    30.000                                                  INTERVAL            
  2015    03    05    00    00    0.0000000     GPS         TIME OF FIRST OBS   
  2015    03    05    23    59   30.0000000     GPS         TIME OF LAST OBS    
    16                                                      LEAP SECONDS        
    30                                                      # OF SATELLITES     
   G 1   817   817   816   816                              PRN / # OF OBS      
   G 2   910   910   906   906                              PRN / # OF OBS      
   G 3   836   836   835   835                              PRN / # OF OBS      
   G 4   834   834   834   834                              PRN / # OF OBS      
   G 5   662   662   662   662                              PRN / # OF OBS      
   G 6   784   784   783   783                              PRN / # OF OBS      
   G 7   653   653   653   653                              PRN / # OF OBS      
   G 9   784   784   784   784                              PRN / # OF OBS      
   G10   769   769   769   769                              PRN / # OF OBS      
   G11   783   783   783   783                              PRN / # OF OBS      
   G12   789   789   787   787                              PRN / # OF OBS      
   G13   806   806   806   806                              PRN / # OF OBS      
   G14   425   425   423   423                              PRN / # OF OBS      
   G15   720   720   720   720                              PRN / # OF OBS      
   G16   673   673   671   671                              PRN / # OF OBS      
   G17   920   920   917   917                              PRN / # OF OBS      
   G18   903   903   895   895                              PRN / # OF OBS      
   G19   773   773   773   773                              PRN / # OF OBS      
   G20   777   777   777   777                              PRN / # OF OBS      
   G21   688   688   686   686                              PRN / # OF OBS      
   G22   749   749   744   744                              PRN / # OF OBS      
   G23   732   732   732   732                              PRN / # OF OBS      
   G24   805   805   804   804                              PRN / # OF OBS      
   G25   817   817   815   815                              PRN / # OF OBS      
   G27   816   816   816   816                              PRN / # OF OBS      
   G28   877   877   877   877                              PRN / # OF OBS      
   G29   719   719   719   719                              PRN / # OF OBS      
   G30   698   698   698   698                              PRN / # OF OBS      
   G31   805   805   805   805                              PRN / # OF OBS      
   G32   744   744   744   744                              PRN / # OF OBS      
BIT 2 OF LLI FLAGS DATA COLLECTED UNDER A/S CONDITION       COMMENT             
SNR is mapped to RINEX snr flag value [2-9]                 COMMENT             
Lx:     = 25dBHz -> 1; 26-27dBHz -> 2; 28-31dBHz -> 3       COMMENT             
       32-35dBHz -> 4; 36-38dBHz -> 5; 39-41dBHz -> 6       COMMENT             
       42-44dBHz -> 7; 45-48dBHz -> 8; >=49dBHz -> 9        COMMENT             
                                                            END OF HEADER       
 15 03 05 00 00  0.0000000  0  7G16G18G19G21G22G27G31
  21077694.260   110764055.03209  21077693.220    86309666.84447
  22303710.060   117206820.32908  22303709.780    91330012.81244
  24457536.560   128525227.18105  24457536.780   100149525.47743
  21671105.280   113882436.64808  21671104.380    88739562.81246
  23340336.620   122654340.23507  23340335.340    95574823.34344
  22237651.220   116859675.87408  22237653.160    91059508.46145
  23756467.660   124841059.64806  23756469.460    97278737.25844
 15 03 05 00 00 30.0000000  0  7G16G18G19G21G22G27G31
  21067362.380   110709760.55709  21067361.280    86267359.46146
  22294445.120   117158132.47308  22294444.660    91292074.25045
  24442161.060   128444428.21505  24442161.420   100086565.31944
  21680715.340   113932938.07508  21680714.440    88778914.58146
  23322880.680   122562608.86707  23322879.160    95503344.39744
  22226261.220   116799821.32408  22226263.180    91012868.59145
  23775079.160   124938862.77106  23775080.900    97354947.44944
 15 03 05 00 01  0.0000000  0  7G16G18G19G21G22G27G31
  21057101.220   110655837.63709  21057100.120    86225341.60747
  22285251.920   117109821.58408  22285251.480    91254429.42844
  24426800.560   128363707.75105  24426800.800   100023666.31844
  21690376.680   113983709.08808  21690375.760    88818476.41446
  23305444.960   122470983.82307  23305443.400    95431948.31144
  22214895.140   116740092.22108  22214897.120    90966326.45945
  23793701.240   125036721.30906  23793702.620    97431200.83943
 15 03 05 00 01 30.0000000  0  7G16G18G19G21G22G27G31
  21046910.800   110602286.67109  21046909.800    86183613.59647
  22276130.280   117061887.47608  22276129.860    91217078.18345
  24411454.660   128283064.14205  24411454.780    99960827.21644
  21700088.760   114034746.46308  21700087.820    88858245.80146
  23288029.660   122379466.02207  23288028.200    95360635.80644
  22203552.620   116680486.88908  22203554.580    90919880.76045
  23812332.800   125134630.32906  23812333.880    97507493.51843
 15 03 05 00 02  0.0000000  0  7G16G18G19G21G22G27G31
  21036792.180   110549113.09509  21036791.180    86142179.64747
  22267081.460   117014335.89808  22267081.020    91180025.02745
  24396123.940   128202500.92005  24396124.140    99898050.67744
  21709851.740   114086051.41908  21709850.860    88898223.69046
  23270635.940   122288061.60707  23270634.500    95289411.64344
  22192234.260   116621008.86308  22192236.220    90873534.27145
  23830974.080   125232590.19906  23830974.920    97583825.82944
 15 03 05 00 02 30.0000000  0  7G16G18G19G21G22G27G31
  21026745.640   110496318.02709  21026744.660    86101040.63947
  22258105.620   116967167.46608  22258105.060    91143270.41044
  24380808.200   128122017.08005  24380808.560    99835336.08744
  21719665.200   114137621.53308  21719664.360    88938408.20346
  23253263.960   122196772.31307  23253262.780    95218277.18444
  22180939.900   116561657.30507  22180941.860    90827286.32646
  23849624.460   125330597.27306  23849624.880    97660194.93644
 15 03 05 00 03  0.0000000  0  7G16G18G19G21G22G27G31
  21016771.000   110443901.09509  21016770.120    86060196.29347
  22249202.640   116920382.08808  22249202.100    91106814.29544
  24365507.340   128041610.41606  24365507.600    99772681.57143
  21729528.240   114189452.53608  21729527.480    88978796.00246
  23235914.040   122105598.80107  23235912.980    95147232.93044
  22169669.240   116502430.28307  22169671.280    90781135.42545
  23868283.040   125428646.46307  23868283.040    97736596.83143
 15 03 05 00 03 30.0000000  0  7G16G18G19G21G22G27G31
  21006868.060   110391861.22709  21006867.240    86019645.75147
  22240372.280   116873978.51908  22240371.800    91070655.68744
  24350220.660   127961277.67105  24350220.640    99710084.69944
  21739440.120   114241540.01708  21739439.460    89019383.65446
  23218586.040   122014540.24706  23218585.040    95076278.25244
  22158421.640   116443324.41108  22158423.660    90735078.91345
  23886948.400   125526731.30607  23886947.900    97813026.48944
 15 03 05 00 04  0.0000000  0  7G16G18G19G21G22G27G31
  20997038.920   110340209.00009  20997038.160    85979397.27647
  22231616.480   116827966.77408  22231616.100    91034802.39344
  24334949.540   127881027.70905  24334949.540    99647552.33543
  21749402.040   114293890.38108  21749401.380    89060176.14946
  23201282.160   121923607.81507  23201281.120    95005421.87744
  22147198.900   116384348.52508  22147200.940    90689123.70245
  23905621.540   125624857.68706  23905620.720    97889488.56543
 15 03 05 00 04 30.0000000  0  7G16G18G19G21G22G27G31
  20987282.560   110288939.44208  20987281.880    85939446.98447
  22222934.380   116782342.23308  22222934.040    90999250.81544
  24319692.800   127800853.23605  24319692.840    99585078.75244
  21759412.260   114346494.21108  21759411.480    89101166.15546
  23184001.600   121832797.26307  23184000.380    94934660.45044
  22135999.560   116325495.68808  22136001.560    90643264.37746
  23924300.380   125723015.56406  23924299.500    97965975.16144
 15 03 05 00 05  0.0000000  0  7G16G18G19G21G22G27G31
  20977599.540   110238055.08109  20977598.900    85899796.84247
  22214326.360   116737106.99008  22214326.020    90964002.59045
  24304450.700   127720755.03105  24304450.580    99522664.66743
  21769470.520   114399350.40608  21769469.680    89142352.79846
  23166744.860   121742111.73907  23166743.380    94863996.48744
  22124823.880   116266766.68608  22124825.840    90597501.54746
  23942984.420   125821202.64106  23942983.920    98042484.54744
 15 03 05 00 05 30.0000000  0  6G16G18G21G22G27G31
  20967992.800   110187571.71008  20967992.180    85860459.15347
  22205795.520   116692277.07308  22205795.220    90929070.20844
  21779579.200   114452471.30808  21779578.260    89183745.70946
  23149514.900   121651567.82407  23149513.360    94793442.83944
  22113674.420   116208175.50708  22113676.360    90551846.12046
  23961676.100   125919429.78806  23961676.160    98119025.12644
 15 03 05 00 06  0.0000000  0  7G16G18G19G21G22G27G31
  20958457.940   110137465.84309  20958457.300    85821415.62647
  22197337.120   116647828.50408  22197336.900    90894434.97445
  24274012.700   127560789.22905  24274012.580    99398024.99344
  21789733.000   114505829.41908  21789731.980    89225323.45846
  23132307.500   121561142.46907  23132305.880    94722981.56644
  22102546.300   116149696.70508  22102548.160    90506278.24746
  23980370.200   126017668.29106  23980370.540    98195574.55544
 15 03 05 00 06 30.0000000  0  7G16G18G19G21G22G27G31
  20948999.440   110087761.10309  20948998.800    85782684.67047
  22188955.760   116603784.63008  22188955.600    90860115.08045
  24258816.260   127480931.67104  24258815.340    99335798.44344
  21799935.700   114559444.67808  21799934.600    89267101.58846
  23115127.240   121470860.14507  23115125.680    94652631.76144
  22091443.700   116091351.98808  22091445.480    90460814.85846
  23999070.120   126115937.15706  23999070.660    98272147.64343
 15 03 05 00 07  0.0000000  0  7G16G18G19G21G22G27G31
  20939616.100   110038450.97708  20939615.380    85744261.20047
  22180650.220   116560138.81208  22180650.100    90826105.37444
  24243634.900   127401152.06405  24243633.640    99273632.57543
  21810185.320   114613306.67408  21810184.160    89309071.97646
  23097973.160   121380715.42707  23097971.800    94582389.17744
  22080365.140   116033133.16408  22080366.800    90415449.57146
  24017773.720   126214225.14406  24017774.240    98348735.60944
 15 03 05 00 07 30.0000000  0  6G16G18G21G22G27G31
  20930310.040   109989547.37309  20930309.360    85706154.50747
  22172422.700   116516903.00308  22172422.660    90792415.15044
  21820483.420   114667423.39208  21820482.260    89351240.85146
  23080847.640   121290720.51207  23080846.380    94512263.31144
  22069312.420   115975050.34408  22069314.080    90370190.25346
  24036482.340   126312538.94606  24036482.760    98425343.68444
 15 03 05 00 08  0.0000000  0  7G16G18G19G21G22G27G31
  20921077.160   109941028.01709  20921076.440    85668347.22547
  22164268.880   116474054.41808  22164268.880    90759026.65945
  24213317.500   127241834.41505  24213315.140    99149478.47644
  21830825.060   114721768.68208  21830823.840    89393587.82946
  23063746.560   121200853.78507  23063745.360    94442237.34644
  22058280.860   115917079.33408  22058282.560    90325018.06246
  24055190.720   126410851.34006  24055191.140    98501950.66644
 15 03 05 00 08 30.0000000  0  7G16G18G19G21G22G27G31
  20911922.940   109892922.23709  20911922.180    85630862.21647
  22156194.360   116431622.51408  22156194.340    90725962.84745
  24198181.700   127162297.26005  24198180.780    99087501.58644
  21841215.020   114776368.13808  21841213.800    89436132.86846
  23046675.500   121111145.30507  23046674.380    94372334.68644
  22047275.780   115859247.75508  22047277.560    90279954.51546
  24073903.540   126509187.35206  24073903.780    98578576.09844
 15 03 05 00 09  0.0000000  0  7G16G18G19G21G22G27G31
  20902844.380   109845213.73509  20902843.440    85593686.76247
  22148195.980   116389590.71208  22148195.840    90693210.81444
  24183060.680   127082833.07505  24183059.380    99025581.47943
  21851649.520   114831201.68508  21851648.240    89478860.30746
  23029631.780   121021579.88907  23029630.660    94302543.51044
  22036293.840   115801537.69908  22036295.700    90234985.66246
  24092616.660   126607525.61406  24092616.980    98655203.28844
 15 03 05 00 09 30.0000000  0  7G16G18G19G21G22G27G31
  20893844.440   109797918.29809  20893843.340    85556833.17747
  22140276.700   116347974.24908  22140276.420    90660782.39945
  24167955.500   127003455.52005  24167954.380    98963728.92544
  21862130.860   114886281.38808  21862129.520    89521779.55846
  23012618.300   120932173.52707  23012617.080    94232876.25244
  22025337.680   115743962.90808  22025339.620    90190122.23446
  24111332.280   126705877.17406  24111332.920    98731840.75743
 15 03 05 00 10  0.0000000  0  7G16G18G19G21G22G27G31
  20884922.060   109751030.53509  20884920.920    85520297.27047
  22132435.240   116306767.17708  22132435.020    90628673.02045
  24152865.260   126924157.19006  24152863.940    98901938.08244
  21872657.340   114941598.13508  21872655.980    89564883.53346
  22995634.080   120842921.26107  22995633.000    94163329.10545
  22014405.900   115686516.01108  22014407.820    90145358.42646
  24130048.400   126804231.12206  24130049.380    98808480.16043
 15 03 05 00 10 30.0000000  0  7G16G18G19G21G22G27G31
  20876077.980   109704554.44709  20876076.840    85484082.14147
  22124672.620   116265974.23708  22124672.320    90596886.31944
  24137790.700   126844940.26806  24137789.560    98840210.69643
  21883228.860   114997152.17608  21883227.660    89608172.39046
  22978680.180   120753828.40907  22978679.200    94093906.13845
  22003498.920   115629199.67808  22003500.920    90100696.39446
  24148765.040   126902587.32106  24148765.980    98885121.31644
 15 03 05 00 11  0.0000000  0  7G16G18G19G21G22G27G31
  20867311.500   109658486.39709  20867310.400    85448184.97147
  22116988.000   116225590.77908  22116987.500    90565418.68344
  24122730.760   126765799.70706  24122729.540    98778542.78243
  21893843.940   115052935.10308  21893842.860    89651639.61046
  22961756.000   120664891.96307  22961755.180    94024605.05245
  21992615.700   115572008.42008  21992617.820    90056131.81246
  24167480.340   127000937.03606  24167481.300    98961757.37143
 15 03 05 00 11 30.0000000  0  7G16G18G19G21G22G27G31
  20858624.560   109612836.40608  20858623.460    85412613.55947
  22109383.140   116185626.88308  22109382.680    90534278.01044
  24107686.600   126686743.30005  24107685.460    98716940.45945
  21904504.020   115108954.47208  21904502.960    89695291.07746
  22944863.700   120576122.82907  22944862.860    93955434.35244
  21981757.920   115514950.63808  21981760.060    90011671.23146
  24186195.320   127099285.67205  24186196.240    99038392.58343
 15 03 05 00 12  0.0000000  0  7G16G18G19G21G22G27G31
  20850016.780   109567602.42209  20850015.700    85377366.30347
  22101857.680   116146079.87208  22101857.220    90503462.17145
  24092657.860   126607767.02006  24092656.580    98655400.56943
  21915207.920   115165204.24608  21915206.840    89739122.07346
  22928002.960   120487519.40007  22928002.140    93886392.74944
  21970924.820   115458022.45008  21970926.920    89967311.62446
  24204908.960   127197626.60005  24204909.780    99115021.82343
 15 03 05 00 12 30.0000000  0  7G16G18G19G21G22G27G31
  20841487.460   109522781.06808  20841486.540    85342440.59347
  22094410.880   116106946.75308  22094410.520    90472968.84645
  24077643.760   126528865.76306  24077642.480    98593919.15443
  21925954.420   115221677.67608  21925953.380    89783127.35046
  22911173.300   120399079.37607  22911172.500    93817478.50044
  21960115.340   115401218.91908  21960117.460    89923049.16646
  24223619.640   127295951.40406  24223620.360    99191638.48243
 15 03 05 00 13  0.0000000  0  7G16G18G19G21G22G27G31
  20833039.480   109478386.83609  20833038.640    85307847.68547
  22087045.360   116068241.19408  22087045.200    90442808.69745
  24062645.800   126450052.09706  24062644.700    98532505.95543
  21936745.360   115278384.43308  21936744.380    89827314.43946
  22894377.560   120310817.46307  22894376.760    93748703.01344
  21949331.940   115344552.46808  21949334.100    89878893.52346
  24242329.160   127394269.73106  24242329.840    99268250.05443
 15 03 05 00 13 30.0000000  0  7G16G18G19G21G22G27G31
  20824671.400   109434412.58609  20824670.600    85273582.04247
  22079759.920   116029956.16908  22079759.820    90412976.23845
  24047663.000   126371317.10106  24047661.860    98471154.03943
  21947578.800   115335314.25808  21947577.800    89871675.34846
  22877614.700   120222727.76907  22877613.720    93680061.73544
  21938573.000   115288014.51708  21938575.260    89834838.02146
  24261035.260   127492569.99606  24261035.800    99344847.58643
 15 03 05 00 14  0.0000000  0  7G16G18G19G21G22G27G31
  20816385.180   109390868.13209  20816384.340    85239651.30347
  22072556.240   115992101.03208  22072556.080    90383478.76244
  24032696.520   126292668.73506  24032695.260    98409869.67944
  21958455.740   115392473.12908  21958454.800    89916214.73046
  22860886.680   120134821.02307  22860885.540    93611563.02444
  21927840.180   115231613.31908  21927842.440    89790889.05646
  24279738.860   127590857.01606  24279739.720    99421434.78645
 15 03 05 00 14 30.0000000  0  7G16G18G19G21G22G27G31
  20808179.120   109347744.91709  20808178.220    85206048.80647
  22065432.620   115954666.80808  22065432.480    90354309.27844
  24017744.720   126214096.92906  24017743.280    98348644.92043
  21969373.980   115449849.02208  21969373.080    89960923.22446
  22844191.820   120047089.16807  22844190.580    93543200.57244
  21917131.440   115175338.60308  21917133.740    89747038.65246
  24298437.380   127689117.65006  24298438.540    99498001.42843
 15 03 05 00 15  0.0000000  0  7G16G18G19G21G22G27G31
  20800055.020   109305052.31309  20800054.060    85172781.84247
  22058390.980   115917662.68508  22058390.700    90325474.92945
  24002808.840   126135608.73306  24002807.540    98287485.30844
  21980334.500   115507447.36708  21980333.740    90005805.05346
  22827532.140   119959542.38907  22827530.860    93474982.36644
  21906448.260   115119198.07108  21906450.560    89703292.81046
  24317131.580   127787356.69905  24317133.020    99574551.26144
 15 03 05 00 15 30.0000000  0  7G16G18G19G21G22G27G31
  20792012.620   109262789.09709  20792011.680    85139849.47247
  22051430.840   115881087.10708  22051430.460    90296974.51744
  23987888.360   126057201.39706  23987887.280    98226388.71944
  21991336.520   115565263.79308  21991335.820    90050856.81446
  22810907.500   119872180.19707  22810906.260    93406907.96145
  21895790.060   115063188.91708  21895792.340    89659649.33846
  24335820.460   127885568.01006  24335822.400    99651079.46244
 15 03 05 00 16  0.0000000  0  7G16G18G19G21G22G27G31
  20784052.700   109220959.37209  20784051.760    85107254.88747
  22044552.900   115844943.98508  22044552.520    90268811.08845
  23972983.640   125978877.31905  23972982.540    98165357.07444
  22002380.040   115623298.35708  22002379.340    90096078.56146
  22794319.080   119785007.75607  22794317.800    93338981.43144
  21885157.280   115007313.69108  21885159.540    89616110.23046
  24354504.120   127983751.41606  24354505.980    99727585.92344
 15 03 05 00 16 30.0000000  0  7G16G18G19G21G22G27G31
  20776175.400   109179564.02809  20776174.480    85074998.78147
  22037757.280   115809233.12908  22037756.980    90240984.47445
  23958094.460   125900635.62605  23958093.620    98104389.57144
  22013464.580   115681548.40508  22013463.920    90141468.20645
  22777767.160   119698026.71607  22777765.680    93271204.02844
  21874549.820   114951571.51008  21874552.080    89572674.78846
  24373181.820   128081902.77706  24373183.500    99804067.39643
 15 03 05 00 17  0.0000000  0  7G16G18G19G21G22G27G31
  20768380.960   109138604.13009  20768380.040    85043081.98247
  22031044.220   115773955.98108  22031044.000    90213495.81645
  23943220.800   125822475.53704  23943220.400    98043485.63244
  22024589.680   115740010.91108  22024588.940    90187023.41646
  22761252.040   119611238.90107  22761250.440    93203577.19644
  21863967.680   114895961.92508  21863969.820    89529342.66946
  24391852.800   128180018.52806  24391854.220    99880521.14242
 15 03 05 00 17 30.0000000  0  7G16G18G19G21G22G27G31
  20760670.140   109098083.27209  20760669.180    85011507.28747
  22024414.220   115739115.21908  22024414.020    90186347.19745
  23928362.940   125744398.45305  23928363.000    97982646.38143
  22035755.160   115798685.73408  22035754.340    90232744.05545
  22744774.520   119524648.29807  22744772.740    93136104.05245
  21853411.140   114840486.75208  21853413.260    89486115.28246
  24410516.920   128278097.40406  24410518.040    99956946.14644
 15 03 05 00 18  0.0000000  0  7G16G18G19G21G22G27G31
  20753042.360   109057999.20108  20753041.460    84980272.95447
  22017866.940   115704708.37608  22017866.520    90159536.68945
  23913520.340   125666400.50805  23913520.500    97921868.81443
  22046960.100   115857567.87808  22046959.200    90278626.24346
  22728334.280   119438254.03507  22728332.320    93068783.89044
  21842879.560   114785142.54208  21842881.680    89442989.93646
  24429172.760   128376132.87506  24429173.460   100033337.31844
 15 03 05 00 18 30.0000000  0  7G16G18G19G21G22G27G31
  20745499.160   109018359.61208  20745498.360    84949384.96547
  22011403.580   115670743.20108  22011403.140    90133070.35345
  23898693.960   125588488.47704  23898694.600    97861158.19445
  22058205.260   115916661.39008  22058204.340    90324673.13446
  22711933.020   119352064.83207  22711931.000    93001623.50144
  21832374.080   114729935.56208  21832376.260    89399971.52246
  24447820.780   128474128.36706  24447821.040   100109697.27143
 15 03 05 00 19  0.0000000  0  7G16G18G19G21G22G27G31
  20738040.680   108979165.21908  20738039.880    84918843.87347
  22005024.360   115637220.01808  22005023.860    90106948.41945
  23883883.520   125510660.68204  23883884.320    97800513.14441
  22069490.000   115975962.60808  22069489.000    90370881.87546
  22695571.000   119266081.81307  22695569.020    92934623.78744
  21821894.520   114674864.63508  21821896.640    89357059.12546
  24466460.340   128572079.58705  24466460.320   100186022.86144
 15 03 05 00 19 30.0000000  0  7G16G18G19G21G22G27G31
  20730666.380   108940412.92408  20730665.580    84888647.27847
  21998728.580   115604134.99308  21998727.880    90081167.90045
  23869088.640   125432912.83904  23869089.360    97739930.41444
  22080812.960   116035465.37708  22080812.000    90417247.65346
  22679247.760   119180303.01307  22679245.900    92867783.21245
  21811439.980   114619925.50408  21811441.980    89314249.42546
  24485089.920   128669979.25105  24485090.040   100262308.19641
 15 03 05 00 20  0.0000000  0  7G16G18G19G21G22G27G31
  20723377.260   108902108.59208  20723376.440    84858799.74247
  21992517.200   115571494.11508  21992516.480    90055733.48945
  23854309.720   125355248.61005  23854310.020    97679412.88444
  22092174.700   116095171.40308  22092173.540    90463771.83545
  22662964.600   119094734.85807  22662962.800    92801106.74845
  21801011.260   114565122.23708  21801013.140    89271545.60146
  24503709.680   128767828.26105  24503710.220   100338554.06543
 15 03 05 00 20 30.0000000  0  7G16G18G19G21G22G27G31
  20716173.080   108864250.65708  20716172.300    84829300.05547
  21986389.960   115539295.19708  21986389.300    90030643.45545
  23839546.300   125277665.22405  23839546.360    97618958.31344
  22103574.340   116155076.64308  22103572.960    90510451.24446
  22646721.360   119009376.77507  22646719.720    92734593.99645
  21790607.920   114510451.97208  21790609.560    89228945.40946
  24522318.900   128865620.77905  24522319.820   100414755.88643
 15 03 05 00 21  0.0000000  0  7G16G18G19G21G22G27G31
  20709055.140   108826845.71409  20709054.360    84800153.34247
  21980348.020   115507544.32808  21980347.420    90005902.54545
  23824799.100   125200166.94806  23824799.020    97558570.06144
  22115012.360   116215183.44408  22115010.800    90557287.71545
  22630519.700   118924236.46407  22630518.020    92668250.93344
  21780230.820   114455919.66508  21780232.360    89186452.72746
  24540917.780   128963358.54505  24540918.920   100490915.06443
 15 03 05 00 21 30.0000000  0  7G16G18G19G21G22G27G31
  20702023.840   108789895.75709  20702023.020    84771361.17047
  21974391.460   115476242.84008  21974390.900    89981511.80645
  23810068.120   125122754.61806  23810067.980    97498248.81744
  22126488.460   116275490.24708  22126486.720    90604280.02345
  22614360.040   118839316.63107  22614358.220    92602079.65544
  21769880.080   114401526.09608  21769881.580    89144068.11746
  24559505.960   129061039.47805  24559507.180   100567029.92144
 15 03 05 00 22  0.0000000  0  7G16G18G19G21G22G27G31
  20695078.880   108753399.62808  20695078.060    84742922.62347
  21968520.160   115445389.39208  21968519.680    89957470.17945
  23795352.900   125045425.15006  23795352.600    97437992.07844
  22138001.640   116335992.03008  22137999.680    90651424.27145
  22598242.180   118754616.71307  22598240.220    92536079.74544
  21759555.140   114347268.47508  21759556.760    89101789.46046
  24578082.460   129158657.85805  24578082.980   100643096.08241
 15 03 05 00 22 30.0000000  0  7G16G18G19G21G22G27G31
  20688220.720   108717359.87708  20688219.900    84714839.69647
  21962734.520   115414985.98508  21962734.060    89933779.21045
  23780653.700   124968179.51806  23780653.260    97377800.72644
  22149551.900   116396688.79808  22149549.820    90698720.44046
  22582166.980   118670140.65607  22582164.960    92470254.28645
  21749256.360   114293148.03108  21749257.880    89059617.69046
  24596646.620   129256211.52205  24596646.860   100719111.79143
 15 03 05 00 23  0.0000000  0  7G16G18G19G21G22G27G31
  20681450.200   108681780.48908  20681449.320    84687115.49647
  21957035.240   115385036.74108  21957034.900    89910442.13845
  23765970.820   124891020.35006  23765970.320    97317676.74144
  22161139.300   116457580.88908  22161137.260    90746168.82046
  22566135.340   118585893.30207  22566133.160    92404607.00744
  21738984.200   114239167.44508  21738985.640    89017554.90847
  24615198.380   129353700.26205  24615198.860   100795076.86444
 15 03 05 00 23 30.0000000  0  7G16G18G19G21G22G27G31
  20674767.180   108646660.78208  20674766.340    84659749.48247
  21951422.060   115355539.61308  21951421.740    89887457.37045
  23751303.940   124813945.16606  23751303.320    97257618.18044
  22172763.000   116518663.51308  22172761.000    90793765.66245
  22550147.180   118501874.51807  22550144.780    92339137.85945
  21728738.240   114185324.49108  21728739.680    88975599.37346
  24633736.600   129451118.98804  24633737.600   100870987.35643
 15 03 05 00 24  0.0000000  0  7G16G18G19G21G22G27G31
  20668172.300   108612004.42508  20668171.540    84632744.53347
  21945895.720   115326498.47608  21945895.320    89864827.92945
  23736653.400   124736955.89806  23736652.900    97197626.58244
  22184422.960   116579937.03807  22184421.060    90841511.26445
  22534203.480   118418089.41707  22534200.940    92273850.78645
  21718518.900   114131621.53308  21718520.500    88933752.93146
  24652261.220   129548466.68604  24652262.800   100946842.63542
 15 03 05 00 24 30.0000000  0  7G16G18G19G21G22G27G31
  20661665.960   108577813.30408  20661665.220    84606102.09647
  21940456.360   115297914.68308  21940456.080    89842554.85645
  23722019.260   124660052.99206  23722018.960    97137702.24844
  22196118.880   116641400.05907  22196117.160    90889404.52145
  22518304.640   118334540.47007  22518302.160    92208747.74745
  21708326.200   114078059.15608  21708328.040    88892016.01647
  24670771.780   129645741.19905  24670773.960   101022640.78243
 15 03 05 00 25  0.0000000  0  7G16G18G19G21G22G27G31
  20655247.740   108544085.26708  20655246.980    84579820.51147
  21935103.540   115269785.43408  21935103.320    89820635.95745
  23707400.820   124583232.58706  23707400.280    97077842.25144
  22207849.800   116703046.93207  22207848.260    90937441.04545
  22502450.400   118251226.33707  22502448.040    92143827.66445
  21698159.520   114024633.75608  21698161.620    88850385.85147
  24689267.280   129742935.40805  24689269.880   101098376.34543
 15 03 05 00 25 30.0000000  0  6G16G18G19G21G22G27
  20648916.400   108510813.54908  20648915.580    84553894.48747
  21929835.920   115242103.58108  21929835.680    89799065.69645
  23692796.340   124506486.51205  23692795.920    97018040.15643
  22219613.840   116764867.75807  22219612.440    90985613.11345
  22486639.840   118168141.50907  22486637.580    92079086.25845
  21688017.460   113971337.34708  21688019.640    88808856.19147
 15 03 05 00 26  0.0000000  0  6G16G18G19G21G22G27
  20642678.320   108478031.87308  20642677.420    84528350.31848
  21924659.740   115214902.33308  21924659.540    89777869.92245
  23678212.300   124429847.12405  23678211.920    96958321.17744
  22231416.660   116826892.22407  22231415.300    91033943.87146
  22470879.580   118085320.74207  22470877.280    92014550.62845
  21677906.100   113918202.27008  21677908.360    88767452.24947
 15 03 05 00 26 30.0000000  0  6G16G18G19G21G22G27
  20636528.260   108445712.98908  20636527.300    84503166.77047
  21919569.880   115188154.56708  21919569.620    89757027.53845
  23663643.120   124353286.07905  23663642.800    96898663.27544
  22243252.440   116889090.38307  22243251.200    91082409.96046
  22455164.580   118002737.88607  22455162.300    91950200.37145
  21667820.160   113865200.27908  21667822.300    88726152.00947
 15 03 05 00 27  0.0000000  0  6G16G18G19G21G22G27
  20630468.740   108413870.07608  20630467.720    84478354.10647
  21914568.580   115161872.62408  21914568.260    89736548.11445
  23649090.700   124276814.76305  23649090.600    96839075.28244
  22255123.220   116951472.08407  22255122.100    91131019.07545
  22439497.500   117920406.76707  22439495.220    91886046.29145
  21657761.820   113812343.26408  21657763.880    88684964.74946
 15 03 05 00 27 30.0000000  0  6G16G18G19G21G22G27
  20624497.900   108382493.34408  20624496.900    84453904.70547
  21909653.860   115136045.65408  21909653.460    89716423.21745
  23634553.560   124200421.31405  23634553.240    96779548.00345
  22267026.400   117014023.84307  22267025.280    91179760.70445
  22423876.540   117838318.79607  22423874.460    91822081.67945
  21647728.960   113759620.01308  21647730.980    88643881.71347
 15 03 05 00 28  0.0000000  0  6G16G18G19G21G22G27
  20618618.060   108351594.74708  20618617.080    84429827.87447
  21904828.060   115110685.83308  21904827.620    89696662.33645
  23620033.320   124124116.60205  23620032.820    96720089.81844
  22278963.580   117076754.29207  22278962.500    91228641.56945
  22408304.320   117756486.85807  22408302.360    91758316.56045
  21637723.580   113707041.14208  21637725.600    88602911.18147
 15 03 05 00 28 30.0000000  0  6G16G18G19G21G22G27
  20612828.960   108321172.71408  20612827.960    84406122.38747
  21900090.820   115085791.01408  21900090.260    89677263.78845
  23605529.480   124047897.59605  23605528.720    96660698.39244
  22290933.800   117139658.71907  22290932.760    91277657.99845
  22392780.820   117674910.37207  22392778.840    91694750.48845
  21627745.160   113654604.16008  21627747.200    88562051.21547
 15 03 05 00 29  0.0000000  0  6G16G18G19G21G22G27
  20607132.020   108291234.98908  20607131.020    84382794.28847
  21895443.400   115061368.33408  21895442.660    89658233.14746
  23591042.820   123971770.42505  23591042.080    96601378.60443
  22302938.040   117202741.71007  22302937.040    91326813.57146
  22377307.660   117593598.21507  22377305.700    91631390.38845
  21617794.900   113602315.65808  21617796.960    88521306.93447
 15 03 05 00 29 30.0000000  0  6G16G18G19G21G22G27
  20601526.100   108261775.70208  20601525.140    84359838.98947
  21890884.500   115037411.14208  21890883.700    89639565.20945
  23576572.420   123895728.15205  23576571.680    96542124.92745
  22314974.460   117265993.78107  22314973.520    91376100.90146
  22361883.700   117512544.99207  22361881.880    91568232.07745
  21607871.540   113550168.34408  21607873.580    88480672.66947
 15 03 05 00 30  0.0000000  0  6G16G18G19G21G22G27
  20596011.820   108232797.94408  20596010.820    84337258.91648
  21886414.660   115013922.16608  21886413.880    89621262.12345
  23562118.540   123819772.30005  23562117.720    96482938.60145
  22327043.080   117329414.99407  22327042.200    91425520.00346
  22346509.780   117431754.98407  22346507.920    91505278.85246
  21597975.520   113498164.34708  21597977.420    88440150.08347
 15 03 05 00 30 30.0000000  0  6G16G18G19G21G22G27
  20590589.900   108204305.77008  20590588.900    84315057.21848
  21882034.560   114990905.17708  21882033.820    89603326.82945
  23547681.520   123743905.58906  23547680.820    96423821.70244
  22339144.040   117393006.00207  22339143.200    91475071.43446
  22331186.980   117351233.59707  22331185.080    91442534.92545
  21588107.320   113446306.53508  21588109.220    88399741.40247
 15 03 05 00 31  0.0000000  0  6G16G18G19G21G22G27
  20585259.960   108176296.94808  20585258.980    84293232.16047
  21877743.720   114968357.06208  21877743.080    89585756.88045
  23533260.860   123668124.33306  23533260.060    96364771.40744
  22351276.320   117456761.00207  22351275.480    91524750.65345
  22315915.120   117270979.99807  22315913.280    91379999.68445
  21578266.380   113394591.55308  21578268.200    88359444.00547
 15 03 05 00 31 30.0000000  0  6G16G18G19G21G22G27
  20580023.200   108148777.56808  20580022.280    84271788.47848
  21873543.240   114946283.90608  21873542.740    89568557.03045
  23518857.360   123592433.47506  23518856.360    96305791.57744
  22363440.480   117520683.63408  22363439.660    91574560.50045
  22300695.580   117191001.00708  22300693.660    91317678.40645
  21568453.560   113343024.40208  21568455.320    88319261.82847
 15 03 05 00 32  0.0000000  0  6G16G18G19G21G22G27
  20574879.400   108121746.76108  20574878.560    84250725.51247
  21869432.780   114924683.74508  21869432.380    89551725.74245
  23504470.620   123516830.37307  23504469.520    96246880.11444
  22375635.680   117584769.54808  22375634.840    91624497.56445
  22285528.380   117111296.55708  22285526.380    91255571.05945
  21558668.440   113291603.16508  21558670.160    88279193.33447
 15 03 05 00 32 30.0000000  0  6G16G18G19G21G22G27
  20569828.940   108095206.34108  20569828.120    84230044.65747
  21865412.660   114903557.78508  21865412.220    89535263.97445
  23490100.680   123441315.51007  23490099.740    96188037.39744
  22387861.680   117649017.37508  22387860.860    91674560.80046
  22270413.820   117031869.28408  22270411.880    91193679.70445
  21548911.220   113240328.59608  21548912.980    88239239.14147
 15 03 05 00 33  0.0000000  0  6G16G18G19G21G22G27
  20564872.400   108069159.35308  20564871.580    84209748.30548
  21861483.420   114882909.22108  21861482.920    89519174.19845
  23475747.900   123365890.91407  23475746.900    96129264.97544
  22400118.480   117713426.85808  22400117.720    91724749.99345
  22255352.860   116952723.94608  22255350.920    91132008.02945
  21539182.260   113189202.74308  21539184.100    88199400.83447
 15 03 05 00 33 30.0000000  0  6G16G18G19G21G22G27
  20560009.200   108043602.99308  20560008.380    84189834.26148
  21857644.200   114862734.01608  21857643.760    89503453.27345
  23461411.640   123290552.61507  23461410.380    96070559.84944
  22412404.920   117777992.08708  22412404.180    91775060.54845
  22240345.380   116873858.98808  22240343.360    91070554.83545
  21529480.900   113138221.79608  21529482.800    88159675.43347
 15 03 05 00 34  0.0000000  0  6G16G18G19G21G22G27
  20555240.780   108018544.91108  20555240.000    84170308.47447
  21853896.560   114843040.00308  21853896.160    89488107.29145
  23447092.840   123215306.76107  23447091.520    96011926.75445
  22424721.820   117842717.40508  22424721.080    91825495.85745
  22225392.840   116795282.62108  22225390.760    91009326.51445
  21519808.360   113087392.36908  21519810.220    88120068.09947
 15 03 05 00 34 30.0000000  0  6G16G18G19G21G22G27
  20550566.480   107993981.39608  20550565.700    84151168.06947
  21850239.520   114823822.32808  21850239.120    89473132.50245
  23432790.860   123140148.67307  23432789.420    95953362.02545
  22437068.000   117907596.61108  22437067.160    91876051.08145
  22210494.700   116716992.39108  22210492.580    90948321.15145
  21510163.840   113036709.86608  21510165.580    88080575.24046
 15 03 05 00 35  0.0000000  0  6G16G18G19G21G22G27
  20545987.100   107969916.62108  20545986.340    84132416.29248
  21846673.860   114805084.85508  21846673.440    89458531.89245
  23418506.140   123065081.10407  23418504.480    95894867.85244
  22449443.600   117972630.58408  22449442.580    91926726.89945
  22195652.020   116638993.44708  22195649.900    90887542.78045
  21500547.900   112986177.44308  21500549.500    88041199.32447
 15 03 05 00 35 30.0000000  0  6G16G18G19G21G22G27
  20541503.280   107946353.88508  20541502.500    84114055.71047
  21843200.140   114786830.32808  21843199.620    89444307.61645
  23404238.840   122990106.01806  23404237.220    95836445.75243
  22461848.620   118037819.46208  22461847.440    91977523.41745
  22180865.620   116561290.45308  22180863.460    90826995.01645
  21490960.900   112935797.54608  21490962.440    88001942.27046
 15 03 05 00 36  0.0000000  0  6G16G18G19G21G22G27
  20537115.120   107923293.97508  20537114.380    84096086.94748
  21839818.320   114769058.83308  21839817.840    89430459.71845
  23389988.860   122915223.24206  23389987.560    95778095.57645
  22474282.660   118103161.01708  22474281.480    92028438.90245
  22166135.880   116483885.23408  22166133.700    90766679.27945
  21481402.940   112885570.04108  21481404.480    87962803.96847
 15 03 05 00 36 30.0000000  0  6G16G18G19G21G22G27
  20532822.280   107900734.95908  20532821.600    84078508.48948
  21836527.960   114751768.21608  21836527.520    89416986.52946
  23375755.920   122840430.09806  23375754.860    95719815.22144
  22486744.880   118168650.21008  22486743.620    92079469.43045
  22151462.760   116406777.36508  22151460.520    90706595.23145
  21471873.480   112835492.29308  21471875.120    87923782.35947
 15 03 05 00 37  0.0000000  0  6G16G18G19G21G22G27
  20528624.840   107878677.10508  20528624.140    84061320.55147
  21833329.060   114734957.88908  21833328.680    89403887.60345
  23361540.040   122765725.02906  23361538.880    95661603.51144
  22499234.700   118234284.44608  22499233.320    92130612.98545
  22136846.340   116329967.87308  22136844.140    90646743.70145
  21462372.320   112785563.57108  21462374.080    87884876.86747
 15 03 05 00 37 30.0000000  0  6G16G18G19G21G22G27
  20524523.800   107857125.77408  20524523.040    84044527.30248
  21830222.480   114718632.67708  21830222.100    89391166.66745
  23347341.720   122691112.18606  23347340.560    95603463.66244
  22511752.660   118300066.49408  22511751.260    92181871.69745
  22122288.020   116253463.46108  22122285.800    90587129.88645
  21452900.280   112735788.29008  21452902.160    87846090.93847
 15 03 05 00 38  0.0000000  0  6G16G18G19G21G22G27
  20520519.320   107836081.66908  20520518.480    84028129.29648
  21827208.120   114702791.97208  21827207.640    89378823.28945
  23333160.860   122616591.27906  23333159.560    95545395.46844
  22524298.120   118365993.06408  22524296.620    92233243.04445
  22107788.100   116177265.80108  22107785.860    90527755.11945
  21443457.380   112686166.13608  21443459.280    87807424.32847
 15 03 05 00 38 30.0000000  0  6G16G18G19G21G22G27
  20516611.780   107815547.41308  20516610.920    84012128.56248
  21824286.500   114687438.83408  21824285.940    89366859.81945
  23318997.720   122542163.92006  23318996.280    95487400.16844
  22536871.200   118432064.73808  22536869.620    92284727.44645
  22093347.260   116101378.81708  22093345.060    90468622.41445
  21434044.120   112636699.21008  21434045.920    87768878.67047
 15 03 05 00 39  0.0000000  0  6G16G18G19G21G22G27
  20512800.780   107795520.74908  20512799.980    83996523.36848
  21821457.060   114672570.04208  21821456.440    89355273.78045
  23304851.800   122467826.70606  23304850.180    95429475.07544
  22549470.860   118498275.90608  22549469.180    92336320.55344
  22078965.300   116025801.24908  22078963.160    90409730.81746
  21424659.900   112587384.42008  21424661.580    87730451.56347
 15 03 05 00 39 30.0000000  0  6G16G18G19G21G22G27
  20509087.100   107776005.40508  20509086.320    83981316.60448
  21818720.400   114658188.95408  21818719.860    89344067.75445
  23290723.560   122393582.65306  23290722.000    95371622.61944
  22562097.240   118564627.67608  22562095.520    92388023.21045
  22064643.220   115950538.20808  22064641.120    90351084.30645
  21415305.240   112538225.00808  21415306.820    87692145.53647
 15 03 05 00 40  0.0000000  0  6G16G18G19G21G22G27
  20505471.120   107757003.47508  20505470.400    83966509.90748
  21816076.760   114644296.65808  21816076.260    89333242.60745
  23276613.200   122319432.81806  23276611.800    95313843.54544
  22574750.280   118631119.64308  22574748.620    92439835.11145
  22050381.620   115875593.07308  22050379.500    90292685.50846
  21405980.300   112489222.19108  21405981.860    87653961.53947
 15 03 05 00 40 30.0000000  0  6G16G18G19G21G22G27
  20501952.640   107738513.83208  20501951.960    83952102.39648
  21813525.940   114630891.72808  21813525.300    89322797.22345
  23262520.340   122245374.76406  23262519.060    95256136.01043
  22587429.240   118697747.50708  22587427.500    92491752.92445
  22036180.460   115800965.88608  22036178.500    90234534.46346
  21396684.820   112440373.98308  21396686.320    87615898.00447
 15 03 05 00 41  0.0000000  0  6G16G18G19G21G22G27
  20498532.120   107720538.96508  20498531.400    83938096.00448
  21811068.160   114617975.89908  21811067.400    89312732.94745
  23248445.440   122171410.28506  23248443.960    95198501.36543
  22600133.880   118764510.76208  22600132.120    92543776.21345
  22022040.520   115726660.26208  22022038.680    90176633.99445
  21387419.120   112391682.30608  21387420.620    87577956.43847
 15 03 05 00 41 30.0000000  0  6G16G18G19G21G22G27
  20495209.760   107703079.68308  20495208.940    83924491.36248
  21808703.520   114605549.42408  21808702.760    89303049.99245
  23234388.340   122097539.14007  23234386.700    95140939.44445
  22612863.880   118831407.72608  22612862.160    92595903.70545
  22007962.240   115652678.55708  22007960.480    90118985.92846
  21378183.260   112343147.47608  21378184.900    87540137.09247
 15 03 05 00 42  0.0000000  0  6G16G18G19G21G22G27
  20491986.360   107686140.52808  20491985.500    83911292.01448
  21806432.700   114593616.16108  21806431.940    89293751.36045
  23220349.440   122023764.38506  23220347.640    95083452.64744
  22625619.460   118898439.31907  22625617.820    92648136.11745
  21993946.640   115579025.89808  21993944.900    90061594.26446
  21368977.900   112294772.93808  21368979.700    87502442.67047
 15 03 05 00 42 30.0000000  0  6G16G18G19G21G22G27
  20488861.960   107669721.66308  20488861.100    83898498.09648
  21804255.580   114582175.80208  21804254.940    89284836.80446
  23206328.660   121950085.60607  23206326.820    95026040.60744
  22638400.240   118965603.67507  22638398.780    92700471.95845
  21979994.100   115505704.22708  21979992.180    90004460.50746
  21359802.960   112246558.50008  21359804.940    87464873.00647
 15 03 05 00 43  0.0000000  0  6G16G18G19G21G22G27
  20485835.660   107653818.42308  20485834.820    83886105.95748
  21802171.320   114571223.17508  21802170.720    89276302.30046
  23192325.280   121876497.15507  23192323.400    94968698.97245
  22651205.020   119032893.60808  22651203.620    92752905.66045
  21966103.860   115432710.08208  21966101.800    89947581.97246
  21350657.540   112198498.93608  21350659.540    87427424.01647
 15 03 05 00 43 30.0000000  0  6G16G18G19G21G22G27
  20482908.560   107638436.16408  20482907.640    83874119.77348
  21800180.780   114560762.92708  21800180.280    89268151.46645
  23178340.120   121803003.88407  23178338.200    94911431.51444
  22664034.280   119100311.61208  22664032.860    92805439.16145
  21952277.120   115360050.18308  21952275.080    89890963.89045
  21341542.540   112150599.25408  21341544.480    87390099.60447
 15 03 05 00 44  0.0000000  0  6G16G18G19G21G22G27
  20480081.180   107623577.98508  20480080.240    83862541.96748
  21798284.400   114550797.37808  21798283.920    89260386.11746
  23164373.360   121729608.05707  23164371.540    94854239.99545
  22676887.900   119167857.84807  22676886.560    92858072.56245
  21938514.840   115287728.58008  21938512.700    89834609.41446
  21332458.360   112102861.69208  21332460.220    87352901.51847
 15 03 05 00 44 30.0000000  0  6G16G18G19G21G22G27
  20477353.500   107609243.59908  20477352.500    83851372.31348
  21796482.060   114541325.96708  21796481.640    89253005.81645
  23150424.860   121656308.28207  23150423.180    94797123.30644
  22689765.420   119235529.54908  22689764.100    92910803.74945
  21924817.080   115215746.73008  21924814.960    89778519.68446
  21323404.900   112055285.65908  21323406.780    87315829.29747
 15 03 05 00 45  0.0000000  0  6G16G18G19G21G22G27
  20474725.560   107595433.33708  20474724.500    83840611.06048
  21794773.660   114532348.11508  21794773.220    89246010.10145
  23136494.580   121583103.95907  23136492.960    94740080.99445
  22702666.380   119303324.39707  22702664.980    92963630.87645
  21911184.060   115144105.46208  21911182.060    89722695.35246
  21314382.080   112007870.65908  21314384.020    87278882.55447
 15 03 05 00 45 30.0000000  0  6G16G18G19G21G22G27
  20472197.280   107582147.42508  20472196.240    83830258.40148
  21793159.200   114523863.69708  21793158.660    89239398.88145
  23122582.400   121509994.64107  23122580.820    94683112.73645
  22715590.360   119371240.10508  22715588.840    93016552.19544
  21897616.280   115072807.10108  21897614.420    89667138.20646
  21305389.900   111960616.74108  21305391.880    87242061.33047
 15 03 05 00 46  0.0000000  0  6G16G18G19G21G22G27
  20469769.380   107569388.80808  20469768.360    83820316.61448
  21791638.980   114515874.62408  21791638.340    89233173.64345
  23108688.800   121436982.40007  23108687.080    94626220.10744
  22728537.360   119439276.81508  22728535.900    93069567.81145
  21884114.520   115001855.45708  21884112.720    89611851.23346
  21296428.840   111913526.24008  21296430.740    87205367.43547
 15 03 05 00 46 30.0000000  0  6G16G18G19G21G22G27
  20467442.200   107557159.66308  20467441.280    83810787.40148
  21790213.200   114508382.26808  21790212.540    89227335.45245
  23094813.780   121364068.35207  23094811.880    94569404.00544
  22741507.320   119507434.14407  22741505.940    93122677.39645
  21870679.480   114931254.20008  21870677.720    89556837.29546
  21287499.240   111866600.85708  21287501.040    87168802.20947
 15 03 05 00 47  0.0000000  0  6G16G18G19G21G22G27
  20465216.160   107545461.72308  20465215.280    83801672.11948
  21788882.200   114501388.18408  21788881.580    89221885.52645
  23080957.680   121291253.86907  23080955.640    94512665.47545
  22754499.920   119575710.81307  22754498.820    93175879.97245
  21857311.720   114861006.09208  21857309.880    89502098.52246
  21278601.360   111819842.01408  21278603.120    87132366.75947
 15 03 05 00 47 30.0000000  0  6G16G18G19G21G22G27
  20463091.120   107534294.42808  20463090.240    83792970.32548
  21787645.860   114494891.27608  21787645.240    89216823.01146
  23067120.180   121218537.97806  23067118.340    94456003.76245
  22767514.980   119644105.41507  22767514.140    93229174.45745
  21844011.320   114791112.51708  21844009.500    89447636.01546
  21269735.000   111773248.98508  21269736.720    87096060.50447
 15 03 05 00 48  0.0000000  0  6G16G18G19G21G22G27
  20461066.860   107523656.63908  20461065.920    83784681.13648
  21786503.800   114488889.79108  21786503.280    89212146.53845
  23053301.080   121145918.82907  23053299.480    94399417.42945
  22780551.640   119712613.54407  22780551.040    93282557.39245
  21830778.400   114721573.68408  21830776.760    89393449.94046
  21260899.840   111726820.25808  21260901.500    87059882.28747
 15 03 05 00 48 30.0000000  0  6G16G18G19G21G22G27
  20459144.020   107513551.67108  20459142.980    83776807.12348
  21785456.440   114483386.03508  21785455.940    89207857.89845
  23039500.860   121073398.73507  23039499.320    94342908.30845
  22793609.900   119781235.06307  22793609.380    93336028.69245
  21817613.880   114652393.81708  21817612.340    89339543.56646
  21252096.540   111680558.67308  21252098.140    87023834.30247
 15 03 05 00 49  0.0000000  0  6G16G18G19G21G22G27
  20457322.440   107503978.83808  20457321.300    83769347.76748
  21784503.540   114478378.80908  21784503.020    89203956.17645
  23025719.300   121000976.59307  23025717.780    94286475.51345
  22806689.280   119849967.53807  22806688.720    93389586.44645
  21804517.880   114583573.62308  21804516.200    89285917.46146
  21243324.860   111634463.15708  21243326.560    86987915.73147
 15 03 05 00 49 30.0000000  0  6G16G18G19G21G22G27
  20455602.940   107494942.73308  20455601.800    83762306.63848
  21783645.900   114473872.18708  21783645.380    89200444.53745
  23011956.960   120928656.07706  23011955.620    94230121.89145
  22819790.120   119918813.36607  22819789.560    93443232.54144
  21791491.440   114515119.19708  21791489.660    89232576.35946
  21234585.580   111588538.14608  21234587.480    86952130.02247
 15 03 05 00 50  0.0000000  0  6G16G18G19G21G22G27
  20453985.460   107486442.84208  20453984.340    83755683.33048
  21782883.280   114469864.89708  21782882.780    89197321.97145
  22998213.680   120856436.00406  22998212.540    94173846.55645
  22832911.840   119987769.30307  22832911.240    93496964.44445
  21778534.800   114447031.26108  21778533.000    89179520.84646
  21225878.600   111542782.68908  21225880.540    86916476.42847
 15 03 05 00 50 30.0000000  0  6G16G18G19G21G22G27
  20452469.620   107478476.89208  20452468.520    83749476.08548
  21782215.240   114466354.27608  21782214.720    89194586.43545
  22984489.180   120784314.01606  22984487.980    94117647.63145
  22846053.740   120056831.19407  22846053.120    93550778.90145
  21765647.780   114379309.22508  21765645.920    89126750.43546
  21217203.520   111497194.61008  21217205.400    86880953.25547
 15 03 05 00 51  0.0000000  0  6G16G18G19G21G22G27
  20451055.760   107471046.95708  20451054.640    83743686.52248
  21781641.780   114463340.86508  21781641.300    89192238.32845
  22970783.700   120712291.66307  22970782.360    94061526.33445
  22859215.760   120125998.43607  22859215.160    93604675.42944
  21752830.980   114311955.83708  21752828.980    89074267.28846
  21208560.600   111451775.45408  21208562.380    86845561.71147
 15 03 05 00 51 30.0000000  0  6G16G18G19G21G22G27
  20449744.160   107464154.59508  20449743.120    83738315.84448
  21781163.320   114460826.49108  21781162.840    89190279.08646
  22957097.380   120640369.12707  22957095.920    94005482.81645
  22872397.700   120195269.91707  22872397.180    93658653.19045
  21740084.940   114244974.81308  21740082.940    89022074.30946
  21199950.080   111406526.54508  21199951.740    86810302.83047
 15 03 05 00 52  0.0000000  0  6G16G18G19G21G22G27
  20448534.760   107457799.44608  20448533.840    83733363.76848
  21780779.640   114458809.99208  21780779.200    89188707.80046
  22943430.200   120568546.70507  22943428.520    93949517.30445
  22885599.180   120264643.51607  22885598.680    93712710.53645
  21727410.000   114178367.11808  21727407.900    88970172.22546
  21191371.840   111361447.74208  21191373.460    86775176.49247
 15 03 05 00 52 30.0000000  0  6G16G18G19G21G22G27
  20447428.920   107451988.13908  20447428.020    83728835.46248
  21780491.800   114457297.31908  21780491.440    89187529.10546
  22929782.980   120496829.85707  22929781.220    93893634.06045
  22898820.900   120334123.35407  22898820.320    93766850.66545
  21714807.620   114112140.84608  21714805.420    88918567.36546
  21182827.160   111316545.44308  21182828.760    86740187.68747
 15 03 05 00 53  0.0000000  0  6G16G18G19G21G22G27
  20446425.760   107446716.50808  20446424.900    83724727.69648
  21780298.980   114456283.84408  21780298.620    89186739.38246
  22916155.000   120425214.41207  22916153.240    93837829.81744
  22912061.460   120403702.70607  22912060.940    93821068.31945
  21702277.240   114046292.90508  21702274.900    88867257.29946
  21174315.240   111271815.36608  21174316.880    86705333.09247
 15 03 05 00 53 30.0000000  0  6G16G18G19G21G22G27
  20445525.660   107441986.47708  20445524.800    83721041.94548
  21780201.300   114455770.20108  21780200.740    89186339.14245
  22902546.560   120353701.32507  22902544.760    93782105.36145
  22925321.040   120473382.10107  22925320.600    93875363.93145
  21689819.500   113980827.10508  21689817.080    88816245.00846
  21165836.460   111227259.24508  21165838.100    86670614.04747
 15 03 05 00 54  0.0000000  0  6G16G18G19G21G22G27
  20444728.380   107437796.94508  20444727.560    83717777.36248
  21780198.400   114455755.10308  21780197.740    89186327.37845
  22888957.480   120282289.60507  22888955.500    93726459.88345
  22938599.020   120543158.22607  22938598.540    93929734.90345
  21677434.580   113915743.69908  21677432.080    88765530.67846
  21157390.660   111182876.13508  21157392.280    86636029.80947
 15 03 05 00 54 30.0000000  0  6G16G18G19G21G22G27
  20444035.000   107434153.38408  20444034.180    83714938.22048
  21780291.260   114456243.38308  21780290.540    89186707.87046
  22875388.560   120210983.93907  22875386.500    93670897.03145
  22951895.980   120613033.80207  22951895.260    93984183.41045
  21665123.560   113851049.11008  21665121.120    88715119.32446
  21148978.720   111138671.28608  21148980.420    86601584.47947
 15 03 05 00 55  0.0000000  0  6G16G18G19G21G22G27
  20443445.380   107431054.87108  20443444.520    83712523.78448
  21780479.620   114457233.37408  21780478.940    89187479.28945
  22861839.480   120139782.99907  22861837.300    93615415.78644
  22965211.340   120683005.96007  22965210.400    94038707.17144
  21652886.720   113786744.37008  21652884.320    88665011.74946
  21140600.540   111094643.76408  21140602.300    86567277.32247
 15 03 05 00 55 30.0000000  0  6G16G18G19G21G22G27
  20442959.660   107428502.30608  20442958.800    83710534.76448
  21780763.600   114458725.72008  21780762.900    89188642.16846
  22848310.420   120068687.86307  22848308.160    93560017.01245
  22978544.840   120753073.66607  22978543.740    94093305.35345
  21640724.560   113722831.97208  21640722.200    88615209.89946
  21132256.380   111050794.77308  21132258.080    86533109.28247
 15 03 05 00 56  0.0000000  0  6G16G18G19G21G22G27
  20442577.380   107426493.52408  20442576.600    83708969.47148
  21781142.560   114460717.01808  21781141.820    89190193.84246
  22834801.080   119997696.22507  22834798.820    93504698.87945
  22991895.820   120823232.65907  22991894.580    94147974.67844
  21628636.760   113659310.76708  21628634.480    88565712.88646
  21123945.780   111007122.04608  21123947.380    86499078.59247
 15 03 05 00 56 30.0000000  0  7G04G16G18G19G21G22G27
  24585055.180   129195342.84805  24585055.780   100671695.57242
  20442299.080   107425031.16608  20442298.360    83707829.96348
  21781616.820   114463209.36608  21781616.100    89192135.93345
  22821311.820   119926809.77707  22821309.620    93449462.69644
  23005264.340   120893483.34407  23005262.880    94202715.44744
  21616624.280   113596185.12608  21616622.060    88516524.09046
  21115669.120   110963628.09408  21115670.740    86465187.21547
 15 03 05 00 57  0.0000000  0  7G04G16G18G19G21G22G27
  24565922.900   129094803.84305  24565924.200   100593353.65641
  20442126.840   107424126.13308  20442126.120    83707124.73448
  21782188.440   114466213.34108  21782187.680    89194476.71146
  22807844.660   119856039.58907  22807842.660    93394317.09945
  23018652.000   120963834.87407  23018650.360    94257534.78444
  21604689.520   113533467.68608  21604687.320    88467653.37346
  21107428.640   110920324.17408  21107430.280    86431443.90047
 15 03 05 00 57 30.0000000  0  7G04G16G18G19G21G22G27
  24546815.560   128994395.59705  24546817.880   100515113.56543
  20442056.860   107423758.36708  20442056.120    83706838.15748
  21782853.480   114469708.14208  21782852.640    89197199.93746
  22794395.740   119785365.39207  22794393.920    93339246.30945
  23032054.480   121034265.08807  23032052.760    94312415.47444
  21592828.860   113471139.61808  21592826.640    88419086.06046
  21099220.560   110877190.43308  21099222.220    86397833.20747
 15 03 05 00 58  0.0000000  0  7G04G16G18G19G21G22G27
  24527735.860   128894131.65106  24527738.660   100436985.86041
  20442091.740   107423941.68108  20442090.980    83706980.98548
  21783614.340   114473706.77708  21783613.560    89200315.76346
  22780967.640   119714800.41307  22780965.880    93284260.64644
  23045474.000   121104785.75107  23045472.420    94367366.61445
  21581045.220   113409216.18208  21581042.900    88370834.05746
  21091047.440   110834240.49208  21091049.020    86364365.72747
 15 03 05 00 58 30.0000000  0  7G04G16G18G19G21G22G27
  24508683.240   128794009.11506  24508685.740   100358968.45941
  20442230.780   107424672.25508  20442230.000    83707550.26348
  21784470.220   114478204.63608  21784469.500    89203820.58846
  22767559.640   119644341.30007  22767557.900    93229357.45345
  23058909.540   121175390.96507  23058908.200    94422383.65344
  21569338.080   113347694.93508  21569335.700    88322895.43746
  21082908.580   110791470.74908  21082910.100    86331038.66547
 15 03 05 00 59  0.0000000  0  7G04G16G18G19G21G22G27
