     2.11           OBSERVATION DATA    M                   RINEX VERSION / TYPE
SPIDER V4,0,0,3554                      2015 03 13 05:49    PGM / RUN BY / DATE 
ADJF                                                        MARKER NAME         
ADJF                                                        MARKER NUMBER       
                                                            OBSERVER / AGENCY   
496631              LEICA GRX1200+GNSS  8.20/4.007          REC # / TYPE / VERS 
103293              LEIAT504                                ANT # / TYPE        
  5273000.2084   285396.0090  3566759.2257                  APPROX POSITION XYZ 
        0.0480        0.0000        0.0000                  ANTENNA: DELTA H/E/N
     1     1                                                WAVELENGTH FACT L1/2
     4    C1    L1    P2    L2                              # / TYPES OF OBSERV 
    30.000                                                  INTERVAL            
  2015    03    05    00    00    0.0000000     GPS         TIME OF FIRST OBS   
  2015    03    05    23    59   30.0000000     GPS         TIME OF LAST OBS    
    16                                                      LEAP SECONDS        
    38                                                      # OF SATELLITES     
   G 1   835   834   834   834                              PRN / # OF OBS      
   G 2   933   932   932   932                              PRN / # OF OBS      
   G 3   854   853   853   853                              PRN / # OF OBS      
   G 4   852   852   852   852                              PRN / # OF OBS      
   G 5   667   667   667   667                              PRN / # OF OBS      
   G 6   761   761   761   761                              PRN / # OF OBS      
   G 7   658   658   658   658                              PRN / # OF OBS      
   G 9   799   799   799   799                              PRN / # OF OBS      
   G10   781   781   781   781                              PRN / # OF OBS      
   G11   797   797   797   797                              PRN / # OF OBS      
   G12   828   827   827   827                              PRN / # OF OBS      
   G13   822   821   821   821                              PRN / # OF OBS      
   G14   444   442   442   441                              PRN / # OF OBS      
   G15   727   727   727   727                              PRN / # OF OBS      
   G16   687   686   686   686                              PRN / # OF OBS      
   G17   936   936   936   936                              PRN / # OF OBS      
   G18   927   926   926   926                              PRN / # OF OBS      
   G19   786   786   786   786                              PRN / # OF OBS      
   G20   790   789   789   789                              PRN / # OF OBS      
   G21   725   725   725   725                              PRN / # OF OBS      
   G22   724   712   715   710                              PRN / # OF OBS      
   G23   741   740   740   740                              PRN / # OF OBS      
   G24   825   800   797   793                              PRN / # OF OBS      
   G25   864   864   864   864                              PRN / # OF OBS      
   G27   831   831   831   831                              PRN / # OF OBS      
   G28   898   897   897   897                              PRN / # OF OBS      
   G29   757   757   757   757                              PRN / # OF OBS      
   G30   705   705   705   705                              PRN / # OF OBS      
   G31   815   814   813   813                              PRN / # OF OBS      
   G32   754   754   754   754                              PRN / # OF OBS      
   R 2    30    30    30    30                              PRN / # OF OBS      
   R 3    30    30    30    30                              PRN / # OF OBS      
   R 9    30    30    30    30                              PRN / # OF OBS      
   R15    30    30    30    30                              PRN / # OF OBS      
   R16    30    30    30    30                              PRN / # OF OBS      
   R17    30    30    30    30                              PRN / # OF OBS      
   R18    30    30    30    30                              PRN / # OF OBS      
   R19    30    30    30    30                              PRN / # OF OBS      
BIT 2 OF LLI FLAGS DATA COLLECTED UNDER A/S CONDITION       COMMENT             
SNR is mapped to RINEX snr flag value [2-9]                 COMMENT             
Lx:     = 25dBHz -> 1; 26-27dBHz -> 2; 28-31dBHz -> 3       COMMENT             
       32-35dBHz -> 4; 36-38dBHz -> 5; 39-41dBHz -> 6       COMMENT             
       42-44dBHz -> 7; 45-48dBHz -> 8; >=49dBHz -> 9        COMMENT             
                                                            END OF HEADER       
 15 03 05 00 00  0.0000000  0 15G16G18G19G21G22G27G31R02R03R09R15R16
                                R17R18R19
  21204461.540   111430214.96309  21204459.060    86828740.83048
  22184775.520   116581834.39709  22184773.600    90843013.85847
  24494132.320   128717525.22206  24494130.480   100299364.42545
  21775827.020   114432752.03909  21775824.240    89168371.87848
  23090584.740   121341896.99008  23090581.980    94552145.33147
  22337636.320   117385108.02508  22337636.960    91468925.21148
  23505673.440   123523121.29408  23505671.900    96251767.08246
  22600463.180   120600421.49907  22600469.240    93800348.72307
  22407892.900   119951210.95505  22407896.860    93295408.74207
  21758345.040   116188359.25007  21758348.900    90368740.77104
  22312769.980   119232653.50906  22312777.620    92736527.80207
  19788988.980   105709232.14208  19788993.880    82218314.76608
  22657369.840   121244151.73705  22657373.400    94301017.99906
  20208733.500   107875606.13408  20208738.740    83903278.07108
  21835168.440   116803474.34407  21835171.580    90847179.17307
 15 03 05 00 00 30.0000000  0 15G16G18G19G21G22G27G31R02R03R09R15R16
                                R17R18R19
  21193337.280   111371756.57409  21193334.800    86783188.84948
  22176541.240   116538563.42909  22176539.360    90809296.24947
  24479580.420   128641054.92106  24479578.540   100239777.27345
  21786149.580   114486997.60509  21786146.800    89210641.15048
  23073665.700   121252986.78508  23073662.860    94482864.71747
  22326832.000   117328331.09008  22326832.660    91424683.48248
  23523785.960   123618302.67408  23523784.520    96325934.33246
  22600587.680   120601085.82007  22600593.640    93800865.45107
  22391468.980   119863291.67805  22391472.860    93227027.12807
  21743191.140   116107437.90607  21743194.900    90305801.98105
  22336991.320   119362084.76606  22336998.780    92837196.49506
  19794904.040   105740828.96708  19794908.860    82242890.07108
  22671689.220   121320776.73605  22671692.840    94360615.22806
  20213698.560   107902110.13508  20213703.780    83923892.29608
  21825267.480   116750511.26707  21825270.760    90805985.71807
 15 03 05 00 01  0.0000000  0 15G16G18G19G21G22G27G31R02R03R09R15R16
                                R17R18R19
  21182277.740   111313638.54109  21182275.300    86737902.08248
  22168380.800   116495680.61608  22168379.060    90775881.08947
  24465042.200   128564656.04606  24465040.180   100180245.76445
  21796518.200   114541485.25009  21796515.440    89253099.05148
  23056770.860   121164203.27008  23056767.660    94413682.81146
  22316047.180   117271656.65008  22316047.840    91380521.60948
  23541912.820   123713559.35708  23541911.460    96400160.25146
  22600847.460   120602472.24507  22600853.280    93801943.80607
  22375114.480   119775744.41905  22375118.200    93158934.83807
  21728151.280   116027125.93307  21728155.000    90243337.13604
  22361250.200   119491717.13806  22361257.600    92938021.61107
  19800971.980   105773242.78708  19800976.800    82268100.81108
  22686002.060   121397367.51105  22686005.740    94420185.81006
  20218696.620   107928790.37008  20218701.860    83944643.60008
  21815405.780   116697757.73107  21815409.060    90764955.23607
 15 03 05 00 01 30.0000000  0 15G16G18G19G21G22G27G31R02R03R09R15R16
                                R17R18R19
  21171283.980   111255866.19409  21171281.620    86692884.68448
  22160295.100   116453190.47509  22160293.460    90742771.91347
  24450518.080   128488331.60806  24450515.960   100120772.26945
  21806933.200   114596216.58109  21806930.480    89295746.83548
  23039901.020   121075552.20708  23039897.840    94344604.13447
  22305282.440   117215087.75908  22305283.080    91336441.98548
  23560053.900   123808891.22908  23560052.600    96474444.75647
  22601243.240   120604584.57607  22601249.200    93803586.76007
  22358830.720   119688576.43705  22358834.400    93091137.56207
  21713226.720   115947429.89807  21713230.420    90181351.35004
  22385546.540   119621549.61306  22385554.280    93039002.32107
  19807193.060   105806474.82908  19807197.940    82293947.94508
  22700308.800   121473926.46805  22700312.580    94479731.65906
  20223727.980   107955648.51208  20223733.240    83965533.26808
  21805583.760   116645215.97207  21805586.940    90724089.46307
 15 03 05 00 02  0.0000000  0 15G16G18G19G21G22G27G31R02R03R09R15R16
                                R17R18R19
  21160355.820   111198438.50209  21160353.520    86648135.85148
  22152284.020   116411092.09409  22152282.380    90709968.00847
  24436007.520   128412078.33706  24436005.380   100061354.19946
  21817393.560   114651186.17509  21817390.840    89338580.28548
  23023056.340   120987033.24108  23023053.300    94275628.38246
  22294537.220   117158621.21508  22294537.740    91292442.10948
  23578208.100   123904292.05208  23578206.760    96548782.98646
  22601774.520   120607419.98907  22601780.720    93805792.12007
  22342618.020   119601788.81205  22342621.660    93023636.10307
  21698417.540   115868349.79707  21698421.240    90119844.62504
  22409878.920   119751574.44406  22409886.820    93140132.65607
  19813566.380   105840520.12908  19813571.300    82320427.61408
  22714608.920   121550450.19505  22714612.780    94539250.11306
  20228791.820   107982679.78808  20228797.140    83986557.60408
  21795800.420   116592881.76407  21795803.580    90683385.12507
 15 03 05 00 02 30.0000000  0 15G16G18G19G21G22G27G31R02R03R09R15R16
                                R17R18R19
  21149494.220   111141360.39609  21149491.880    86603659.41148
  22144348.320   116369389.68009  22144346.600    90677472.63947
  24421510.960   128335898.94205  24421508.860   100001993.68045
  21827899.460   114706395.25209  21827896.800    89381600.34348
  23006237.880   120898651.83708  23006234.940    94206759.82547
  22283812.000   117102259.82208  22283812.580    91248524.17548
  23596375.540   123999761.75808  23596374.200    96623174.91446
  22602442.020   120610982.05107  22602448.160    93808562.64607
  22326477.680   119515388.91305  22326481.420    92956436.21707
  21683724.900   115789891.91907  21683728.600    90058821.85604
  22434246.800   119881789.34106  22434254.740    93241410.83007
  19820092.240   105875379.88808  19820097.140    82347540.74508
  22728903.020   121626940.83005  22728906.740    94598742.82306
  20233888.460   108009885.79008  20233893.760    84007717.82808
  21786056.180   116540757.11807  21786059.340    90642843.77307
 15 03 05 00 03  0.0000000  0 15G16G18G19G21G22G27G31R02R03R09R15R16
                                R17R18R19
  21138699.260   111084632.65009  21138696.920    86559455.98748
  22136488.120   116328084.06909  22136486.280    90645286.46947
  24407028.100   128259791.96606  24407026.100    99942689.66845
  21838450.340   114761840.51409  21838447.740    89424804.43948
  22989445.940   120810409.72608  22989443.000    94137999.80247
  22273106.560   117046002.52308  22273107.200    91204687.35848
  23614555.280   124095296.44208  23614554.040    96697617.45446
  22603245.580   120615270.08107  22603251.540    93811897.80807
  22310410.280   119429380.13205  22310414.280    92889540.54407
  21669149.180   115712058.58207  21669152.880    89998284.84105
  22458649.620   120012189.84006  22458657.440    93342833.35107
  19826769.960   105911050.94408  19826774.900    82375284.89608
  22743190.640   121703397.05905  22743194.380    94658208.77606
  20239017.360   108037264.06808  20239022.660    84029012.04808
  21776350.780   116488840.20607  21776353.940    90602463.98007
 15 03 05 00 03 30.0000000  0 15G16G18G19G21G22G27G31R02R03R09R15R16
                                R17R18R19
  21127971.360   111028257.19509  21127969.020    86515527.06948
  22128703.760   116287176.81009  22128701.800    90613410.70547
  24392559.040   128183757.00506  24392556.980    99883441.75345
  21849045.880   114817520.38209  21849043.300    89468191.34548
  22972680.840   120722308.95908  22972677.680    94069349.90946
  22262420.820   116989848.73808  22262421.460    91160931.19248
  23632746.620   124190892.37208  23632745.240    96772107.71046
  22604185.220   120620284.06807  22604190.920    93815797.61107
  22294416.640   119343765.93305  22294420.700    92822951.76107
  21654690.920   115634852.40007  21654694.600    89938235.61604
  22483086.360   120142771.40006  22483094.160    93444396.70307
  19833599.100   105947530.88508  19833604.100    82403658.17108
  22757471.620   121779817.59705  22757475.380    94717646.96706
  20244178.120   108064812.52108  20244183.400    84050438.62308
  21766683.980   116437129.72107  21766687.020    90562244.72707
 15 03 05 00 04  0.0000000  0 15G16G18G19G21G22G27G31R02R03R09R15R16
                                R17R18R19
  21117310.700   110972235.16409  21117308.360    86471873.55348
  22120995.300   116246668.25109  22120993.200    90581845.61347
  24378103.560   128107793.19406  24378101.440    99824249.21645
  21859685.460   114873431.63909  21859682.920    89511758.56048
  22955943.040   120634351.23708  22955939.760    94000811.48047
  22251754.580   116933797.60808  22251755.260    91117255.02448
  23650948.960   124286545.87008  23650947.540    96846642.84046
  22605260.860   120626023.41507  22605266.340    93820261.57807
  22278497.580   119258549.76605  22278501.460    92756672.53407
  21640350.600   115558275.94807  21640354.200    89878676.16905
  22507555.700   120273528.18406  22507563.540    93546096.33307
  19840579.160   105984817.15808  19840584.220    82432658.59108
  22771745.800   121856201.36605  22771749.500    94777056.54806
  20249370.360   108092528.98908  20249375.640    84071995.88408
  21757055.520   116385623.94207  21757058.520    90522184.68907
 15 03 05 00 04 30.0000000  0 15G16G18G19G21G22G27G31R02R03R09R15R16
                                R17R18R19
  21106718.300   110916571.65309  21106715.880    86428499.39448
  22113363.740   116206563.64609  22113361.520    90550595.28647
  24363662.040   128031903.02806  24363660.100    99765114.08345
  21870369.160   114929574.83209  21870366.640    89555506.48948
  22939233.540   120546542.25808  22939230.320    93932388.95647
  22241108.480   116877852.07708  22241109.080    91073661.12848
  23669162.240   124382256.85608  23669160.900    96921222.76246
  22606473.020   120632491.40507  22606478.380    93825292.26607
  22262654.160   119173739.26905  22262658.120    92690708.86807
  21626129.280   115482335.18107  21626132.980    89819611.15805
  22532057.520   120404458.60706  22532065.400    93647931.01307
  19847710.240   106022910.27308  19847715.400    82462286.55308
  22786013.600   121932550.80905  22786017.160    94836439.44306
  20254594.400   108120415.13308  20254599.640    84093685.10708
  21747465.680   116334324.77507  21747468.700    90482285.37407
 15 03 05 00 05  0.0000000  0 15G16G18G19G21G22G27G31R02R03R09R15R16
                                R17R18R19
  21096194.380   110861268.05909  21096191.900    86385405.69748
  22105809.160   116166863.72409  22105806.940    90519660.30647
  24349234.420   127956085.92506  24349232.580    99706035.87245
  21881096.540   114985947.55009  21881094.060    89599433.28848
  22922552.680   120458883.94708  22922549.520    93864083.83847
  22230482.320   116822011.46008  22230482.900    91030148.99048
  23687385.740   124478021.78707  23687384.360    96995844.72346
  22607821.720   120639688.12907  22607827.080    93830889.74507
  22246887.180   119089337.81305  22246891.140    92625063.31607
  21612027.600   115407032.90507  21612031.340    89761042.74605
  22556591.300   120535559.08005  22556599.140    93749897.95406
  19854991.920   106061807.76208  19854997.140    82492540.14908
  22800274.620   122008864.55005  22800278.240    94895794.55406
  20259849.800   108148468.79908  20259855.000    84115504.64208
  21737914.180   116283230.65907  21737917.200    90442545.53507
 15 03 05 00 05 30.0000000  0 15G16G18G19G21G22G27G31R02R03R09R15R16
                                R17R18R19
  21085739.040   110806324.95009  21085736.520    86342592.89949
  22098331.640   116127569.03109  22098329.500    90489041.08347
  24334820.320   127880339.96406  24334818.760    99647013.11744
  21891867.020   115042546.72309  21891864.520    89643536.54248
  22905900.680   120371377.55108  22905897.520    93795897.08747
  22219875.860   116766274.35808  22219876.460    90986717.51048
  23705618.640   124573836.07908  23705617.220    97070505.13246
  22609306.720   120647612.00007  22609312.160    93837052.78907
  22231197.300   119005347.98005  22231201.140    92559737.92407
  21598045.760   115332370.72707  21598049.520    89702972.19205
  22581155.400   120666822.36405  22581163.220    93851991.54306
  19862423.520   106101506.06508  19862428.760    82523416.60008
  22814528.660   122085141.02205  22814532.340    94955120.69906
  20265136.060   108176687.24908  20265141.220    84137452.32908
  21728400.580   116232339.36207  21728403.620    90402963.44007
 15 03 05 00 06  0.0000000  0 15G16G18G19G21G22G27G31R02R03R09R15R16
                                R17R18R19
  21075353.200   110751747.16309  21075350.680    86300064.76249
  22090932.000   116088683.68609  22090929.960    90458740.83347
  24320420.340   127804668.12106  24320418.620    99588048.06944
  21902680.680   115099373.01609  21902678.180    89687816.76848
  22889278.620   120284028.34908  22889275.500    93727832.81947
  22209289.640   116710643.38808  22209290.200    90943368.72848
  23723860.900   124669699.26108  23723859.320    97145203.66246
  22610928.480   120656265.92807  22610934.080    93843783.65107
  22215585.620   118921776.85605  22215589.460    92494738.21307
  21584184.820   115258354.52607  21584188.640    89645404.06905
  22605750.040   120798248.41205  22605757.900    93954211.71306
  19870005.040   106142005.35208  19870010.300    82554916.03208
  22828776.080   122161382.30705  22828779.780    95014419.47406
  20270453.420   108205071.81708  20270458.620    84159529.21908
  21718925.220   116181652.82107  21718928.380    90363540.61707
 15 03 05 00 06 30.0000000  0 15G16G18G19G21G22G27G31R02R03R09R15R16
                                R17R18R19
  21065036.940   110697534.86709  21065034.400    86257821.42048
  22083610.220   116050207.41809  22083608.240    90428759.33747
  24306034.020   127729068.01106  24306032.240    99529138.96045
  21913536.860   115156422.80809  21913534.360    89732271.15048
  22872686.660   120196837.18408  22872683.560    93659891.70547
  22198723.300   116655116.71808  22198723.780    90900101.21948
  23742111.640   124765606.73208  23742110.240    97219936.66746
  22612686.720   120665648.34307  22612692.320    93851081.12007
  22200052.580   118838626.98505  22200056.160    92430066.12307
  21570445.100   115184985.50607  21570449.020    89588339.29805
  22630373.920   120929830.31705  22630381.680    94056553.12807
  19877735.900   106183302.04008  19877741.080    82587035.66508
  22843016.500   122237586.38005  22843020.300    95073689.28106
  20275801.280   108233619.22508  20275806.460    84181732.75108
  21709487.620   116131168.10807  21709490.780    90324274.76407
 15 03 05 00 07  0.0000000  0 15G16G18G19G21G22G27G31R02R03R09R15R16
                                R17R18R19
  21054790.680   110643690.52309  21054788.200    86215864.80549
  22076366.640   116012142.29009  22076364.700    90399098.21947
  24291661.500   127653540.17406  24291659.680    99470286.15245
  21924435.220   115213694.39509  21924432.780    89776898.36848
  22856125.420   120109807.49608  22856122.320    93592076.41447
  22188176.840   116599694.75408  22188177.280    90856915.31048
  23760370.140   124861556.02607  23760368.920    97294702.27046
  22614581.540   120675759.72707  22614587.180    93858945.56707
  22184599.060   118755902.94405  22184602.420    92365725.23907
  21556827.260   115112267.35007  21556831.300    89531780.77205
  22655025.840   121061563.03705  22655033.860    94159011.80707
  19885615.680   106225394.01508  19885620.740    82619773.85708
  22857249.980   122313753.01305  22857253.820    95132929.99206
  20281179.500   108262328.56608  20281184.680    84204062.24608
  21700087.680   116080884.71407  21700090.780    90285165.48007
 15 03 05 00 07 30.0000000  0 15G16G18G19G21G22G27G31R02R03R09R15R16
                                R17R18R19
  21044614.360   110590213.66809  21044611.920    86174194.53349
  22069201.120   115974487.60609  22069199.320    90369756.93047
  24277302.340   127578081.95306  24277300.460    99411487.58146
  21935374.980   115271183.29009  21935372.520    89821694.91448
  22839594.900   120022939.08008  22839591.700    93524386.78447
  22177649.780   116544375.01208  22177650.280    90813809.04648
  23778635.560   124957541.26708  23778634.540    97369495.88547
  22616612.480   120686597.67407  22616618.220    93867375.10807
  22169225.320   118673606.15505  22169228.500    92301716.64007
  21543331.480   115040200.70407  21543335.440    89475728.95305
  22679704.980   121193440.95405  22679713.300    94261583.38806
  19893643.400   106268276.42708  19893648.400    82653126.82808
  22871476.060   122389879.45405  22871479.880    95192139.42906
  20286587.320   108291195.94508  20286592.560    84226514.65308
  21690724.740   116030799.32007  21690727.720    90246210.18807
 15 03 05 00 08  0.0000000  0 15G16G18G19G21G22G27G31R02R03R09R15R16
                                R17R18R19
  21034509.080   110537110.08709  21034506.660    86132815.13349
  22062114.700   115937248.47009  22062112.940    90340739.43847
  24262957.160   127502696.98807  24262955.120    99352746.12945
  21946356.440   115328891.23608  21946353.920    89866662.15048
  22823096.320   119936238.24908  22823093.000    93456827.74747
  22167142.840   116489161.17708  22167143.420    90770785.31348
  23796907.920   125053563.24807  23796906.900    97444318.14246
  22618780.440   120698166.16107  22618786.120    93876372.84107
  22153932.880   118591745.00605  22153936.360    92238046.90907
  21529958.900   114968791.97207  21529962.800    89420188.86105
  22704411.280   121325463.50005  22704419.420    94364267.51806
  19901819.320   106311950.64908  19901824.280    82687095.64908
  22885695.360   122465968.91505  22885699.080    95251320.12706
  20292025.240   108320223.76908  20292030.400    84249091.85108
  21681399.240   115980914.65907  21681402.140    90207411.04507
 15 03 05 00 08 30.0000000  0 15G16G18G19G21G22G27G31R02R03R09R15R16
                                R17R18R19
  21024475.000   110484380.57009  21024472.580    86091727.20449
  22055107.420   115900425.51409  22055105.740    90312046.24247
  24248625.640   127427383.60607  24248623.520    99294060.42046
  21957379.000   115386815.08709  21957376.440    89911797.61348
  22806629.900   119849706.38908  22806626.460    93389400.36047
  22156655.860   116434052.04508  22156656.400    90727843.15948
  23815186.600   125149618.28408  23815185.340    97519166.12646
  22621085.040   120710463.88407  22621090.520    93885937.77007
  22138722.300   118510322.20905  22138726.120    92174718.12607
  21516710.000   114898043.40307  21516713.880    89365162.21805
  22729143.480   121457624.87305  22729151.620    94467059.60106
  19910142.780   106356413.25008  19910147.760    82721677.65508
  22899907.300   122542019.84205  22899911.000    95310470.83306
  20297492.780   108349409.60408  20297497.900    84271791.94508
  21672111.000   115931228.60307  21672113.840    90168766.35707
 15 03 05 00 09  0.0000000  0 15G16G18G19G21G22G27G31R02R03R09R15R16
                                R17R18R19
  21014512.800   110432028.85809  21014510.400    86050933.66849
  22048179.960   115864021.98909  22048178.320    90283679.88147
  24234308.020   127352143.66906  24234305.960    99235431.96146
  21968442.600   115444954.66409  21968440.020    89957101.17948
  22790196.460   119763348.25708  22790192.980    93322108.36347
  22146189.200   116379049.53608  22146189.720    90684984.08248
  23833471.360   125245704.78108  23833469.880    97594038.64746
  22623526.620   120723492.70607  22623532.060    93896071.32507
  22123594.820   118429343.66205  22123598.540    92111734.82807
  21503585.460   114827959.54607  21503589.400    89310652.56905
  22753901.440   121589922.96905  22753909.600    94569957.99206
  19918613.760   106401663.76608  19918618.780    82756872.48808
  22914112.360   122618033.81005  22914116.100    95369592.79906
  20302990.000   108378753.89808  20302995.060    84294615.28908
  21662860.140   115881742.13807  21662862.840    90130276.90307
 15 03 05 00 09 30.0000000  0 15G16G18G19G21G22G27G31R02R03R09R15R16
                                R17R18R19
  21004623.000   110380057.62409  21004620.600    86010436.61149
  22041332.680   115828039.75009  22041331.020    90255641.78747
  24220004.320   127276977.44406  24220002.200    99176860.95945
  21979547.040   115503308.73009  21979544.460    90002571.88048
  22773796.600   119677166.63208  22773793.120    93254953.90147
  22135742.940   116324154.00608  22135743.480    90642208.36748
  23851761.760   125341820.57508  23851760.220    97668934.01446
  22626105.260   120737252.88707  22626110.580    93906773.72207
  22108551.340   118348814.40905  22108554.740    92049101.01007
  21490586.080   114758544.01407  21490590.100    89256662.73905
  22778684.140   121722353.52505  22778692.380    94672959.41706
  19927231.860   106447699.86108  19927236.900    82792678.33608
  22928310.480   122694010.75405  22928314.360    95428685.96906
  20308516.720   108408255.83508  20308521.760    84317561.24608
  21653646.500   115832454.79107  21653649.100    90091942.31507
 15 03 05 00 10  0.0000000  0 15G16G18G19G21G22G27G31R02R03R09R15R16
                                R17R18R19
  20994806.040   110328469.07809  20994803.580    85970237.75449
  22034565.880   115792480.24109  22034564.180    90227933.09947
  24205714.500   127201884.80806  24205712.180    99118347.28045
  21990691.980   115561875.63509  21990689.400    90048208.42948
  22757430.800   119591164.09008  22757427.340    93187938.98247
  22125317.020   116269365.47908  22125317.560    90599516.04148
  23870056.920   125437962.21608  23870055.680    97743849.48246
  22628821.060   120751744.50807  22628826.320    93918045.02007
  22093592.360   118268738.02105  22093595.400    91986819.39207
  21477712.480   114689799.58307  21477716.460    89203194.87005
  22803490.840   121854912.19405  22803498.920    94776060.49606
  19935996.540   106494518.99708  19936001.560    82829093.21508
  22942501.740   122769950.36605  22942505.540    95487750.10106
  20314072.700   108437914.08708  20314077.820    84340628.77808
  21644469.760   115783365.69807  21644472.480    90053761.96107
 15 03 05 00 10 30.0000000  0 15G16G18G19G21G22G27G31R02R03R09R15R16
                                R17R18R19
  20985061.220   110277259.69009  20985058.740    85930334.34149
  22027878.960   115757340.36509  22027877.260    90200551.39847
  24191437.680   127126860.34306  24191435.380    99059886.71745
  22001876.020   115620647.90409  22001873.400    90094005.00348
  22741098.620   119505338.26508  22741095.140    93121061.76147
  22114910.440   116214678.80308  22114911.040    90556903.06748
  23888355.480   125534121.90307  23888354.380    97818779.00446
  22631672.760   120766961.71807  22631678.060    93929880.66007
  22078717.640   118189113.78105  22078721.000    91924889.46507
  21464964.140   114621724.03107  21464968.020    89150247.23905
  22828319.800   121987589.76305  22828327.920    94879254.02506
  19944906.380   106542113.56808  19944911.440    82866111.20708
  22956684.860   122845847.05205  22956688.540    95546780.83406
  20319656.740   108467722.12308  20319661.880    84363812.80708
  21635328.880   115734468.66707  21635331.840    90015730.98708
 15 03 05 00 11  0.0000000  0 15G16G18G19G21G22G27G31R02R03R09R15R16
                                R17R18R19
  20975390.260   110226438.52809  20975387.780    85890733.44649
  22021273.400   115722627.90309  22021271.640    90173502.74347
  24177175.240   127051911.24006  24177172.760    99001484.86845
  22013099.940   115679629.70809  22013097.300    90139964.85048
  22724801.860   119419698.71808  22724798.520    93054329.69547
  22104524.560   116160100.97908  22104525.180    90514374.92148
  23906658.240   125630303.32808  23906657.260    97893725.46846
  22634661.760   120782911.77307  22634667.080    93942286.28607
  22063929.520   118109952.99206  22063933.440    91863320.02907
  21452342.940   114554327.24107  21452346.640    89097827.52705
  22853171.620   122120389.14105  22853179.740    94982542.31406
  19953962.220   106590487.97608  19953967.300    82903735.73808
  22970861.260   122921707.42305  22970864.820    95605783.34206
  20325269.880   108497685.57308  20325275.100    84387117.71308
  21626225.040   115685769.66807  21626228.140    89977854.02607
 15 03 05 00 11 30.0000000  0 15G16G18G19G21G22G27G31R02R03R09R15R16
                                R17R18R19
  20965792.520   110176002.10909  20965790.040    85851432.34649
  22014748.520   115688339.22709  22014746.640    90146784.31047
  24162926.060   126977031.57807  24162923.600    98943137.15745
  22024362.500   115738814.85208  22024359.820    90186083.15248
  22708540.120   119334242.75008  22708536.700    92987740.67747
  22094158.420   116105626.68508  22094159.080    90471927.44848
  23924963.600   125726498.26307  23924962.420    97968682.47445
  22637787.000   120799588.97007  22637792.280    93955257.45407
  22049227.940   118031253.91406  22049232.000    91802109.66407
  21439848.300   114487606.51307  21439851.900    89045933.63905
  22878044.160   122253300.37605  22878052.280    95085917.58206
  19963162.460   106639633.83308  19963167.560    82941960.27908
  22985029.760   122997525.87505  22985033.180    95664753.19306
  20330910.980   108527798.00108  20330916.180    84410538.48708
  21617157.140   115637262.51007  21617160.180    89940126.25007
 15 03 05 00 12  0.0000000  0 15G16G18G19G21G22G27G31R02R03R09R15R16
                                R17R18R19
  20956269.080   110125956.00209  20956266.560    85812435.38649
  22008305.180   115654479.00809  22008303.220    90120399.74647
  24148690.700   126902224.63706  24148688.360    98884846.07945
  22035664.020   115798204.80608  22035661.360    90232361.04048
  22692314.440   119248976.25808  22692310.960    92921299.29147
  22083812.720   116051259.41308  22083813.320    90429563.36048
  23943271.700   125822707.51307  23943270.440    98043650.63346
  22641049.060   120816996.48107  22641054.380    93968796.66207
  22034614.040   117953024.30605  22034618.120    91741264.45507
  21427481.520   114421568.58407  21427485.120    88994570.82805
  22902937.600   122386322.32705  22902945.700    95189378.95806
  19972507.340   106689552.33908  19972512.380    82980785.76008
  22999191.180   123073305.47205  22999194.260    95723692.90506
  20336580.340   108558061.44908  20336585.580    84434076.71908
  21608125.380   115588949.39807  21608128.460    89902549.41007
 15 03 05 00 12 30.0000000  0 15G16G18G19G21G22G27G31R02R03R09R15R16
                                R17R18R19
  20946820.340   110076302.66409  20946817.860    85773744.48149
  22001943.900   115621049.77209  22001941.820    90094351.01247
  24134469.360   126827490.90707  24134467.120    98826612.08845
  22047004.260   115857798.43708  22047001.620    90278797.63448
  22676125.380   119163902.56508  22676121.940    92855008.14447
  22073487.480   115996999.77108  22073488.040    90387283.14248
  23961581.900   125918928.29507  23961580.780    98118627.75146
  22644448.020   120835134.61807  22644453.380    93982904.14507
  22020088.680   117875268.82305  22020092.400    91680787.99507
  21415243.140   114356216.55807  21415246.900    88943741.48905
  22927851.340   122519452.45805  22927859.260    95292924.51006
  19981996.380   106740241.24208  19982001.400    83020210.45308
  23013345.320   123149046.66305  23013348.380    95782602.72906
  20342277.880   108588475.32808  20342283.120    84457731.96108
  21599129.920   115540830.51207  21599133.080    89865123.63707
 15 03 05 00 13  0.0000000  0 15G16G18G19G21G22G27G31R02R03R09R15R16
                                R17R18R19
  20937446.400   110027042.26609  20937443.960    85735359.76649
  21995664.440   115588050.71209  21995662.260    90068637.48147
  24120261.500   126752828.26406  24120259.140    98768433.48145
  22058382.360   115917591.00408  22058379.780    90325389.24448
  22659973.160   119079022.10208  22659969.780    92788867.56147
  22063182.280   115942845.68208  22063182.800    90345085.17948
  23979893.480   126015155.87907  23979892.600    98193610.17446
  22647983.480   120854000.90207  22647988.700    93997577.94507
  22005652.080   117797989.46906  22005655.840    91620681.86507
  21403133.360   114291551.08007  21403137.220    88893446.13305
  22952783.740   122652683.45505  22952791.520    95396548.50006
  19991628.680   106791695.49708  19991633.660    83060230.41208
  23027491.560   123224747.03305  23027495.140    95841480.74406
  20348002.940   108619036.27108  20348008.180    84481501.58508
  21590170.240   115492902.56807  21590173.340    89827846.37507
 15 03 05 00 13 30.0000000  0 15G16G18G19G21G22G27G31R02R03R09R15R16
                                R17R18R19
  20928147.880   109978178.42709  20928145.480    85697284.05749
  21989467.440   115555485.15709  21989465.260    90043261.73847
  24106067.580   126678238.37507  24106065.000    98710311.54545
  22069798.400   115977582.79608  22069795.820    90372136.09748
  22643858.540   118994339.48608  22643855.200    92722881.15447
  22052897.460   115888799.04808  22052898.000    90302970.94848
  23998206.180   126111389.17907  23998205.360    98268597.05846
  22651655.660   120873596.62807  22651660.920    94012819.09207
  21991305.720   117721192.06406  21991309.360    91560950.56607
  21391153.040   114227576.81907  21391156.940    88843688.39605
  22977734.580   122786012.71905  22977742.580    95500248.87306
  20001404.160   106843914.42108  20001409.080    83100845.12308
  23041630.680   123300407.86505  23041634.280    95900328.06406
  20353755.700   108649745.01208  20353760.920    84505386.16608
  21581246.580   115445166.49107  21581249.560    89790718.34607
 15 03 05 00 14  0.0000000  0 15G16G18G19G21G22G27G31R02R03R09R15R16
                                R17R18R19
  20918924.980   109929711.81809  20918922.580    85659517.87349
  21983352.860   115523353.09009  21983350.760    90018223.78947
  24091887.260   126603719.75407  24091884.680    98652245.14646
  22081251.720   116037770.44308  22081249.080    90419035.56548
  22627781.840   118909856.20408  22627778.440    92657050.06447
  22042632.880   115834858.68608  22042633.380    90260939.52048
  24016519.120   126207623.62607  24016518.180    98343584.84146
  22655464.240   120893920.24207  22655469.600    94028626.36207
  21977049.820   117644879.33205  21977053.720    91501596.27107
  21379302.360   114164295.27607  21379306.280    88794469.42905
  23002702.780   122919435.53105  23002710.980    95604021.99606
  20011322.040   106896893.86808  20011326.940    83142051.34208
  23055761.840   123376027.88605  23055765.680    95959143.61406
  20359535.700   108680598.95708  20359540.820    84529383.67408
  21572358.400   115397620.16507  21572361.220    89753737.90507
 15 03 05 00 14 30.0000000  0 15G16G18G19G21G22G27G31R02R03R09R15R16
                                R17R18R19
  20909778.580   109881647.29609  20909776.220    85622065.01049
  21977321.520   115491658.72309  21977319.520    89993526.89447
  24077720.940   126529275.34007  24077718.580    98594236.59846
  22092742.540   116098155.17308  22092739.860    90466088.60348
  22611744.100   118825577.43208  22611740.660    92591378.33147
  22032389.120   115781027.49608  22032389.600    90218993.15648
  24034832.260   126303859.43507  24034831.420    98418573.66046
  22659409.740   120914974.25007  22659414.960    94045001.72407
  21962885.840   117569058.31806  21962889.760    91442624.40007
  21367582.420   114101711.87207  21367586.300    88745793.45605
  23027688.260   123052949.66305  23027695.980    95707866.22105
  20021382.200   106950633.66908  20021387.120    83183848.94708
  23069886.060   123451609.63905  23069889.960    96017929.41706
  20365343.200   108711599.61508  20365348.240    84553495.29708
  21563505.900   115350265.33907  21563508.760    89716906.40807
 15 03 05 00 15  0.0000000  0  7G16G18G19G21G22G27G31
  20900708.760   109833985.09909  20900706.460    85584925.64649
  21971373.400   115460401.83509  21971371.560    89969170.89747
  24063568.320   126454902.99906  24063565.800    98536284.17545
  22104270.140   116158733.15108  22104267.480    90513292.23348
  22595745.440   118741504.13308  22595742.000    92525866.71847
  22022165.900   115727303.88108  22022166.380    90177130.61548
  24053144.760   126400092.02007  24053143.740    98493559.99045
 15 03 05 00 15 30.0000000  0  7G16G18G19G21G22G27G31
  20891715.840   109786726.93509  20891713.520    85548101.10549
  21965508.760   115429583.46709  21965507.020    89945156.59947
  24049429.240   126380602.42506  24049426.820    98478387.69445
  22115834.220   116219502.69208  22115831.540    90560645.12648
  22579786.340   118657638.59308  22579782.940    92460516.98247
  22011963.100   115673687.63408  22011963.620    90135351.74448
  24071456.040   126496317.99107  24071455.180    98568541.12546
 15 03 05 00 16  0.0000000  0  7G16G18G19G21G22G27G31
  20882800.560   109739876.89309  20882798.200    85511594.59249
  21959728.320   115399207.26009  21959726.620    89921486.85247
  24035304.240   126306375.77706  24035301.900    98420548.83446
  22127434.800   116280463.71008  22127432.060    90608147.22648
  22563867.740   118573985.81508  22563864.280    92395333.06247
  22001781.140   115620181.04408  22001781.720    90093658.32848
  24089765.940   126592536.92307  24089765.260    98643516.80745
 15 03 05 00 16 30.0000000  0  7G16G18G19G21G22G27G31
  20873962.280   109693431.48409  20873959.900    85475403.37049
  21954031.140   115369268.41609  21954029.400    89898157.89747
  24021192.320   126232217.51307  24021189.960    98362763.23445
  22139070.440   116341608.98709  22139067.640    90655792.90948
  22547989.100   118490542.91408  22547985.520    92330312.65547
  21991618.940   115566778.59908  21991619.500    90052046.05548
  24108072.900   126688740.17207  24108072.260    98718480.26546
 15 03 05 00 17  0.0000000  0  7G16G18G19G21G22G27G31
  20865202.380   109647397.94909  20865199.960    85439533.09149
  21948418.660   115339774.18009  21948416.800    89875175.39248
  24007094.420   126158132.64307  24007091.960    98305034.80345
  22150741.680   116402941.50208  22150738.840    90703584.47948
  22532151.840   118407317.69008  22532148.200    92265461.87047
  21981477.640   115513485.82308  21981478.100    90010519.24448
  24126377.380   126784930.11507  24126376.560    98793433.34946
 15 03 05 00 17 30.0000000  0  7G16G18G19G21G22G27G31
  20856521.280   109601778.61609  20856518.820    85403985.56049
  21942891.020   115310725.71809  21942888.940    89852540.24947
  23993010.540   126084121.17807  23993007.940    98247363.59346
  22162448.220   116464459.67708  22162445.420    90751520.72448
  22516356.460   118324312.83908  22516352.920    92200782.80647
  21971357.300   115460302.98808  21971357.620    89969078.09248
  24144678.620   126881104.03507  24144677.920    98868373.91245
 15 03 05 00 18  0.0000000  0  7G16G18G19G21G22G27G31
  20847919.240   109556574.71409  20847916.780    85368761.74749
  21937448.360   115282123.77409  21937446.060    89830253.03647
  23978940.420   126010182.27406  23978937.640    98189748.89846
  22174189.720   116526161.77108  22174186.960    90799600.27547
  22500603.500   118241530.81208  22500600.080    92136277.38047
  21961257.880   115407229.83908  21961258.120    89927722.41248
  24162976.360   126977258.70807  24162975.520    98943299.50346
 15 03 05 00 18 30.0000000  0  7G16G18G19G21G22G27G31
  20839396.460   109511787.13409  20839393.980    85333862.34249
  21932090.740   115253968.96809  21932088.320    89808314.24747
  23964884.000   125936315.62807  23964881.280    98132190.54845
  22185965.660   116588044.89008  22185962.900    90847820.89348
  22484893.320   118158973.29608  22484889.900    92071946.89047
  21951179.100   115354265.60308  21951179.420    89886451.61348
  24181269.760   127073390.49407  24181269.040    99018207.26346
 15 03 05 00 19  0.0000000  0  7G16G18G19G21G22G27G31
  20830953.640   109467419.68409  20830951.140    85299290.31449
  21926818.780   115226264.40009  21926816.280    89786726.29047
  23950841.540   125862522.42807  23950838.940    98074689.40245
  22197775.860   116650108.32808  22197773.120    90896182.01848
  22469226.620   118076644.33908  22469223.140    92007794.50647
  21941121.280   115301411.92208  21941121.760    89845266.96048
  24199558.400   127169498.09007  24199557.940    99093096.14545
 15 03 05 00 19 30.0000000  0  7G16G18G19G21G22G27G31
  20822590.660   109423471.84409  20822588.180    85265045.24549
  21921632.140   115199008.53309  21921629.700    89765487.96547
  23936812.660   125788800.60707  23936810.000    98017243.87745
  22209619.680   116712348.23708  22209616.940    90944680.64948
  22453603.520   117994544.41608  22453599.940    91943820.57047
  21931084.120   115248666.81808  21931084.780    89804166.90248
  24217841.540   127265576.44507  24217841.360    99167962.21945
 15 03 05 00 20  0.0000000  0  7G16G18G19G21G22G27G31
  20814308.500   109379948.68909  20814306.040    85231131.09749
  21916531.800   115172206.24709  21916529.460    89744603.07647
  23922797.780   125715152.64107  23922795.200    97959855.92345
  22221497.260   116774765.40208  22221494.480    90993317.39848
  22438024.960   117912678.96908  22438021.460    91880029.35447
  21921068.300   115196033.36609  21921068.920    89763153.83848
  24236119.060   127361625.58407  24236118.760    99242805.56546
 15 03 05 00 20 30.0000000  0  7G16G18G19G21G22G27G31
  20806106.480   109336846.87509  20806104.080    85197545.28249
  21911516.980   115145853.34509  21911514.660    89724068.36847
  23908796.100   125641573.87307  23908793.600    97902521.86146
  22233407.440   116837353.82608  22233404.620    91042087.61348
  22422490.560   117831045.55908  22422487.080    91816418.95147
  21911072.880   115143506.72209  21911073.300    89722224.00448
  24254389.540   127457637.62307  24254389.100    99317620.00245
 15 03 05 00 21  0.0000000  0  7G16G18G19G21G22G27G31
  20797986.180   109294174.68109  20797983.840    85164294.22849
  21906589.080   115119957.23209  21906586.760    89703889.58947
  23894808.660   125568069.82407  23894806.180    97845246.02446
  22245350.980   116900117.37108  22245348.120    91090994.27148
  22407002.120   117749653.36208  22406998.640    91752996.48747
  21901098.920   115091093.17708  21901099.140    89681382.29548
  24272653.640   127553615.87707  24272653.280    99392408.08445
 15 03 05 00 21 30.0000000  0  7G16G18G19G21G22G27G31
  20789947.040   109251928.86709  20789944.680    85131375.41849
  21901747.320   115094513.71409  21901745.060    89684063.48348
  23880834.620   125494635.77707  23880832.240    97788024.72145
  22257326.480   116963048.97908  22257323.620    91140031.88848
  22391559.040   117668499.63608  22391555.600    91689759.85947
  21891145.520   115038787.98008  21891145.700    89640625.01748
  24290910.000   127649552.68806  24290909.740    99467163.89146
 15 03 05 00 22  0.0000000  0  7G16G18G19G21G22G27G31
  20781990.280   109210115.85909  20781987.900    85098793.86149
  21896992.780   115069528.76809  21896990.520    89664594.71347
  23866874.720   125421275.95707  23866872.340    97730861.25646
  22269334.420   117026151.13308  22269331.580    91189202.41047
  22376162.620   117587591.30008  22376159.240    91626714.44347
  21881213.620   114986595.77209  21881213.920    89599955.78748
  24309158.600   127745449.82507  24309158.640    99541888.72445
 15 03 05 00 22 30.0000000  0  7G16G18G19G21G22G27G31
  20774116.340   109168738.09009  20774113.980    85066551.45249
  21892325.800   115045003.90709  21892323.600    89645484.44447
  23852929.060   125347990.96407  23852926.740    97673756.11046
  22281374.780   117089423.48608  22281371.920    91238505.54647
  22360813.640   117506931.97308  22360810.200    91563863.05647
  21871303.420   114934517.34809  21871303.820    89559375.21748
  24327399.180   127841304.71506  24327399.480    99616580.68046
 15 03 05 00 23  0.0000000  0  7G16G18G19G21G22G27G31
  20766324.800   109127793.07209  20766322.400    85034646.25149
  21887745.840   115020936.45109  21887743.780    89626730.58848
  23838996.780   125274776.53307  23838994.440    97616705.96345
  22293446.300   117152859.72608  22293443.420    91287936.37847
  22345511.700   117426519.83108  22345508.260    91501204.27347
  21861414.120   114882548.63909  21861414.540    89518880.13648
  24345630.520   127937110.50106  24345630.900    99691234.34545
 15 03 05 00 23 30.0000000  0  7G16G18G19G21G22G27G31
  20758616.460   109087285.43709  20758614.020    85003081.87149
  21883253.500   114997329.42109  21883251.560    89608335.51647
  23825078.420   125201635.32107  23825076.000    97559712.86346
  22305549.040   117216460.22208  22305546.240    91337495.20647
  22330257.760   117346359.88208  22330254.260    91438742.01047
  21851546.220   114830692.49809  21851546.620    89478472.78048
  24363852.420   128032867.18507  24363852.880    99765849.75045
 15 03 05 00 24  0.0000000  0  7G16G18G19G21G22G27G31
  20750991.480   109047215.91309  20750989.020    84971858.86949
  21878848.880   114974183.36509  21878847.060    89590299.64148
  23811173.740   125128565.95207  23811171.260    97502775.72446
  22317682.480   117280222.15508  22317679.780    91387179.82447
  22315052.180   117266454.11208  22315048.640    91376477.79647
  21841699.560   114778948.04509  21841699.860    89438152.45248
  24382064.360   128128570.63507  24382064.700    99840423.68745
 15 03 05 00 24 30.0000000  0  7G16G18G19G21G22G27G31
  20743450.800   109007589.33809  20743448.340    84940981.02749
  21874532.780   114951502.27709  21874530.980    89572626.07647
  23797283.300   125055571.38907  23797280.720    97445896.88045
  22329846.940   117344146.92108  22329844.260    91436991.33048
  22299896.020   117186807.80908  22299892.420    91314415.77847
  21831874.740   114727318.54409  21831875.060    89397921.68748
  24400266.080   128224221.30307  24400266.500    99914956.43645
 15 03 05 00 25  0.0000000  0  7G16G18G19G21G22G27G31
  20735993.940   108968403.24809  20735991.460    84910446.41749
  21870304.540   114929282.68409  21870302.720    89555312.11947
  23783406.220   124982647.28307  23783403.740    97389072.94546
  22342041.220   117408228.36908  22342038.540    91486924.92747
  22284788.800   117107419.03708  22284785.260    91252554.43047
  21822071.020   114675799.82609  21822071.380    89357777.24048
  24418456.480   128319811.57007  24418456.880    99989442.19045
 15 03 05 00 25 30.0000000  0  7G16G18G19G21G22G27G31
  20728621.800   108929662.39309  20728619.300    84880258.74649
  21866164.920   114907528.72109  21866163.000    89538360.99448
  23769543.180   124909796.65807  23769540.840    97332306.25946
  22354265.620   117472467.98208  22354262.980    91536981.77547
  22269731.700   117028293.66808  22269728.200    91190898.33048
  21812289.040   114624395.19509  21812289.460    89317721.70648
  24436635.540   128415342.32406  24436636.160   100063881.49545
 15 03 05 00 26  0.0000000  0  7G16G18G19G21G22G27G31
  20721334.680   108891368.34509  20721332.200    84850419.23749
  21862114.020   114886241.01909  21862112.020    89521773.19748
  23755694.160   124837019.35107  23755691.540    97275596.71246
  22366519.580   117536863.04708  22366516.980    91587159.74647
  22254725.180   116949434.11308  22254721.700    91129449.35448
  21802528.720   114573104.55409  21802529.200    89277755.00048
  24454802.680   128510810.28507  24454803.420   100138271.90545
 15 03 05 00 26 30.0000000  0  7G16G18G19G21G22G27G31
  20714132.820   108853522.40509  20714130.340    84820928.89449
  21858152.080   114865420.67909  21858149.960    89505549.56348
  23741858.980   124764315.18607  23741856.440    97218944.15546
  22378802.860   117601411.98008  22378800.180    91637457.60548
  22239769.680   116870842.53209  22239766.180    91068209.18248
  21792790.080   114521927.86609  21792790.520    89237877.07548
  24472957.340   128606212.43307  24472957.840   100212611.01445
 15 03 05 00 27  0.0000000  0  7G16G18G19G21G22G27G31
  20707016.440   108816125.65709  20707013.960    84791788.57749
  21854279.080   114845067.65309  21854276.860    89489690.08148
  23728037.540   124691683.16807  23728034.960    97162347.84146
  22391114.940   117666112.37908  22391112.200    91687873.50347
  22224865.480   116792520.50608  22224861.920    91007179.06948
  21783073.080   114470864.72809  21783073.460    89198087.64448
  24491098.560   128701545.30506  24491099.320   100286896.10346
 15 03 05 00 27 30.0000000  0  7G16G18G19G21G22G27G31
  20699986.340   108779182.24809  20699983.860    84763001.51149
  21850495.500   114825184.68309  21850493.200    89474196.87248
  23714230.180   124619125.16507  23714227.560    97105809.17746
  22403455.920   117730964.51708  22403453.160    91738407.63447
  22210013.520   116714473.12408  22210010.040    90946362.96648
  21773378.200   114419917.56409  21773378.480    89158388.57148
  24509226.620   128796808.23406  24509227.600   100361126.74145
 15 03 05 00 28  0.0000000  0  7G16G18G19G21G22G27G31
  20693042.380   108742691.45009  20693039.880    84734567.12749
  21846801.200   114805770.90009  21846798.880    89459069.26148
  23700436.480   124546638.81907  23700433.860    97049326.34746
  22415824.960   117795964.09008  22415822.180    91789056.64847
  22195213.860   116636700.35709  22195210.340    90885760.84248
  21763704.940   114369084.00809  21763705.160    89118778.02248
  24527340.540   128891996.15907  24527341.540   100435298.91746
 15 03 05 00 28 30.0000000  0  7G16G18G19G21G22G27G31
  20686185.680   108706659.22709  20686183.180    84706490.08049
  21843197.100   114786831.37609  21843194.800    89444311.21348
  23686657.260   124474228.50507  23686654.540    96992902.77246
  22428222.520   117861113.77808  22428219.740    91839822.63947
  22180467.740   116559209.03909  22180464.200    90825378.03648
  21754054.160   114318368.87009  21754054.420    89079259.74948
  24545440.420   128987110.81406  24545441.960   100509413.94046
 15 03 05 00 29  0.0000000  0  7G16G18G19G21G22G27G31
  20679416.040   108671084.57409  20679413.540    84678769.57149
  21839682.840   114768364.17009  21839680.580    89429921.18948
  23672891.880   124401891.20507  23672889.260    96936536.09346
  22440647.820   117926409.22808  22440645.080    91890702.20247
  22165775.140   116481999.01809  22165771.640    90765214.41448
  21744425.420   114267769.66709  21744425.720    89039831.81648
  24563525.260   129082146.65706  24563527.020   100583467.55545
 15 03 05 00 29 30.0000000  0  7G16G18G19G21G22G27G31
  20672734.060   108635970.52109  20672731.560    84651407.97449
  21836258.780   114750371.11809  21836256.660    89415900.64148
  23659140.540   124329628.42907  23659138.120    96880227.45946
  22453100.680   117991849.66708  22453098.000    91941694.74647
  22151136.720   116405073.61709  22151133.140    90705272.57048
  21734819.040   114217287.79709  21734819.360    89000495.31048
  24581594.760   129177101.99506  24581596.300   100657458.46745
 15 03 05 00 30  0.0000000  0  7G16G18G19G21G22G27G31
  20666139.100   108601313.80109  20666136.600    84624402.74049
  21832924.240   114732848.33909  21832922.220    89402246.53548
  23645402.480   124257435.23307  23645400.260    96823973.06446
  22465579.940   118057428.59308  22465577.240    91992795.20347
  22136552.020   116328430.57508  22136548.380    90645550.74348
  21725234.100   114166918.72909  21725234.420    88961246.69748
  24599647.820   129271969.29007  24599649.240   100731380.79946
 15 03 05 00 30 30.0000000  0  7G16G18G19G21G22G27G31
  20659632.420   108567121.09109  20659629.960    84597759.06949
  21829680.340   114715801.79709  21829678.360    89388963.53048
  23631678.680   124185316.49307  23631676.400    96767776.67746
  22478086.140   118123149.08808  22478083.400    92044005.97747
  22122022.480   116252077.62709  22122018.820    90586054.97848
  21715671.660   114116667.70709  21715671.920    88922090.07148
  24617684.520   129366750.44906  24617686.000   100805235.99045
 15 03 05 00 31  0.0000000  0  7G16G18G19G21G22G27G31
  20653214.820   108533396.48309  20653212.360    84571480.15649
  21826527.640   114699234.35709  21826525.700    89376053.84548
  23617969.580   124113274.55707  23617967.180    96711640.13745
  22490619.320   118189011.50108  22490616.580    92095327.33347
  22107549.140   116176020.12409  22107545.560    90526789.42748
  21706132.160   114066537.36209  21706132.420    88883027.47948
  24635704.460   129461445.62606  24635706.420   100879024.03645
 15 03 05 00 31 30.0000000  0  7G16G18G19G21G22G27G31
  20646885.560   108500136.18409  20646883.120    84545563.03349
  21823465.400   114683141.90709  21823463.400    89363514.28148
  23604274.120   124041304.10807  23604271.400    96655559.27846
  22503178.300   118255009.38408  22503175.600    92146754.24747
  22093131.460   116100254.71009  22093127.780    90467751.47648
  21696614.620   114016522.54309  21696614.840    88844054.89948
  24653706.720   129556046.87707  24653708.560   100952738.98644
 15 03 05 00 32  0.0000000  0  7G16G18G19G21G22G27G31
  20640645.100   108467342.25809  20640642.660    84520009.32549
  21820493.660   114667525.00609  21820491.580    89351345.27848
  23590592.260   123969405.15507  23590589.440    96599534.15846
  22515762.740   118321141.09208  22515760.060    92198285.44147
  22078769.900   116024784.05009  22078766.120    90408943.19448
  21687119.200   113966624.01409  21687119.420    88805172.94548
  24671690.780   129650551.78506  24671692.360   101026378.92245
 15 03 05 00 32 30.0000000  0  7G16G18G19G21G22G27G31
  20634494.340   108435019.66009  20634491.900    84494822.88149
  21817613.180   114652387.68409  21817611.040    89339549.97448
  23576924.640   123897580.94807  23576921.820    96543567.29146
  22528372.980   118387408.23708  22528370.280    92249922.17447
  22064465.440   115949613.64209  22064461.640    90350368.87748
  21677646.600   113916845.36709  21677646.860    88766384.39948
  24689656.640   129744960.68306  24689658.040   101099943.95544
 15 03 05 00 33  0.0000000  0  6G16G18G19G21G22G27
  20628430.900   108403155.89409  20628428.380    84469993.97349
  21814821.480   114637717.22009  21814819.360    89328118.45648
  23563268.560   123825817.59807  23563265.780    96487647.84146
  22541005.960   118453794.81908  22541003.200    92301651.97647
  22050216.040   115874732.52709  22050212.180    90292019.98348
  21668194.240   113867172.89309  21668194.520    88727678.59648
 15 03 05 00 33 30.0000000  0  6G16G18G19G21G22G27
  20622460.380   108371780.48409  20622457.860    84445545.59949
  21812123.920   114623541.55909  21812121.820    89317072.50148
  23549629.400   123754143.24207  23549626.620    96431797.76746
  22553666.640   118520327.03908  22553663.880    92353495.25647
  22036027.500   115800171.20909  22036023.620    90233920.27748
  21658767.460   113817634.73509  21658767.700    88689077.44848
 15 03 05 00 34  0.0000000  0  6G16G18G19G21G22G27
  20616580.820   108340883.14609  20616578.300    84421469.74549
  21809518.500   114609850.20809  21809516.380    89306403.91848
  23536004.740   123682545.63807  23536001.920    96376007.46146
  22566352.380   118586991.16608  22566349.680    92405441.32347
  22021897.880   115725919.78009  22021894.000    90176062.04248
  21649364.000   113768219.35109  21649364.200    88650571.96648
 15 03 05 00 34 30.0000000  0  6G16G18G19G21G22G27
  20610791.540   108310460.25509  20610789.000    84397763.59149
  21807004.280   114596638.03709  21807002.160    89296108.73048
  23522393.800   123611019.89907  23522390.820    96320273.13346
  22579062.060   118653780.81108  22579059.320    92457485.18647
  22007826.740   115651975.54809  22007822.900    90118443.17448
  21639983.040   113718921.92909  21639983.180    88612158.40148
 15 03 05 00 35  0.0000000  0  6G16G18G19G21G22G27
  20605093.540   108280517.11109  20605091.000    84374431.26649
  21804582.140   114583909.68509  21804580.020    89286190.54448
  23508797.220   123539569.56807  23508794.140    96264597.58746
  22591795.940   118720697.86808  22591793.220    92509628.34347
  21993815.240   115578344.59309  21993811.440    90061068.43248
  21630625.280   113669746.48109  21630625.420    88573839.88048
 15 03 05 00 35 30.0000000  0  6G16G18G19G21G22G27
  20599486.780   108251053.39309  20599484.240    84351472.52349
  21802251.840   114571663.86209  21802249.720    89276648.35948
  23495214.600   123468192.62607  23495211.460    96208979.21546
  22604553.360   118787738.55008  22604550.600    92561867.82347
  21979863.460   115505027.69409  21979859.660    90003938.40348
  21621290.400   113620691.47709  21621290.620    88535615.21648
 15 03 05 00 36  0.0000000  0  6G16G18G19G21G22G27
  20593971.660   108222071.36309  20593969.160    84328889.12349
  21800013.620   114559901.79209  21800011.480    89267483.11348
  23481646.140   123396890.07407  23481642.920    96153418.80646
  22617334.120   118854902.02508  22617331.420    92614202.99547
  21965972.040   115432027.96509  21965968.200    89947055.52048
  21611978.660   113571758.06609  21611978.920    88497485.29148
 15 03 05 00 36 30.0000000  0  6G16G18G19G21G22G27
  20588549.100   108193575.67809  20588546.600    84306684.68749
  21797868.200   114548627.49009  21797866.060    89258697.95148
  23468092.440   123325665.44607  23468089.260    96097919.13546
  22630138.540   118922189.57808  22630135.900    92666634.83747
  21952142.060   115359351.25009  21952138.240    89890424.33848
  21602690.760   113522949.91909  21602691.000    88459452.97348
 15 03 05 00 37  0.0000000  0  6G16G18G19G21G22G27
  20583218.860   108165565.09609  20583216.340    84284858.25749
  21795815.100   114537838.53709  21795812.980    89250290.97848
  23454552.900   123254515.25807  23454549.920    96042477.46746
  22642965.740   118989596.90608  22642963.180    92719160.01647
  21938373.460   115286996.84709  21938369.620    89834044.30948
  21593426.260   113474264.49609  21593426.440    88421516.29448
 15 03 05 00 37 30.0000000  0  6G16G18G19G21G22G27
  20577980.920   108138039.70409  20577978.440    84263409.89649
  21793854.160   114527534.09809  21793852.100    89242261.55248
  23441027.340   123183438.06107  23441024.480    95987092.66847
