     2.11           OBSERVATION DATA    M                   RINEX VERSION / TYPE
SPIDER V4,0,0,3554                      2015 03 16 02:27    PGM / RUN BY / DATE 
AKET                                                        MARKER NAME         
AKET                                                        MARKER NUMBER       
                                                            OBSERVER / AGENCY   
496661              LEICA GRX1200+GNSS  8.20/4.007          REC # / TYPE / VERS 
10271023            LEIAR25         NONE                    ANT # / TYPE        
  5151584.4739   350346.6892  3733756.9574                  APPROX POSITION XYZ 
        0.0480        0.0000        0.0000                  ANTENNA: DELTA H/E/N
     1     1                                                WAVELENGTH FACT L1/2
     4    C1    L1    P2    L2                              # / TYPES OF OBSERV 
    30.000                                                  INTERVAL            
  2015    03    05    00    00    0.0000000     GPS         TIME OF FIRST OBS   
  2015    03    05    22    03   30.0000000     GPS         TIME OF LAST OBS    
    16                                                      LEAP SECONDS        
    37                                                      # OF SATELLITES     
   G 1   753   753   753   753                              PRN / # OF OBS      
   G 2   860   860   859   859                              PRN / # OF OBS      
   G 3   793   793   792   792                              PRN / # OF OBS      
   G 4   789   789   786   786                              PRN / # OF OBS      
   G 5   590   590   588   588                              PRN / # OF OBS      
   G 6   728   728   727   727                              PRN / # OF OBS      
   G 7   575   575   575   575                              PRN / # OF OBS      
   G 9   736   735   736   735                              PRN / # OF OBS      
   G10   689   688   688   688                              PRN / # OF OBS      
   G11   705   705   705   705                              PRN / # OF OBS      
   G12   779   779   779   779                              PRN / # OF OBS      
   G13   758   758   748   748                              PRN / # OF OBS      
   G14   400   400   399   399                              PRN / # OF OBS      
   G15   650   650   647   647                              PRN / # OF OBS      
   G16   372   372   372   372                              PRN / # OF OBS      
   G17   859   859   858   858                              PRN / # OF OBS      
   G18   742   742   742   742                              PRN / # OF OBS      
   G19   688   688   688   688                              PRN / # OF OBS      
   G20   701   701   700   700                              PRN / # OF OBS      
   G21   404   404   404   404                              PRN / # OF OBS      
   G22   649   649   649   649                              PRN / # OF OBS      
   G23   664   664   664   664                              PRN / # OF OBS      
   G24   772   772   771   771                              PRN / # OF OBS      
   G25   671   671   671   671                              PRN / # OF OBS      
   G27   563   563   563   563                              PRN / # OF OBS      
   G28   834   834   834   834                              PRN / # OF OBS      
   G29   470   470   470   470                              PRN / # OF OBS      
   G30   624   624   624   624                              PRN / # OF OBS      
   G31   553   553   552   552                              PRN / # OF OBS      
   G32   692   692   692   692                              PRN / # OF OBS      
   R 2    30    30    30    30                              PRN / # OF OBS      
   R 3    30    30    30    30                              PRN / # OF OBS      
   R 9    30    30    30    30                              PRN / # OF OBS      
   R16    30    30    30    30                              PRN / # OF OBS      
   R17    30    30    30    30                              PRN / # OF OBS      
   R18    30    30    30    30                              PRN / # OF OBS      
   R19    30    30    30    30                              PRN / # OF OBS      
BIT 2 OF LLI FLAGS DATA COLLECTED UNDER A/S CONDITION       COMMENT             
SNR is mapped to RINEX snr flag value [2-9]                 COMMENT             
Lx:     = 25dBHz -> 1; 26-27dBHz -> 2; 28-31dBHz -> 3       COMMENT             
       32-35dBHz -> 4; 36-38dBHz -> 5; 39-41dBHz -> 6       COMMENT             
       42-44dBHz -> 7; 45-48dBHz -> 8; >=49dBHz -> 9        COMMENT             
                                                            END OF HEADER       
 15 03 05 00 00  0.0000000  0 12G16G18G19G21G27R02R03R09R16R17R18R19
  21140274.120   111092898.74809  21140270.840    86565898.08048
  22217721.300   116754918.14509  22217718.220    90977857.23047
  24541195.740   128964860.01107  24541194.180   100492087.69946
  21669623.760   113874673.08509  21669619.480    88733507.76648
  22321098.680   117298199.68909  22321098.260    91401209.42948
  22440738.520   119748089.86509  22440741.040    93137424.11707
  22420477.380   120018580.41407  22420478.060    93347785.13506
  21660237.360   115664462.97808  21660238.080    89961243.45505
  19856942.840   106072221.99408  19856945.180    82500641.54908
  22485340.340   120323633.49408  22485340.920    93585074.37707
  20087152.500   107226641.96209  20087155.220    83398533.50008
  21868633.740   116982473.50208  21868633.700    90986383.96307
 15 03 05 00 00 30.0000000  0 12G16G18G19G21G27R02R03R09R16R17R18R19
  21129566.360   111036629.41209  21129563.140    86522051.85348
  22208717.520   116707603.26909  22208714.420    90940988.53047
  24525990.780   128884959.74107  24525989.140   100429827.97944
  21679305.920   113925553.05309  21679301.580    88773154.49548
  22309676.700   117238177.34409  22309676.260    91354438.80248
  22440278.380   119745634.22108  22440280.680    93135514.21207
  22403285.700   119926552.04206  22403286.400    93276207.53606
  21645828.040   115587517.85308  21645828.460    89901397.26104
  19863940.600   106109602.10708  19863942.760    82529714.95708
  22499884.060   120401459.02108  22499884.600    93645605.34907
  20091526.160   107249989.43309  20091529.040    83416692.64608
  21857785.500   116924443.64808  21857785.860    90941249.68207
 15 03 05 00 01  0.0000000  0 12G16G18G19G21G27R02R03R09R16R17R18R19
  21118925.300   110980711.27909  21118922.360    86478479.28448
  22199784.040   116660657.87209  22199781.000    90904407.72247
  24510797.240   128805116.23208  24510793.100   100367612.11744
  21689034.900   113976679.03809  21689030.540    88812992.92548
  22298273.780   117178255.02109  22298273.360    91307746.10048
  22439953.440   119743900.65508  22439955.540    93134165.90907
  22386159.620   119834874.69606  22386160.300    93204902.97506
  21631535.100   115511194.64708  21631535.300    89842034.79304
  19871087.120   106147777.48808  19871089.180    82559406.90808
  22514423.580   120479262.57608  22514424.180    93706119.20707
  20095935.760   107273528.72409  20095938.800    83435000.99208
  21846973.760   116866609.35408  21846974.320    90896267.49907
 15 03 05 00 01 30.0000000  0 12G16G18G19G21G27R02R03R09R16R17R18R19
  21108356.240   110925170.74109  21108353.400    86435200.95248
  22190925.740   116614107.70909  22190922.860    90868134.89847
  24495619.200   128725353.68007  24495615.400   100305459.63946
  21698815.060   114028073.87609  21698810.680    88853040.85748
  22286894.580   117118457.05509  22286894.060    91261150.31048
  22439768.460   119742914.49808  22439770.820    93133398.94807
  22369104.540   119743577.29806  22369105.040    93133893.93706
  21617363.880   115435521.38008  21617364.020    89783177.80905
  19878386.640   106186770.62808  19878388.800    82589734.88108
  22528963.360   120557067.97808  22528964.060    93766634.51707
  20100385.680   107297283.05209  20100388.760    83453476.57408
  21836203.180   116808994.54108  21836203.640    90851456.00407
 15 03 05 00 02  0.0000000  0 12G16G18G19G21G27R02R03R09R16R17R18R19
  21097860.500   110870014.48709  21097857.460    86392222.06848
  22182143.960   116567959.65809  22182141.100    90832175.41147
  24480457.440   128645676.90308  24480453.680   100243374.03741
  21708646.740   114079740.00809  21708642.420    88893300.18848
  22275540.040   117058788.20809  22275539.380    91214655.13748
  22439724.600   119742681.05009  22439727.280    93133217.40207
  22352121.960   119652668.90006  22352122.520    93063187.45106
  21603315.760   115360505.79008  21603316.220    89724832.35605
  19885839.720   106226584.19408  19885841.920    82620700.97108
  22543504.360   120634879.72608  22543505.080    93827154.75907
  20104876.520   107321255.62609  20104879.640    83472121.91408
  21825474.360   116751603.11208  21825474.680    90806818.26007
 15 03 05 00 02 30.0000000  0 12G16G18G19G21G27R02R03R09R16R17R18R19
  21087425.800   110815179.25409  21087422.520    86349493.32548
  22173426.620   116522149.85109  22173423.680    90796479.47047
  24465299.200   128566020.10108  24465294.760   100181271.60846
  21718517.240   114131610.50309  21718513.020    88933718.75648
  22264197.720   116999183.12109  22264196.800    91168209.64948
  22439809.580   119743134.61308  22439812.500    93133570.19807
  22335200.420   119562087.41506  22335201.220    92992735.24706
  21589379.000   115286084.77908  21589379.680    89666949.36705
  19893433.600   106267149.76508  19893435.860    82652251.93608
  22558033.960   120712630.43008  22558034.600    93887627.53107
  20109395.640   107345378.84609  20109398.660    83490884.41408
  21814774.920   116694367.93009  21814775.060    90762302.03407
 15 03 05 00 03  0.0000000  0 12G16G18G19G21G27R02R03R09R16R17R18R19
  21077076.740   110760794.56109  21077073.360    86307115.64848
  22164798.300   116476808.01209  22164795.340    90761148.19447
  24450169.440   128486511.29806  24450165.720   100119316.79946
  21728450.520   114183810.90409  21728446.440    88974394.39348
  22252891.840   116939769.71409  22252890.820    91121913.53148
  22440047.760   119744405.48908  22440050.700    93134558.69907
  22318365.080   119471967.50407  22318365.960    92922642.01906
  21575578.560   115212391.33608  21575579.540    89609632.24005
  19901192.220   106308594.86708  19901194.380    82684487.00908
  22572576.300   120790449.87008  22572577.200    93948153.72707
  20113967.120   107369781.15609  20113969.980    83509863.99708
  21804129.040   116637418.38008  21804128.860    90718007.95607
 15 03 05 00 03 30.0000000  0 12G16G18G19G21G27R02R03R09R16R17R18R19
  21066794.740   110706762.47009  21066791.320    86265012.72848
  22156240.440   116431835.91009  22156237.400    90726105.01347
  24435048.500   128407049.87308  24435044.720   100057398.74646
  21738427.320   114236239.91408  21738423.360    89015248.15748
  22241603.240   116880447.67309  22241602.200    91075688.57848
  22440420.100   119746392.33909  22440422.920    93136104.07507
  22301597.720   119382211.02707  22301598.500    92852831.44206
  21561895.860   115139326.65708  21561896.900    89552804.17905
  19909096.040   106350815.33408  19909098.180    82717325.13708
  22587112.200   120868234.89408  22587113.060    94008653.18407
  20118571.520   107394359.22809  20118574.320    83528980.27908
  21793517.320   116580651.72609  21793517.140    90673856.15607
 15 03 05 00 04  0.0000000  0 12G16G18G19G21G27R02R03R09R16R17R18R19
  21056583.340   110653100.65709  21056579.840    86223198.33948
  22147756.180   116387250.59709  22147753.120    90691363.22547
  24419939.540   128327651.93905  24419936.240    99995530.42545
  21748450.180   114288911.00608  21748446.380    89056290.57748
  22230335.020   116821232.83009  22230333.960    91029547.16948
  22440929.600   119749111.47308  22440932.500    93138218.97307
  22284902.160   119292838.32007  22284902.740    92783319.36206
  21548334.540   115066909.93608  21548335.700    89496480.08105
  19917147.720   106393825.24008  19917149.840    82750777.27808
  22601644.760   120946001.48108  22601645.400    94069138.28807
  20123211.580   107419127.75609  20123214.380    83548244.69008
  21782942.640   116524083.33708  21782942.400    90629858.54107
 15 03 05 00 04 30.0000000  0 12G16G18G19G21G27R02R03R09R16R17R18R19
  21046446.360   110599829.95809  21046442.860    86181688.72848
  22139349.500   116343073.15309  22139346.400    90656939.27247
  24404846.140   128248335.86708  24404842.500    99933725.65345
  21758522.260   114341840.53508  21758518.620    89097534.38048
  22219090.780   116762144.14409  22219089.700    90983504.06448
  22441579.980   119752582.42008  22441582.880    93140918.63007
  22268282.800   119203873.29907  22268283.300    92714124.37806
  21534898.680   114995163.21908  21534899.920    89440677.07805
  19925350.200   106437640.93508  19925352.460    82784856.14108
  22616177.440   121023767.92008  22616177.680    94129623.30907
  20127890.660   107444104.56209  20127893.420    83567671.11008
  21772408.340   116467731.44308  21772408.340    90586029.35007
 15 03 05 00 05  0.0000000  0 12G16G18G19G21G27R02R03R09R16R17R18R19
  21036380.020   110546930.82409  21036376.540    86140468.62548
  22131016.620   116299283.51809  22131013.420    90622817.48647
  24389764.240   128169080.24805  24389761.160    99871968.15244
  21768639.080   114395005.22708  21768635.600    89138961.41548
  22207866.480   116703160.08409  22207865.440    90937542.50348
  22442367.420   119756784.06309  22442370.180    93144186.60307
  22251736.120   119115297.90607  22251736.720    92645232.44406
  21521584.740   114924067.76808  21521586.300    89385380.62205
  19933699.040   106482238.35208  19933701.260    82819543.01308
  22630705.860   121101511.55808  22630705.940    94190090.58507
  20132604.420   107469266.29609  20132607.100    83587241.34608
  21761910.020   116411573.24608  21761910.280    90542350.79207
 15 03 05 00 05 30.0000000  0 12G16G18G19G21G27R02R03R09R16R17R18R19
  21026387.800   110494421.41609  21026384.360    86099552.20248
  22122761.020   116255899.90809  22122757.760    90589012.08247
  24374696.820   128089900.91208  24374693.960    99810270.00345
  21778803.540   114448419.70709  21778800.180    89180583.08948
  22196665.120   116644296.99209  22196664.080    90891675.19148
  22443294.860   119761732.76208  22443297.740    93148035.61207
  22235266.140   119027132.86507  22235266.780    92576659.67506
  21508396.380   114853643.05208  21508398.100    89330605.82605
  19942196.860   106527631.56408  19942198.980    82854848.83208
  22645233.000   121179248.58708  22645233.200    94250552.70607
  20137355.620   107494628.22009  20137358.160    83606967.28508
  21751450.840   116355624.74508  21751451.520    90498835.32407
 15 03 05 00 06  0.0000000  0 11G16G18G21G27R02R03R09R16R17R18R19
  21016470.240   110442304.34709  21016466.780    86058941.50548
  22114583.040   116212924.43609  22114579.840    90555524.72447
  21789015.340   114502082.58209  21789011.960    89222398.32448
  22185486.880   116585555.44609  22185486.000    90845902.58148
  22444362.360   119767429.43708  22444365.300    93152466.39707
  22218873.740   118939383.17908  22218874.420    92508409.94307
  21495334.220   114783892.62608  21495336.060    89276355.52305
  19950843.140   106573818.41608  19950845.260    82890771.93308
  22659758.860   121256978.95708  22659759.240    94311009.61907
  20142144.040   107520189.58409  20142146.620    83626848.34708
  21741030.820   116299885.87308  21741031.700    90455482.90407
 15 03 05 00 06 30.0000000  0 12G16G18G19G21G27R02R03R09R16R17R18R19
  21006621.880   110390550.89709  21006618.380    86018614.16048
  22106477.220   116170328.01209  22106474.020    90522332.72947
  24344600.460   127931722.93107  24344597.880    99687057.18045
  21799268.160   114555961.44909  21799264.680    89264381.87148
  22174325.980   116526904.84609  22174325.180    90800200.86448
  22445564.080   119773843.20908  22445567.040    93157454.93507
  22202554.000   118852022.00608  22202554.560    92440462.40207
  21482393.080   114714788.25308  21482394.900    89222607.69405
  19959631.700   106620765.73508  19959633.900    82927286.50008
  22674277.520   121334671.12408  22674277.900    94371436.86607
  20146963.680   107545917.90009  20146966.380    83646859.26308
  21730644.040   116244324.54808  21730644.660    90412268.56907
 15 03 05 00 07  0.0000000  0 12G16G18G19G21G27R02R03R09R16R17R18R19
  20996855.020   110339225.68909  20996851.480    85978620.50148
  22098455.780   116128174.96309  22098452.540    90489486.21447
  24329576.760   127852775.87608  24329574.840    99625540.09946
  21809573.580   114610116.84408  21809569.960    89306580.88648
  22163194.340   116468407.98809  22163193.720    90754618.92348
  22446912.300   119781037.88109  22446915.220    93163050.81707
  22186319.540   118765117.34408  22186320.040    92372869.92207
  21469585.500   114646396.69608  21469587.160    89169414.26705
  19968573.980   106668534.30508  19968576.320    82964439.82008
  22688800.720   121412388.16408  22688801.420    94431883.42107
  20151826.300   107571875.47009  20151829.040    83667048.50708
  21720302.400   116189003.70408  21720302.460    90369241.27607
 15 03 05 00 07 30.0000000  0 13G16G18G19G21G22G27R02R03R09R16R17R18
                                R19
  20987158.500   110288269.82509  20987154.900    85938914.64148
  22090507.500   116086406.35909  22090504.260    90456939.27347
  24314562.560   127773876.98207  24314561.500    99564060.64546
  21819919.580   114664485.96108  21819915.980    89348946.42848
  22988122.480   120803397.79005  22988117.180    94132496.04444
  22152080.480   116410004.14909  22152079.900    90709109.48348
  22448395.500   119788951.89308  22448398.160    93169206.16807
  22170159.480   118678611.22708  22170160.100    92305587.43907
  21456900.480   114578659.12408  21456901.840    89116729.47905
  19977657.960   106717059.78708  19977660.560    83002181.84308
  22703316.940   121490067.72108  22703317.880    94492300.84207
  20156720.120   107597999.18409  20156722.820    83687366.95108
  21709993.940   116133860.87608  21709993.780    90326352.45007
 15 03 05 00 08  0.0000000  0 13G16G18G19G21G22G27R02R03R09R16R17R18
                                R19
  20977537.360   110237710.17509  20977533.800    85899517.52248
  22082637.320   116045048.47309  22082634.100    90424712.37347
  24299562.400   127695051.09507  24299560.980    99502637.72746
  21830310.660   114719091.78608  21830307.100    89391496.42448
  22971107.220   120713981.74606  22971102.080    94062821.26544
  22140989.020   116351718.22509  22140988.460    90663691.90548
  22450018.260   119797610.72909  22450020.820    93175940.84907
  22154079.460   118592533.61608  22154080.100    92238638.22107
  21444343.160   114511603.30908  21444344.360    89064574.97705
  19986887.880   106766364.73708  19986890.440    83040530.12008
  22717830.760   121567734.54208  22717831.780    94552708.34707
  20161649.600   107624313.00309  20161652.260    83707833.24708
  21699723.420   116078920.45508  21699723.020    90283621.01607
 15 03 05 00 08 30.0000000  0 13G16G18G19G21G22G27R02R03R09R16R17R18
                                R19
  20967991.340   110187545.44809  20967987.760    85860428.13548
  22074845.040   116004100.03309  22074841.900    90392804.51047
  24284575.620   127616294.51408  24284574.180    99441269.12245
  21840745.780   114773929.12108  21840742.220    89434226.82348
  22954121.180   120624719.34306  22954116.040    93993266.15243
  22129919.440   116293547.07909  22129918.880    90618363.77448
  22451779.940   119807011.14809  22451782.380    93183252.29407
  22138079.660   118506885.29208  22138080.240    92172022.89107
  21431913.400   114445229.28908  21431914.480    89012950.74805
  19996262.620   106816443.38008  19996265.300    83079480.15308
  22732341.580   121645384.84208  22732342.640    94613103.02007
  20166613.900   107650812.53109  20166616.480    83728443.98408
  21689490.040   116024178.37608  21689489.580    90241043.89207
 15 03 05 00 09  0.0000000  0 13G16G18G19G21G22G27R02R03R09R16R17R18
                                R19
  20958520.820   110137777.99509  20958517.160    85821648.31548
  22067131.020   115963562.99709  22067128.000    90361217.23847
  24269602.160   127537607.95108  24269600.140    99379954.91546
  21851224.680   114828996.56408  21851221.180    89477136.53048
  22937165.020   120535614.09706  22937159.820    93923833.55744
  22118871.760   116235491.45809  22118871.140    90573125.64848
  22453680.540   119817153.69008  22453682.940    93191140.96707
  22122160.920   118421670.75508  22122161.460    92105744.95907
  21419611.880   114379540.11808  21419613.080    88961859.17005
  20005781.860   106867293.72408  20005784.600    83119030.41208
  22746849.380   121723018.91408  22746850.400    94673485.06407
  20171612.860   107677496.90009  20171615.340    83749198.50208
  21679293.880   115969634.58708  21679293.400    90198620.95908
 15 03 05 00 09 30.0000000  0 13G16G18G19G21G22G27R02R03R09R16R17R18
                                R19
  20949125.960   110088408.25609  20949122.240    85783178.39348
  22059495.280   115923437.17309  22059492.300    90329950.36847
  24254641.720   127458989.61007  24254639.000    99318693.90744
  21861746.760   114884290.81508  21861743.280    89520222.95247
  22920238.920   120446666.54906  22920233.700    93854523.83344
  22107845.640   116177549.66509  22107845.080    90527976.23048
  22455719.880   119828036.49309  22455722.340    93199605.39007
  22106323.700   118336892.95908  22106324.160    92039806.69807
  21407438.900   114314537.06508  21407440.080    88911301.24605
  20015444.700   106918910.95808  20015447.520    83159177.14608
  22761353.600   121800634.19807  22761354.680    94733852.46507
  20176645.820   107704363.16009  20176648.260    83770094.47608
  21669134.220   115915286.51608  21669133.940    90156350.28907
 15 03 05 00 10  0.0000000  0 13G16G18G19G21G22G27R02R03R09R16R17R18
                                R19
  20939808.400   110039444.26009  20939804.760    85745024.63648
  22051939.220   115883729.95109  22051936.180    90299009.68847
  24239695.580   127380445.57208  24239692.600    99257490.80545
  21872312.820   114939816.09008  21872309.360    89563489.40948
  22903344.280   120357885.15006  22903339.040    93785343.57544
  22096842.340   116119727.73709  22096841.900    90482920.19948
  22457899.320   119839665.82809  22457901.580    93208650.41607
  22090569.760   118252561.53508  22090570.300    91974215.64107
  21395396.020   114250228.69608  21395397.160    88861283.62805
  20025251.760   106971298.30108  20025254.480    83199922.84108
  22775855.340   121878236.49407  22775856.340    94794209.77407
  20181713.620   107731416.04609  20181716.160    83791135.62608
  21659012.120   115861139.52308  21659011.840    90114235.99908
 15 03 05 00 10 30.0000000  0 13G16G18G19G21G22G27R02R03R09R16R17R18
                                R19
  20930569.260   109990891.79009  20930565.620    85707191.55448
  22044464.100   115844447.72809  22044461.020    90268400.17247
  24224763.860   127301979.52908  24224760.720    99196348.54945
  21882923.240   114995574.40508  21882919.800    89606937.45048
  22886482.640   120269276.96007  22886477.580    93716298.27945
  22085862.700   116062030.00209  22085862.380    90437960.96348
  22460219.280   119852045.36608  22460221.440    93218278.96007
  22074900.960   118168685.44908  22074901.440    91908978.72507
  21383484.580   114186622.19408  21383485.560    88811811.92105
  20035203.360   107024457.40908  20035205.940    83241268.80308
  22790355.480   121955829.65108  22790356.180    94854559.98407
  20186816.960   107758658.57909  20186819.700    83812324.26008
  21648928.140   115807197.10708  21648927.820    90072280.82808
 15 03 05 00 11  0.0000000  0 13G16G18G19G21G22G27R02R03R09R16R17R18
                                R19
  20921405.780   109942737.07809  20921402.060    85669668.41248
  22037066.980   115805575.54809  22037063.940    90238110.16947
  24209844.620   127223576.42508  24209841.060    99135255.17446
  21893574.460   115051547.12508  21893571.100    89650552.55348
  22869651.420   120180828.68307  22869646.560    93647377.57644
  22074903.720   116004440.77009  22074903.520    90393086.26148
  22462676.680   119865159.32408  22462679.100    93228478.69907
  22059315.040   118085252.82908  22059315.360    91844086.71407
  21371702.160   114123704.19208  21371702.960    88762875.69905
  20045295.860   107078369.32208  20045298.300    83283200.28608
  22804850.880   122033396.95108  22804851.200    94914890.10007
  20191952.640   107786073.34009  20191955.440    83833646.86308
  21638879.280   115753442.28408  21638878.980    90030471.55708
 15 03 05 00 11 30.0000000  0 13G16G18G19G21G22G27R02R03R09R16R17R18
                                R19
  20912321.720   109895000.33309  20912318.020    85632470.96748
  22029751.800   115767133.69209  22029748.660    90208155.48447
  24194940.160   127145253.81108  24194936.820    99074224.75246
  21904269.860   115107751.94708  21904266.620    89694348.52248
  22852854.640   120092561.45507  22852849.920    93578597.96344
  22063968.940   115946978.65409  22063968.920    90348310.63248
  22465275.040   119879026.13308  22465277.980    93239264.03007
  22043816.180   118002286.16108  22043816.520    91779557.12107
  21360052.640   114061495.91408  21360053.340    88714491.48305
  20055532.020   107133049.64108  20055534.440    83325729.39908
  22819344.960   122110956.81008  22819345.400    94975214.41107
  20197124.000   107813678.12509  20197126.740    83855117.24708
  21628868.840   115699893.24208  21628868.480    89988822.34507
 15 03 05 00 12  0.0000000  0 13G16G18G19G21G22G27R02R03R09R16R17R18
                                R19
  20903315.860   109847675.25409  20903312.240    85595594.28548
  22022517.100   115729115.02309  22022513.920    90178530.56147
  24180049.360   127067003.51308  24180045.920    99013250.54545
  21915007.520   115164178.53408  21915004.380    89738317.28948
  22836091.160   120004469.31107  22836086.520    93509954.77545
  22053056.780   115889635.33409  22053056.840    90303627.55448
  22468012.920   119893637.15109  22468016.000    93250628.18607
  22028403.500   117919781.27208  22028403.820    91715386.68907
  21348534.860   113999991.95008  21348535.640    88666655.05605
  20065909.920   107188487.21708  20065912.460    83368847.49708
  22833835.840   122188500.29408  22833836.080    95035525.97306
  20202329.080   107841462.96309  20202331.840    83876727.67708
  21618895.020   115646540.31408  21618894.640    89947325.67107
 15 03 05 00 12 30.0000000  0 13G16G18G19G21G22G27R02R03R09R16R17R18
                                R19
  20894387.220   109800755.62309  20894383.640    85559033.54748
  22015361.760   115691513.61309  22015358.660    90149230.78547
  24165171.100   126988817.64007  24165167.520    98952326.48845
  21925785.600   115220817.24809  21925782.440    89782451.35448
  22819360.020   119916547.02907  22819355.400    93441443.96545
  22042165.700   115832403.08409  22042165.820    90259031.02948
  22470888.940   119908984.08108  22470891.900    93262564.69407
  22013076.340   117837734.17808  22013076.660    91651572.31808
  21337147.900   113939186.56308  21337148.780    88619361.98205
  20076427.600   107244670.85908  20076430.120    83412545.87308
  22848322.080   122266019.03908  22848322.360    95095818.27007
  20207566.200   107869418.68609  20207569.020    83898471.01708
  21608956.100   115593375.12508  21608955.640    89905975.00707
 15 03 05 00 13  0.0000000  0 13G16G18G19G21G22G27R02R03R09R16R17R18
                                R19
  20885539.060   109754258.10209  20885535.460    85522801.71748
  22008288.740   115654345.32809  22008285.820    90120268.51147
  24150308.040   126910710.62608  24150304.340    98891463.96845
  21936606.380   115277679.94809  21936603.080    89826759.95648
  22802664.440   119828811.57108  22802659.780    93373078.71745
  22031298.520   115775296.40609  22031298.760    90214532.35748
  22473905.640   119925081.32409  22473908.460    93275084.77607
  21997838.300   117756163.82408  21997838.680    91588128.74508
  21325895.120   113879097.02808  21325896.000    88572625.70005
  20087087.200   107301612.18408  20087089.680    83456833.55508
  22862806.540   122343527.39608  22862806.640    95156102.54306
  20212837.900   107897558.72209  20212840.720    83920357.71408
  21599054.760   115540411.42508  21599054.280    89864781.05107
 15 03 05 00 13 30.0000000  0 13G16G18G19G21G22G27R02R03R09R16R17R18
                                R19
  20876770.700   109708179.72809  20876767.120    85486896.49548
  22001297.560   115617606.98909  22001294.700    90091641.24047
  24135458.800   126832677.55308  24135455.160    98830659.05246
  21947468.600   115334760.44008  21947465.140    89871238.27348
  22786004.060   119741260.99108  22785999.280    93304857.52046
  22020454.440   115718310.83608  22020454.620    90170128.03948
  22477061.860   119941923.54309  22477064.820    93288184.31507
  21982689.300   117675069.44908  21982689.660    91525055.36708
  21314776.100   113819721.26508  21314776.880    88526444.54605
  20097887.260   107359303.58908  20097889.640    83501704.63808
  22877288.020   122421019.88608  22877288.000    95216374.48206
  20218143.000   107925877.29509  20218145.740    83942383.27108
  21589190.140   115487643.72908  21589189.940    89823739.53407
 15 03 05 00 14  0.0000000  0 13G16G18G19G21G22G27R02R03R09R16R17R18
                                R19
  20868081.660   109662518.53309  20868078.080    85451316.34348
  21994387.760   115581296.17809  21994384.960    90063347.11448
  24120622.940   126754714.73808  24120619.240    98769908.87845
  21958371.040   115392052.80208  21958367.520    89915881.67748
  22769378.660   119653894.22708  22769373.820    93236779.57346
  22009632.780   115661442.73909  22009632.860    90125815.25748
  22480357.060   119959506.74309  22480359.900    93301860.14107
  21967629.260   117594451.21508  21967629.540    91462352.33308
  21303790.440   113761057.93308  21303791.200    88480817.51805
  20108826.440   107417738.11108  20108828.820    83547153.69408
  22891765.840   122498492.48008  22891765.640    95276630.94406
  20223480.460   107954369.21709  20223483.260    83964543.66408
  21579361.440   115435067.46708  21579361.040    89782846.91707
 15 03 05 00 14 30.0000000  0 13G16G18G19G21G22G27R02R03R09R16R17R18
                                R19
  20859473.040   109617280.28209  20859469.540    85416065.75948
  21987560.420   115545418.15909  21987557.540    90035390.22047
  24105801.220   126676826.24208  24105797.300    98709216.53746
  21969314.140   115449559.34908  21969310.620    89960691.97348
  22752789.480   119566717.47908  22752784.580    93168849.68746
  21998834.220   115604696.06308  21998834.200    90081597.09048
  22483791.700   119977834.40008  22483794.460    93316115.01907
  21952659.580   117514317.21708  21952659.720    91400025.92008
  21292939.380   113703113.32208  21292940.040    88435749.49805
  20119904.780   107476916.36108  20119907.140    83593181.20308
  22906240.460   122575948.73108  22906240.280    95336874.68907
  20228850.880   107983037.08409  20228853.580    83986840.90408
  21569569.300   115382685.60709  21569568.820    89742105.49608
 15 03 05 00 15  0.0000000  0  6G16G18G19G21G22G27
  20850945.440   109572467.49909  20850941.940    85381146.70648
  21980815.840   115509975.11809  21980813.000    90007772.27047
  24090993.560   126599012.23108  24090989.900    98648582.30245
  21980297.700   115507278.65408  21980294.220    90005668.06548
  22736237.060   119479734.06408  22736232.220    93101070.44346
  21988059.040   115548071.77909  21988058.840    90037474.28248
 15 03 05 00 15 30.0000000  0  6G16G18G19G21G22G27
  20842498.380   109528077.89409  20842495.000    85346557.41348
  21974153.500   115474964.30609  21974150.720    89980491.13447
  24076199.440   126521268.75807  24076195.840    98588002.99546
  21991320.700   115565205.19108  21991317.280    90050805.62448
  22719721.100   119392942.31308  22719716.280    93033440.55346
  21977306.460   115491565.78809  21977305.960    89993443.67648
 15 03 05 00 16  0.0000000  0  6G16G18G19G21G22G27
  20834134.040   109484122.81509  20834130.700    85312306.69648
  21967575.480   115440396.75109  21967572.720    89953555.38647
  24061420.420   126443605.30608  24061416.780    98527486.09346
  22002384.500   115623346.17808  22002381.060    90096110.29448
  22703243.920   119306354.55308  22703239.220    92965969.60747
  21966578.300   115435187.86509  21966577.520    89949512.84048
 15 03 05 00 16 30.0000000  0  6G16G18G19G21G22G27
  20825850.120   109440590.11109  20825846.700    85278385.10948
  21961079.260   115406259.22309  21961076.580    89926954.72747
  24046654.160   126366008.04108  24046650.180    98467020.73944
  22013486.220   115681685.93709  22013482.780    90141569.84447
  22686803.380   119219959.41308  22686798.820    92898648.76647
  21955871.840   115378924.05009  21955870.840    89905670.93048
 15 03 05 00 17  0.0000000  0  6G16G18G19G21G22G27
  20817649.280   109397493.81509  20817645.660    85244803.58248
  21954667.600   115372565.92009  21954664.980    89900700.21747
  24031902.460   126288488.76908  24031898.840    98406616.15947
  22024627.680   115740234.32108  22024624.160    90187191.96347
  22670402.260   119133771.50508  22670397.860    92831489.40947
  21945189.420   115322786.80009  21945188.300    89861927.62148
 15 03 05 00 17 30.0000000  0  6G16G18G19G21G22G27
  20809530.580   109354829.19909  20809526.860    85211558.43048
  21948339.400   115339311.07209  21948336.780    89874787.37847
  24017164.520   126211040.82308  24017160.840    98346267.11046
  22035807.240   115798982.80608  22035803.540    90232970.01048
  22654039.740   119047786.52308  22654035.400    92764488.16947
  21934529.680   115266769.52509  21934528.520    89818277.82748
 15 03 05 00 18  0.0000000  0  6G16G18G19G21G22G27
  20801496.200   109312607.86909  20801492.480    85178658.68248
  21942096.840   115306506.01209  21942094.040    89849224.98747
  24002441.600   126133673.75307  24002437.960    98285981.18046
  22047026.500   115857940.20008  22047022.720    90278910.83248
  22637718.320   118962017.39708  22637713.960    92697655.12347
  21923894.680   115210882.55909  21923893.560    89774729.53348
 15 03 05 00 18 30.0000000  0  6G16G18G19G21G22G27
  20793543.240   109270814.60809  20793539.540    85146092.50748
  21935937.000   115274135.44509  21935934.200    89824001.19347
  23987731.340   126056371.59008  23987728.080    98225745.76346
  22058281.880   115917087.61808  22058278.000    90324999.73847
  22621435.340   118876449.82508  22621430.880    92630979.12447
  21913281.260   115155109.27509  21913280.320    89731269.86748
 15 03 05 00 19  0.0000000  0  6G16G18G19G21G22G27
  20785675.360   109229468.56509  20785671.620    85113874.81148
  21929863.340   115242217.98109  21929860.480    89799130.46248
  23973036.320   125979150.79308  23973033.140    98165573.75646
  22069576.160   115976439.77008  22069572.300    90371248.17247
  22605194.520   118791103.31208  22605189.920    92564475.38247
  21902692.680   115099466.79208  21902691.880    89687912.09648
 15 03 05 00 19 30.0000000  0  6G16G18G19G21G22G27
  20777890.160   109188557.12309  20777886.400    85081995.76848
  21923873.360   115210740.18409  21923870.400    89774602.31748
  23958354.240   125901997.57407  23958351.460    98105454.45546
  22080906.340   116035980.91208  22080902.540    90417643.85848
  22588993.520   118705966.28508  22588988.760    92498134.88447
  21892126.360   115043941.23909  21892125.780    89644645.45948
 15 03 05 00 20  0.0000000  0  6G16G18G19G21G22G27
  20770189.600   109148091.00909  20770185.900    85050463.73348
  21917969.080   115179712.73109  21917966.040    89750425.09347
  23943686.820   125824920.43708  23943683.960    98045394.35046
  22092273.740   116095717.58808  22092270.040    90464191.92447
  22572834.420   118621049.92308  22572829.680    92431966.33346
  21881583.980   114988541.54309  21881583.740    89601476.88048
 15 03 05 00 20 30.0000000  0  6G16G18G19G21G22G27
  20762574.100   109108072.07409  20762570.460    85019280.14548
  21912150.740   115149136.81709  21912147.600    89726599.72048
  23929033.900   125747919.79708  23929031.160    97985393.90346
  22103678.280   116155649.10808  22103674.700    90510891.80347
  22556717.920   118536357.07508  22556713.160    92365971.95446
  21871065.660   114933268.26009  21871065.700    89558406.79648
 15 03 05 00 21  0.0000000  0  6G16G18G19G21G22G27
  20755043.080   109068496.75709  20755039.420    84988442.24448
  21906417.520   115119008.20109  21906414.280    89703122.89347
  23914394.600   125670989.72208  23914391.840    97925448.46246
  22115118.460   116215767.65708  22115114.920    90557737.43048
  22540643.500   118451885.19708  22540638.620    92300149.75046
  21860570.460   114878116.03309  21860570.560    89515431.04848
 15 03 05 00 21 30.0000000  0  6G16G18G19G21G22G27
  20747597.160   109029368.48609  20747593.560    84957952.68648
  21900769.860   115089329.54509  21900766.500    89679996.68847
  23899769.440   125594132.45108  23899766.300    97865559.70146
  22126594.180   116276072.99308  22126590.700    90604728.60747
  22524611.880   118367638.31308  22524606.880    92234502.87046
  21850098.800   114823087.00109  21850098.840    89472551.29348
 15 03 05 00 22  0.0000000  0  6G16G18G19G21G22G27
  20740238.380   108990697.87809  20740234.880    84927819.74548
  21895209.640   115060111.19309  21895206.380    89657229.15547
  23885159.580   125517356.40608  23885156.220    97805734.25946
  22138106.700   116336571.89908  22138103.360    90651870.61247
  22508625.180   118283627.71908  22508620.120    92169040.12146
  21839652.380   114768190.16509  21839652.200    89429774.56548
 15 03 05 00 22 30.0000000  0  6G16G18G19G21G22G27
  20732965.720   108952479.86509  20732962.280    84898039.46748
  21889735.980   115031347.39409  21889732.740    89634815.81147
  23870563.820   125440655.06708  23870560.160    97745967.01746
  22149654.540   116397256.65008  22149651.400    90699157.42248
  22492682.640   118199849.50808  22492677.640    92103758.42846
  21829229.900   114713419.09309  21829229.560    89387095.82048
 15 03 05 00 23  0.0000000  0  6G16G18G19G21G22G27
  20725778.860   108914712.43509  20725775.360    84868610.30248
  21884348.460   115003036.09509  21884345.220    89612755.06947
  23855981.760   125364024.80807  23855977.480    97686255.14745
  22161236.680   116458121.52708  22161233.720    90746584.59748
  22476784.080   118116302.50708  22476779.120    92038656.90346
  21818830.700   114658770.31309  21818830.140    89344512.37748
 15 03 05 00 23 30.0000000  0  6G16G18G19G21G22G27
  20718679.180   108877403.14109  20718675.620    84839538.13448
  21879048.260   114975183.45309  21879045.080    89591051.72847
  23841414.300   125287471.43808  23841409.940    97626603.20546
  22172853.860   116519170.03008  22172850.900    90794154.85448
  22460931.140   118032994.78008  22460926.200    91973741.80046
  21808455.900   114604249.86709  21808455.160    89302028.92548
 15 03 05 00 24  0.0000000  0  6G16G18G19G21G22G27
  20711667.220   108840555.35009  20711663.620    84810825.56948
  21873836.000   114947792.82109  21873832.760    89569708.38547
  23826861.560   125210996.31508  23826857.360    97567012.25746
  22184506.020   116580402.00108  22184502.920    90841868.07947
  22445124.600   117949930.97008  22445119.620    91909016.78646
  21798105.800   114549859.64309  21798105.060    89259646.94048
 15 03 05 00 24 30.0000000  0  6G16G18G19G21G22G27
  20704742.200   108804164.36909  20704738.620    84782468.95848
  21868710.660   114920858.92009  21868707.300    89548720.91947
  23812322.500   125134593.21207  23812318.480    97507477.44046
  22196191.600   116641809.57008  22196188.280    90889718.11747
  22429363.680   117867107.03608  22429358.660    91844478.66046
  21787779.420   114495593.69009  21787778.640    89217361.79448
 15 03 05 00 25  0.0000000  0  6G16G18G19G21G22G27
  20697904.880   108768234.07009  20697901.380    84754471.32348
  21863672.760   114894384.80309  21863669.440    89528091.76347
  23797797.940   125058264.55507  23797793.460    97448000.54146
  22207910.680   116703392.99508  22207907.100    90937705.19347
  22413649.220   117784527.47008  22413644.200    91780130.96546
  21777477.100   114441454.32809  21777476.220    89175175.29348
 15 03 05 00 25 30.0000000  0  6G16G18G19G21G22G27
  20691156.940   108732773.54009  20691153.520    84726839.73548
  21858724.020   114868379.13209  21858720.800    89507827.62147
  23783288.680   124982017.51408  23783284.500    97388587.33846
  22219664.400   116765158.23509  22219660.440    90985833.95047
  22397983.280   117702202.61708  22397978.340    91715981.74746
  21767200.360   114387449.38209  21767199.380    89133093.51548
 15 03 05 00 26  0.0000000  0  6G16G18G19G21G22G27
  20684497.420   108697777.90709  20684494.100    84699570.41348
  21853863.380   114842836.27609  21853860.200    89487924.12148
  23768793.680   124905845.92208  23768789.240    97329232.90246
  22231450.940   116827096.29308  22231446.720    91034097.37847
  22382365.100   117620128.54108  22382360.180    91652027.94647
  21756947.880   114333572.55909  21756946.980    89091111.60448
 15 03 05 00 26 30.0000000  0  6G16G18G19G21G22G27
  20677926.860   108663249.55009  20677923.660    84672665.19948
  21849091.280   114817758.69209  21849088.060    89468383.16147
  23754313.120   124829750.96708  23754308.480    97269938.20045
  22243270.240   116889206.78708  22243265.920    91082495.15947
  22366795.260   117538308.53708  22366790.320    91588272.14446
  21746720.060   114279825.10009  21746719.240    89049230.47948
 15 03 05 00 27  0.0000000  0  6G16G18G19G21G22G27
  20671445.020   108629187.04009  20671441.840    84646122.98048
  21844407.180   114793143.93809  21844404.020    89449202.86047
  23739846.680   124753729.29807  23739842.880    97210700.54647
  22255121.400   116951484.93208  22255117.100    91131023.58047
  22351273.560   117456741.86308  22351268.640    91524713.72546
  21736516.400   114226204.27609  21736515.500    89007448.02148
 15 03 05 00 27 30.0000000  0  6G16G18G19G21G22G27
  20665054.280   108595602.83909  20665050.880    84619953.48148
  21839813.300   114769003.34509  21839810.200    89430392.03747
  23725396.140   124677791.40808  23725391.620    97151528.14846
  22267006.060   117013939.49408  22267001.860    91179689.45647
  22335802.700   117375442.10008  22335797.780    91461363.28946
  21726338.900   114172721.10809  21726337.880    88965772.84548
 15 03 05 00 28  0.0000000  0  6G16G18G19G21G22G27
  20658753.720   108562492.59709  20658750.240    84594153.29248
  21835308.820   114745332.57709  21835305.800    89411947.31147
  23710960.260   124601931.35608  23710956.620    97092416.59545
  22278922.740   117076562.62008  22278918.740    91228486.69047
  22320381.960   117294405.63208  22320377.120    91398218.01946
  21716186.460   114119369.76209  21716185.300    88924200.37648
 15 03 05 00 28 30.0000000  0  6G16G18G19G21G22G27
  20652542.200   108529850.55009  20652538.740    84568717.93348
  21830892.620   114722125.22109  21830889.580    89393863.67348
  23696537.840   124526142.07807  23696534.560    97033360.04747
  22290869.780   117139345.48708  22290865.980    91277408.40147
  22305010.400   117213627.73708  22305005.660    91335274.22447
  21706057.700   114066143.53109  21706056.600    88882725.39948
 15 03 05 00 29  0.0000000  0  6G16G18G19G21G22G27
  20646422.700   108497692.41309  20646419.180    84543659.64748
  21826567.440   114699396.30409  21826564.380    89376152.85047
  23682131.340   124450437.60606  23682127.780    96974369.57046
  22302849.600   117202300.57308  22302846.060    91326464.30447
  22289691.260   117133125.13608  22289686.640    91272544.95247
  21695955.500   114013056.93409  21695954.480    88841359.23048
 15 03 05 00 29 30.0000000  0  6G16G18G19G21G22G27
  20640393.260   108466007.46909  20640389.620    84518970.08148
  21822331.060   114677134.08509  21822327.840    89358805.68847
  23667739.000   124374806.09308  23667735.940    96915436.00146
  22314859.520   117265413.43108  22314856.080    91375643.15847
  22274422.580   117052887.47408  22274417.960    91210022.12547
  21685877.580   113960097.76209  21685876.780    88800092.35948
 15 03 05 00 30  0.0000000  0  6G16G18G19G21G22G27
  20634455.020   108434801.57009  20634451.200    84494653.80948
  21818184.600   114655344.07809  21818181.400    89341826.48647
  23653361.460   124299251.65208  23653357.960    96856562.40346
  22326900.100   117328686.99308  22326896.620    91424947.22647
  22259205.640   116972921.83308  22259200.960    91147711.27247
  21675824.880   113907270.92409  21675824.300    88758928.60948
 15 03 05 00 30 30.0000000  0  6G16G18G19G21G22G27
  20628608.360   108404077.24409  20628604.520    84470712.77748
  21814128.300   114634028.22709  21814125.100    89325216.74947
  23638998.720   124223775.24908  23638995.080    96797749.70346
  22338971.100   117392120.22408  22338967.400    91474375.70847
  22244041.120   116893231.83208  22244036.340    91085615.20947
  21665797.720   113854577.62909  21665797.200    88717868.90848
 15 03 05 00 31  0.0000000  0  6G16G18G19G21G22G27
  20622853.960   108373837.72809  20622850.120    84447149.51848
  21810162.660   114613188.82209  21810159.560    89308978.27447
  23624651.280   124148378.75908  23624647.880    96738999.23046
  22351072.380   117455712.71908  22351068.540    91523928.29647
  22228929.960   116813822.13908  22228925.100    91023737.55347
  21655796.400   113802019.88609  21655795.700    88676914.83248
 15 03 05 00 31 30.0000000  0  6G16G18G19G21G22G27
  20617190.820   108344078.47309  20617187.180    84423960.47848
  21806286.840   114592821.20309  21806283.700    89293107.42047
  23610317.920   124073056.36008  23610314.100    96680306.48846
  22363202.620   117519457.51608  22363198.680    91573599.54747
  22213871.380   116734688.85708  22213866.520    90962075.28547
  21645819.760   113749592.05809  21645818.780    88636061.99948
 15 03 05 00 32  0.0000000  0  6G16G18G19G21G22G27
  20611619.900   108314803.67109  20611616.380    84401148.94648
  21802501.400   114572928.31309  21802498.160    89277606.49048
  23595999.280   123997810.39808  23595995.200    96621673.28846
  22375361.940   117583355.20308  22375357.980    91623389.94847
  22198866.300   116655836.83108  22198861.460    90900632.17347
  21635868.300   113697297.19509  21635867.240    88595312.78048
 15 03 05 00 32 30.0000000  0  6G16G18G19G21G22G27
  20606143.420   108286024.90009  20606140.000    84378723.93448
  21798808.380   114553521.03909  21798805.000    89262483.95747
  23581697.060   123922651.05108  23581693.080    96563107.61346
  22387551.980   117647414.16408  22387548.040    91673306.01447
  22183917.120   116577278.42909  22183912.220    90839417.85847
  21625944.200   113645145.81109  21625943.180    88554675.34848
 15 03 05 00 33  0.0000000  0  6G16G18G19G21G22G27
  20600759.780   108257733.65509  20600756.400    84356678.81048
  21795206.120   114534590.85109  21795202.740    89247733.19247
  23567409.320   123847568.49508  23567405.140    96504601.73846
  22399770.480   117711622.55208  22399766.540    91723338.52447
  22169022.520   116499006.76709  22169017.560    90778426.95147
  21616045.600   113593128.38209  21616044.720    88514142.30548
 15 03 05 00 33 30.0000000  0  6G16G18G19G21G22G27
  20595469.740   108229934.61709  20595466.480    84335017.21648
  21791695.220   114516141.05509  21791691.740    89233356.74647
  23553136.900   123772566.40308  23553133.140    96446158.62046
  22412017.620   117775981.86208  22412013.780    91773488.62247
  22154183.600   116421027.64708  22154178.680    90717664.01747
  21606173.160   113541248.41509  21606172.420    88473716.36548
 15 03 05 00 34  0.0000000  0  6G16G18G19G21G22G27
  20590273.440   108202628.51509  20590270.300    84313739.73448
  21788275.960   114498172.43609  21788272.380    89219355.24947
  23538879.500   123697643.77508  23538876.140    96387777.35847
  22424292.940   117840489.56908  22424289.360    91823754.35947
  22139400.500   116343342.37408  22139395.760    90657130.06947
  21596326.840   113489505.59409  21596326.220    88433397.29848
 15 03 05 00 34 30.0000000  0  6G16G18G19G21G22G27
  20585171.680   108175818.91109  20585168.560    84292849.13748
  21784948.740   114480687.31909  21784945.080    89205730.50647
  23524637.600   123622803.14508  23524634.340    96329460.01646
  22436596.680   117905146.58808  22436593.340    91874136.44347
  22124674.180   116265955.56009  22124669.620    90596828.69447
  21586507.200   113437902.57209  21586506.540    88393187.16448
 15 03 05 00 35  0.0000000  0  6G16G18G19G21G22G27
  20580164.020   108149503.41209  20580160.880    84272343.55148
  21781712.940   114463682.84709  21781709.220    89192480.28648
  23510410.580   123548040.70907  23510407.400    96271203.56246
  22448927.840   117969947.27908  22448924.540    91924630.47247
  22110004.460   116188865.81409  22109999.940    90536758.78447
  21576713.460   113386435.87709  21576712.700    88353083.26448
 15 03 05 00 35 30.0000000  0  6G16G18G19G21G22G27
  20575251.240   108123686.41509  20575248.120    84252226.41648
  21778569.300   114447162.69209  21778565.500    89179607.45047
  23496199.040   123473359.30008  23496195.980    96213010.27747
  22461286.500   118034892.70908  22461283.220    91975237.29747
  22095392.380   116112078.72309  22095387.780    90476924.71047
  21566946.300   113335108.91809  21566945.420    88313088.23548
 15 03 05 00 36  0.0000000  0  6G16G18G19G21G22G27
  20570433.340   108098368.05109  20570430.240    84232497.81248
  21775517.620   114431126.10309  21775513.860    89167111.41947
  23482002.760   123398757.94208  23481999.720    96154879.39847
  22473672.300   118099980.07009  22473668.860    92025954.70047
  22080838.140   116035595.38209  22080833.400    90417327.32247
  21557205.580   113283920.90009  21557204.660    88273201.46348
 15 03 05 00 36 30.0000000  0  6G16G18G19G21G22G27
  20565710.320   108073548.23509  20565707.160    84213157.68948
  21772557.860   114415572.72709  21772554.140    89154991.91347
  23467821.700   123324235.85308  23467818.560    96096810.23947
  22486084.560   118165206.08009  22486080.900    92076780.15747
  22066341.960   115959417.16309  22066337.120    90357967.68547
  21547491.140   113232871.00709  21547490.200    88233422.33948
 15 03 05 00 37  0.0000000  0  6G16G18G19G21G22G27
  20561082.460   108049228.38009  20561079.080    84194207.16348
  21769690.040   114400502.95609  21769686.420    89143249.24347
  23453655.760   123249792.43508  23453652.360    96038802.42246
  22498522.940   118230569.25509  22498519.080    92127712.49447
  22051904.220   115883546.12509  22051899.360    90298847.42447
  21537803.060   113181959.59309  21537802.040    88193751.11148
 15 03 05 00 37 30.0000000  0  6G16G18G19G21G22G27
  20556550.560   108025412.96909  20556546.980    84175649.70748
  21766914.960   114385920.60309  21766911.320    89131886.37747
  23439505.620   123175430.98908  23439501.820    95980858.44546
  22510987.720   118296071.44008  22510983.820    92178753.14247
  22037525.900   115807987.96109  22037521.100    90239970.96047
  21528142.000   113131190.11209  21528140.820    88154190.49948
 15 03 05 00 38  0.0000000  0  6G16G18G19G21G22G27
  20552114.500   108002101.18309  20552110.960    84157484.67648
  21764232.220   114371823.43209  21764228.660    89120901.56847
  23425370.540   123101149.47908  23425366.180    95922976.76947
  22523477.960   118361707.80308  22523474.140    92229898.34547
  22023207.160   115732742.85509  22023202.320    90181338.41847
  21518507.500   113080560.70209  21518506.360    88114739.01848
 15 03 05 00 38 30.0000000  0  6G16G18G19G21G22G27
  20547776.020   107979301.69109  20547772.500    84139718.84048
  21761643.540   114358220.40709  21761640.040    89110301.82147
  23411251.960   123026955.57708  23411247.300    95865163.36846
  22535994.940   118427484.89009  22535991.220    92281153.21647
  22008949.900   115657820.54809  22008944.960    90122957.40847
  21508901.120   113030079.44109  21508900.080    88075402.97948
 15 03 05 00 39  0.0000000  0  6G16G18G19G21G22G27
  20543534.140   107957009.68609  20543530.520    84122348.44548
  21759147.840   114345105.63609  21759144.400    89100082.52348
  23397148.900   122952843.29208  23397144.220    95807413.55547
  22548537.100   118493394.50108  22548533.520    92332511.34547
  21994753.300   115583217.16709  21994748.420    90064824.92147
  21499321.840   112979740.62809  21499320.920    88036177.94748
 15 03 05 00 39 30.0000000  0  6G16G18G19G21G22G27
  20539388.620   107935224.49809  20539384.960    84105372.96748
  21756744.940   114332477.90909  21756741.500    89090242.73448
  23383060.960   122878810.91208  23383056.320    95749726.01546
  22561103.880   118559433.29409  22561100.340    92383970.12047
  21980617.520   115508933.31509  21980612.720    90006941.42147
  21489769.480   112929543.04509  21489768.620    87997062.94348
 15 03 05 00 40  0.0000000  0  6G16G18G19G21G22G27
  20535340.660   107913952.31909  20535336.980    84088797.23848
  21754435.660   114320342.26109  21754432.240    89080786.39748
  23368989.160   122804863.66908  23368984.660    95692104.80547
  22573696.040   118625604.92209  22573692.400    92435532.42147
  21966543.940   115434976.41809  21966539.180    89949312.69247
  21480244.980   112879491.98009  21480244.160    87958062.12348
 15 03 05 00 40 30.0000000  0  6G16G18G19G21G22G27
  20531390.460   107893193.42109  20531386.660    84072621.46748
  21752219.980   114308698.58709  21752216.580    89071713.41848
  23354933.320   122731000.48008  23354928.960    95634549.09047
  22586313.000   118691906.49309  22586309.180    92487195.97147
  21952532.860   115361347.85109  21952528.120    89891939.80347
  21470748.160   112829586.76909  21470747.480    87919174.96048
 15 03 05 00 41  0.0000000  0  6G16G18G19G21G22G27
  20527537.480   107872945.53309  20527533.540    84056843.88948
  21750097.160   114297543.63709  21750093.920    89063021.27248
  23340892.860   122657218.17408  23340889.060    95577056.42347
  22598953.680   118758332.65609  22598949.600    92538956.60147
  21938584.040   115288046.31209  21938579.260    89834821.72347
  21461278.440   112779824.54609  21461278.040    87880399.22748
 15 03 05 00 41 30.0000000  0  6G16G18G19G21G22G27
  20523782.780   107853213.94709  20523778.880    84041468.61949
  21748068.240   114286882.08409  21748065.160    89054713.58347
  23326868.640   122583520.95208  23326865.060    95519630.01847
  22611618.540   118824886.12709  22611614.240    92590816.43047
  21924698.700   115215078.60209  21924694.000    89777963.78048
  21451836.960   112730210.07009  21451836.760    87841738.61248
 15 03 05 00 42  0.0000000  0  6G16G18G19G21G22G27
  20520126.340   107833999.09609  20520122.520    84026495.99849
  21746133.160   114276713.56209  21746130.120    89046790.06747
  23312860.320   122509907.67908  23312856.680    95462269.04747
  22624306.960   118891563.77509  22624302.480    92642773.03247
  21910877.020   115142445.63309  21910872.400    89721366.69648
  21442423.680   112680742.63209  21442423.400    87803192.58348
 15 03 05 00 42 30.0000000  0  6G16G18G19G21G22G27
  20516568.560   107815302.72509  20516564.780    84011927.39049
  21744292.140   114267039.11809  21744289.040    89039251.55147
  23298868.240   122436379.32008  23298864.400    95404974.23847
  22637018.860   118958365.20809  22637014.320    92694826.09347
  21897119.680   115070150.78609  21897115.060    89665033.06548
  21433038.740   112631423.46409  21433038.320    87764762.08148
 15 03 05 00 43  0.0000000  0  6G16G18G19G21G22G27
  20513109.080   107797123.07009  20513105.340    83997761.41248
  21742544.700   114257856.33209  21742541.600    89032096.15447
  23284891.900   122362933.18408  23284888.220    95347743.53446
  22649753.340   119025286.10108  22649748.900    92746972.23147
  21883426.580   114998193.44309  21883421.900    89608962.41748
  21423681.600   112582250.23709  21423681.040    87726445.29948
 15 03 05 00 43 30.0000000  0  6G16G18G19G21G22G27
  20509748.720   107779464.18209  20509744.960    83984001.23848
  21740891.480   114249168.46609  21740888.300    89025326.37647
  23270932.000   122289572.70808  23270928.320    95290579.54147
  22662510.660   119092327.64708  22662506.540    92799212.39047
  21869798.700   114926578.88409  21869794.040    89553158.88648
  21414352.800   112533226.67309  21414352.160    87688245.12448
 15 03 05 00 44  0.0000000  0  6G16G18G19G21G22G27
  20506487.760   107762327.45909  20506483.880    83970647.94948
  21739332.500   114240975.99209  21739329.360    89018942.63447
  23256988.360   122216298.32508  23256984.520    95233482.62347
  22675290.600   119159488.18508  22675286.860    92851545.26347
  21856236.580   114855309.37809  21856231.940    89497624.22148
  21405052.480   112484353.17509  21405051.760    87650161.88948
 15 03 05 00 44 30.0000000  0  6G16G18G19G21G22G27
  20503325.700   107745710.73709  20503321.840    83957699.85048
  21737867.220   114233276.30009  21737864.160    89012942.89547
  23243060.520   122143106.65008  23243056.160    95176450.16647
  22688092.260   119226763.07308  22688089.020    92903967.23347
  21842740.080   114784384.43009  21842735.380    89442358.03148
  21395780.240   112435627.26209  21395779.380    87612193.65348
 15 03 05 00 45  0.0000000  0  6G16G18G19G21G22G27
  20500263.400   107729618.57109  20500259.620    83945160.49148
  21736496.400   114226072.90509  21736493.360    89007329.87247
  23229149.100   122070001.22208  23229144.380    95119484.95246
  22700916.060   119294154.12308  22700913.160    92956479.73447
  21829310.060   114713808.98009  21829305.200    89387364.18748
  21386536.840   112387052.63809  21386535.840    87574343.31548
 15 03 05 00 45 30.0000000  0  6G16G18G19G21G22G27
  20497301.120   107714052.02909  20497297.360    83933030.71048
  21735220.280   114219366.45309  21735217.160    89002104.06347
  23215254.100   121996982.49108  23215249.920    95062587.29946
  22713761.860   119361659.99408  22713759.100    93009081.68847
  21815947.140   114643586.13009  21815942.240    89332645.09348
  21377322.420   112338630.14009  21377321.360    87536611.50748
 15 03 05 00 46  0.0000000  0  6G16G18G19G21G22G27
  20494439.320   107699013.42309  20494435.540    83921312.31448
  21734038.880   114213157.98009  21734035.760    88997266.30947
  23201375.740   121924051.61108  23201371.900    95005758.06547
  22726629.560   119429280.06908  22726626.820    93061772.64247
  21802651.840   114573718.88609  21802647.000    89278203.09148
  21368137.260   112290361.37809  21368136.140    87498999.49748
 15 03 05 00 46 30.0000000  0  6G16G18G19G21G22G27
  20491677.600   107684500.71809  20491673.840    83910003.70248
  21732951.740   114207444.59809  21732948.560    88992814.32948
  23187513.620   121851205.55508  23187509.900    94948994.90447
  22739518.240   119497009.64108  22739515.300    93114548.91947
  21789424.000   114504206.62009  21789419.260    89224037.69948
  21358980.820   112242243.82509  21358979.660    87461505.30548
 15 03 05 00 47  0.0000000  0  6G16G18G19G21G22G27
