     2.11           OBSERVATION DATA    M                   RINEX VERSION / TYPE
SPIDER V4,0,0,3554                      2015 03 24 00:35    PGM / RUN BY / DATE 
CAEK                                                        MARKER NAME         
CAEK                                                        MARKER NUMBER       
                                                            OBSERVER / AGENCY   
496550              LEICA GRX1200+GNSS  8.10/4.007          REC # / TYPE / VERS 
                    LEIAR25         NONE                    ANT # / TYPE        
  5175865.2406   441308.6117  3689278.4577                  APPROX POSITION XYZ 
        0.0720        0.0000        0.0000                  ANTENNA: DELTA H/E/N
     1     1                                                WAVELENGTH FACT L1/2
     4    C1    L1    P2    L2                              # / TYPES OF OBSERV 
    30.000                                                  INTERVAL            
  2015    03    05    00    00    0.0000000     GPS         TIME OF FIRST OBS   
  2015    03    05    23    59   30.0000000     GPS         TIME OF LAST OBS    
    16                                                      LEAP SECONDS        
    38                                                      # OF SATELLITES     
   G 1   819   819   819   819                              PRN / # OF OBS      
   G 2   938   937   937   937                              PRN / # OF OBS      
   G 3   848   848   848   848                              PRN / # OF OBS      
   G 4   840   840   840   840                              PRN / # OF OBS      
   G 5   640   640   640   640                              PRN / # OF OBS      
   G 6   799   799   799   799                              PRN / # OF OBS      
   G 7   663   663   663   663                              PRN / # OF OBS      
   G 9   800   800   800   800                              PRN / # OF OBS      
   G10   756   756   755   755                              PRN / # OF OBS      
   G11   783   783   783   783                              PRN / # OF OBS      
   G12   826   826   826   826                              PRN / # OF OBS      
   G13   792   792   792   792                              PRN / # OF OBS      
   G14   447   446   446   446                              PRN / # OF OBS      
   G15   690   690   689   689                              PRN / # OF OBS      
   G16   676   676   676   676                              PRN / # OF OBS      
   G17   937   937   937   937                              PRN / # OF OBS      
   G18   921   920   919   919                              PRN / # OF OBS      
   G19   766   766   765   765                              PRN / # OF OBS      
   G20   754   754   754   754                              PRN / # OF OBS      
   G21   709   709   708   708                              PRN / # OF OBS      
   G22   653   650   647   646                              PRN / # OF OBS      
   G23   745   745   745   745                              PRN / # OF OBS      
   G24   822   805   800   800                              PRN / # OF OBS      
   G25   854   854   854   854                              PRN / # OF OBS      
   G27   816   816   815   815                              PRN / # OF OBS      
   G28   884   884   884   884                              PRN / # OF OBS      
   G29   739   739   738   738                              PRN / # OF OBS      
   G30   710   710   710   710                              PRN / # OF OBS      
   G31   846   846   846   846                              PRN / # OF OBS      
   G32   759   758   758   758                              PRN / # OF OBS      
   R 2    30    30    30    30                              PRN / # OF OBS      
   R 3    30    30    30    30                              PRN / # OF OBS      
   R 9    30    30    30    30                              PRN / # OF OBS      
   R15    30    30    30    30                              PRN / # OF OBS      
   R16    30    30    30    30                              PRN / # OF OBS      
   R17    30    30    30    30                              PRN / # OF OBS      
   R18    30    30    30    30                              PRN / # OF OBS      
   R19    30    30    30    30                              PRN / # OF OBS      
BIT 2 OF LLI FLAGS DATA COLLECTED UNDER A/S CONDITION       COMMENT             
SNR is mapped to RINEX snr flag value [2-9]                 COMMENT             
Lx:     = 25dBHz -> 1; 26-27dBHz -> 2; 28-31dBHz -> 3       COMMENT             
       32-35dBHz -> 4; 36-38dBHz -> 5; 39-41dBHz -> 6       COMMENT             
       42-44dBHz -> 7; 45-48dBHz -> 8; >=49dBHz -> 9        COMMENT             
                                                            END OF HEADER       
 15 03 05 00 00  0.0000000  0 14G16G18G21G22G27G31R02R03R09R15R16R17
                                R18R19
  21198414.800   111398433.30509  21198411.580    86803980.59648
  22137819.840   116335079.34609  22137817.160    90650723.77647
  21656309.220   113804928.33808  21656305.740    88679258.97248
  23176169.060   121791626.24608  23176165.080    94902568.69547
  22406515.040   117747054.40308  22406515.140    91750966.10348
  23689451.720   124488938.63408  23689449.980    97004375.75046
  22398056.140   119520328.68508  22398059.040    92960270.93007
  22325386.960   119509565.48408  22325388.100    92951883.64107
  21745452.600   116119499.42808  21745453.440    90315178.40304
  22464334.920   120042608.63908  22464339.780    93366500.75007
  19894665.160   106273741.10108  19894667.560    82657374.29508
  22451273.720   120141688.07208  22451274.540    93443726.46507
  20122892.220   107417543.33509  20122895.060    83547069.49408
  21953849.560   117438325.60708  21953850.260    91340936.33707
 15 03 05 00 00 30.0000000  0 14G16G18G21G22G27G31R02R03R09R15R16R17
                                R18R19
  21187399.400   111340547.23109  21187396.220    86758874.57948
  22128979.080   116288620.79609  22128976.420    90614522.33247
  21665961.980   113855653.74208  21665958.460    88718785.26648
  23158771.480   121700201.84808  23158767.500    94831328.97246
  22394978.980   117686432.18809  22394979.040    91703728.04448
  23707639.760   124584517.26408  23707637.900    97078852.56546
  22398012.400   119520095.16609  22398015.300    92960089.33507
  22308372.420   119418484.79708  22308373.540    92881043.13607
  21731000.180   116042324.29008  21731001.140    90255153.31004
  22488797.420   120173328.58708  22488802.320    93468171.73607
  19901439.800   106309929.97508  19901442.220    82685521.18008
  22465445.220   120217522.40108  22465446.080    93502708.70807
  20126939.040   107439145.53709  20126941.860    83563871.21308
  21943066.800   117380645.51908  21943067.480    91296074.09107
 15 03 05 00 01  0.0000000  0 14G16G18G21G22G27G31R02R03R09R15R16R17
                                R18R19
  21176454.560   111283031.99309  21176451.440    86714057.52348
  22120214.040   116242560.08709  22120211.340    90578630.88747
  21675664.460   113906640.65308  21675660.940    88758515.32448
  23141398.820   121608907.87208  23141394.580    94760190.85246
  22383464.440   117625922.84509  22383464.420    91656577.94048
  23725840.660   124680163.31108  23725838.840    97153381.89946
  22398108.720   119520608.25909  22398111.540    92960488.42207
  22291429.800   119327789.63408  22291430.940    92810502.50907
  21716667.980   115965791.46708  21716669.060    90195627.80205
  22513294.880   120304235.22208  22513299.720    93569987.95807
  19908367.620   106346937.25008  19908370.080    82714304.60408
  22479616.860   120293358.20908  22479617.860    93561692.11307
  20131024.180   107460952.29509  20131026.980    83580832.03708
  21932322.720   117323171.77008  21932323.300    91251372.31607
 15 03 05 00 01 30.0000000  0 14G16G18G21G22G27G31R02R03R09R15R16R17
                                R18R19
  21165579.100   111225881.24809  21165576.000    86669524.48548
  22111523.340   116196890.14809  22111520.700    90543043.94147
  21685414.760   113957879.07508  21685411.240    88798441.36548
  23124049.780   121517738.43308  23124045.720    94689149.80147
  22371969.820   117565518.00409  22371969.700    91609509.26248
  23744052.160   124775865.05008  23744050.380    97227954.64446
  22398343.400   119521859.89509  22398345.920    92961461.93907
  22274558.380   119237475.52908  22274559.460    92740258.23107
  21702455.080   115889895.66508  21702456.240    90136597.74205
  22537824.980   120435315.81408  22537829.740    93671939.44807
  19915446.680   106384752.13108  19915449.120    82743716.16708
  22493787.100   120369186.05508  22493788.120    93620669.30007
  20135145.740   107482953.65709  20135148.580    83597944.21108
  21921615.380   117265894.79008  21921615.920    91206823.57507
 15 03 05 00 02  0.0000000  0 14G16G18G21G22G27G31R02R03R09R15R16R17
                                R18R19
  21154773.380   111169096.84609  21154770.240    86625276.91148
  22102907.400   116151612.96509  22102904.680    90507763.04447
  21695212.500   114009366.56209  21695208.980    88838561.48948
  23106725.000   121426696.00209  23106720.820    94618207.68746
  22360495.060   117505217.38709  22360494.860    91562521.80248
  23762273.680   124871619.10408  23762271.820    97302568.13946
  22398716.300   119523850.18008  22398719.000    92963009.96707
  22257758.860   119147546.50908  22257759.820    92670313.46507
  21688362.040   115814639.59608  21688363.220    90078065.25505
  22562386.640   120566565.47207  22562391.360    93774022.47207
  19922676.460   106423372.21908  19922678.880    82773753.99508
  22507955.780   120445005.45208  22507956.740    93679639.95007
  20139303.460   107505147.89909  20139306.320    83615206.41008
  21910944.660   117208813.53208  21910945.220    91162427.06907
 15 03 05 00 02 30.0000000  0 14G16G18G21G22G27G31R02R03R09R15R16R17
                                R18R19
  21144037.860   111112681.36009  21144034.700    86581316.80348
  22094366.520   116106730.41109  22094363.760    90472789.64247
  21705057.440   114061102.05808  21705053.920    88878874.85648
  23089424.860   121335783.68909  23089420.800    94547366.99146
  22349040.180   117445021.52609  22349039.900    91515615.95947
  23780504.700   124967423.20608  23780502.880    97377220.61546
  22399227.720   119526580.20708  22399230.500    92965133.36007
  22241032.240   119058007.56808  22241033.180    92600672.08707
  21674389.460   115740027.03108  21674390.740    90020033.27205
  22586979.020   120697979.57107  22586983.800    93876233.36906
  19930056.740   106462796.10708  19930059.100    82804417.00408
  22522122.860   120520816.11808  22522123.860    93738603.77807
  20143497.180   107527534.37409  20143500.080    83632618.12308
  21900310.460   117151927.73308  21900310.880    91118182.58807
 15 03 05 00 03  0.0000000  0 15G16G18G19G21G22G27G31R02R03R09R15R16
                                R17R18R19
  21133372.860   111056636.55409  21133369.680    86537645.53848
  22085901.100   116062244.38109  22085898.300    90438125.22147
  24544159.580   128980430.32708                                
  21714949.140   114113083.30308  21714945.600    88919379.72648
  23072150.100   121245004.22808  23072146.040    94476629.80247
  22337605.260   117384930.53109  22337604.920    91468791.83848
  23798744.580   125063274.27508  23798742.820    97451909.71746
  22399877.900   119530050.29808  22399880.720    92967832.34607
  22224379.220   118968863.11108  22224380.240    92531337.57107
  21660538.000   115666061.15708  21660539.240    89962504.27405
  22611601.540   120829554.65807  22611606.340    93978569.47106
  19937587.020   106503021.42308  19937589.360    82835703.34908
  22536288.160   120596617.69808  22536289.200    93797560.55607
  20147726.640   107550111.74009  20147729.580    83650178.29908
  21889712.720   117095236.73708  21889713.120    91074089.63107
 15 03 05 00 03 30.0000000  0 15G16G18G19G21G22G27G31R02R03R09R15R16
                                R17R18R19
  21122768.860   111000912.27609  21122765.680    86494224.03148
  22077501.500   116018104.33009  22077498.680    90403730.39247
  24529106.260   128901324.87207  24529102.780   100442574.53045
  21724877.420   114165256.71409  21724873.880    88960034.33248
  23054891.020   121154307.55009  23054886.920    94405957.11747
  22326180.260   117324891.85109  22326179.860    91422008.46948
  23816982.840   125159116.60808  23816981.020    97526591.99046
  22400656.880   119534207.56708  22400659.580    92971065.78607
  22207790.760   118880063.67108  22207791.720    92462271.36107
  21646798.180   115592691.56008  21646799.460    89905439.05605
  22636243.400   120961233.18508  22636248.300    94080986.02406
  19945256.880   106543992.52708  19945259.240    82867569.74808
  22550441.640   120672355.87108  22550442.720    93856468.01407
  20151981.600   107572825.20509  20151984.580    83667844.32808
  21879141.320   117038686.36208  21879141.580    91030106.03507
 15 03 05 00 04  0.0000000  0 15G16G18G19G21G22G27G31R02R03R09R15R16
                                R17R18R19
  21112250.540   110945638.22909  21112247.340    86451153.35248
  22069192.340   115974439.28409  22069189.500    90369705.69747
  24514078.700   128822357.32807  24514075.540   100381041.49645
  21734866.140   114217747.73608  21734862.580    89000936.42848
  23037672.520   121063823.90308  23037668.540    94335450.43647
  22314789.560   117265033.36309  22314789.240    91375365.53348
  23835243.180   125255075.12108  23835241.300    97601364.80746
  22401589.000   119539181.98108  22401591.520    92974934.79307
  22191291.780   118791743.60708  22191292.800    92393578.01307
  21633194.960   115520051.28408  21633196.280    89848941.07905
  22660928.020   121093140.13607  22660932.920    94183580.25106
  19953090.280   106585837.29308  19953092.700    82900115.65908
  22564607.560   120748160.56708  22564608.680    93915427.22207
  20156286.200   107595803.32409  20156289.160    83685716.21008
  21868620.320   116982405.95408  21868620.560    90986332.43007
 15 03 05 00 04 30.0000000  0 15G16G18G19G21G22G27G31R02R03R09R15R16
                                R17R18R19
  21101798.340   110890711.81209  21101795.200    86408353.55648
  22060954.040   115931146.82509  22060951.200    90335971.33447
  24499058.040   128743422.89108  24499054.760   100319534.11646
  21744894.940   114270449.31309  21744891.340    89042002.59148
  23020475.100   120973451.34709  23020471.020    94265030.31446
  22303413.200   117205250.40909  22303412.880    91328781.44748
  23853505.100   125351042.11208  23853503.340    97676144.18946
  22402654.380   119544867.54108  22402656.980    92979356.91607
  22174863.400   118703801.02608  22174864.340    92325178.25907
  21619708.960   115448036.78808  21619710.260    89792929.81205
  22685634.580   121225164.46208  22685639.420    94286265.78106
  19961066.760   106628446.60508  19961069.280    82933256.21808
  22578765.860   120823924.60808  22578766.860    93974354.77807
  20160620.240   107618938.52709  20160623.140    83703710.25908
  21858129.620   116926287.91608  21858129.820    90942685.10107
 15 03 05 00 05  0.0000000  0 15G16G18G19G21G22G27G31R02R03R09R15R16
                                R17R18R19
  21091419.560   110836171.19709  21091416.420    86365854.38748
  22052793.820   115888264.47709  22052790.900    90302556.53247
  24484050.520   128664557.60707  24484047.400   100258080.72345
  21754970.360   114323395.84709  21754966.740    89083259.63548
  23003306.240   120883228.58208  23003302.200    94194726.91847
  22292058.080   117145579.24409  22292057.840    91282284.46748
  23871775.040   125447050.77108  23871773.240    97750956.11047
  22403860.080   119551301.49208  22403862.960    92984361.14807
  22158513.040   118616276.67808  22158514.020    92257103.81607
  21606347.600   115376688.06108  21606348.880    89737436.37905
  22710369.400   121357339.96308  22710374.400    94389068.87906
  19969192.860   106671855.05808  19969195.460    82967018.33408
  22592923.340   120899683.89008  22592924.240    94033278.65507
  20164990.360   107642266.15809  20164993.160    83721853.97908
  21847675.920   116870368.28308  21847676.300    90899192.07707
 15 03 05 00 05 30.0000000  0 15G16G18G19G21G22G27G31R02R03R09R15R16
                                R17R18R19
  21081114.180   110782016.28009  21081111.060    86323655.76748
  22044711.620   115845792.21909  22044708.760    90269461.28747
  24469055.540   128585759.06007  24469052.860   100196679.37346
  21765091.700   114376583.70609  21765088.080    89124704.72248
  22986165.900   120793156.11008  22986161.980    94124540.63947
  22280723.900   117086017.92109  22280723.760    91235873.08548
  23890051.860   125543095.90608  23890050.120    97825796.37846
  22405205.760   119558481.71408  22405208.440    92989945.77107
  22142241.320   118529172.64908  22142242.100    92189356.26307
  21593111.120   115306005.90608  21593112.420    89682461.37105
  22735131.060   121489658.66508  22735136.040    94491983.36406
  19977467.760   106716058.19308  19977470.440    83001398.53308
  22607079.560   120975436.25408  22607080.480    94092197.17207
  20169395.880   107665782.96109  20169398.640    83740144.83708
  21837258.840   116814644.31708  21837259.220    90855851.25207
 15 03 05 00 06  0.0000000  0 15G16G18G19G21G22G27G31R02R03R09R15R16
                                R17R18R19
  21070881.580   110728243.69909  21070878.460    86281755.06948
  22036706.700   115803725.98509  22036703.740    90236682.42447
  24454072.300   128507022.08007  24454069.700   100135325.96245
  21775257.520   114430005.41609  21775253.900    89166332.02948
  22969053.680   120703231.05508  22969049.620    94054469.20547
  22269409.560   117026560.93909  22269409.400    91189542.99548
  23908333.960   125639168.94808  23908332.380    97900658.43846
  22406690.160   119566402.71108  22406692.800    92996106.56607
  22126047.760   118442487.62308  22126048.640    92121934.63707
  21579998.980   115235987.72408  21580000.240    89628002.79405
  22759918.000   121622112.27407  22759923.000    94595002.78806
  19985889.860   106761047.65408  19985892.580    83036390.33208
  22621233.200   121051175.45208  22621234.220    94151105.42607
  20173835.540   107689482.10809  20173838.300    83758577.51408
  21826877.180   116759109.79408  21826877.520    90812657.76807
 15 03 05 00 06 30.0000000  0 15G16G18G19G21G22G27G31R02R03R09R15R16
                                R17R18R19
  21060722.200   110674855.73909  21060719.060    86240154.06948
  22028779.400   115762067.68209  22028776.300    90204221.42147
  24439100.720   128428346.51107  24439097.740   100074020.38545
  21785467.560   114483659.56809  21785463.940    89208140.45848
  22951970.040   120613456.35909  22951966.140    93984514.96047
  22258115.160   116967208.75009  22258115.060    91143294.56748
  23926620.880   125735267.41908  23926619.340    97975540.25146
  22408313.420   119575065.05208  22408316.120    93002843.98407
  22109933.540   118356226.48208  22109934.220    92054842.64207
  21567011.760   115166636.76308  21567012.940    89574063.16805
  22784729.360   121754696.18108  22784734.400    94698123.49406
  19994458.860   106806821.74908  19994461.560    83071992.39308
  22635384.400   121126901.64408  22635385.340    94210003.56107
  20178309.140   107713362.60409  20178311.940    83777151.24108
  21816530.840   116703764.09808  21816531.200    90769611.14707
 15 03 05 00 07  0.0000000  0 15G16G18G19G21G22G27G31R02R03R09R15R16
                                R17R18R19
  21050636.580   110621855.31709  21050633.420    86198855.04748
  22020930.220   115720819.84209  22020927.060    90172080.26747
  24424141.200   128349733.50008  24424138.120   100012763.53945
  21795721.580   114537544.98008  21795717.980    89250129.09148
  22934915.820   120523835.91508  22934911.780    93914680.88047
  22246840.900   116907962.35009  22246840.800    91097128.57248
  23944912.320   125831389.18608  23944910.700    98050440.29446
  22410075.780   119584469.71108  22410078.820    93010158.75307
  22093899.280   118270394.14608  22093900.000    91988084.21707
  21554150.260   115097956.98308  21554151.400    89520645.56904
  22809564.260   121887405.63808  22809569.260    94801341.90306
  20003174.400   106853378.54008  20003177.100    83108203.22108
  22649533.300   121202614.98508  22649534.220    94268891.68607
  20182816.640   107737424.16609  20182819.480    83795865.80008
  21806219.780   116648607.34808  21806220.260    90726711.50807
 15 03 05 00 07 30.0000000  0 15G16G18G19G21G22G27G31R02R03R09R15R16
                                R17R18R19
  21040625.220   110569244.82909  21040621.980    86157859.87248
  22013159.580   115679984.71109  22013156.320    90140260.70347
  24409193.760   128271183.35108  24409190.660    99951555.68746
  21806019.300   114591660.12108  21806015.740    89292296.73448
  22917891.440   120434372.38909  22917887.340    93844969.09347
  22235586.840   116848822.23909  22235586.760    91051045.39548
  23963207.620   125927531.53108  23963206.000    98125356.33346
  22411977.340   119594617.13308  22411980.620    93018051.23007
  22077946.080   118184995.12308  22077946.660    91921662.77507
  21541415.140   115029951.80008  21541416.160    89467752.64705
  22834422.160   122020238.06207  22834427.020    94904655.93906
  20012036.080   106900715.94608  20012038.720    83145021.18808
  22663679.800   121278315.68108  22663680.600    94327770.00706
  20187357.940   107761665.94509  20187360.760    83814720.52508
  21795944.020   116593639.30608  21795944.400    90683958.60607
 15 03 05 00 08  0.0000000  0 15G16G18G19G21G22G27G31R02R03R09R15R16
                                R17R18R19
  21030688.720   110517027.84009  21030685.440    86117171.32048
  22005467.980   115639565.26209  22005464.800    90108765.04347
  24394258.460   128192697.54408  24394255.300    99890397.99345
  21816360.660   114646004.63909  21816357.140    89334643.11247
  22900897.700   120345069.88509  22900893.700    93775382.77947
  22224353.320   116789790.04009  22224353.300    91005046.30648
  23981506.580   126023692.96308  23981504.980    98200287.22346
  22414018.500   119605509.14108  22414021.560    93026522.82507
  22062074.780   118100035.54408  22062075.400    91855583.15507
  21528807.080   114962625.29508  21528807.960    89415387.58705
  22859302.640   122153190.71808  22859307.440    95008063.48406
  20021043.680   106948832.82908  20021046.220    83182445.42008
  22677824.120   121354004.63708  22677824.900    94386639.18907
  20191933.060   107786088.27009  20191935.880    83833715.66508
  21785703.740   116538860.65708  21785704.060    90641353.02307
 15 03 05 00 08 30.0000000  0 15G16G18G19G21G22G27G31R02R03R09R15R16
                                R17R18R19
  21020827.080   110465204.32509  21020823.720    86076789.36648
  21997855.420   115599561.29409  21997852.280    90077593.14447
  24379335.080   128114273.71708  24379331.520    99829288.54345
  21826744.940   114700574.57009  21826741.440    89377165.13748
  22883934.660   120255928.95708  22883930.540    93705922.36147
  22213140.020   116730863.86609  22213139.960    90959129.84448
  23999808.400   126119868.94308  23999806.820    98275229.46946
  22416198.800   119617143.52208  22416201.760    93035571.79607
  22046285.980   118015517.36507  22046286.640    91789846.83507
  21516326.360   114895978.67108  21516327.200    89363551.33105
  22884204.240   122286257.00108  22884209.080    95111559.39006
  20030196.360   106997724.65608  20030198.840    83220472.38208
  22691965.820   121429679.55308  22691966.440    94445497.46106
  20196541.360   107810688.00609  20196544.220    83852848.79708
  21775498.280   116484268.55208  21775498.580    90598892.52207
 15 03 05 00 09  0.0000000  0 15G16G18G19G21G22G27G31R02R03R09R15R16
                                R17R18R19
  21011041.960   110413782.94209  21011038.540    86036720.76648
  21990323.520   115559981.09509  21990320.440    90046751.44547
  24364424.260   128035918.67606  24364420.680    99768232.75545
  21837173.040   114755374.78709  21837169.580    89419866.60948
  22867004.280   120166959.29108  22867000.280    93636595.39647
  22201948.300   116672050.72309  22201948.120    90913301.44748
  24018113.540   126216062.99308  24018112.080    98350185.80246
  22418519.600   119629527.10408  22418522.200    93045203.50507
  22030581.800   117931451.56608  22030582.380    91724462.33307
  21503974.640   114830021.37808  21503975.560    89312251.23105
  22909127.660   122419439.81008  22909132.600    95215145.93507
  20039494.940   107047395.80408  20039497.380    83259105.47608
  22706106.080   121505347.00308  22706106.820    94504349.89907
  20201183.920   107835470.76609  20201186.860    83872124.27908
  21765328.840   116429869.21308  21765329.180    90556581.96807
 15 03 05 00 09 30.0000000  0 15G16G18G19G21G22G27G31R02R03R09R15R16
                                R17R18R19
  21001332.280   110362758.00809  21001328.820    85996961.08548
  21982870.980   115520818.21909  21982868.000    90016234.94147
  24349525.080   127957624.57808  24349521.680    99707224.41845
  21847643.200   114810395.83309  21847639.760    89462740.15847
  22850105.380   120078155.34309  22850101.400    93567397.56747
  22190776.620   116613342.74109  22190776.340    90867554.99848
  24036420.180   126312264.54908  24036418.680    98425147.97846
  22420979.100   119642651.75808  22420982.020    93055411.58807
  22014961.340   117847834.71708  22014962.160    91659427.08307
  21491751.020   114764748.39408  21491752.120    89261483.36705
  22934070.440   122552726.48608  22934075.460    95318813.23706
  20048937.320   107097835.24708  20048939.800    83298336.14608
  22720243.360   121580998.32808  22720244.280    94563189.80406
  20205859.100   107860427.43409  20205862.040    83891535.02708
  21755193.860   116375653.89608  21755194.200    90514414.52507
 15 03 05 00 10  0.0000000  0 15G16G18G19G21G22G27G31R02R03R09R15R16
                                R17R18R19
  20991698.220   110312130.72009  20991694.740    85957511.25948
  21975498.000   115482073.15009  21975495.040    89986043.99247
  24334637.740   127879390.51608  24334634.320    99646262.84645
  21858154.900   114865635.03409  21858151.420    89505783.70248
  22833238.440   119989518.64609  22833234.360    93498330.04047
  22179624.780   116554739.08509  22179624.380    90821889.84648
  24054727.400   126408469.20308  24054725.960    98500112.55746
  22423577.320   119656516.40108  22423580.060    93066195.21907
  21999425.420   117764669.50708  21999425.880    91594743.01407
  21479655.840   114700161.29108  21479656.980    89211248.96605
  22959031.760   122686111.62407  22959036.720    95422557.15406
  20058522.840   107149039.18408  20058525.320    83338161.42908
  22734377.300   121656632.38608  22734378.220    94622016.28707
  20210566.440   107885555.77209  20210569.480    83911079.30708
  21745092.960   116321620.80608  21745093.120    90472388.82407
 15 03 05 00 10 30.0000000  0 15G16G18G19G21G22G27G31R02R03R09R15R16
                                R17R18R19
  20982141.420   110261909.65209  20982137.980    85918377.96748
  21968206.300   115443754.93909  21968203.320    89956185.67147
  24319762.820   127801222.95907  24319759.680    99585353.16845
  21868709.040   114921097.18109  21868705.540    89549000.96248
  22816405.100   119901058.96309  22816401.060    93429400.47247
  22168494.100   116496246.83309  22168493.620    90776311.49548
  24073036.020   126504681.28008  24073034.520    98575082.95446
  22426315.480   119671127.54508  22426318.140    93077559.46707
  21983975.860   117681967.53008  21983976.520    91530419.33207
  21467690.940   114636270.01208  21467692.260    89161555.77305
  22984012.020   122819598.43607  22984017.160    95526380.11006
  20068252.280   107201012.09608  20068254.740    83378584.79008
  22748509.300   121732255.72507  22748510.240    94680834.42106
  20215307.100   107910861.68909  20215310.140    83930761.69908
  21735027.260   116267776.23508  21735027.360    90430509.75407
 15 03 05 00 11  0.0000000  0 15G16G18G19G21G22G27G31R02R03R09R15R16
                                R17R18R19
  20972661.260   110212091.23009  20972657.840    85879558.42448
  21960994.900   115405858.78909  21960991.920    89926656.22447
  24304899.800   127723116.87008  24304896.440    99524491.32146
  21879303.980   114976773.83209  21879300.440    89592385.37648
  22799604.900   119812773.26408  22799600.720    93360606.45647
  22157383.500   116437860.45409  22157383.060    90730815.64848
  24091344.340   126600892.01208  24091342.940    98650052.27746
  22429192.500   119686479.60808  22429195.460    93089499.99407
  21968612.700   117599727.30008  21968613.240    91466454.72107
  21455855.780   114573071.45708  21455857.240    89112401.34805
  23009009.500   122953176.96807  23009014.720    95630274.45707
  20078124.060   107253745.31908  20078126.540    83419599.51508
  22762638.100   121807862.25408  22762638.980    94739639.50706
  20220079.760   107936338.18209  20220082.760    83950576.75508
  21724995.600   116214113.53808  21724995.620    90388772.14107
 15 03 05 00 11 30.0000000  0 15G16G18G19G21G22G27G31R02R03R09R15R16
                                R17R18R19
  20963258.660   110162680.37609  20963255.260    85841056.45948
  21953864.700   115368389.55109  21953861.800    89897459.42747
  24290049.080   127645074.72707  24290045.400    99463679.24546
  21889940.160   115032667.31409  21889936.600    89635938.73548
  22782838.860   119724667.21009  22782834.720    93291952.42747
  22146293.640   116379583.19309  22146293.180    90685404.81848
  24109652.480   126697101.48208  24109650.960    98725020.59846
  22432208.860   119702575.37309  22432211.500    93102018.93907
  21953337.080   117517955.67508  21953337.720    91402854.61007
  21444151.440   114510571.31408  21444153.020    89063790.12805
  23034023.840   123086845.87007  23034029.160    95734239.03606
  20088138.140   107307238.87108  20088140.660    83461205.58208
  22776764.420   121883454.62508  22776765.480    94798433.54907
  20224884.760   107961987.44909  20224887.740    83970526.19108
  21714998.400   116160635.29108  21714998.420    90347177.98207
 15 03 05 00 12  0.0000000  0 15G16G18G19G21G22G27G31R02R03R09R15R16
                                R17R18R19
  20953935.300   110113685.85709  20953931.920    85802878.92448
  21946817.220   115331355.15909  21946814.420    89868601.49447
  24275211.280   127567103.02307  24275208.080    99402922.22745
  21900618.480   115088782.39609  21900614.900    89679664.77747
  22766108.720   119636749.96509  22766104.620    93223445.53247
  22135225.820   116321421.91309  22135225.460    90640084.37348
  24127961.160   126793313.78808  24127959.540    98799991.14846
  22435365.840   119719421.37808  22435368.640    93115121.40807
  21938151.040   117436663.79908  21938151.640    91339627.62007
  21432579.800   114448779.43408  21432581.360    89015729.80605
  23059055.460   123220607.38607  23059060.960    95838275.64806
  20098295.360   107361496.96808  20098297.860    83503406.32408
  22790889.360   121959039.51908  22790890.380    94857221.77906
  20229723.160   107987814.95909  20229726.080    83990614.27108
  21705036.760   116107347.08508  21705036.840    90305731.65107
 15 03 05 00 12 30.0000000  0 15G16G18G19G21G22G27G31R02R03R09R15R16
                                R17R18R19
  20944689.140   110065096.88209  20944685.760    85765017.39148
  21939850.520   115294744.99809  21939847.680    89840074.10647
  24260384.780   127489189.40008  24260381.360    99342210.31945
  21911336.260   115145104.79909  21911332.680    89723552.37048
  22749412.640   119549011.62209  22749408.500    93155078.02747
  22124177.700   116263364.14009  22124177.420    90594844.57048
  24146267.440   126889513.00908  24146265.700    98874951.51246
  22438660.940   119737004.38009  22438663.240    93128797.08707
  21923053.000   117355842.92908  21923053.800    91276766.98907
  21421138.860   114387685.32208  21421140.320    88968212.16705
  23084101.520   123354445.54907  23084107.100    95942371.88907
  20108592.760   107416503.67808  20108595.240    83546189.30208
  22805010.320   122034603.81307  22805011.460    94915993.95306
  20234592.320   108013806.87609  20234595.240    84010830.21308
  21695108.200   116054235.84208  21695108.220    90264422.94007
 15 03 05 00 13  0.0000000  0 15G16G18G19G21G22G27G31R02R03R09R15R16
                                R17R18R19
  20935521.960   110016923.05409  20935518.600    85727479.35648
  21932966.180   115258567.69709  21932963.360    89811884.02447
  24245570.700   127411341.10007  24245567.340    99281549.33246
  21922094.400   115201639.26208  21922090.800    89767605.20648
  22732752.500   119461462.00309  22732748.420    93086857.60047
  22113150.740   116205417.34709  22113150.480    90549691.25348
  24164571.980   126985703.85808  24164570.360    98949905.31646
  22442095.420   119755331.49808  22442097.860    93143051.56007
  21908045.100   117275504.66308  21908045.740    91214281.69007
  21409830.480   114327299.00608  21409831.780    88921245.04305
  23109162.360   123488362.59607  23109167.780    96046529.45706
  20119031.120   107472263.37108  20119033.660    83589557.94208
  22819128.800   122110154.60008  22819129.440    94974755.68906
  20239493.460   108039969.47609  20239496.380    84031178.90808
  21685213.860   116001307.99508  21685213.860    90223256.86807
 15 03 05 00 13 30.0000000  0 15G16G18G19G21G22G27G31R02R03R09R15R16
                                R17R18R19
  20926434.320   109969167.19709  20926430.980    85690267.00648
  21926164.720   115222825.90709  21926161.880    89784033.29147
  24230769.020   127333559.04408  24230766.140    99220940.07146
  21932892.840   115258385.41309  21932889.200    89811822.99248
  22716128.960   119374105.00009  22716124.820    93018787.24547
  22102145.160   116147582.77809  22102144.920    90504625.38248
  24182874.560   127081884.48108  24182873.100    99024851.17046
  22445669.400   119774403.28708  22445672.080    93157885.17907
  21893128.300   117195654.11108  21893129.280    91152175.77808
  21398655.420   114267624.27508  21398656.580    88874831.36705
  23134237.380   123622355.23507  23134242.800    96150745.83006
  20129610.120   107528774.35908  20129612.680    83633510.91808
  22833244.860   122185692.42208  22833245.320    95033507.35607
  20244426.600   108066302.89309  20244429.540    84051660.46308
  21675353.840   115948563.91108  21675353.900    90182233.72507
 15 03 05 00 14  0.0000000  0 15G16G18G19G21G22G27G31R02R03R09R15R16
                                R17R18R19
  20917425.460   109921825.31809  20917422.060    85653377.23548
  21919445.280   115187515.00309  21919442.420    89756518.31747
  24215979.160   127255837.46108  24215976.240    99160377.83846
  21943730.040   115315335.27009  21943726.420    89856199.51548
  22699541.520   119286937.42009  22699537.460    92950864.51047
  22091159.860   116089854.79209  22091159.640    90459642.56048
  24201173.500   127178045.77808  24201172.140    99099781.98346
  22449381.680   119794213.34608  22449383.900    93173293.02807
  21878302.320   117116289.38008  21878303.020    91090447.65807
  21387612.980   114208657.66908  21387613.960    88828968.46205
  23159324.660   123756414.07707  23159330.120    96255013.66806
  20140328.060   107586027.56908  20140330.620    83678041.18408
  22847357.500   122261211.17208  22847358.240    95092244.13207
  20249390.400   108092799.94709  20249393.320    84072269.28808
  21665526.960   115895996.91908  21665527.060    90141348.31607
 15 03 05 00 14 30.0000000  0 15G16G18G19G21G22G27G31R02R03R09R15R16
                                R17R18R19
  20908497.180   109874907.10809  20908493.800    85616817.60148
  21912809.600   115152644.13009  21912806.700    89729346.22747
  24201202.080   127178184.05208  24201199.140    99099868.77846
  21954607.220   115372495.02909  21954603.560    89900739.59148
  22682992.040   119199969.32609  22682987.860    92883097.20547
  22080196.360   116032241.24509  22080196.100    90414748.91248
  24219469.660   127274192.84508  24219468.460    99174701.66546
  22453233.700   119814769.19108  22453236.360    93189280.92007
  21863569.280   117037422.40808  21863570.100    91029106.73208
  21376705.040   114150409.41808  21376705.900    88783664.27505
  23184424.880   123890541.95207  23184430.460    96359335.23406
  20151185.760   107644027.59808  20151188.360    83723152.30908
  22861467.740   122336718.57406  22861468.800    95150972.09307
  20254386.080   108119467.23409  20254388.940    84093010.52008
  21655734.480   115843613.91208  21655734.460    90100606.01707
 15 03 05 00 15  0.0000000  0  7G16G18G19G21G22G27G31
  20899648.440   109828406.92309  20899645.100    85580583.69848
  21906256.460   115118207.24409  21906253.580    89702512.32347
  24186436.700   127100591.06708  24186433.680    99039406.76546
  21965522.480   115429855.07109  21965518.800    89945435.73748
  22666479.580   119113195.86809  22666475.400    92815481.58747
  22069253.260   115974734.84509  22069252.940    90369938.74948
  24237761.240   127370315.27907  24237760.020    99249602.20846
 15 03 05 00 15 30.0000000  0  7G16G18G19G21G22G27G31
  20890881.080   109782334.21409  20890877.800    85544682.88448
  21899787.600   115084213.20809  21899784.760    89676023.46947
  24171684.080   127023065.92507  24171680.980    98978997.64145
  21976477.040   115487421.53509  21976473.360    89990292.72948
  22650006.020   119026627.00709  22650001.780    92748025.36547
  22058332.000   115917343.25209  22058331.640    90325218.04348
  24256048.840   127466417.47908  24256047.560    99324486.89346
 15 03 05 00 16  0.0000000  0  7G16G18G19G21G22G27G31
  20882194.840   109736687.67309  20882191.560    85509114.15948
  21893402.660   115050660.30309  21893399.820    89649878.37347
  24156943.720   126945605.61208  24156940.360    98918638.99645
  21987469.840   115545189.02409  21987466.200    90035306.36447
  22633571.320   118940262.40909  22633567.100    92680728.32347
  22047432.020   115860063.54209  22047431.680    90280584.52548
  24274331.520   127562493.68208  24274330.460    99399351.36946
 15 03 05 00 16 30.0000000  0  7G16G18G19G21G22G27G31
  20873589.420   109691465.90109  20873586.100    85473876.41948
  21887101.180   115017545.95509  21887098.360    89624075.00747
  24142215.280   126868206.83808  24142211.840    98858328.31946
  21998499.920   115603152.50609  21998496.300    90080472.72348
  22617175.360   118854101.32609  22617171.140    92613589.86747
  22036552.720   115802892.44009  22036552.340    90236035.64348
  24292608.120   127658537.44008  24292607.200    99474190.55446
 15 03 05 00 17  0.0000000  0  7G16G18G19G21G22G27G31
  20865066.280   109646676.62409  20865063.000    85438975.69448
  21880884.680   114984877.97409  21880881.860    89598619.45447
  24127499.600   126790875.19108  24127496.080    98798069.97945
  22009567.980   115661315.60109  22009564.400    90125794.61747
  22600819.720   118768152.08909  22600815.400    92546616.47547
  22025695.200   115745836.11009  22025694.900    90191576.19048
  24310879.060   127754551.64608  24310877.920    99549006.76046
 15 03 05 00 17 30.0000000  0  7G16G18G19G21G22G27G31
  20856625.100   109602318.34509  20856621.880    85404410.81148
  21874752.600   114952653.78709  21874749.800    89573509.72047
  24112796.140   126713607.06808  24112792.200    98737861.05245
  22020673.000   115719672.96009  22020669.460    90171267.88748
  22584504.180   118682413.58409  22584499.840    92479807.29747
  22014858.900   115688891.19309  22014858.640    90147203.56248
  24329143.180   127850529.89308  24329142.200    99623794.87946
 15 03 05 00 18  0.0000000  0  7G16G18G19G21G22G27G31
  20848266.960   109558396.31409  20848263.780    85370185.85648
  21868705.900   114920878.17709  21868703.080    89548749.51547
  24098105.240   126636405.70208  24098101.320    98677704.20246
  22031815.460   115778226.95609  22031811.920    90216894.37647
  22568229.980   118596892.24409  22568225.660    92413167.33247
  22004044.480   115632061.51309  22004044.280    90102920.71548
  24347400.680   127946472.99308  24347399.740    99698555.61446
 15 03 05 00 18 30.0000000  0  7G16G18G19G21G22G27G31
  20839991.240   109514907.53209  20839988.180    85336298.49648
  21862743.920   114889548.06009  21862741.120    89524336.44747
  24083426.320   126559267.13308  24083422.560    98617596.29546
  22042994.080   115836970.92409  22042990.520    90262668.89948
  22551996.700   118511586.02009  22551992.360    92346694.99247
  21993251.200   115575342.68809  21993251.060    90058724.25148
  24365650.020   128042373.62008  24365649.000    99773283.26446
 15 03 05 00 19  0.0000000  0  7G16G18G19G21G22G27G31
  20831799.200   109471858.50209  20831796.220    85302753.81148
  21856867.840   114858669.29809  21856865.040    89500275.09547
  24068760.020   126482195.31508  24068756.060    98557540.36445
  22054209.260   115895906.95409  22054205.620    90308593.08448
  22535805.640   118426501.63909  22535801.300    92280395.51947
  21982479.900   115518739.20809  21982479.760    90014617.67048
  24383891.680   128138233.09508  24383890.600    99847978.84846
 15 03 05 00 19 30.0000000  0  7G16G18G19G21G22G27G31
  20823691.580   109429252.81409  20823688.620    85269554.57848
  21851078.160   114828244.51909  21851075.360    89476567.49147
  24054106.760   126405192.43108  24054102.980    98497538.17147
  22065461.000   115955035.44309  22065457.380    90354667.24048
  22519657.660   118341643.72809  22519653.400    92214272.50048
  21971731.020   115462253.35809  21971730.820    89970602.73448
  24402125.280   128234050.63908  24402124.200    99922641.72746
 15 03 05 00 20  0.0000000  0  7G16G18G19G21G22G27G31
  20815668.060   109387088.86309  20815665.060    85236699.55748
  21845374.540   114798272.01709  21845371.780    89453212.30547
  24039465.700   126328254.49207  24039462.240    98437586.60846
  22076748.280   116014350.55809  22076744.660    90400886.80548
  22503552.540   118257011.08209  22503548.360    92148325.01047
  21961003.860   115405881.69409  21961003.600    89926676.77648
  24420349.480   128329819.66208  24420348.400    99997266.81245
 15 03 05 00 20 30.0000000  0  7G16G18G19G21G22G27G31
  20807728.860   109345367.96509  20807725.800    85204189.77248
  21839757.140   114768752.33309  21839754.320    89430209.96447
  24024837.060   126251381.61308  24024833.600    98377685.66945
  22088070.840   116073851.07809  22088067.200    90447250.84747
  22487490.760   118172605.96909  22487486.620    92082554.83347
  21950298.420   115349624.19509  21950298.100    89882839.77648
  24438564.060   128425536.92208  24438563.060   100071851.60246
 15 03 05 00 21  0.0000000  0  7G16G18G19G21G22G27G31
  20799874.360   109304092.02309  20799871.240    85172026.70948
  21834226.140   114739686.62409  21834223.180    89407561.37247
  24010220.720   126174573.06308  24010217.540    98317834.92146
  22099428.240   116133534.58609  22099424.600    90493757.47747
  22471472.820   118088431.24409  22471468.680    92016964.17647
  21939614.700   115293480.96509  21939614.400    89839091.82548
  24456768.180   128521199.64308  24456767.460   100146393.77746
 15 03 05 00 21 30.0000000  0  7G16G18G19G21G22G27G31
  20792105.380   109263265.34509  20792102.160    85140213.71648
  21828782.160   114711078.33009  21828779.120    89385269.20547
  23995617.240   126097831.91508  23995614.140    98258036.65446
  22110820.560   116193401.73509  22110816.960    90540407.20147
  22455499.640   118004491.77209  22455495.540    91951556.83747
  21928953.320   115237454.97209  21928953.000    89795435.22248
  24474961.880   128616807.64008  24474961.100   100220893.41145
 15 03 05 00 22  0.0000000  0  7G16G18G19G21G22G27G31
  20784422.000   109222888.58809  20784418.720    85108751.30748
  21823425.300   114682927.77709  21823422.240    89363333.71847
  23981026.380   126021156.69608  23981023.420    98198289.78646
  22122247.200   116253449.32008  22122243.640    90587197.53347
  22439571.520   117920788.71009  22439567.260    91886333.68947
  21918314.040   115181545.26709  21918313.740    89751869.23248
  24493144.440   128712357.09408  24493143.500   100295347.36945
 15 03 05 00 22 30.0000000  0  7G16G18G19G21G22G27G31
  20776824.820   109182965.05609  20776821.520    85077642.06648
  21818156.020   114655237.43709  21818152.960    89341756.84247
  23966448.400   125944549.07808  23966445.480    98138595.61046
  22133708.340   116313677.94109  22133704.760    90634128.92847
  22423689.220   117837326.61309  22423684.900    91821298.32847
  21907697.260   115125753.68609  21907696.920    89708395.29148
  24511315.580   128807846.38108  24511314.460   100369754.49746
 15 03 05 00 23  0.0000000  0  7G16G18G19G21G22G27G31
  20769313.180   109143490.83509  20769309.780    85046882.92848
  21812973.500   114628003.28409  21812970.500    89320535.44447
  23951882.260   125868003.51907  23951879.020    98078949.72646
  22145202.500   116374079.99908  22145198.880    90681195.46747
  22407852.140   117754102.29909  22407847.680    91756448.23947
  21897101.940   115070074.90809  21897101.580    89665009.24548
  24529473.700   128903267.23308  24529472.600   100444108.24446
 15 03 05 00 23 30.0000000  0  7G16G18G19G21G22G27G31
  20761888.980   109104476.15909  20761885.520    85016481.88648
  21807879.400   114601234.03109  21807876.480    89299676.29847
  23937329.460   125791528.35508  23937326.380    98019358.76246
  22156730.800   116434661.56409  22156727.120    90728401.88347
  22392062.340   117671126.42909  22392057.920    91691791.75447
  21886529.720   115014517.53809  21886529.320    89621717.81348
  24547619.780   128998625.44007  24547619.080   100518413.14646
 15 03 05 00 24  0.0000000  0  7G16G18G19G21G22G27G31
  20754551.840   109065919.19609  20754548.360    84986437.50448
  21802873.440   114574927.80209  21802870.520    89279177.95447
  23922789.400   125715119.87107  23922786.280    97959819.74346
  22168292.300   116495417.39909  22168288.560    90775744.10047
  22376319.680   117588398.44709  22376315.220    91627328.42647
  21875980.040   114959078.35909  21875979.600    89578518.47548
  24565752.780   129093914.33408  24565752.400   100592664.00346
 15 03 05 00 24 30.0000000  0  7G16G18G19G21G22G27G31
  20747301.880   109027820.24709  20747298.360    84956750.01348
  21797955.540   114549084.13909  21797952.620    89259040.04747
  23908261.860   125638776.76508  23908258.560    97900331.62346
  22179886.360   116556344.45309  22179882.580    90823219.72347
  22360624.380   117505919.17609  22360619.980    91563058.88947
  21865452.620   114903756.27809  21865452.140    89535410.37648
  24583871.900   129189129.93308  24583871.440   100666857.83445
 15 03 05 00 25  0.0000000  0  7G16G18G19G21G22G27G31
  20740140.080   108990184.67609  20740136.560    84927423.59848
  21793126.560   114523707.53109  21793123.580    89239266.07347
  23893747.240   125562502.51107  23893743.880    97840897.24246
  22191513.320   116617444.53009  22191509.520    90870830.16647
  22344977.520   117423694.57409  22344973.120    91498987.79347
  21854948.180   114848555.12609  21854947.640    89492396.51448
  24601977.020   129284272.72808  24601976.660   100740994.86945
 15 03 05 00 25 30.0000000  0  7G16G18G19G21G22G27G31
  20733065.780   108953008.94209  20733062.260    84898455.50248
  21788385.660   114498793.88609  21788382.660    89219852.85947
  23879245.040   125486292.17108  23879241.340    97781512.52646
  22203171.920   116678710.90509  22203168.160    90918570.20347
  22329378.700   117341722.30809  22329374.300    91435113.34347
  21844465.840   114793470.09209  21844465.260    89449473.12948
  24620066.920   129379335.07708  24620066.520   100815069.28745
 15 03 05 00 26  0.0000000  0  7G16G18G19G21G22G27G31
  20726080.800   108916302.58009  20726077.280    84869853.13548
  21783734.500   114474351.92809  21783731.520    89200807.18247
  23864756.160   125410153.47807  23864752.660    97722183.77346
  22214863.140   116740149.00109  22214859.440    90966444.03247
  22313829.860   117260012.76509  22313825.460    91371443.59848
  21834007.080   114738509.20009  21834006.520    89406646.46848
  24638142.500   129474322.03208  24638142.320   100889084.85046
 15 03 05 00 26 30.0000000  0  7G16G18G19G21G22G27G31
  20719183.560   108880057.35509  20719180.060    84841610.11348
  21779171.520   114450373.34309  21779168.560    89182122.58647
  23850279.520   125334077.22508  23850275.820    97662903.56846
  22226584.960   116801747.74709  22226581.320    91014443.05847
  22298329.640   117178558.62309  22298325.200    91307972.87647
  21823570.180   114683663.08809  21823569.640    89363909.26748
  24656201.400   129569221.05908  24656200.800   100963032.00145
 15 03 05 00 27  0.0000000  0  7G16G18G19G21G22G27G31
  20712376.300   108844284.89609  20712372.820    84813735.46648
  21774698.720   114426868.71709  21774695.800    89163807.29847
  23835816.200   125258072.84308  23835812.800    97603679.47946
  22238338.960   116863515.45209  22238335.360    91062573.73047
  22282880.340   117097372.06109  22282875.860    91244710.64347
  21813157.100   114628942.05209  21813156.560    89321269.50848
  24674245.040   129664039.24908  24674244.360   101036916.09246
 15 03 05 00 27 30.0000000  0  7G16G18G19G21G22G27G31
  20705658.360   108808981.94609  20705654.920    84786226.68448
  21770315.280   114403833.54009  21770312.360    89145857.82647
  23821365.880   125182135.15807  23821362.220    97544507.23047
  22250123.800   116925445.11009  22250120.160    91110830.60847
  22267481.520   117016450.90709  22267477.000    91181655.23647
  21802766.920   114574341.38209  21802766.400    89278723.55448
  24692271.720   129758768.81708  24692271.000   101110731.11745
 15 03 05 00 28  0.0000000  0  6G16G18G19G21G22G27
  20699028.800   108774143.46309  20699025.400    84759079.82248
  21766020.220   114381262.69509  21766017.280    89128270.16247
  23806926.920   125106257.52008  23806923.340    97485381.91247
  22261937.820   116987528.17509  22261934.180    91159207.01847
  22252132.380   116935790.82409  22252127.860    91118803.25747
  21792398.380   114519854.52609  21792397.860    89236266.27848
 15 03 05 00 28 30.0000000  0  6G16G18G19G21G22G27
  20692490.860   108739786.44809  20692487.440    84732308.12648
  21761816.600   114359172.42509  21761813.620    89111056.98447
  23792502.220   125030455.53008  23792498.620    97426315.51946
  22273783.700   117049778.53909  22273780.040    91207713.78747
  22236836.380   116855409.77309  22236831.800    91056168.69747
  21782054.560   114465497.51609  21782054.060    89193910.18948
 15 03 05 00 29  0.0000000  0  6G16G18G19G21G22G27
  20686043.440   108705905.07709  20686040.020    84705907.06248
  21757703.120   114337556.12309  21757700.200    89094213.11847
  23778090.600   124954721.69808  23778086.720    97367302.12746
  22285659.680   117112187.14909  22285656.000    91256343.86747
  22221592.500   116775302.83709  22221587.940    90993747.73047
  21771734.080   114411263.29009  21771733.640    89151649.76848
 15 03 05 00 29 30.0000000  0  6G16G18G19G21G22G27
  20679687.160   108672502.64209  20679683.760    84679879.18948
  21753680.280   114316415.96709  21753677.300    89077740.28147
  23763692.120   124879057.79508  23763688.420    97308343.30746
  22297565.680   117174753.55608  22297562.000    91305096.90947
  22206401.460   116695473.67709  22206396.940    90931543.22547
  21761437.300   114357153.65109  21761436.940    89109486.44348
 15 03 05 00 30  0.0000000  0  6G16G18G19G21G22G27
  20673421.700   108639577.50409  20673418.320    84654223.23348
  21749747.620   114295749.81509  21749744.600    89061636.79047
  23749306.440   124803460.83608  23749302.580    97249436.59446
  22309500.820   117237473.09109  22309497.180    91353969.26147
  22191263.160   116615921.76509  22191258.680    90869554.74948
  21751163.740   114303165.94709  21751163.380    89067418.12148
 15 03 05 00 30 30.0000000  0  6G16G18G19G21G22G27
  20667247.960   108607134.46809  20667244.600    84628942.94748
  21745905.960   114275561.89209  21745902.980    89045905.95447
  23734934.080   124727933.80908  23734930.360    97190584.40946
  22321465.340   117300347.02509  22321461.700    91402961.93447
  22176178.780   116536652.96109  22176174.320    90807786.88048
  21740914.020   114249303.64409  21740913.700    89025447.51848
 15 03 05 00 31  0.0000000  0  6G16G18G19G21G22G27
  20661166.860   108575178.26909  20661163.560    84604042.01348
  21742155.980   114255855.86909  21742153.040    89030550.61947
  23720575.440   124652479.96308  23720571.820    97131789.25046
  22333459.420   117363376.52008  22333455.780    91452075.81747
  22161149.460   116457673.39609  22161145.000    90746244.38047
  21730688.880   114195570.28309  21730688.520    88983577.38148
 15 03 05 00 31 30.0000000  0  6G16G18G19G21G22G27
  20655176.680   108543699.94709  20655173.460    84579513.45248
  21738495.960   114236622.54409  21738493.120    89015563.62747
  23706229.040   124577089.17208  23706225.520    97073043.21646
  22345480.940   117426550.08409  22345477.300    91501301.96747
  22146173.540   116378974.61809  22146169.140    90684920.67948
  21720486.360   114141955.75509  21720485.960    88941799.84748
 15 03 05 00 32  0.0000000  0  6G16G18G19G21G22G27
  20649279.680   108512711.26809  20649276.520    84555366.42648
  21734927.900   114217872.33309  21734925.100    89000953.08148
  23691896.400   124501771.13408  23691892.740    97014353.85246
  22357531.460   117489875.85508  22357527.780    91550646.71547
  22131253.460   116300569.07109  22131249.040    90623825.46448
  21710308.500   114088470.70809  21710308.060    88900123.20848
 15 03 05 00 32 30.0000000  0  6G16G18G19G21G22G27
  20643475.420   108482209.80209  20643472.300    84531599.05248
  21731451.200   114199602.00209  21731448.440    88986716.46648
  23677576.940   124426522.03208  23677573.520    96955718.24446
  22369609.880   117553348.24109  22369606.180    91600105.70947
  22116388.840   116222454.97109  22116384.380    90562957.35748
  21700154.580   114035111.50609  21700154.120    88858544.62148
 15 03 05 00 33  0.0000000  0  6G16G18G19G21G22G27
  20637764.160   108452196.79909  20637760.980    84508212.29448
  21728066.040   114181812.70309  21728063.260    88972854.68947
  23663270.720   124351341.84208  23663266.920    96897136.27746
  22381715.800   117616965.10109  22381712.100    91649677.28347
  22101580.220   116144635.17609  22101575.760    90502318.58547
  21690024.660   113981878.38609  21690024.160    88817064.28048
 15 03 05 00 33 30.0000000  0  6G16G18G19G21G22G27
  20632146.700   108422676.81909  20632143.520    84485209.71248
  21724773.000   114164507.54309  21724770.160    88959370.16948
  23648977.960   124276233.90608  23648974.560    96838610.68747
  22393849.480   117680727.81208  22393845.700    91699362.50847
  22086828.700   116067115.34209  22086824.220    90441913.54648
  21679919.380   113928774.79909  21679918.860    88775684.87448
 15 03 05 00 34  0.0000000  0  6G16G18G19G21G22G27
  20626622.860   108393648.82809  20626619.680    84462590.50048
  21721571.880   114147685.42509  21721569.000    88946262.03348
  23634698.640   124201195.49108  23634694.760    96780139.19545
  22406010.040   117744632.02308  22406006.260    91749157.98947
  22072134.120   115989894.83709  22072129.600    90381741.75248
  21669838.360   113875798.62709  21669837.840    88734404.76248
 15 03 05 00 34 30.0000000  0  6G16G18G19G21G22G27
  20621193.160   108365115.35709  20621189.920    84440356.62148
  21718462.860   114131347.49409  21718460.000    88933531.19048
  23620432.780   124126228.00908  23620429.280    96721723.00847
  22418197.500   117808677.62409  22418193.740    91799063.64147
  22057497.160   115912977.23509  22057492.680    90321805.98548
  21659781.920   113822951.40409  21659781.320    88693225.12348
 15 03 05 00 35  0.0000000  0  6G16G18G19G21G22G27
  20615858.200   108337079.73809  20615854.920    84418510.67948
  21715446.500   114115496.55709  21715443.660    88921179.82348
  23606180.640   124051333.24108  23606176.980    96663363.48146
  22430411.900   117872864.65309  22430408.200    91849079.49247
  22042918.680   115836366.75309  22042914.160    90262109.53048
  21649750.460   113770235.40109  21649749.780    88652147.72548
 15 03 05 00 35 30.0000000  0  6G16G18G19G21G22G27
  20610617.120   108309537.42909  20610613.780    84397049.13048
  21712521.840   114100127.27309  21712518.960    88909203.76448
  23591941.480   123976505.23308  23591938.060    96605055.95647
  22442651.720   117937185.31509  22442648.060    91899199.47847
  22028397.980   115760060.06709  22028393.440    90202649.80248
  21639742.940   113717645.11509  21639742.160    88611168.30548
 15 03 05 00 36  0.0000000  0  6G16G18G19G21G22G27
  20605471.980   108282499.40209  20605468.620    84375980.52948
  21709690.740   114085249.65009  21709687.800    88897610.82348
  23577716.680   123901753.72508  23577712.840    96546808.03446
  22454918.480   118001647.54408  22454914.820    91949429.77747
  22013937.380   115684069.01409  22013932.800    90143436.02348
  21629761.220   113665190.50809  21629760.380    88570294.59048
 15 03 05 00 36 30.0000000  0  6G16G18G19G21G22G27
  20600421.200   108255957.14009  20600417.800    84355298.23948
  21706951.500   114070854.74409  21706948.480    88886394.02147
  23563504.700   123827069.36608  23563501.220    96488612.49146
  22467209.940   118066239.61909  22467206.360    91999761.25547
  21999535.460   115608386.43009  21999530.900    90084462.60748
  21619803.540   113612862.34409  21619802.660    88529519.40848
 15 03 05 00 37  0.0000000  0  6G16G18G19G21G22G27
  20595466.200   108229918.14209  20595462.780    84335008.10148
  21704305.320   114056948.93509  21704302.260    88875558.33448
  23549306.700   123752457.74208  23549302.820    96430473.51646
  22479526.960   118130966.11408  22479523.440    92050197.47247
  21985193.740   115533020.37909  21985189.200    90025735.83548
  21609871.080   113560666.99309  21609870.160    88488847.70848
 15 03 05 00 37 30.0000000  0  6G16G18G19G21G22G27
  20590607.360   108204384.64209  20590603.940    84315111.85548
  21701752.480   114043533.74109  21701749.400    88865104.94247
  23535122.620   123677919.62208  23535119.020    96372391.93046
  22491869.540   118195826.65708  22491866.020    92100738.14747
  21970912.940   115457974.30809  21970908.440    89967258.40648
  21599964.080   113508605.71109  21599963.200    88448280.49248
 15 03 05 00 38  0.0000000  0  6G16G18G19G21G22G27
  20585844.580   108179355.79909  20585841.100    84295608.84248
  21699292.540   114030606.67709  21699289.480    88855031.91848
  23520952.080   123603453.05808  23520948.260    96314366.04646
  22504236.720   118260816.24808  22504233.140    92151379.37747
  21956693.020   115383248.20109  21956688.440    89909030.28448
  21590082.240   113456676.49609  21590081.380    88407816.18148
 15 03 05 00 38 30.0000000  0  6G16G18G19G21G22G27
  20581178.280   108154834.11409  20581174.800    84276501.02948
  21696926.040   114018170.54409  21696922.980    88845341.44948
  23506795.380   123529059.48908  23506791.740    96256397.06046
  22516628.500   118325935.39408  22516624.860    92202121.56347
  21942534.680   115308845.64509  21942530.080    89851054.28848
  21580225.940   113404881.34309  21580225.100    88367456.35248
