     2.11           OBSERVATION DATA    M                   RINEX VERSION / TYPE
SPIDER V4,0,0,3554                      2015 03 24 00:07    PGM / RUN BY / DATE 
CBCK                                                        MARKER NAME         
CBCK                                                        MARKER NUMBER       
                                                            OBSERVER / AGENCY   
496514              LEICA GRX1200+GNSS  8.10/4.007          REC # / TYPE / VERS 
10301041            LEIAR25         NONE                    ANT # / TYPE        
  5163537.3641   764112.0288  3655122.6807                  APPROX POSITION XYZ 
        0.0720        0.0000        0.0000                  ANTENNA: DELTA H/E/N
     1     1                                                WAVELENGTH FACT L1/2
     4    C1    L1    P2    L2                              # / TYPES OF OBSERV 
    30.000                                                  INTERVAL            
  2015    03    05    00    00    0.0000000     GPS         TIME OF FIRST OBS   
  2015    03    05    23    59   30.0000000     GPS         TIME OF LAST OBS    
    16                                                      LEAP SECONDS        
    38                                                      # OF SATELLITES     
   G 1   798   786   793   786                              PRN / # OF OBS      
   G 2   904   852   880   849                              PRN / # OF OBS      
   G 3   833   798   814   796                              PRN / # OF OBS      
   G 4   833   822   828   822                              PRN / # OF OBS      
   G 5   602   527   556   525                              PRN / # OF OBS      
   G 6   815   774   800   774                              PRN / # OF OBS      
   G 7   621   561   588   557                              PRN / # OF OBS      
   G 9   786   730   760   730                              PRN / # OF OBS      
   G10   662   584   612   575                              PRN / # OF OBS      
   G11   766   756   762   756                              PRN / # OF OBS      
   G12   788   713   753   711                              PRN / # OF OBS      
   G13   678   552   615   549                              PRN / # OF OBS      
   G14   474   474   473   473                              PRN / # OF OBS      
   G15   577   470   523   462                              PRN / # OF OBS      
   G16   661   661   661   661                              PRN / # OF OBS      
   G17   888   788   840   786                              PRN / # OF OBS      
   G18   865   806   836   802                              PRN / # OF OBS      
   G19   748   748   748   748                              PRN / # OF OBS      
   G20   690   611   639   604                              PRN / # OF OBS      
   G21   728   702   704   698                              PRN / # OF OBS      
   G22   673   671   672   671                              PRN / # OF OBS      
   G23   742   706   724   706                              PRN / # OF OBS      
   G24   755   670   711   666                              PRN / # OF OBS      
   G25   837   804   820   802                              PRN / # OF OBS      
   G27   802   802   802   802                              PRN / # OF OBS      
   G28   773   696   733   692                              PRN / # OF OBS      
   G29   761   756   755   752                              PRN / # OF OBS      
   G30   656   574   615   571                              PRN / # OF OBS      
   G31   873   866   871   865                              PRN / # OF OBS      
   G32   775   764   769   764                              PRN / # OF OBS      
   R 2    30    30    30    30                              PRN / # OF OBS      
   R 3    30    30    30    30                              PRN / # OF OBS      
   R 9    30    30    30    30                              PRN / # OF OBS      
   R15    30    30    30    30                              PRN / # OF OBS      
   R16    30    30    30    30                              PRN / # OF OBS      
   R17    30    30    30    30                              PRN / # OF OBS      
   R18    30    30    30    30                              PRN / # OF OBS      
   R19    30    30    30    30                              PRN / # OF OBS      
BIT 2 OF LLI FLAGS DATA COLLECTED UNDER A/S CONDITION       COMMENT             
SNR is mapped to RINEX snr flag value [2-9]                 COMMENT             
Lx:     = 25dBHz -> 1; 26-27dBHz -> 2; 28-31dBHz -> 3       COMMENT             
       32-35dBHz -> 4; 36-38dBHz -> 5; 39-41dBHz -> 6       COMMENT             
       42-44dBHz -> 7; 45-48dBHz -> 8; >=49dBHz -> 9        COMMENT             
                                                            END OF HEADER       
 15 03 05 00 00  0.0000000  0 15G16G18G21G22G27G29G31R02R03R09R15R16
                                R17R18R19
  21347314.320   112180915.85309  21347311.100    87413689.73748
  21921003.640   115195709.15109  21921001.080    89762899.45147
  21557525.580   113285852.09409  21557522.000    88274789.13248
  23067564.880   121220896.49309  23067560.940    94457833.12747
  22666903.800   119115416.68809  22666903.740    92817208.07947
  24253950.360   127455713.07708  24253948.740    99316280.07645
  23772017.320   124922799.61208  23772015.520    97342444.62646
  22167294.560   118288943.32409  22167297.260    92002528.65307
  22044910.120   118008143.96808  22044910.720    91784122.40107
  21951987.760   117222391.11408  21951988.560    91172983.41304
  22468523.160   120064983.15408  22468527.960    93383896.99607
  20067011.600   107194383.97008  20067014.160    83373420.48008
  22239154.840   119006594.25608  22239155.600    92560875.27607
  20165650.600   107645714.29709  20165653.340    83724501.02808
  22244859.520   118995014.65908  22244859.880    92551695.77407
 15 03 05 00 00 30.0000000  0 15G16G18G21G22G27G29G31R02R03R09R15R16
                                R17R18R19
  21335655.140   112119646.50609  21335651.960    87365947.40448
  21912187.980   115149382.59009  21912185.380    89726800.85047
  21566646.880   113333785.01709  21566643.320    88312139.47048
  23049896.060   121128046.46909  23049892.140    94385482.52247
  22654647.940   119051011.30209  22654647.660    92767022.10947
  24267793.280   127528458.46208  24267791.500    99372964.79644
  23789737.440   125015920.20708  23789735.760    97415006.08846
  22168169.760   118293613.85309  22168172.420    92006161.31907
  22027976.640   117917497.88208  22027977.280    91713619.92607
  21937917.040   117147254.54808  21937917.820    91114543.87504
  22492828.740   120194864.66308  22492833.520    93484915.88907
  20073791.480   107230600.69908  20073794.060    83401589.02608
  22252288.420   119076874.67908  22252289.140    92615537.83007
  20168297.560   107659843.93309  20168300.320    83735490.74908
  22233690.820   118935270.00908  22233691.340    92505227.75807
 15 03 05 00 01  0.0000000  0 15G16G18G21G22G27G29G31R02R03R09R15R16
                                R17R18R19
  21324065.980   112058745.12009  21324062.860    87318491.78248
  21903449.020   115103458.82209  21903446.380    89691016.11847
  21575814.100   113381959.20409  21575810.600    88349677.79448
  23032252.960   121035331.61809  23032249.080    94313237.23347
  22642407.500   118986687.08809  22642407.060    92716899.38647
  24281645.480   127601252.67708  24281643.560    99429687.56544
  23807466.840   125109089.69208  23807465.300    97487605.63846
  22169185.540   118299034.15109  22169188.160    92010377.13107
  22011119.280   117827259.07908  22011119.900    91643434.21607
  21923966.380   117072759.26108  21923967.300    91056603.13104
  22517165.860   120324914.40508  22517170.580    93586065.61507
  20080721.660   107267620.36408  20080724.200    83430382.08708
  22265424.040   119147166.13408  22265424.700    92670208.95707
  20170978.680   107674155.80009  20170981.500    83746622.21008
  22222551.960   118875684.83608  22222552.460    92458883.76607
 15 03 05 00 01 30.0000000  0 15G16G18G21G22G27G29G31R02R03R09R15R16
                                R17R18R19
  21312546.760   111998211.44409  21312543.760    87271322.69848
  21894786.600   115057936.83309  21894783.800    89655544.45547
  21585026.520   113430370.84009  21585023.120    88387401.15048
  23014635.600   120942752.20009  23014631.820    94241097.48647
  22630182.040   118922441.83309  22630181.520    92666838.17947
  24295506.460   127674093.08307  24295504.640    99486446.33045
  23825204.540   125202302.39708  23825203.120    97560238.86146
  22170341.440   118305202.11809  22170343.980    92015174.46307
  21994338.260   117737429.21108  21994338.900    91573566.56607
  21910135.940   116998906.03308  21910136.900    90999161.74604
  22541533.220   120455125.71008  22541537.920    93687341.01307
  20087801.200   107305438.19408  20087803.820    83459795.92708
  22278561.040   119217465.49308  22278561.800    92724886.22607
  20173693.240   107688646.34309  20173696.040    83757892.63808
  22211442.340   118816255.84708  22211442.760    92412661.24407
 15 03 05 00 02  0.0000000  0 15G16G18G21G22G27G29G31R02R03R09R15R16
                                R17R18R19
  21301098.760   111938051.95009  21301095.780    87224445.17748
  21886201.860   115012822.92609  21886198.860    89620390.77648
  21594284.540   113479021.94809  21594281.200    88425311.10748
  22997045.360   120850315.06209  22997041.540    94169068.59347
  22617972.320   118858279.82309  22617971.920    92616841.84648
  24309376.980   127746984.12207  24309375.380    99543244.52545
  23842950.780   125295559.43108  23842949.420    97632906.62646
  22171638.180   118312122.07809  22171640.780    92020556.68307
  21977635.200   117648016.79508  21977635.860    91504023.60507
  21896427.180   116925701.87508  21896428.160    90942225.19604
  22565930.680   120585498.20008  22565935.460    93788741.76307
  20095030.560   107344056.27108  20095033.200    83489832.19008
  22291700.360   119287776.99608  22291701.160    92779572.94207
  20176441.920   107703318.62109  20176444.580    83769304.42208
  22200362.560   118756986.48408  22200362.900    92366562.88407
 15 03 05 00 02 30.0000000  0 15G16G18G21G22G27G29G31R02R03R09R15R16
                                R17R18R19
  21289721.720   111878265.17809  21289718.720    87177858.08648
  21877694.320   114968114.84509  21877691.140    89585553.33047
  21603587.160   113527907.52209  21603583.860    88463403.76648
  22979481.980   120758019.29009  22979478.160    94097149.86847
  22605777.760   118794197.62109  22605777.560    92566907.70647
  24323256.480   127819921.62108  24323255.080    99600078.91145
  23860704.280   125388854.40708  23860702.980    97705603.95046
  22173075.140   118319790.72209  22173077.940    92026521.21408
  21961010.340   117559022.71708  21961010.940    91434806.01407
  21882839.860   116853146.50708  21882840.900    90885793.27204
  22590356.600   120716023.00408  22590361.520    93890260.98307
  20102408.740   107383468.88808  20102411.280    83520486.44408
  22304841.240   119358096.41108  22304842.060    92834265.81007
  20179223.820   107718168.13309  20179226.440    83780854.04908
  22189311.780   118697872.30008  22189312.180    92320585.23707
 15 03 05 00 03  0.0000000  0 15G16G18G21G22G27G29G31R02R03R09R15R16
                                R17R18R19
  21278415.660   111818851.48109  21278412.660    87131561.71948
  21869263.980   114923812.94609  21869260.720    89551032.39947
  21612933.660   113577023.84809  21612930.360    88501676.24448
  22961945.680   120665866.05009  22961941.840    94025342.20247
  22593598.200   118730193.89809  22593598.140    92517034.71647
  24337144.720   127892904.61708  24337143.520    99656948.78346
  23878464.220   125482182.75908  23878462.820    97778327.30146
  22174652.120   118328206.65709  22174655.120    92033066.96008
  21944464.180   117470449.85908  21944464.660    91365916.05507
  21869374.240   116781241.25108  21869375.480    90829866.99704
  22614810.060   120846695.10808  22614815.140    93991894.77207
  20109934.840   107423671.99208  20109937.420    83551755.51308
  22317983.380   119428422.03408  22317984.080    92888963.52307
  20182038.280   107733192.29609  20182040.820    83792539.52108
  22178289.660   118638911.24808  22178290.060    92274726.68707
 15 03 05 00 03 30.0000000  0 15G16G18G21G22G27G29G31R02R03R09R15R16
                                R17R18R19
  21267182.460   111759820.72509  21267179.560    87085563.72348
  21860912.640   114879926.54509  21860909.320    89516835.21147
  21622325.300   113626377.33809  21622321.980    88540133.50148
  22944438.380   120573865.15809  22944434.540    93953653.25347
  22581434.980   118666276.12709  22581434.960    92467228.69547
  24351043.060   127965940.18808  24351041.860    99713859.60146
  23896231.340   125575548.74808  23896229.880    97851079.94846
  22176370.660   118337377.47009  22176373.700    92040199.83607
  21927998.820   117382309.71508  21927999.240    91297362.63807
  21856032.380   116709996.55408  21856033.660    90774454.45005
  22639291.800   120977517.81508  22639296.880    94093645.67507
  20117609.900   107464670.71608  20117612.460    83583643.38408
  22331127.860   119498760.68608  22331128.560    92943671.34307
  20184886.680   107748397.41109  20184889.100    83804365.73308
  22167297.360   118580110.06208  22167297.740    92228992.46007
 15 03 05 00 04  0.0000000  0 15G16G18G21G22G27G29G31R02R03R09R15R16
                                R17R18R19
  21256021.660   111701170.53809  21256018.800    87039862.29148
  21852639.740   114836452.38009  21852636.460    89482959.25948
  21631760.880   113675961.36209  21631757.540    88578770.40548
  22926959.760   120482014.74509  22926955.980    93882081.55847
  22569287.300   118602440.06309  22569287.340    92417486.35347
  24364950.560   128039023.91908  24364949.360    99770807.93846
  23914004.180   125668945.12508  23914002.680    97923856.27446
  22178229.860   118347298.63209  22178232.880    92047916.32207
  21911614.180   117294602.05908  21911614.720    91229145.60408
  21842813.940   116639411.00108  21842815.300    90719554.61504
  22663800.060   121108481.67308  22663804.980    94195506.38607
  20125432.740   107506458.52809  20125435.240    83616144.98608
  22344273.920   119569107.93308  22344274.680    92998385.84707
  20187768.040   107763778.03409  20187770.360    83816328.46208
  22156334.020   118521463.63608  22156334.320    92183378.61107
 15 03 05 00 04 30.0000000  0 15G16G18G21G22G27G29G31R02R03R09R15R16
                                R17R18R19
  21244933.440   111642901.80609  21244930.600    86994458.09048
  21844445.480   114793391.36909  21844442.260    89449405.24947
  21641239.660   113725772.27709  21641236.220    88617584.11548
  22909510.120   120390316.18909  22909506.320    93810628.19747
  22557154.940   118538684.55409  22557154.980    92367806.77748
  24378867.080   128112154.97608  24378865.820    99827793.16547
  23931781.980   125762367.50808  23931780.400    97996652.87546
  22180229.480   118357968.90009  22180232.480    92056215.43807
  21895310.980   117207330.23508  21895311.660    91161267.56408
  21829719.180   116569485.94808  21829720.360    90665168.47904
  22688333.620   121239580.62608  22688338.440    94297472.17907
  20133402.500   107549031.18409  20133405.020    83649257.01908
  22357421.320   119639461.84508  22357421.940    93053105.55007
  20190681.840   107779331.85109  20190684.180    83828425.89208
  22145399.140   118462969.58108  22145399.440    92137883.26807
 15 03 05 00 05  0.0000000  0 15G16G18G21G22G27G29G31R02R03R09R15R16
                                R17R18R19
  21233918.880   111585019.83909  21233916.060    86949355.27448
  21836330.680   114750748.00909  21836327.560    89416176.67747
  21650761.900   113775811.65509  21650758.380    88656575.84548
  22892090.520   120298775.21109  22892086.660    93739297.61647
  22545038.620   118475013.00709  22545038.600    92318192.62947
  24392793.080   128185336.13808  24392791.820    99884817.44047
  23949564.780   125855816.22208  23949563.160    98069469.99546
  22182370.220   118369391.83409  22182373.140    92065099.97408
  21879090.640   117120501.49008  21879091.320    91093734.13308
  21816749.340   116500227.82708  21816750.260    90611301.08104
  22712892.460   121370814.98208  22712897.240    94399543.27207
  20141519.400   107592389.81909  20141521.940    83682980.37508
  22370570.480   119709825.22508  22370571.060    93107832.63407
  20193628.440   107795061.01309  20193630.960    83840659.69908
  22134493.220   118404630.51708  22134493.520    92092508.49407
 15 03 05 00 05 30.0000000  0 15G16G18G21G22G27G29G31R02R03R09R15R16
                                R17R18R19
  21222978.320   111527526.40909  21222975.460    86904555.20248
  21828295.660   114708524.00909  21828292.620    89383274.87048
  21660327.260   113826077.72809  21660323.640    88695744.21148
  22874701.280   120207394.14609  22874697.400    93668091.63647
  22532938.260   118411425.33908  22532938.200    92268643.83047
  24406728.560   128258567.45008  24406727.340    99941880.78946
  23967351.860   125949287.88308  23967350.280    98142304.99046
  22184651.800   118381566.76109  22184654.740    92074569.37607
  21862953.800   117034119.61808  21862954.380    91026548.26607
  21803904.900   116431639.07108  21803905.640    90557954.28204
  22737475.380   121502178.53808  22737480.240    94501714.85506
  20149782.900   107636531.56608  20149785.400    83717312.79908
  22383721.340   119780197.78508  22383721.880    93162566.84607
  20196607.640   107810964.44309  20196610.220    83853029.04408
  22123616.120   118346445.47308  22123616.360    92047253.48107
 15 03 05 00 06  0.0000000  0 15G16G18G21G22G27G29G31R02R03R09R15R16
                                R17R18R19
  21212111.900   111470422.53509  21212108.940    86860058.68148
  21820340.440   114666719.51609  21820337.500    89350699.96548
  21669935.120   113876567.36709  21669931.460    88735086.78348
  22857342.740   120116174.37909  22857338.760    93597011.35747
  22520853.700   118347920.46309  22520853.540    92219159.54247
  24420673.280   128331847.50108  24420672.000    99998982.11146
  23985142.420   126042778.13208  23985140.780    98215154.46346
  22187074.060   118394492.28709  22187077.000    92084622.57507
  21846900.940   116948187.81108  21846901.580    90959712.44307
  21791186.120   116363721.35908  21791186.940    90505129.40904
  22762081.700   121633667.30808  22762086.660    94603983.83506
  20158192.180   107681452.33908  20158194.680    83752251.14308
  22396873.480   119850577.73108  22396874.040    93217306.79007
  20199619.080   107827039.79709  20199621.540    83865532.12408
  22112767.520   118288412.66908  22112767.640    92002116.88407
 15 03 05 00 06 30.0000000  0 15G16G18G21G22G27G29G31R02R03R09R15R16
                                R17R18R19
  21201320.100   111413711.12509  21201317.100    86815867.97648
  21812465.560   114625336.89509  21812462.700    89318453.78947
  21679585.360   113927279.82909  21679581.680    88774602.99748
  22840015.580   120025119.39109  22840011.440    93526059.46047
  22508785.060   118284499.42908  22508784.900    92169740.59347
  24434627.380   128405176.86508  24434626.120   100056121.85946
  24002936.140   126136285.06908  24002934.540    98288016.94846
  22189637.160   118408169.29809  22189640.060    92095260.26507
  21830933.120   116862711.26708  21830933.800    90893230.71207
  21778593.620   116296478.27008  21778594.520    90452829.25304
  22786710.620   121765277.11507  22786715.760    94706346.93306
  20166747.020   107727150.87108  20166749.540    83787794.40408
  22410027.140   119920965.94308  22410027.680    93272053.16407
  20202662.740   107843286.98909  20202665.240    83878168.85208
  22101947.400   118230532.05808  22101947.380    91957098.67307
 15 03 05 00 07  0.0000000  0 15G16G18G21G22G27G29G31R02R03R09R15R16
                                R17R18R19
  21190603.460   111357394.82209  21190600.400    86771985.14748
  21804671.400   114584378.22409  21804668.540    89286537.96347
  21689277.740   113978213.57109  21689274.080    88814291.63648
  22822720.420   119934232.60909  22822716.160    93455238.64247
  22496732.520   118221162.93809  22496732.320    92120387.50847
  24448591.020   128478556.41708  24448589.780   100113300.71846
  24020732.660   126229806.26108  24020731.140    98360890.52446
  22192341.200   118422598.08609  22192343.900    92106482.68207
  21815051.180   116777694.63308  21815051.920    90827106.70308
  21766128.140   116229913.29108  21766129.060    90401056.51704
  22811361.320   121897002.80308  22811366.520    94808800.16506
  20175447.000   107773624.78708  20175449.600    83823940.75608
  22423182.400   119991362.48508  22423182.960    93326806.01107
  20205738.480   107859705.56209  20205741.080    83890938.87008
  22091155.580   118172803.39708  22091155.560    91912198.65807
 15 03 05 00 07 30.0000000  0 15G16G18G21G22G27G29G31R02R03R09R15R16
                                R17R18R19
  21179962.240   111301475.15709  21179959.160    86728411.37848
  21796958.120   114543844.78509  21796955.220    89254953.48647
  21699011.740   114029366.24409  21699008.140    88854150.85948
  22805457.620   119843515.80409  22805453.240    93384550.25847
  22484696.000   118157910.70909  22484695.800    92071100.08947
  24462564.020   128551985.48007  24462562.840   100170518.15146
  24038531.260   126323337.99408  24038529.720    98433772.32646
  22195186.000   118437777.85909  22195188.560    92118289.18507
  21799255.960   116693141.36208  21799256.620    90761343.08707
  21753790.220   116164028.73908  21753791.060    90349812.98105
  22836033.040   122028840.82608  22836038.260    94911340.76206
  20184291.560   107820870.88708  20184294.200    83860687.69808
  22436339.080   120061766.70608  22436339.760    93381564.83507
  20208846.040   107876294.01409  20208848.560    83903841.01508
  22080391.860   118115225.57208  22080391.980    91867415.94807
 15 03 05 00 08  0.0000000  0 15G16G18G21G22G27G29G31R02R03R09R15R16
                                R17R18R19
  21169396.960   111245954.44609  21169393.860    86685148.49848
  21789326.040   114503738.04109  21789323.020    89223701.49747
  21708787.060   114080736.21009  21708783.540    88894179.40648
  22788227.660   119752971.66709  22788223.220    93313996.43147
  22472675.580   118094743.11208  22472675.460    92021878.63047
  24476546.440   128625464.30207  24476545.320   100227774.36445
  24056331.380   126416877.34708  24056329.780    98506660.08746
  22198171.520   118453708.84309  22198173.920    92130679.96907
  21783548.220   116609056.28708  21783548.760    90695943.61907
  21741580.160   116098827.15808  21741580.900    90299100.66504
  22860725.040   122160786.92508  22860730.200    95013965.44006
  20193280.180   107868886.54908  20193282.860    83898033.19108
  22449497.160   120132178.31708  22449497.920    93436329.41707
  20211985.200   107893051.51109  20211987.760    83916874.64608
  22069656.140   118057797.81608  22069656.500    91822749.95207
 15 03 05 00 08 30.0000000  0 15G16G18G21G22G27G29G31R02R03R09R15R16
                                R17R18R19
  21158907.980   111190834.28209  21158904.800    86642197.73348
  21781775.480   114464059.35509  21781772.340    89192783.05448
  21718603.260   114132321.15708  21718599.820    88934375.46548
  22771030.920   119662602.34609  22771026.460    93243578.81847
  22460671.180   118031659.85908  22460671.100    91972722.88347
  24490538.260   128698992.61207  24490537.140   100285069.13045
  24074132.400   126510421.56008  24074130.880    98579551.61047
  22201297.600   118470390.00809  22201299.920    92143654.24507
  21767928.540   116525442.83908  21767929.020    90630910.96907
  21729498.420   116034311.23108  21729499.160    90248921.62305
  22885436.340   122292836.07208  22885441.420    95116670.26706
  20202412.260   107917668.72909  20202415.040    83935974.86108
  22462656.540   120202596.75908  22462657.300    93491099.29707
  20215155.860   107909976.83509  20215158.360    83930038.80308
  22058948.340   118000519.04208  22058948.820    91778199.84607
 15 03 05 00 09  0.0000000  0 15G16G18G21G22G27G29G31R02R03R09R15R16
                                R17R18R19
  21148495.920   111136118.43709  21148492.700    86599562.02048
  21774306.960   114424811.79909  21774303.760    89162200.56847
  21728460.380   114184120.99609  21728456.980    88974738.97548
  22753868.240   119572412.42909  22753863.860    93173301.01247
  22448683.240   117968662.97709  22448683.080    91923634.43447
  24504539.820   128772571.95207  24504538.520   100342403.64245
  24091934.000   126603968.93008  24091932.500    98652445.59246
  22204564.420   118487822.94009  22204566.860    92157213.20508
  21752398.040   116442306.85108  21752398.460    90566249.67008
  21717545.840   115970485.12108  21717546.640    90199279.10905
  22910166.520   122424985.97508  22910171.560    95219453.45906
  20211687.780   107967216.58008  20211690.500    83974512.06308
  22475817.600   120273023.59108  22475818.220    93545875.70807
  20218358.140   107927070.70309  20218360.620    83943334.05008
  22048268.660   117943390.36208  22048269.000    91733766.46807
 15 03 05 00 09 30.0000000  0 15G16G18G21G22G27G29G31R02R03R09R15R16
                                R17R18R19
  21138161.120   111081808.66309  21138157.900    86557242.73448
  21766920.660   114385996.36209  21766917.500    89131954.78948
  21738358.020   114236133.73109  21738354.640    89015268.37948
  22736740.080   119482403.75309  22736735.760    93103164.41647
  22436711.660   117905752.17309  22436711.380    91874613.06147
  24518551.100   128846201.62807  24518549.880   100399777.41844
  24109735.520   126697516.42808  24109734.100    98725339.67746
  22207971.960   118506006.62909  22207974.500    92171356.10608
  21736957.500   116359652.44208  21736957.940    90501962.93308
  21705722.800   115907351.17108  21705723.720    90150174.93705
  22934914.540   122557231.48908  22934919.660    95322311.00406
  20221105.940   108017526.51308  20221108.600    84013641.99908
  22488980.020   120343457.99308  22488980.580    93600658.00807
  20221591.680   107944331.77609  20221594.120    83956759.33708
  22037616.880   117886410.47008  22037617.200    91689448.80407
 15 03 05 00 10  0.0000000  0 15G16G18G21G22G27G29G31R02R03R09R15R16
                                R17R18R19
  21127903.480   111027904.85509  21127900.340    86515239.77348
  21759616.300   114347612.01509  21759613.280    89102044.92447
  21748295.460   114288355.44109  21748292.140    89055960.61548
  22719646.440   119392576.50509  22719642.120    93033169.20747
  22424756.120   117842925.32609  22424755.700    91825657.09947
  24532571.660   128919879.54308  24532570.020   100457188.78844
  24127535.960   126791058.22408  24127534.640    98798229.29946
  22211519.700   118524938.39709  22211522.320    92186080.83008
  21721607.080   116277480.71508  21721607.540    90438051.61708
  21694029.360   115844909.37708  21694030.320    90101609.09905
  22959679.180   122689565.73907  22959684.420    95425237.55707
  20230665.700   108068593.11208  20230668.340    84053360.44208
  22502143.340   120413897.39208  22502143.940    93655444.18907
  20224856.040   107961756.67309  20224858.380    83970312.04508
  22026992.320   117829576.31908  22026992.700    91645244.50107
 15 03 05 00 10 30.0000000  0 15G16G18G21G22G27G29G31R02R03R09R15R16
                                R17R18R19
  21117723.760   110974410.41809  21117720.680    86473555.80248
  21752394.600   114309662.44209  21752391.740    89072473.85548
  21758272.600   114340785.66109  21758269.240    89096815.32948
  22702588.220   119302935.08309  22702583.920    92963318.79947
  22412816.900   117780184.29809  22412816.500    91776768.01448
  24546601.860   128993607.52808  24546599.920   100514639.20144
  24145335.160   126884593.44908  24145333.920    98871113.81646
  22215207.760   118544619.04809  22215210.540    92201388.01408
  21706347.980   116195798.02108  21706348.540    90374520.65508
  21682466.400   115783164.21408  21682467.500    90053585.11005
  22984459.960   122821986.43808  22984465.300    95528231.34807
  20240366.980   108120415.42208  20240369.560    84093666.67208
  22515307.860   120484343.27008  22515308.360    93710235.41207
  20228151.220   107979346.21009  20228153.600    83983992.81308
  22016395.260   117772888.91008  22016395.680    91601154.33807
 15 03 05 00 11  0.0000000  0 14G16G18G21G22G27G31R02R03R09R15R16R17
                                R18R19
  21107629.400   110921364.52609  21107626.400    86432221.35448
  21745262.880   114272185.49209  21745260.040    89043271.05447
  21768295.980   114393458.74409  21768292.540    89137859.29448
  22685572.920   119213519.10909  22685568.580    92893644.05947
  22400901.140   117717566.43109  22400900.900    91727974.91148
  24163139.540   126978155.87708  24163138.260    98944019.53446
  22219043.280   118565086.16309  22219046.040    92217306.90207
  21691188.160   116114646.26208  21691188.780    90311402.64708
  21671041.320   115722155.80808  21671042.480    90006134.14004
  23009263.200   122954527.16807  23009268.580    95631318.49306
  20250216.200   108173028.11508  20250218.800    84134587.63508
  22528480.540   120554833.07808  22528480.920    93765060.80607
  20231483.920   107997137.04809  20231486.580    83997830.14608
  22005832.520   117716385.08508  22005833.000    91557206.97007
 15 03 05 00 11 30.0000000  0 14G16G18G21G22G27G31R02R03R09R15R16R17
                                R18R19
  21097606.020   110868691.44809  21097603.060    86391177.41948
  21738206.660   114235105.13909  21738203.860    89014377.29947
  21778350.680   114446296.39109  21778347.180    89179031.48948
  22668586.240   119124253.51909  22668581.860    92824086.50247
  22388994.100   117654994.24509  22388993.880    91679217.39748
  24180933.760   127071664.95608  24180932.540    99016883.67346
  22223011.240   118586260.17409  22223013.980    92233775.59107
  21676113.440   116033949.96608  21676114.040    90248638.88908
  21659739.920   115661807.61108  21659741.160    89959196.67005
  23034073.240   123087104.21608  23034078.620    95734433.88306
  20260197.980   108226348.96008  20260200.620    84176059.38108
  22541646.580   120625287.52208  22541646.880    93819858.70907
  20234839.360   108015049.60009  20234842.060    84011762.14308
  21995289.220   117659985.19108  21995289.660    91513340.43407
 15 03 05 00 12  0.0000000  0 14G16G18G21G22G27G31R02R03R09R15R16R17
                                R18R19
  21087663.080   110816440.82509  21087660.060    86350462.66248
  21731235.180   114198470.05909  21731232.420    88985830.49748
  21788445.380   114499344.21109  21788441.800    89220367.44948
  22651637.660   119035188.21909  22651633.280    92754685.01047
  22377104.880   117592515.50709  22377104.580    91630532.68848
  24198726.380   127165165.63908  24198725.180    99089741.26746
  22227120.580   118608188.78109  22227123.380    92250831.18707
  21661133.640   115953761.79808  21661134.220    90186270.32408
  21648571.680   115602170.73808  21648573.160    89912812.46704
  23058898.260   123219761.38008  23058903.600    95837611.56306
  20270320.940   108280423.56509  20270323.520    84218117.39708
  22554815.040   120695754.82808  22554815.500    93874666.58907
  20238226.560   108033131.02109  20238229.060    84025825.47708
  21984774.140   117603736.49108  21984774.500    91469591.49107
 15 03 05 00 12 30.0000000  0 14G16G18G21G22G27G31R02R03R09R15R16R17
                                R18R19
  21077800.020   110764609.77909  21077796.940    86310074.85748
  21724347.960   114162277.37109  21724345.120    88957628.42547
  21798578.860   114552595.80109  21798575.240    89261862.20448
  22634726.800   118946321.14709  22634722.400    92685437.98247
  22365232.520   117530125.65309  22365232.080    91581917.24848
  24216515.840   127258649.71208  24216514.560    99162585.92945
  22231370.280   118630866.42409  22231373.060    92268469.39107
  21646248.600   115874080.92808  21646249.120    90124296.34908
  21637536.360   115543242.57108  21637537.680    89866979.43805
  23083736.780   123352490.58507  23083741.960    95940845.31206
  20280583.460   108335243.85709  20280586.060    84260755.40108
  22567984.940   120766230.04108  22567985.640    93929480.64107
  20241644.380   108051375.69909  20241646.880    84040015.79708
  21974286.240   117547633.80408  21974286.600    91425956.12607
 15 03 05 00 13  0.0000000  0 14G16G18G21G22G27G31R02R03R09R15R16R17
                                R18R19
  21068016.920   110713198.90609  21068013.820    86270014.45048
  21717544.780   114126526.57109  21717541.960    88929770.67847
  21808750.360   114606046.96609  21808746.700    89303512.46248
  22617853.780   118857652.97309  22617849.400    92616345.93547
  22353376.720   117467823.20609  22353376.180    91533369.91948
  24234301.380   127352112.93008  24234299.960    99235414.33346
  22235760.000   118654290.73409  22235762.580    92286688.32007
  21631458.740   115794909.67608  21631459.220    90062718.74008
  21626633.900   115485023.72008  21626635.140    89821698.13805
  23108587.500   123485284.82208  23108592.500    96044129.62106
  20290984.660   108390804.85609  20290987.220    84303969.49908
  22581156.020   120836711.22008  22581156.860    93984299.32307
  20245092.260   108069780.98109  20245094.920    84054331.02408
  21963825.120   117491674.49708  21963825.540    91382432.26007
 15 03 05 00 13 30.0000000  0 14G16G18G21G22G27G31R02R03R09R15R16R17
                                R18R19
  21058314.800   110662213.72409  21058311.700    86230285.75748
  21710826.580   114091222.81509  21710823.860    88902261.27748
  21818960.260   114659700.00509  21818956.580    89345320.03048
  22601019.780   118769190.15809  22601015.520    92547413.91348
  22341538.280   117405612.17509  22341537.760    91484893.82448
  24252083.040   127445556.02108  24252081.660    99308227.06145
  22240290.180   118678464.55409  22240292.760    92305490.19507
  21616765.460   115716255.79408  21616765.940    90001543.53208
  21615865.560   115427520.46608  21615866.700    89776973.39405
  23133450.300   123618143.34208  23133455.240    96147463.93606
  20301524.720   108447107.42009  20301527.140    84347760.38808
  22594328.780   120907201.70208  22594329.640    94039125.24207
  20248570.760   108088349.90109  20248573.600    84068773.52808
  21953391.460   117435861.60608  21953391.840    91339022.28407
 15 03 05 00 14  0.0000000  0 15G16G18G19G21G22G27G31R02R03R09R15R16
                                R17R18R19
  21048693.200   110611651.88809  21048690.080    86190886.93048
  21704192.900   114056362.94309  21704190.200    88875097.75347
  24532388.500   128918565.26707  24532385.360   100456023.03645
  21829207.400   114713548.61709  21829203.620    89387279.98148
  22584224.520   118680931.07009  22584220.420    92478640.64247
  22329716.440   117343488.47009  22329715.960    91436485.76548
  24269859.460   127538971.54108  24269858.120    99381018.28245
  22244959.840   118703382.86709  22244962.600    92324871.10407
  21602168.720   115638118.89308  21602169.260    89940770.41208
  21605230.720   115370730.77108  21605231.800    89732803.63705
  23158323.640   123751058.36508  23158328.540    96250842.20006
  20312202.200   108504143.95509  20312204.520    84392122.12308
  22607502.500   120977697.15008  22607503.360    94093955.01607
  20252079.060   108107077.12509  20252081.780    84083339.14808
  21942984.240   117380190.07709  21942984.600    91295722.24707
 15 03 05 00 14 30.0000000  0 15G16G18G19G21G22G27G31R02R03R09R15R16
                                R17R18R19
  21039147.260   110561487.90809  21039144.100    86151798.13348
  21697638.720   114021920.76009  21697636.040    88848259.70748
  24517343.940   128839505.78607  24517340.620   100394418.32445
  21839486.220   114767563.79409  21839482.360    89429369.73548
  22567463.200   118592850.50909  22567459.280    92410006.48248
  22317906.020   117281424.89109  22317905.660    91388124.55548
  24287624.880   127632329.10708  24287623.600    99453764.35945
  22249763.640   118729017.07009  22249766.420    92344808.83407
  21587664.080   115560474.96808  21587664.700    89880380.72808
  21594724.660   115314628.91708  21594725.860    89689168.87205
  23183201.340   123883996.75408  23183206.320    96354238.63106
  20323011.100   108561883.11608  20323013.420    84437030.34708
  22620671.900   121048169.38808  22620672.760    94148766.75807
  20255611.640   108125933.70809  20255614.200    84098005.38408
  21932598.120   117324631.01509  21932598.260    91252509.69307
 15 03 05 00 15  0.0000000  0  7G16G18G19G21G22G27G31
  21029688.900   110511784.02409  21029685.700    86113067.84348
  21691175.800   113987957.96309  21691173.100    88821795.21048
  24502312.740   128760515.82407  24502309.400   100332867.72545
  21849807.760   114821803.79509  21849803.860    89471634.67948
  22550747.840   118505011.33509  22550744.000    92341560.41347
  22306118.620   117219481.98309  22306118.300    91339857.37848
  24305390.240   127725686.35408  24305388.920    99526510.19746
 15 03 05 00 15 30.0000000  0  7G16G18G19G21G22G27G31
  21020313.660   110462516.78709  21020310.460    86074677.79448
  21684799.540   113954450.31209  21684796.780    88795685.36248
  24487289.840   128681569.88307  24487286.500   100271351.47144
  21860166.920   114876241.89009  21860163.040    89514053.97448
  22534074.060   118417390.58209  22534070.260    92273284.54547
  22294349.460   117157634.57909  22294349.160    91291664.62148
  24323150.160   127819014.61208  24323148.880    99599233.42646
 15 03 05 00 16  0.0000000  0  7G16G18G19G21G22G27G31
  21011020.060   110413678.58209  21011016.840    86036622.05848
  21678508.340   113921389.70409  21678505.560    88769923.86848
  24472273.460   128602658.58107  24472270.360   100209862.22445
  21870561.540   114930866.42308  21870557.840    89556618.54348
  22517440.620   118329981.47509  22517436.780    92205173.58347
  22282596.760   117095873.46909  22282596.440    91243539.11848
  24340902.220   127912301.82608  24340900.980    99671924.66846
 15 03 05 00 16 30.0000000  0  7G16G18G19G21G22G27G31
  21001809.360   110365276.08209  21001806.140    85998905.84248
  21672303.200   113888781.39709  21672300.380    88744514.82048
  24457264.560   128523786.52308  24457261.520   100148403.53145
  21880992.180   114985680.39509  21880988.620    89599330.73548
  22500848.880   118242791.23009  22500844.960    92137233.16547
  22270861.400   117034203.49709  22270861.080    91195484.63548
  24358646.700   128005549.55008  24358645.540    99744585.12446
 15 03 05 00 17  0.0000000  0  7G16G18G19G21G22G27G31
  20992682.220   110317313.08709  20992679.040    85961532.08648
  21666184.860   113856629.12409  21666182.020    88719461.11448
  24442263.440   128444955.48408  24442260.360   100086976.78045
  21891458.760   115040683.48708  21891455.440    89642190.27748
  22484299.640   118155824.14709  22484295.600    92069466.63647
  22259143.800   116972626.88109  22259143.340    91147502.86648
  24376383.520   128098756.69008  24376382.320    99817213.96446
 15 03 05 00 17 30.0000000  0  7G16G18G19G21G22G27G31
  20983639.020   110269791.21009  20983635.940    85924502.06848
  21660153.380   113824933.23309  21660150.500    88694763.04648
  24427270.040   128366164.75908  24427266.720   100025581.45345
  21901960.920   115095873.52508  21901957.740    89685195.51048
  22467793.260   118069082.08309  22467789.080    92001875.45247
  22247443.900   116911143.43109  22247443.480    91099593.71948
  24394111.960   128191919.82708  24394110.740    99889808.50146
 15 03 05 00 18  0.0000000  0  7G16G18G19G21G22G27G31
  20974679.420   110222708.47009  20974676.420    85887814.22748
  21654208.220   113793691.18009  21654205.340    88670418.61348
  24412283.540   128287410.43808  24412280.300    99964214.49245
  21912497.740   115151245.68108  21912494.700    89728342.64548
  22451329.520   117982564.22209  22451325.180    91934458.97447
  22235761.020   116849749.84209  22235760.680    91051754.58848
  24411830.760   128285032.50308  24411829.620    99962363.71245
 15 03 05 00 18 30.0000000  0  7G16G18G19G21G22G27G31
  20965804.520   110176070.69509  20965801.520    85851473.11048
  21648350.480   113762908.46509  21648347.560    88646432.09648
  24397304.880   128208697.22408  24397301.580    99902879.53546
  21923069.760   115206802.07409  21923066.720    89771633.35148
  22434909.640   117896277.11809  22434905.220    91867222.29847
  22224095.980   116788450.52609  22224095.780    91003988.90748
  24429540.320   128378096.11208  24429539.120   100034880.72245
 15 03 05 00 19  0.0000000  0  7G16G18G19G21G22G27G31
  20957014.400   110129878.12109  20957011.340    85815478.90548
  21642580.080   113732584.57409  21642577.080    88622803.10148
  24382333.640   128130022.81708  24382330.480    99841574.86345
  21933676.040   115262538.58009  21933672.980    89815064.39247
  22418533.700   117810221.20909  22418529.360    91800165.77848
  22212448.600   116727243.78509  22212448.460    90956295.37848
  24447239.560   128471105.73108  24447238.440   100107355.64146
 15 03 05 00 19 30.0000000  0  7G16G18G19G21G22G27G31
  20948310.060   110084136.36909  20948306.980    85779835.98348
  21636897.820   113702723.96509  21636894.800    88599535.10648
  24367370.540   128051391.45008  24367367.240    99780303.71646
  21944317.080   115318457.63109  21944313.940    89858637.67848
  22402202.960   117724402.96909  22402198.700    91733294.45147
  22200819.680   116666133.90309  22200819.540    90908677.30448
  24464928.720   128564062.48708  24464927.620   100179789.35645
 15 03 05 00 20  0.0000000  0  7G16G18G19G21G22G27G31
  20939691.280   110038844.04909  20939688.140    85744543.26448
  21631303.360   113673325.01909  21631300.340    88576626.85048
  24352414.820   127972799.21808  24352411.560    99719063.07546
  21954991.860   115374553.62109  21954988.620    89902348.84248
  22385917.280   117638821.42209  22385913.080    91666607.55748
  22189208.580   116605117.72009  22189208.480    90861132.24548
  24482606.560   128656960.01308  24482605.420   100252176.92045
 15 03 05 00 20 30.0000000  0  7G16G18G19G21G22G27G31
  20931157.960   109994000.71109  20931154.760    85709600.41148
  21625796.460   113644386.33209  21625793.420    88554077.24748
  24337466.240   127894244.39908  24337463.040    99657851.58346
  21965699.820   115430823.61309  21965696.400    89946195.59148
  22369676.700   117553476.86609  22369672.500    91600105.33748
  22177614.960   116544193.50009  22177614.860    90813658.84948
  24500272.240   128749793.31008  24500270.940   100324514.45045
 15 03 05 00 21  0.0000000  0  7G16G18G19G21G22G27G31
  20922711.780   109949615.67509  20922708.520    85675014.67948
  21620378.800   113615916.30009  21620375.720    88531892.82248
  24322526.080   127815733.72308  24322522.940    99596674.50446
  21976441.880   115487272.60009  21976438.260    89990181.81648
  22353483.180   117468379.46709  22353478.980    91533795.70248
  22166040.360   116483368.79809  22166040.140    90766262.99448
  24517926.580   128842566.76508  24517925.120   100396805.34944
 15 03 05 00 21 30.0000000  0  7G16G18G19G21G22G27G31
  20914351.820   109905683.74109  20914348.520    85640782.01048
  21615049.220   113587908.70509  21615046.040    88510068.73548
  24307593.120   127737260.58508  24307590.040    99535526.65646
  21987216.280   115543891.74509  21987212.480    90034300.63548
  22337335.740   117383524.49909  22337331.560    91467674.98747
  22154483.520   116422637.15209  22154483.200    90718939.65848
  24535567.720   128935270.83808  24535566.240   100469042.19145
 15 03 05 00 22  0.0000000  0  7G16G18G19G21G22G27G31
  20906079.580   109862212.59309  20906076.260    85606908.39248
  21609808.960   113560370.68809  21609805.740    88488610.56048
  24292668.420   127658830.62108  24292665.300    99474412.44345
  21998023.760   115600684.90209  21998019.880    90078555.04548
  22321235.940   117298920.03609  22321231.780    91401749.46847
  22142945.620   116362004.64709  22142945.280    90671693.57348
  24553196.180   129027908.50008  24553194.660   100541227.26645
 15 03 05 00 22 30.0000000  0  7G16G18G19G21G22G27G31
  20897895.200   109819203.03109  20897891.860    85573394.45048
  21604657.980   113533302.11609  21604654.760    88467518.18548
  24277751.680   127580442.91208  24277748.400    99413331.18346
  22008863.940   115657650.19809  22008860.020    90122943.59048
  22305184.160   117214568.00909  22305180.080    91336020.65948
  22131426.460   116301470.66409  22131426.140    90624524.26048
  24570811.080   129120475.74507  24570809.740   100613357.43946
 15 03 05 00 23  0.0000000  0  7G16G18G19G21G22G27G31
  20889798.720   109776655.56509  20889795.360    85540240.58648
  21599596.300   113506703.21809  21599593.140    88446791.78548
  24262842.780   127502096.33208  24262839.360    99352281.94545
  22019736.220   115714784.50209  22019732.380    90167463.81847
  22289180.720   117130469.55609  22289176.640    91270489.44648
  22119925.800   116241034.35109  22119925.540    90577431.05748
  24588411.780   129212968.55008  24588410.780   100685429.58845
 15 03 05 00 23 30.0000000  0  7G16G18G19G21G22G27G31
  20881790.060   109734570.12209  20881786.720    85507446.73148
  21594623.640   113480572.24609  21594620.560    88426430.01248
  24247941.300   127423788.86508  24247937.820    99291263.17845
  22030639.820   115772083.58308  22030636.100    90212112.45248
  22273225.640   117046624.95109  22273221.500    91205156.02648
  22108443.440   116180694.09709  22108443.220    90530412.71148
  24605997.520   129305382.45308  24605996.860   100757440.25245
 15 03 05 00 24  0.0000000  0  7G16G18G19G21G22G27G31
  20873870.300   109692952.00209  20873867.020    85475017.02948
  21589741.060   113454914.22009  21589737.960    88406436.76548
  24233047.980   127345523.90108  24233044.560    99230277.54345
  22041575.140   115829549.30908  22041571.480    90256890.93647
  22257320.160   116963040.64009  22257315.840    91140025.42948
  22096980.120   116120453.80509  22096979.880    90483472.23548
  24623568.420   129397717.69508  24623567.880   100829389.65046
 15 03 05 00 24 30.0000000  0  7G16G18G19G21G22G27G31
  20866039.760   109651802.27809  20866036.460    85442952.30948
  21584948.560   113429729.34509  21584945.380    88386812.20348
  24218162.540   127267300.78008  24218159.100    99169324.53645
  22052541.740   115887179.50109  22052538.140    90301797.57348
  22241464.460   116879718.09809  22241460.000    91075098.81047
  22085535.780   116060313.23709  22085535.440    90436609.47848
  24641123.820   129489971.23808  24641123.420   100901275.35446
 15 03 05 00 25  0.0000000  0  7G16G18G19G21G22G27G31
  20858298.540   109611121.64309  20858295.180    85411253.12348
  21580246.040   113405017.27209  21580242.780    88367556.06548
  24203284.920   127189118.45908  24203281.440    99108403.28145
  22063539.080   115944971.29609  22063535.560    90346830.13747
  22225658.780   116796658.52109  22225654.240    91010377.10847
  22074110.300   116000271.59309  22074109.860    90389823.83048
  24658662.880   129582138.69308  24658662.500   100973093.98645
 15 03 05 00 25 30.0000000  0  7G16G18G19G21G22G27G31
  20850647.260   109570913.84509  20850643.880    85379922.36148
  21575634.020   113380781.05709  21575630.800    88348670.71148
  24188415.520   127110979.05608  24188411.860    99047515.45745
  22074567.320   116002925.33608  22074563.880    90391989.12348
  22209904.060   116713866.76109  22209899.440    90945864.06148
  22062704.140   115940331.42109  22062703.600    90343117.20348
  24676185.540   129674219.77908  24676185.120   101044845.30546
 15 03 05 00 26  0.0000000  0  7G16G18G19G21G22G27G31
  20843086.260   109531180.67209  20843082.940    85348961.45148
  21571112.660   113357021.49409  21571109.580    88330156.78048
  24173554.280   127032882.72308  24173550.680    98986661.22345
  22085625.960   116061039.25408  22085622.620    90437272.68948
  22194200.740   116631345.33709  22194196.100    90881561.68548
  22051317.340   115880493.04109  22051316.740    90296489.91748
  24693691.260   129766211.65308  24693690.760   101116527.11346
 15 03 05 00 26 30.0000000  0  6G16G18G19G21G22G27
  20835613.980   109491913.60709  20835610.680    85318363.74248
  21566680.280   113333729.81309  21566677.300    88312007.44148
  24158699.380   126954819.65408  24158695.740    98925832.90745
  22096712.920   116119301.78808  22096709.680    90482672.06047
  22178547.380   116549086.53209  22178542.760    90817463.95448
  22039948.020   115820746.89309  22039947.400    90249934.50148
 15 03 05 00 27  0.0000000  0  6G16G18G19G21G22G27
  20828234.000   109453131.67909  20828230.760    85288144.05448
  21562340.360   113310923.85709  21562337.420    88294236.57448
  24143854.060   126876807.01908  24143850.360    98865043.86745
  22107831.240   116177728.63109  22107827.880    90528199.46647
  22162947.700   116467109.87109  22162943.080    90753586.05948
  22028599.560   115761110.74009  22028599.020    90203464.79248
 15 03 05 00 27 30.0000000  0  6G16G18G19G21G22G27
  20820945.280   109414829.52309  20820942.100    85258298.22448
  21558091.580   113288596.82209  21558088.680    88276838.90548
  24129016.860   126798837.20108  24129013.080    98804288.20445
  22118979.080   116236310.73609  22118975.720    90573847.85447
  22147400.880   116385410.89009  22147396.300    90689924.54548
  22017270.700   115701577.77809  22017270.300    90157075.50048
 15 03 05 00 28  0.0000000  0  6G16G18G19G21G22G27
  20813748.240   109377009.14809  20813745.140    85228827.80448
  21553934.280   113266750.48909  21553931.480    88259815.80748
  24114187.920   126720910.76608  24114184.120    98743566.33345
  22130156.200   116295046.66209  22130152.720    90619616.11547
  22131907.360   116303992.26409  22131902.900    90626481.48848
  22005961.600   115642148.56409  22005961.320    90110767.05248
 15 03 05 00 28 30.0000000  0  6G16G18G19G21G22G27
  20806643.000   109339671.51709  20806640.020    85199733.54448
  21549868.520   113245384.92309  21549865.720    88243167.33048
  24099367.080   126643027.28008  24099363.340    98682877.91946
  22141362.180   116353934.25809  22141358.700    90665502.55448
  22116467.480   116222855.74309  22116463.160    90563258.26048
  21994672.280   115582823.20509  21994672.040    90064539.52348
 15 03 05 00 29  0.0000000  0  6G16G18G19G21G22G27
  20799630.500   109302820.57809  20799627.500    85171018.52348
  21545894.900   113224503.09909  21545892.040    88226895.80248
  24084554.860   126565188.82508  24084551.240    98622224.61046
  22152597.080   116412974.28508  22152593.600    90711507.77247
  22101082.180   116142006.17409  22101078.000    90500258.62848
  21983403.180   115523604.43609  21983403.100    90018395.06348
 15 03 05 00 29 30.0000000  0  6G16G18G19G21G22G27
  20792710.760   109266456.59709  20792707.680    85142682.95748
  21542013.060   113204104.03409  21542010.240    88211000.44948
  24069751.040   126487394.36508  24069747.460    98561605.58346
  22163860.260   116472163.36208  22163856.940    90757629.12147
  22085751.600   116061443.99709  22085747.480    90437482.94148
  21972154.160   115464491.10409  21972154.140    89972332.76448
 15 03 05 00 30  0.0000000  0  6G16G18G19G21G22G27
  20785883.880   109230580.27509  20785880.640    85114727.38648
  21538223.100   113184187.76009  21538220.340    88195481.28448
  24054955.420   126409643.01508  24054951.860    98501020.14246
  22175151.360   116531499.13708  22175148.140    90803864.78348
  22070476.080   115981170.95509  22070471.980    90374932.54748
  21960925.280   115405482.94909  21960925.200    89926352.40848
 15 03 05 00 30 30.0000000  0  6G16G18G19G21G22G27
  20779150.500   109195195.81709  20779147.200    85087155.07548
  21534525.700   113164757.73609  21534522.940    88180341.02348
  24040168.440   126331937.30508  24040164.940    98440470.25746
  22186470.560   116590982.37108  22186467.380    90850215.34947
  22055256.580   115901192.20009  22055252.480    90312611.47248
  21949717.080   115346582.94109  21949716.840    89880456.31848
 15 03 05 00 31  0.0000000  0  6G16G18G19G21G22G27
  20772510.540   109160302.58909  20772507.220    85059965.54748
  21530920.500   113145812.10409  21530917.680    88165578.20448
  24025389.700   126254275.06208  24025386.380    98379954.27446
  22197817.060   116650608.83609  22197813.900    90896677.52947
  22040093.320   115821508.37609  22040089.100    90250520.20548
  21938529.140   115287789.28309  21938528.760    89834643.09648
 15 03 05 00 31 30.0000000  0  6G16G18G19G21G22G27
  20765963.820   109125899.40909  20765960.440    85033157.87848
  21527407.180   113127349.29609  21527404.280    88151191.61148
  24010618.860   126176653.82608  24010615.620    98319470.22746
  22209190.200   116710374.90808  22209187.000    90943248.49547
  22024986.040   115742118.76409  22024981.680    90188658.19848
  21927361.000   115229099.78109  21927360.480    89788911.04148
 15 03 05 00 32  0.0000000  0  6G16G18G19G21G22G27
  20759511.860   109091994.17009  20759508.420    85006738.20948
  21523986.920   113109375.64809  21523983.980    88137186.18148
  23995856.940   126099079.58908  23995853.640    98259022.79646
  22220590.760   116770284.91108  22220587.500    90989931.61047
  22009936.360   115663031.75209  22009931.800    90127031.98148
  21916213.860   115170521.17209  21916213.280    89743265.39148
 15 03 05 00 32 30.0000000  0  6G16G18G19G21G22G27
  20753154.500   109058586.21709  20753151.120    84980706.03448
  21520659.420   113091889.59409  21520656.460    88123560.68948
  23981103.580   126021550.16708  23981100.220    98198610.30346
  22232018.020   116830335.05309  22232014.600    91036723.91647
  21994944.220   115584247.23009  21994939.500    90065641.45948
  21905087.480   115112051.79009  21905086.840    89697704.84148
 15 03 05 00 33  0.0000000  0  6G16G18G19G21G22G27
  20746892.180   109025677.47709  20746888.800    84955062.86648
  21517425.020   113074892.80209  21517422.080    88110316.44948
  23966358.860   125944066.25908  23966355.540    98138233.27246
  22243471.720   116890523.92808  22243468.140    91083624.34047
  21980010.240   115505768.66409  21980005.540    90004489.36548
  21893982.000   115053692.60609  21893981.400    89652230.18948
 15 03 05 00 33 30.0000000  0  6G16G18G19G21G22G27
  20740725.240   108993269.72409  20740721.820    84929810.07348
  21514283.760   113058385.37209  21514280.820    88097453.52748
  23951622.960   125866628.42108  23951619.460    98077892.12346
  22254951.460   116950850.12708  22254947.760    91130631.75747
  21965134.960   115427598.75309  21965130.280    89943577.76648
  21882897.620   114995444.26909  21882897.080    89606841.88348
 15 03 05 00 34  0.0000000  0  6G16G18G19G21G22G27
  20734653.760   108961363.65209  20734650.340    84904948.20348
  21511235.700   113042367.83709  21511232.780    88084972.34348
  23936895.620   125789235.61108  23936892.100    98017586.06446
  22266456.800   117011311.12508  22266453.120    91177744.21647
  21950318.600   115349738.52409  21950313.980    89882907.49148
  21871834.260   114937306.52709  21871833.840    89561539.77748
 15 03 05 00 34 30.0000000  0  6G16G18G19G21G22G27
  20728678.160   108929961.94109  20728674.820    84880479.32748
  21508281.140   113026841.35409  21508278.120    88072873.78548
  23922177.120   125711889.40308  23922173.540    97957316.31446
  22277987.860   117071907.00809  22277984.200    91224961.77247
  21935561.840   115272191.65709  21935557.320    89822481.37948
  21860792.340   114879281.15809  21860791.980    89516325.21048
 15 03 05 00 35  0.0000000  0  6G16G18G19G21G22G27
  20722798.300   108899063.52309  20722795.100    84856402.63748
  21505419.720   113011804.14609  21505416.560    88061156.49148
  23907467.080   125634587.23008  23907463.380    97897080.90346
  22289543.760   117132633.49109  22289540.100    91272281.10747
  21920864.680   115194957.79409  21920860.240    89762299.18148
  21849771.500   114821366.06409  21849771.180    89471196.58348
 15 03 05 00 35 30.0000000  0  6G16G18G19G21G22G27
  20717015.240   108868673.74209  20717012.180    84832722.28548
  21502652.180   112997260.57809  21502648.980    88049823.85948
  23892766.160   125557332.97208  23892762.340    97836882.79646
  22301124.940   117193492.62709  22301121.240    91319703.81347
  21906228.320   115118043.38209  21906223.940    89702365.89348
  21838772.480   114763565.71809  21838772.200    89426157.37248
 15 03 05 00 36  0.0000000  0  6G16G18G19G21G22G27
  20711329.180   108838793.48409  20711326.180    84809438.96148
  21499978.500   112983210.45009  21499975.340    88038875.71748
  23878074.260   125480126.30108  23878070.400    97776721.77746
  22312730.960   117254482.40509  22312727.240    91367228.30847
  21891653.120   115041450.13609  21891648.760    89642682.87248
  21827795.340   114705880.12709  21827795.000    89381207.56748
 15 03 05 00 36 30.0000000  0  6G16G18G19G21G22G27
  20705740.240   108809423.39809  20705737.220    84786553.17748
  21497398.700   112969653.79309  21497395.540    88028312.10148
  23863391.320   125402967.04108  23863387.540    97716597.70246
  22324361.300   117315600.27309  22324357.640    91414852.61847
  21877139.440   114965179.91809  21877135.000    89583251.55548
  21816839.960   114648309.26209  21816839.580    89336347.16648
 15 03 05 00 37  0.0000000  0  6G16G18G19G21G22G27
  20700248.800   108780565.66009  20700245.760    84764066.62448
  21494913.000   112956591.57709  21494909.800    88018133.76348
  23848717.420   125325855.39408  23848713.540    97656510.72346
  22336015.840   117376845.55909  22336012.280    91462576.19747
  21862687.720   114889235.36709  21862683.180    89524073.99748
  21805906.620   114590854.31109  21805906.300    89291577.08948
 15 03 05 00 37 30.0000000  0  6G16G18G19G21G22G27
  20694855.100   108752221.65709  20694852.060    84741980.39648
  21492521.500   112944024.23309  21492518.220    88008341.03648
  23834052.540   125248791.28908  23834048.480    97596460.78245
  22347694.480   117438217.09809  22347690.920    91510398.17547
  21848298.380   114813618.98509  21848293.860    89465152.16848
  21794995.420   114533515.69709  21794995.080    89246897.65648
 15 03 05 00 38  0.0000000  0  6G16G18G19G21G22G27
  20689559.480   108724392.90709  20689556.420    84720295.65248
  21490224.160   112931951.56709  21490220.860    87998933.77848
  23819396.780   125171775.20808  23819392.700    97536448.24146
  22359396.640   117499712.37709  22359393.060    91558316.56247
  21833971.920   114738333.01709  21833967.400    89406487.80348
  21784106.400   114476293.94409  21784106.100    89202309.28148
 15 03 05 00 38 30.0000000  0  6G16G18G19G21G22G27
  20684362.080   108697080.44809  20684359.040    84699013.22148
  21488021.220   112920374.74209  21488017.940    87989912.88448
  23804750.160   125094807.10808  23804746.140    97476473.11446
  22371122.180   117561330.39509  22371118.560    91606330.60147
  21819708.720   114663379.46309  21819704.160    89348082.45348
  21773239.740   114419189.59409  21773239.540    89157812.40148
 15 03 05 00 39  0.0000000  0  6G16G18G19G21G22G27
  20679263.480   108670287.43509  20679260.500    84678135.55048
  21485912.920   112909295.50409  21485909.680    87981279.72748
