     2.11           OBSERVATION DATA    M                   RINEX VERSION / TYPE
SPIDER V4,0,0,3554                      2015 03 24 00:33    PGM / RUN BY / DATE 
CBEJ                                                        MARKER NAME         
CBEJ                                                        MARKER NUMBER       
                                                            OBSERVER / AGENCY   
496519              LEICA GRX1200+GNSS  8.10/4.007          REC # / TYPE / VERS 
                    LEIAR25         NONE                    ANT # / TYPE        
  5095766.4657   453329.2088  3797108.6657                  APPROX POSITION XYZ 
        0.0730        0.0000        0.0000                  ANTENNA: DELTA H/E/N
     1     1                                                WAVELENGTH FACT L1/2
     4    C1    L1    P2    L2                              # / TYPES OF OBSERV 
    30.000                                                  INTERVAL            
  2015    03    05    00    00    0.0000000     GPS         TIME OF FIRST OBS   
  2015    03    05    23    59   30.0000000     GPS         TIME OF LAST OBS    
    16                                                      LEAP SECONDS        
    38                                                      # OF SATELLITES     
   G 1   811   811   811   811                              PRN / # OF OBS      
   G 2   859   859   857   857                              PRN / # OF OBS      
   G 3   830   830   830   830                              PRN / # OF OBS      
   G 4   831   831   831   831                              PRN / # OF OBS      
   G 5   628   628   628   628                              PRN / # OF OBS      
   G 6   683   682   681   680                              PRN / # OF OBS      
   G 7   649   649   648   648                              PRN / # OF OBS      
   G 9   789   789   789   789                              PRN / # OF OBS      
   G10   745   745   745   745                              PRN / # OF OBS      
   G11   775   775   775   775                              PRN / # OF OBS      
   G12   814   814   812   812                              PRN / # OF OBS      
   G13   796   796   796   796                              PRN / # OF OBS      
   G14   423   422   423   422                              PRN / # OF OBS      
   G15   699   699   699   699                              PRN / # OF OBS      
   G16   669   667   668   667                              PRN / # OF OBS      
   G17   854   854   854   854                              PRN / # OF OBS      
   G18   848   848   848   848                              PRN / # OF OBS      
   G19   760   760   759   759                              PRN / # OF OBS      
   G20   754   754   754   754                              PRN / # OF OBS      
   G21   645   644   633   632                              PRN / # OF OBS      
   G22   702   701   697   696                              PRN / # OF OBS      
   G23   722   721   711   711                              PRN / # OF OBS      
   G24   819   813   811   810                              PRN / # OF OBS      
   G25   843   843   843   843                              PRN / # OF OBS      
   G27   808   808   808   808                              PRN / # OF OBS      
   G28   800   800   800   800                              PRN / # OF OBS      
   G29   745   744   741   740                              PRN / # OF OBS      
   G30   670   668   661   660                              PRN / # OF OBS      
   G31   755   752   748   745                              PRN / # OF OBS      
   G32   741   740   737   736                              PRN / # OF OBS      
   R 2    30    30    28    21                              PRN / # OF OBS      
   R 3    30    30    30    30                              PRN / # OF OBS      
   R 9    30    30    30    30                              PRN / # OF OBS      
   R15    30    30    30    30                              PRN / # OF OBS      
   R16    30    30    30    30                              PRN / # OF OBS      
   R17    30    30    26    26                              PRN / # OF OBS      
   R18    30    30    30    30                              PRN / # OF OBS      
   R19    30    30    30    30                              PRN / # OF OBS      
BIT 2 OF LLI FLAGS DATA COLLECTED UNDER A/S CONDITION       COMMENT             
SNR is mapped to RINEX snr flag value [2-9]                 COMMENT             
Lx:     = 25dBHz -> 1; 26-27dBHz -> 2; 28-31dBHz -> 3       COMMENT             
       32-35dBHz -> 4; 36-38dBHz -> 5; 39-41dBHz -> 6       COMMENT             
       42-44dBHz -> 7; 45-48dBHz -> 8; >=49dBHz -> 9        COMMENT             
                                                            END OF HEADER       
 15 03 05 00 00  0.0000000  0 15G16G18G21G22G27G29G31R02R03R09R15R16
                                R17R18R19
  21148185.860   111134460.81309  21148182.880    86598308.24648
  22182390.360   116569286.36808  22182388.060    90833214.38147
  21601559.360   113516966.09907  21601555.540    88454769.76846
  23288596.360   122382434.31608  23288592.480    95362925.39146
  22375553.960   117584359.28809  22375554.360    91624186.53747
  24522785.040   128868083.99609  24522783.420   100416692.87346
  23813071.620   125138512.43408  23813069.600    97510516.59246
  22318490.420   119095761.03208  22318493.060    92630025.89106
  22361577.060   119703282.52608  22361577.780    93102558.72107
  21666836.520   115699695.98408  21666837.140    89988660.39204
  22589979.360   120713974.63708  22589984.360    93888655.72407
  19927056.240   106446769.75608  19927058.580    82791911.18608
  22362011.840   119663636.01507  22362013.800    93071719.32905
  20045336.420   107003380.14109  20045338.700    83224871.32208
  21951659.920   117426611.08208  21951658.860    91331797.57107
 15 03 05 00 00 30.0000000  0 15G16G18G21G22G27G29G31R02R03R09R15R16
                                R17R18R19
  21137509.400   111078358.18509  21137506.900    86554591.91948
  22173064.380   116520279.19809  22173062.420    90795026.98147
  21610840.620   113565738.84007  21610836.300    88492774.52246
  23270934.160   122289620.02108  23270929.960    95290602.62546
  22363700.880   117522070.37209  22363701.200    91575649.75448
  24537382.640   128944794.38608  24537380.680   100476467.19246
  23831466.780   125235179.46508  23831463.820    97585841.48446
  22317988.760   119093083.30508  22317991.360    92627943.25206
  22344077.380   119609605.85608  22344078.400    93029699.12708
  21652842.780   115624970.31808  21652842.640    89930540.44804
  22614664.600   120845884.42608  22614669.980    93991252.19507
  19934517.240   106486625.63209  19934520.120    82822910.20908
  22376413.400   119740702.07508  22376415.600    93131659.57105
  20049127.040   107023614.89909  20049129.340    83240609.47308
  21940319.200   117365947.62908  21940319.640    91284614.86807
 15 03 05 00 01  0.0000000  0 15G16G18G21G22G27G29G31R02R03R09R15R16
                                R17R18R19
  21126904.780   111022630.79909  21126902.540    86511167.99448
  22163811.420   116471654.51509  22163809.500    90757137.62447
  21620171.920   113614774.67207  21620167.560    88530984.26746
  23253292.900   122196916.61308  23253288.760    95218366.25746
  22351868.960   117459893.08708  22351869.320    91527199.96748
  24551985.560   129021533.17808  24551983.260   100536263.63646
  23849871.140   125331893.39508  23849867.240    97661202.91845
  22317626.260   119091148.84508  22317629.000    92626438.71706
  22326646.220   119516296.52208  22326647.600    92957125.19807
  21638970.140   115550892.05708  21638969.480    89872924.05004
  22639379.940   120977954.83608  22639385.100    94093973.54407
  19942128.800   106527284.03609  19942131.360    82854533.37708
  22390816.520   119817774.41007  22390818.180    93191604.67903
  20052957.480   107044063.52109  20052959.900    83256513.95308
  21929015.400   117305482.99108  21929016.540    91237586.85007
 15 03 05 00 01 30.0000000  0 14G16G18G21G22G27G31R02R03R09R15R16R17
                                R18R19
  21116377.080   110967306.23209  21116374.540    86468057.96748
  22154636.600   116423439.21209  22154634.300    90719567.30047
  21629557.640   113664097.62307  21629553.520    88569417.73746
  23235678.440   122104352.06709  23235674.300    95146238.09047
  22340063.020   117397852.91308  22340063.780    91478856.99748
  23868288.900   125428676.45008  23868284.640    97736618.21846
  22317407.800   119089984.17508  22317410.860    92625532.91106
  22309289.280   119423384.57408  22309290.660    92884860.37507
  21625224.040   115477490.27608  21625223.300    89815833.80704
  22664129.460   121110207.47608  22664134.880    94196836.68207
  19949894.920   106568768.39508  19949896.900    82886798.96008
  22405225.360   119894877.90507                                
  20056832.800   107064750.40509  20056835.180    83272603.76808
  21917753.880   117245242.36008  21917754.880    91190733.08007
 15 03 05 00 02  0.0000000  0 14G16G18G21G22G27G31R02R03R09R15R16R17
                                R18R19
  21105914.620   110912326.08609  21105911.860    86425216.28848
  22145528.640   116375575.09809  22145525.860    90682270.63147
  21638986.040   113713645.02207  21638982.360    88608026.08446
  23218079.560   122011868.66408  23218075.340    95074173.14947
  22328271.720   117335889.46608  22328273.180    91430573.82248
  23886707.700   125525464.98608  23886703.900    97812037.78746
  22317322.260   119089528.30208  22317325.480    92625178.35507
  22291995.940   119330812.65908  22291997.380    92812860.02807
  21611593.840   115404706.50508  21611593.020    89759224.20504
  22688900.740   121242576.37908  22688906.600    94299790.21507
  19957803.320   106611015.02408  19957805.520    82919657.46008
  22419628.240   119971950.70007                                
  20060741.120   107085612.77309  20060743.380    83288830.06508
  21906522.820   117185163.33608  21906523.580    91144004.98007
 15 03 05 00 02 30.0000000  0 14G16G18G21G22G27G31R02R03R09R15R16R17
                                R18R19
  21095529.440   110857752.43009  21095526.620    86382691.36348
  22136498.980   116328123.74109  22136496.180    90645295.56447
  21648468.600   113763475.36008  21648464.860    88646854.92646
  23200507.940   121919529.05109  23200504.060    95002220.23347
  22316505.900   117274063.01208  22316507.900    91382397.37447
  23905138.280   125622316.29708  23905135.240    97887506.28546
  22317381.340   119089842.92408  22317384.360    92625423.06906
  22274778.360   119238646.52108  22274780.060    92741175.29307
  21598091.460   115332604.91508  21598090.700    89703145.19904
  22713704.080   121375117.41708  22713709.700    94402877.61607
  19965865.560   106654082.90208  19965868.380    82953154.70008
  22434036.440   120049053.13807                                
  20064693.460   107106710.50409  20064695.720    83305239.39908
  21895333.240   117125306.50308  21895333.840    91097449.71107
 15 03 05 00 03  0.0000000  0 14G16G18G21G22G27G31R02R03R09R15R16R17
                                R18R19
  21085218.140   110803565.24709  21085215.240    86340467.60348
  22127543.960   116281065.27709  22127541.360    90608626.62847
  21658000.580   113813564.79408  21657996.680    88685885.66746
  23182960.200   121827314.19609  23182956.620    94930364.55147
  22304762.080   117212351.89508  22304763.360    91334310.81947
  23923575.720   125719205.65308  23923573.600    97963004.45446
  22317580.800   119090906.41608  22317583.420    92626250.25106
  22257633.160   119146868.47807  22257634.400    92669792.43307
  21584713.340   115261166.58408  21584712.740    89647582.05004
  22738534.580   121507805.13308  22738539.940    94506079.11706
  19974077.100   106697947.33308  19974079.980    82987271.46108
  22448445.720   120126162.69606                                
  20068685.460   107128020.25309  20068687.900    83321813.65008
  21884181.040   117065649.19408  21884182.160    91051049.62307
 15 03 05 00 03 30.0000000  0 15G16G18G19G21G22G27G31R02R03R09R15R16
                                R17R18R19
  21074979.280   110749758.40809  21074976.260    86298540.19448
  22118662.660   116234393.27609  22118659.980    90572258.85647
  24528677.360   128899066.31606  24528678.280   100440837.10945
  21667579.900   113863903.72008  21667575.900    88725110.81046
  23165434.900   121735218.09909  23165430.720    94858601.41246
  22293039.240   117150747.61608  22293039.920    91286307.52947
  23942017.800   125816121.39808  23942016.520    98038523.19246
  22317919.060   119092710.63808  22317921.360    92627653.56205
  22240559.720   119055473.89708  22240560.760    92598707.77407
  21571458.320   115190385.73508  21571458.240    89592530.29005
  22763390.220   121640626.76708  22763395.100    94609384.77006
  19982435.740   106742597.32108  19982438.240    83021999.20708
  22462854.480   120203269.75307  22462855.460    93491425.50204
  20072715.280   107149531.91609  20072717.880    83338544.95808
  21873064.700   117006182.10108  21873066.160    91004797.44807
 15 03 05 00 04  0.0000000  0 15G16G18G19G21G22G27G31R02R03R09R15R16
                                R17R18R19
  21064811.100   110696325.26009  21064808.260    86256903.96248
  22109853.620   116188100.51309  22109850.840    90536186.59748
  24513252.780   128818007.20406  24513252.720   100377674.23544
  21677204.500   113914481.40508  21677200.440    88764522.01846
  23147931.020   121643234.65209  23147925.780    94786926.08146
  22281335.560   117089241.88509  22281335.720    91238381.04948
  23960462.620   125913052.17708  23960462.180    98114053.64546
  22318394.420   119095247.19408  22318396.380    92629626.45104
  22223557.400   118964458.43808  22223558.240    92527917.99507
  21558325.460   115120256.84108  21558325.900    89537985.63705
  22788268.660   121773568.86208  22788272.720    94712784.09406
  19990939.380   106788022.09308  19990941.860    83057329.58508
  22477261.800   120280365.53107  22477263.240    93551388.87705
  20076781.000   107171235.70809  20076783.700    83355425.69708
  21861981.820   116946895.99008  21861982.340    90958686.08707
 15 03 05 00 04 30.0000000  0 15G16G18G19G21G22G27G31R02R03R09R15R16
                                R17R18R19
  21054714.020   110643265.38009  21054711.360    86215558.61848
  22101116.700   116142186.80309  22101114.040    90500409.70348
  24497837.580   128736994.10606  24497835.020   100314547.26444
  21686873.460   113965292.98707  21686869.600    88804115.48146
  23130448.700   121551364.18309  23130443.380    94715338.76147
  22269650.220   117027832.28709  22269649.980    91190529.47148
  23978909.260   126009992.54908  23978909.440    98189591.55046
  22319006.480   119098513.98408  22319007.740    92632167.29404
  22206626.420   118873824.25408  22206627.140    92457424.78707
  21545314.740   115050780.20208  21545315.500    89483948.28505
  22813168.400   121906624.25208  22813172.040    94816271.51706
  19999586.980   106834216.24708  19999589.720    83093258.37408
  22491666.760   120357446.75407  22491667.980    93611340.89305
  20080882.000   107193127.90109  20080884.720    83372452.96908
  21850931.880   116887787.46608  21850931.780    90912712.82507
 15 03 05 00 05  0.0000000  0 15G16G18G19G21G22G27G31R02R03R09R15R16
                                R17R18R19
  21044691.240   110590594.70809  21044688.640    86174516.56948
  22092454.800   116096667.64609  22092452.220    90464940.23447
  24482433.760   128656041.35707  24482428.560   100251467.31043
  21696589.140   114016350.81907  21696585.680    88843900.81146
  23112991.100   121459623.20809  23112986.160    94643852.33347
  22257985.580   116966533.12109  22257985.460    91142763.91648
  23997359.980   126106953.51108  23997360.420    98265145.49346
  22319758.220   119102525.89308  22319758.340    92635287.70704
  22189770.040   118783589.58408  22189770.820    92387242.31107
  21532429.280   114981973.15908  21532430.480    89430431.72305
  22838091.280   122039804.25907  22838095.360    94919855.92806
  20008380.860   106881191.75508  20008383.480    83129794.86508
  22506071.360   120434526.71506  22506072.500    93671291.90506
  20085020.800   107215221.31809  20085023.580    83389636.75208
  21839918.160   116828870.11008  21839917.800    90866888.27607
 15 03 05 00 05 30.0000000  0 15G16G18G19G21G22G27G31R02R03R09R15R16
                                R17R18R19
  21034747.320   110538338.26509  21034744.820    86133797.26448
  22083872.580   116051568.10709  22083869.860    90429797.73847
  24467045.460   128575171.55307  24467037.640   100188452.03644
  21706355.620   114067676.29907  21706352.640    88883894.68346
  23095562.860   121368037.33909  23095558.420    94572486.75947
  22246346.420   116905367.41109  22246346.260    91095102.38148
  24015818.760   126203955.04708  24015818.820    98340731.04846
  22320654.040   119107306.31008  22320654.080    92639005.86505
  22172993.240   118693782.07608  22172993.740    92317392.07907
  21519674.160   114913861.93108  21519675.500    89377456.34205
  22863040.520   122173126.49307  22863045.300    95023550.93906
  20017324.960   106928969.41108  20017327.360    83166955.23808
  22520479.940   120511628.77607  22520480.860    93731260.12506
  20089201.380   107237538.26409  20089204.360    83406994.36008
  21828944.820   116770166.78908  21828943.800    90821230.20407
 15 03 05 00 06  0.0000000  0 15G16G18G19G21G22G27G31R02R03R09R15R16
                                R17R18R19
  21024879.820   110486483.39109  21024877.220    86093390.86348
  22075367.800   116006874.98909  22075364.720    90394971.98147
  24451669.640   128494370.43507  24451660.760   100125490.20444
  21716169.960   114119252.86407  21716167.420    88924084.22846
  23078161.720   121276594.43508  23078157.540    94501232.58947
  22234729.700   116844320.67609  22234729.740    91047533.53648
  24034282.120   126300979.33708  24034281.120    98416334.33545
  22321691.080   119112840.57307  22321692.000    92643310.29806
  22156294.220   118604391.26508  22156294.560    92247865.95207
  21507047.280   114846434.56508  21507048.700    89325012.83505
  22888013.040   122306573.39908  22888018.320    95127342.91506
  20026415.940   106977531.39108  20026418.460    83204725.66208
  22534889.780   120588737.22607  22534890.800    93791233.35506
  20093420.960   107260062.59109  20093423.880    83424513.27308
  21818007.620   116711662.10707  21818007.060    90775726.58307
 15 03 05 00 06 30.0000000  0 15G16G18G19G21G22G27G31R02R03R09R15R16
                                R17R18R19
  21015091.340   110435043.41209  21015088.400    86053307.77948
  22066942.880   115962601.29909  22066939.360    90360473.07447
  24436308.320   128413648.93906  24436301.300   100062590.41545
  21726034.200   114171090.17608  21726032.060    88964476.93746
  23060790.600   121185308.51509  23060786.060    94430100.76747
  22223137.600   116783404.45209  22223137.840    91000066.36648
  24052751.420   126398034.95508  24052749.340    98491962.02845
  22322871.660   119119140.51507  22322873.480    92648210.28405
  22139676.120   118515433.09308  22139676.820    92178676.29907
  21494551.280   114779705.44208  21494552.900    89273112.41005
  22913010.120   122440151.55407  22913015.980    95231237.00606
  20035655.520   107026887.17408  20035658.020    83243113.48508
  22549302.560   120665863.29807  22549303.900    93851220.30006
  20097681.540   107282804.57509  20097684.260    83442201.50808
  21807108.620   116653366.91307  21807109.420    90730385.83707
 15 03 05 00 07  0.0000000  0 15G16G18G19G21G22G27G31R02R03R09R15R16
                                R17R18R19
  21005380.640   110384013.19709  21005377.640    86013543.99148
  22058596.580   115918741.68609  22058593.080    90326296.77447
  24420960.720   128333000.30407  24420956.860    99999747.34544
  21735946.600   114223179.08107  21735944.480    89005065.70846
  23043448.540   121094175.45309  23043444.020    94359088.03947
  22211569.060   116722611.78409  22211568.980    90952695.49348
  24071224.780   126495112.04208  24071221.680    98567606.41445
  22324194.560   119126198.96306  22324196.420    92653700.26904
  22123138.260   118426904.51808  22123138.880    92109820.79108
  21482185.200   114713670.31408  21482187.140    89221751.75506
  22938029.640   122573848.15508  22938035.580    95335223.17906
  20045041.840   107077026.55308  20045044.340    83282110.75308
  22563717.200   120742999.14908  22563718.220    93911214.80705
  20101981.300   107305755.80909  20101983.820    83460052.47408
  21796247.980   116595273.05908  21796249.260    90685201.77407
 15 03 05 00 07 30.0000000  0 15G16G18G19G21G22G27G31R02R03R09R15R16
                                R17R18R19
  20995746.100   110333384.27809  20995743.280    85974092.88948
  22050327.080   115875287.66808  22050324.060    90292436.47047
  24405625.260   128252414.05607  24405623.160    99936952.89744
  21745904.300   114275507.31307  21745902.060    89045840.95046
  23026133.960   121003187.20209  23026129.900    94288188.13847
  22200022.120   116661932.47009  22200021.780    90905412.95248
  24089699.620   126592196.92008  24089695.920    98643256.90645
  22325657.700   119134005.63007  22325659.400    92659772.23104
  22106679.420   118338798.96808  22106680.300    92041294.26908
  21469947.520   114648321.47808  21469949.580    89170924.91906
  22963069.040   122707649.71708  22963074.600    95439290.97906
  20054572.360   107127936.29308  20054575.040    83321707.20308
  22578131.840   120820133.82508  22578132.320    93971208.36306
  20106317.980   107328904.52509  20106320.340    83478057.04108
  21785423.020   116537369.65508  21785425.320    90640165.80807
 15 03 05 00 08  0.0000000  0 15G16G18G19G21G22G27G31R02R03R09R15R16
                                R17R18R19
  20986187.800   110283155.54809  20986185.120    85934953.63848
  22042134.580   115832237.51409  22042132.040    90258890.91647
  24390301.020   128171887.12506  24390299.200    99874204.69446
  21755906.260   114328069.90707  21755903.900    89086798.80746
  23008846.840   120912343.08109  23008843.200    94217400.55247
  22188496.140   116601363.50409  22188495.820    90858216.37848
  24108174.880   126689283.37208  24108171.100    98718908.63245
  22327260.620   119142557.66708  22327261.760    92666423.89803
  22090299.920   118251118.02708  22090300.940    91973098.01507
  21457838.260   114583658.30008  21457840.280    89120631.33305
  22988126.900   122841548.79008  22988132.040    95543434.61706
  20064245.760   107179610.30308  20064248.740    83361898.12208
  22592545.500   120897263.46308  22592545.540    94031198.00305
  20110690.680   107352246.29209  20110692.980    83496211.77808
  21774633.360   116479652.55208  21774635.400    90595274.81107
 15 03 05 00 08 30.0000000  0 15G16G18G19G21G22G27G31R02R03R09R15R16
                                R17R18R19
  20976708.020   110233338.82809  20976705.220    85896135.41948
  22034021.500   115789603.05109  22034019.000    90225669.29947
  24374989.700   128091429.16906  24374988.080    99811510.20145
  21765954.700   114380874.77908  21765951.880    89127945.45446
  22991589.620   120821655.62009  22991585.880    94146735.03447
  22176993.400   116540915.00209  22176992.480    90811113.71248
  24126652.040   126786378.93808  24126648.500    98794567.44146
  22329004.740   119151865.06808                                
  22074002.300   118163875.77808  22074002.980    91905242.97607
  21445859.880   114519693.95408  21445861.600    89070881.29305
  23013204.060   122975550.94908  23013208.620    95647658.43406
  20074063.740   107232056.20109  20074066.640    83402689.34308
  22606959.840   120974397.75408  22606959.960    94091191.29905
  20115101.120   107375790.19309  20115103.700    83514523.70308
  21763880.700   116422131.31708  21763881.820    90550536.12607
 15 03 05 00 09  0.0000000  0 15G16G18G19G21G22G27G31R02R03R09R15R16
                                R17R18R19
  20967305.220   110183926.38909  20967302.280    85857632.24048
  22025986.080   115747376.25809  22025983.700    90192765.32347
  24359689.940   128011030.76806  24359688.020    99748862.18945
  21776047.360   114433910.51508  21776044.120    89169272.04746
  22974360.760   120731118.15908  22974356.200    94076186.42946
  22165511.820   116480577.70409  22165510.260    90764097.70048
  24145128.500   126883470.75808  24145125.240    98870223.32946
  22330888.220   119161918.09507                                
  22057785.340   118077066.52708  22057786.320    91837724.68807
  21434010.860   114456421.18208  21434012.440    89021669.13505
  23038297.840   123109642.53708  23038302.300    95751951.80806
  20084023.900   107285261.47508  20084026.480    83444071.19808
  22621373.100   121051526.60108  22621373.040    94151180.35805
  20119547.400   107399525.22609  20119550.160    83532984.30208
  21753163.060   116364795.56209  21753164.040    90505941.71907
 15 03 05 00 09 30.0000000  0 15G16G18G19G21G22G27G31R02R03R09R15R16
                                R17R18R19
  20957980.080   110134922.34809  20957977.120    85819447.28148
  22018028.940   115705560.65909  22018026.400    90160181.73347
  24344402.120   127930693.90907  24344398.560    99686262.18844
  21786183.920   114487177.54608  21786180.700    89210778.81046
  22957161.060   120640735.03608  22957156.380    94005758.05447
  22154051.560   116420353.64509  22154050.020    90717169.90248
  24163604.100   126980558.18808  24163600.980    98945875.80046
  22332912.080   119172718.64908  22332911.840                  
  22041650.440   117990696.99908  22041651.780    91770548.40508
  21422292.060   114393844.86208  21422293.700    88972998.66105
  23063407.620   123243820.85408  23063412.760    95856312.64607
  20094125.760   107339224.96508  20094128.560    83486042.79308
  22635785.620   121128651.35307  22635785.820    94211166.26006
  20124029.660   107423452.34609  20124032.460    83551594.29808
  21742479.840   116307646.72508  21742481.700    90461492.64008
 15 03 05 00 10  0.0000000  0 15G16G18G19G21G22G27G31R02R03R09R15R16
                                R17R18R19
  20948736.620   110086347.25209  20948733.680    85781596.57748
  22010153.760   115664176.12009  22010151.200    90127934.03447
  24329129.560   127850437.14707  24329125.160    99623724.50145
  21796367.760   114540692.63308  21796364.440    89252478.90746
  22939994.820   120550527.10209  22939990.740    93935466.18247
  22142616.360   116360261.38609  22142614.820    90670344.82348
  24182081.700   127077656.22908  24182078.820    99021536.53446
  22335079.720   119184285.49008  22335082.920                  
  22025602.060   117904789.56108  22025603.700    91703731.53907
  21410707.780   114331986.27008  21410709.480    88924886.43805
  23088536.180   123378100.30008  23088542.020    95960752.16707
  20104372.600   107393962.52008  20104375.560    83528616.43408
  22650200.920   121205790.49007  22650201.000    94271163.36206
  20128551.220   107447588.95409  20128553.880    83570367.22508
  21731835.020   116250702.89908  21731836.960    90417203.02707
 15 03 05 00 10 30.0000000  0 15G16G18G19G21G22G27G31R02R03R09R15R16
                                R17R18R19
  20939569.620   110038174.09709  20939566.740    85744059.06848
  22002355.660   115623196.25209  22002353.180    90096001.69248
  24313866.780   127770231.66307  24313863.300    99561226.78944
  21806593.060   114594425.10808  21806589.420    89294348.37046
  22922857.420   120460468.63209  22922853.240    93865290.80647
  22131200.640   116300272.62108  22131199.060    90623600.38048
  24200555.380   127174733.69309  24200552.700    99097181.24246
  22337385.360   119196589.16308  22337388.520                  
  22009635.800   117819319.75208  22009637.400    91637255.06807
  21399253.260   114270819.16608  21399254.960    88877312.01305
  23113677.640   123512448.02508  23113683.580    96065244.75707
  20114758.600   107449442.36908  20114761.700    83571767.41508
  22664613.660   121282914.42106  22664613.640    94331148.62106
  20133106.440   107471904.95109  20133109.080    83589279.67108
  21721223.260   116193934.25308  21721223.900    90373049.70807
 15 03 05 00 11  0.0000000  0 15G16G18G19G21G22G27G31R02R03R09R15R16
                                R17R18R19
  20930481.180   109990414.40609  20930478.200    85706843.74748
  21994636.580   115582631.50109  21994634.000    90064392.82847
  24298615.980   127690087.42207  24298612.900    99498776.79945
  21816861.060   114648381.63108  21816857.020    89336392.44746
  22905750.840   120370571.68109  22905746.420    93795241.30247
  22119806.240   116240397.03308  22119805.100    90576944.13148
  24219026.280   127271796.96708  24219023.680    99172814.86546
  22339830.820   119209639.64108  22339832.600                  
  21993753.860   117734301.61408  21993754.940    91571129.91807
  21387930.700   114210355.74209  21387931.940    88830284.91105
  23138833.040   123646869.62408  23138838.900    96169794.83106
  20125284.680   107505671.05008  20125288.020    83615500.86108
  22679024.580   121360032.19904  22679025.180    94391129.17906
  20137696.980   107496408.73509  20137699.460    83608338.16808
  21710645.220   116137349.74108  21710645.820    90329039.56108
 15 03 05 00 11 30.0000000  0 15G16G18G19G21G22G27G31R02R03R09R15R16
                                R17R18R19
  20921473.260   109943077.65609  20921470.100    85669957.97648
  21986998.080   115542491.36709  21986995.400    90033114.81447
  24283378.620   127610011.63007  24283375.440    99436380.09245
  21827172.800   114702569.24007  21827168.380    89378616.58847
  22888676.560   120280846.63809  22888672.280    93725325.71047
  22108435.140   116180642.54509  22108434.500    90530382.23148
  24237495.260   127368850.80608  24237492.580    99248441.15345
  22342417.820   119223444.25108  22342418.120                  
  21977958.420   117649746.66708  21977958.860    91505365.01607
  21376741.820   114150606.24108  21376742.140    88783813.06505
  23164002.900   123781368.36907  23164008.120    96274404.87106
  20135951.840   107562653.17308  20135955.200    83659820.28208
  22693435.780   121437151.31105  22693436.960    94451110.77906
  20142324.100   107521107.18209  20142326.380    83627548.08808
  21700102.880   116080956.72908  21700104.000    90285178.32808
 15 03 05 00 12  0.0000000  0 15G16G18G19G21G22G27G31R02R03R09R15R16
                                R17R18R19
  20912546.340   109896166.07809  20912543.100    85633403.50248
  21979440.620   115502777.38009  21979438.020    90002168.86247
  24268154.420   127530004.59807  24268151.320    99374036.97345
  21837527.640   114756986.20907  21837523.640    89421019.41747
  22871635.320   120191296.05108  22871631.280    93655546.08447
  22097087.380   116121009.54309  22097087.060    90483914.99548
  24255961.760   127465892.85008  24255958.820    99324058.24646
  22345146.420   119238003.05008  22345146.520                  
  21962249.960   117565659.61408  21962250.700    91439963.92207
  21365687.000   114091573.79308  21365686.740    88737898.96005
  23189186.020   123915939.94207  23189190.600    96379071.55806
  20146759.480   107620386.22308  20146762.420    83704723.75108
  22707848.040   121514271.75606  22707849.060    94511093.34106
  20146987.460   107545999.17209  20146989.560    83646908.54308
  21689596.280   116024754.34608  21689597.280    90241465.38407
 15 03 05 00 12 30.0000000  0 15G16G18G19G21G22G27G31R02R03R09R15R16
                                R17R18R19
  20903701.080   109849683.05409  20903697.780    85597182.96949
  21971965.000   115463493.12609  21971962.460    89971557.79047
  24252943.780   127450067.86808  24252940.840    99311748.62045
  21847925.560   114811632.51406  21847922.740    89463600.95746
  22854628.020   120101924.31208  22854624.480    93585905.80447
  22085763.160   116061499.92909  22085762.840    90437543.89648
  24274425.360   127562921.39708  24274422.680    99399664.82446
  22348016.620   119253317.45808  22348016.660                  
  21946630.100   117482045.98408  21946630.840    91374931.14907
  21354767.280   114033262.32609  21354766.840    88692545.58805
  23214382.260   124050582.90907  23214386.480    96483793.77406
  20157707.580   107678868.65808  20157710.120    83750210.06608
  22722260.560   121591394.75106  22722261.720    94571077.87806
  20151686.820   107571085.39309  20151689.140    83666420.03608
  21679125.380   115968744.12208  21679126.080    90197901.88307
 15 03 05 00 13  0.0000000  0 15G16G18G19G21G22G27G31R02R03R09R15R16
                                R17R18R19
  20894937.060   109803627.13209  20894933.680    85561295.23249
  21964570.720   115424636.43409  21964568.160    89941279.86347
  24237746.020   127370198.08708  24237742.360    99249512.50245
  21858365.560   114866502.10706  21858364.280    89506356.38445
  22837654.820   120012730.24009  22837651.580    93516403.99247
  22074461.780   116002110.18508  22074461.380    90391266.22948
  24292884.880   127659930.20608  24292882.880    99475256.02846
  22351027.540   119269383.50408  22351027.680    92765054.14604
  21931098.880   117398906.49308  21931099.460    91310267.16706
  21343982.140   113975670.61908  21343981.840    88647752.06905
  23239590.000   124185288.42607  23239594.000    96588564.61206
  20168794.920   107738093.50009  20168797.120    83796273.80908
  22736672.600   121668516.19406  22736673.800    94631061.20806
  20156421.460   107596360.98209  20156424.200    83686078.80409
  21668690.020   115912921.32709  21668690.100    90154484.22207
 15 03 05 00 13 30.0000000  0 15G16G18G19G21G22G27G31R02R03R09R15R16
                                R17R18R19
  20886253.720   109757995.91709  20886250.400    85525738.44748
  21957257.360   115386204.77609  21957254.760    89911333.11247
  24222559.880   127290391.03208  24222554.760    99187325.25745
  21868847.820   114921589.16506  21868847.040    89549281.34046
  22820715.420   119923712.57209  22820712.580    93447039.58948
  22063182.160   115942836.54908  22063182.360    90345078.99848
  24311339.240   127756912.32708  24311338.040    99550826.42445
  22354178.300   119286196.49108  22354178.120    92778130.97404
  21915656.360   117316240.97608  21915656.960    91245971.78607
  21333331.340   113918797.09508  21333331.220    88603517.07705
  23264808.080   124320048.04607  23264812.460    96693377.53306
  20180019.900   107798053.67709  20180022.060    83842909.47408
  22751083.560   121745631.40006  22751084.620    94691039.61905
  20161190.840   107621820.83009  20161193.780    83705880.89408
  21658289.100   115857281.23109  21658288.840    90111208.64407
 15 03 05 00 14  0.0000000  0 15G16G18G19G21G22G27G31R02R03R09R15R16
                                R17R18R19
  20877652.840   109712798.02709  20877649.460    85490519.33348
  21950026.520   115348206.26009  21950023.800    89881723.87947
  24207386.160   127210653.56508  24207379.160    99125192.23544
  21879373.220   114976898.57907  21879372.060    89592379.58047
  22803811.420   119834880.72809  22803808.840    93377819.99747
  22051925.780   115883685.98808  22051926.640    90298987.67048
  24329789.300   127853871.34408  24329788.640    99626378.80246
  22357470.200   119303763.02508  22357469.440    92791793.87403
  21900304.620   117234060.45108  21900304.760    91182053.63107
  21322816.420   113862651.03308  21322817.000    88559847.94505
  23290037.060   124454865.21507  23290042.580    96798235.22906
  20191383.140   107858752.90909  20191385.480    83890119.98108
  22765494.160   121822746.88405  22765495.480    94751018.35005
  20165996.000   107647470.61409  20165998.780    83725830.74108
  21647923.420   115801830.20609  21647922.860    90068080.13507
 15 03 05 00 14 30.0000000  0 15G16G18G19G21G22G27G31R02R03R09R15R16
                                R17R18R19
  20869134.840   109668035.40109  20869131.240    85455639.37948
  21942878.440   115310642.42309  21942875.480    89852453.37747
  24192225.120   127130985.99807  24192217.100    99063113.68144
  21889940.900   115032428.84907  21889938.960    89635649.93546
  22786943.060   119746237.15208  22786939.800    93308747.13247
  22040693.000   115824658.76809  22040694.180    90252992.47948
  24348234.740   127950804.59808  24348234.240    99701911.12645
  22360903.260   119322082.76308  22360902.480    92806042.56803
  21885044.160   117152369.09308  21885044.100    91118515.95607
  21312438.280   113807234.81708  21312439.440    88516746.47905
  23315276.020   124589735.04607  23315282.520    96903133.87206
  20202883.940   107920187.78208  20202886.580    83937902.67008
  22779904.820   121899862.40106  22779905.560    94810997.05104
  20170836.540   107673309.11909  20170839.080    83745927.37808
  21637592.600   115746567.46708  21637591.820    90025098.05107
 15 03 05 00 15  0.0000000  0  7G16G18G19G21G22G27G31
  20860698.760   109623703.40109  20860695.140    85421094.97448
  21935812.120   115273508.28309  21935809.180    89823517.71647
  24177076.080   127051381.41507  24177068.680    99001084.18344
  21900548.940   115088171.45308  21900546.400    89679085.74946
  22770109.960   119657777.96609  22770105.540    93239817.96347
  22029482.920   115765748.70309  22029484.180    90207088.56148
  24366673.780   128047702.79408  24366673.060    99777416.14646
 15 03 05 00 15 30.0000000  0  7G16G18G19G21G22G27G31
  20852345.200   109579806.03309  20852341.800    85386889.25048
  21928828.200   115236807.46509  21928825.280    89794919.71747
  24161939.800   126971842.13608  24161933.680    98939105.56745
  21911197.500   115144127.12608  21911194.320    89722687.61546
  22753312.920   119569507.82109  22753307.880    93171036.10247
  22018295.860   115706958.16709  22018296.580    90161277.79948
  24385106.160   128144565.01808  24385105.200    99852893.13546
 15 03 05 00 16  0.0000000  0  7G16G18G19G21G22G27G31
  20844075.020   109536346.70009  20844071.800    85353024.83348
  21921927.300   115200543.10109  21921924.400    89766661.78947
  24146816.680   126892369.91108  24146812.040    98877179.16645
  21921886.420   115200295.39908  21921882.920    89766455.10946
  22736552.580   119481431.14909  22736547.800    93102404.97447
  22007131.880   115648289.09409  22007131.420    90115561.69348
  24403531.720   128241390.45508  24403530.480    99928341.41045
 15 03 05 00 16 30.0000000  0  7G16G18G19G21G22G27G31
  20835889.920   109493333.43909  20835886.620    85319508.01948
  21915110.640   115164722.11709  21915108.020    89738749.33748
  24131707.400   126812971.05008  24131704.180    98815309.93046
  21932616.600   115256680.65607  21932612.840    89810391.68445
  22719830.480   119393556.68208  22719826.500    93033931.39047
  21995991.880   115589747.75709  21995990.960    90069945.10048
  24421950.980   128338182.00808  24421949.340   100003763.30545
 15 03 05 00 17  0.0000000  0  7G16G18G19G21G22G27G31
  20827790.960   109450772.21009  20827787.600    85286343.43949
  21908379.540   115129350.67809  21908377.060    89711187.17548
  24116612.380   126733649.58908  24116610.400    98753500.93846
  21943388.240   115313284.81607  21943384.220    89854498.84745
  22703147.900   119305891.07208  22703144.480    92965620.55347
  21984876.960   115531338.64209  21984876.120    90024431.52648
  24440363.980   128434940.79808  24440361.880   100079159.69345
 15 03 05 00 17 30.0000000  0  7G16G18G19G21G22G27G31
  20819774.740   109408645.78309  20819771.360    85253517.65648
  21901730.700   115094410.63309  21901728.040    89683961.17647
  24101528.740   126654386.08408  24101526.440    98691737.21945
  21954197.320   115370086.97007  21954193.280    89898760.27844
  22686501.980   119218417.46409  22686498.580    92897459.35447
  21973783.520   115473042.76809  21973782.660    89979006.20348
  24458766.420   128531644.97408  24458763.860   100154513.53045
 15 03 05 00 18  0.0000000  0  7G16G18G19G21G22G27G31
  20811843.160   109366964.74409  20811839.820    85221038.92948
  21895166.180   115059912.22409  21895163.180    89657079.32948
  24086458.000   126575189.52007  24086454.740    98630025.69145
  21965045.420   115427094.84207  21965041.340    89943182.01544
  22669894.880   119131147.81808  22669891.800    92829457.05747
  21962713.280   115414869.50909  21962712.520    89933676.38148
  24477159.560   128628300.63408  24477156.560   100229829.54445
 15 03 05 00 18 30.0000000  0  7G16G18G19G21G22G27G31
  20803995.600   109325725.88009  20803992.300    85188904.76148
  21888685.200   115025852.27409  21888681.760    89630539.16647
  24071399.280   126496055.70707  24071395.820    98568363.00645
  21975931.380   115484301.67107  21975926.840    89987758.77944
  22653326.340   119044079.80209  22653323.480    92761611.88147
  21951665.820   115356814.29209  21951665.300    89888438.55948
  24495542.140   128724900.42208  24495538.560   100305102.00244
 15 03 05 00 19  0.0000000  0  7G16G18G19G21G22G27G31
  20796234.880   109284943.51009  20796231.520    85157126.29448
  21882290.140   114992244.60709  21882286.460    89604351.38748
  24056355.060   126416996.60208  24056351.840    98506758.53745
  21986857.080   115541717.47107  21986852.740    90032498.38643
  22636799.300   118957228.07909  22636796.000    92693935.24447
  21940643.520   115298889.58109  21940643.020    89843302.44848
  24513915.860   128821453.57208  24513911.800   100380338.11045
 15 03 05 00 19 30.0000000  0  7G16G18G19G21G22G27G31
  20788560.360   109244614.37009  20788557.000    85125700.98748
  21875980.100   114959085.15409  21875976.460    89578512.84948
  24041324.260   126338007.68808  24041320.160    98445208.77145
  21997821.300   115599335.87406  21997817.700    90077395.76744
  22620313.000   118870590.57909  22620308.720    92626425.54747
  21929644.840   115241091.02009  21929644.340    89798264.61448
  24532279.280   128917952.48208  24532275.100   100455531.95345
 15 03 05 00 20  0.0000000  0  7G16G18G19G21G22G27G31
  20780971.600   109204736.02409  20780968.400    85094626.95148
  21869754.700   114926371.44909  21869751.280    89553021.65648
  24026305.700   126259084.33108  24026301.180    98383710.07546
  22008822.820   115657150.24207  22008819.500    90122445.84243
  22603866.820   118784165.28608  22603861.980    92559081.21347
  21918669.380   115183414.34909  21918668.560    89753321.77448
  24550630.940   129014389.85108  24550626.960   100530677.83845
 15 03 05 00 20 30.0000000  0  7G16G18G19G21G22G27G31
  20773470.940   109165320.01009  20773467.840    85063913.16448
  21863616.280   114894114.44709  21863612.840    89527886.35047
  24011301.480   126180236.88308  24011297.180    98322270.53445
  22019863.420   115715169.65706  22019860.600    90167655.73944
  22587463.160   118697964.72408  22587458.600    92491911.95147
  21907719.080   115125869.91409  21907717.620    89708481.98948
  24568972.160   129110772.85308  24568968.440   100605781.34745
 15 03 05 00 21  0.0000000  0  7G16G18G19G21G22G27G31
  20766058.740   109126367.69909  20766055.520    85033560.72149
  21857564.920   114862314.87409  21857561.680    89503107.49347
  23996311.080   126101464.27707  23996307.300    98260889.32845
  22030942.240   115773391.46906  22030939.940    90213023.36443
  22571102.860   118611991.29009  22571098.740    92424919.68548
  21896793.680   115068457.48509  21896792.220    89663745.06648
  24587302.280   129207098.07608  24587298.760   100680839.84645
 15 03 05 00 21 30.0000000  0  7G16G18G19G21G22G27G31
  20758733.780   109087873.26809  20758730.280    85003565.05548
  21851599.260   114830966.25409  21851596.320    89478679.99547
  23981333.460   126022759.62907  23981330.220    98199561.08246
  22042058.000   115831806.01807  22042055.920    90258541.19744
  22554785.080   118526239.77609  22554781.180    92358100.35847
  21885891.960   115011170.01809  21885890.520    89619105.50048
  24605619.440   129303355.45708  24605616.080   100755845.46646
 15 03 05 00 22  0.0000000  0  7G16G18G19G21G22G27G31
  20751496.020   109049837.14309  20751492.240    84973926.52048
  21845719.300   114800068.71409  21845716.780    89454603.98148
  23966368.760   125944121.38108  23966366.160    98138284.53345
  22053210.080   115890410.07907  22053207.660    90304206.69045
  22538509.600   118440711.21809  22538505.880    92291454.75947
  21875013.740   114954006.36208  21875011.860    89574562.43648
  24623922.900   129399540.88508  24623919.840   100830795.02245
 15 03 05 00 22 30.0000000  0  7G16G18G19G21G22G27G31
  20744345.100   109012258.11609  20744341.180    84944644.17249
  21839924.940   114769620.40709  21839922.860    89430878.01648
  23951416.600   125865546.83008  23951413.400    98077057.63745
  22064397.600   115949199.86607  22064394.620    90350016.90844
  22522276.500   118355405.79409  22522272.780    92224983.02747
  21864158.460   114896964.07708  21864157.280    89530113.92148
  24642211.600   129495648.51608  24642209.140   100905683.94945
 15 03 05 00 23  0.0000000  0  7G16G18G19G21G22G27G31
  20737282.480   108975143.72709  20737278.600    84915723.87049
  21834217.660   114739628.86609  21834215.680    89407508.01348
  23936478.200   125787041.96308  23936473.640    98015885.07645
  22075621.000   116008179.32007  22075617.420    90395974.94144
  22506087.600   118270331.77209  22506083.580    92158691.62447
  21853327.680   114840049.37009  21853327.600    89485764.81748
  24660486.040   129591681.59308  24660484.160   100980514.80446
 15 03 05 00 23 30.0000000  0  7G16G18G19G21G22G27G31
  20730308.800   108938497.13809  20730305.000    84887168.08349
  21828597.640   114710095.93509  21828595.560    89384495.35147
  23921553.360   125708608.26408  23921547.760    97954768.01145
  22086880.320   116067347.46507  22086876.220    90442079.98644
  22489943.440   118185492.85009  22489939.040    92092583.41347
  21842521.940   114783263.90109  21842522.120    89441516.42648
  24678745.900   129687638.75608  24678744.540   101055286.49045
 15 03 05 00 24  0.0000000  0  7G16G18G19G21G22G27G31
  20723425.880   108902327.61709  20723422.120    84858984.03448
  21823066.860   114681030.92809  21823064.600    89361847.32047
  23906642.780   125630253.32307  23906637.520    97893712.26246
  22098176.880   116126710.25507  22098172.680    90488336.69644
  22473845.900   118100899.62309  22473841.560    92026666.64447
  21831742.260   114726615.73809  21831742.500    89397374.98248
  24696992.120   129783524.69808  24696991.180   101130002.65346
 15 03 05 00 24 30.0000000  0  6G16G18G19G21G22G27
  20716631.000   108866620.81009  20716627.340    84831160.54648
  21817622.400   114652418.92509  21817619.860    89339552.27648
  23891743.860   125551961.24308  23891739.240    97832705.49246
  22109507.260   116186250.12507  22109502.820    90534731.40844
  22457792.300   118016538.41309  22457788.260    91960930.65747
  21820985.980   114670089.20309  21820986.000    89353328.35048
 15 03 05 00 25  0.0000000  0  6G16G18G19G21G22G27
  20709927.080   108831391.93209  20709923.480    84803709.47548
  21812266.800   114624274.37409  21812264.180    89317621.47548
  23876859.640   125473745.50008  23876855.000    97771758.21546
  22120873.440   116245978.79506  22120868.620    90581273.22545
  22441785.800   117932425.07709  22441781.920    91895387.83347
  21810255.460   114613698.14209  21810255.060    89309387.27048
 15 03 05 00 25 30.0000000  0  6G16G18G19G21G22G27
  20703313.220   108796636.42509  20703309.600    84776627.26249
  21806999.100   114596592.32909  21806996.460    89296051.08347
  23861989.000   125395600.22208  23861984.340    97710865.86646
  22132273.980   116305888.69105  22132269.120    90627956.28744
  22425825.920   117848556.31409  22425822.000    91830035.59147
  21799549.560   114557436.86809  21799548.500    89265547.34948
 15 03 05 00 26  0.0000000  0  6G16G18G19G21G22G27
  20696789.000   108762352.33009  20696785.440    84749912.37649
  21801818.800   114569370.19209  21801815.980    89274839.07747
  23847131.340   125317522.01408  23847127.040    97650025.75746
  22143708.040   116365973.69105  22143702.500    90674775.78243
  22409912.600   117764931.14009  22409908.540    91764873.16548
  21788867.460   114501302.07209  21788866.200    89221805.98048
 15 03 05 00 26 30.0000000  0  6G16G18G19G21G22G27
  20690355.320   108728544.74709  20690352.020    84723568.79348
  21796726.860   114542613.14609  21796724.020    89253989.44147
  23832287.140   125239514.84808  23832283.100    97589240.99846
  22155176.560   116426236.19204  22155170.100    90721733.68343
  22394046.700   117681555.64609  22394042.780    91699905.25848
  21778210.220   114445297.77709  21778209.320    89178166.29048
 15 03 05 00 27  0.0000000  0  5G16G18G19G22G27
  20684017.100   108695239.28909  20684014.160    84697616.49448
  21791728.340   114516345.83809  21791725.560    89233521.44247
  23817460.820   125161602.65208  23817457.080    97528530.22446
  22378233.400   117598456.13609  22378229.520    91635152.42147
  21767582.480   114389448.49009  21767581.600    89134647.37548
 15 03 05 00 27 30.0000000  0  5G16G18G19G22G27
  20677767.100   108662396.86009  20677764.560    84672025.00348
  21786815.380   114490528.10909  21786812.640    89213403.74548
  23802645.060   125083744.26508  23802641.760    97467861.39446
  22362465.520   117515594.60309  22362461.500    91570585.02847
  21756976.540   114333713.72509  21756975.220    89091217.71148
 15 03 05 00 28  0.0000000  0  5G16G18G19G22G27
  20671608.040   108630031.18809  20671605.700    84646805.00349
  21781990.580   114465173.73509  21781987.960    89193647.11548
  23787842.060   125005952.07208  23787838.940    97407244.16946
  22346745.820   117432985.62909  22346741.520    91506214.41548
  21746394.760   114278105.86809  21746393.480    89047886.92748
 15 03 05 00 28 30.0000000  0  6G16G18G19G21G22G27
  20665542.260   108598154.74509  20665539.920    84621966.21449
  21777256.260   114440294.65209  21777253.540    89174260.83947
  23773053.780   124928237.33408  23773049.660    97346687.29746
  22201388.600                    22201384.600                  
  22331076.680   117350642.69409  22331072.140    91442051.13847
  21735839.120   114222636.57209  21735838.220    89004664.10848
 15 03 05 00 29  0.0000000  0  6G16G18G19G21G22G27
  20659563.080   108566732.58309  20659560.760    84597481.40949
  21772605.660   114415855.21409  21772602.600    89155217.15647
  23758272.860   124850563.53508  23758267.720    97286162.27746
  22213015.820   116730191.58705  22213008.060    90958562.38843
  22315451.540   117268531.90009  22315447.140    91378068.73048
  21725302.840   114167269.75508  21725301.980    88961521.15048
 15 03 05 00 29 30.0000000  0  6G16G18G19G21G22G27
  20653685.480   108535843.87109  20653682.980    84573412.27449
  21768053.480   114391933.67809  21768050.460    89136577.01247
  23743514.240   124773008.58908  23743508.700    97225729.89146
  22224684.640   116791508.97505  22224677.400    91006342.19743
  22299885.560   117186732.87009  22299881.420    91314329.23048
  21714800.680   114112083.21209  21714800.180    88918518.63648
 15 03 05 00 30  0.0000000  0  6G16G18G19G21G22G27
  20647909.700   108505490.07209  20647906.800    84549759.95049
  21763599.980   114368531.18109  21763597.240    89118341.30947
  23728778.340   124695572.59308  23728773.080    97165390.21345
  22236393.980   116853039.25805  22236387.840    91054307.96643
  22284379.300   117105248.24809  22284375.140    91250834.74647
  21704333.280   114057077.58309  21704333.500    88875657.10648
 15 03 05 00 30 30.0000000  0  5G16G18G19G22G27
  20642217.080   108475573.82509  20642213.900    84526448.59149
  21759226.660   114345549.91009  21759224.180    89100433.84548
  23714046.300   124618156.68808  23714041.980    97105066.18846
  22268914.820   117023981.86209  22268910.240    91187510.32947
  21693881.760   114002154.32509  21693882.240    88832859.77848
 15 03 05 00 31  0.0000000  0  5G16G18G19G22G27
  20636619.280   108446156.51409  20636615.980    84503526.01849
  21754945.020   114323050.31809  21754942.700    89082901.71048
  23699329.380   124540820.91408  23699326.120    97044804.56946
  22253504.000   116942996.52109  22253499.020    91124404.90148
  21683457.540   113947373.72809  21683457.400    88790173.63548
 15 03 05 00 31 30.0000000  0  5G16G18G19G22G27
  20631114.200   108417227.09209  20631110.820    84480983.61749
  21750753.060   114301021.31209  21750750.680    89065736.26747
  23684625.780   124463553.01608  23684622.880    96984595.85046
  22238144.480   116862281.92209  22238139.480    91061510.41648
  21673058.220   113892723.71409  21673057.780    88747589.23148
 15 03 05 00 32  0.0000000  0  5G16G18G19G22G27
  20625703.300   108388793.11509  20625699.900    84458827.27349
  21746651.840   114279469.26609  21746649.460    89048942.45047
  23669936.540   124386358.88608  23669933.460    96924444.60146
  22222837.700   116781846.29709  22222833.060    90998833.30448
  21662684.960   113838210.87409  21662684.660    88705111.69548
 15 03 05 00 32 30.0000000  0  5G16G18G19G22G27
  20620387.300   108360858.28709  20620384.060    84437059.86949
  21742642.040   114258397.22509  21742639.560    89032522.68747
  23655261.740   124309240.85208  23655258.460    96864352.66146
  22207585.200   116701694.12109  22207580.640    90936377.08748
  21652338.200   113783837.90709  21652337.460    88662743.17948
 15 03 05 00 33  0.0000000  0  5G16G18G19G22G27
  20615165.920   108333420.65609  20615162.820    84415679.88949
  21738723.300   114237803.25109  21738720.600    89016475.45247
  23640600.720   124232195.87808  23640596.880    96804317.65947
  22192386.860   116621825.09109  22192382.060    90874141.52947
  21642017.080   113729601.93709  21642016.460    88620481.37848
 15 03 05 00 33 30.0000000  0  6G16G18G19G21G22G27
  20610038.740   108306478.02109  20610035.780    84394685.62549
  21734894.920   114217683.90309  21734892.020    89000798.08047
  23625953.040   124155220.84108  23625948.220    96744337.15446
  22319149.860   117287923.63005                                
  22177242.140   116542238.29609  22177237.100    90812125.87948
  21631721.460   113675499.82309  21631721.320    88578323.88448
 15 03 05 00 34  0.0000000  0  5G16G18G19G22G27
  20605009.200   108280048.14109  20605006.400    84374090.90749
  21731160.180   114198057.04709  21731157.060    88985504.46747
  23611321.760   124078331.73508  23611316.540    96684423.62046
  22162154.480   116462951.98409  22162149.600    90750344.35048
  21621454.780   113621548.28109  21621454.820    88536283.73648
 15 03 05 00 34 30.0000000  0  5G16G18G19G22G27
  20600075.420   108254121.01209  20600072.640    84353887.95049
  21727516.880   114178911.48409  21727513.660    88970585.89347
  23596704.580   124001517.80408  23596700.040    96624568.60747
  22147122.320   116383957.32909  22147117.460    90688790.09648
  21611215.020   113567736.56809  21611214.860    88494352.53748
 15 03 05 00 35  0.0000000  0  5G16G18G19G22G27
  20595238.460   108228702.04109  20595235.620    84334080.96349
  21723966.040   114160252.22209  21723962.820    88956046.23748
  23582102.420   123924782.93508  23582098.220    96564775.23146
  22132146.940   116305260.65309  22132142.040    90627468.05248
  21601002.900   113514069.09809  21601002.240    88452533.75249
 15 03 05 00 35 30.0000000  0  5G16G18G19G22G27
  20590498.940   108203794.60709  20590495.940    84314672.57149
  21720508.160   114142082.01808  21720505.340    88941887.60748
  23567515.460   123848129.30708  23567511.580    96505045.14947
  22117228.960   116226866.70209  22117224.440    90566381.86648
  21590818.560   113460548.40709  21590817.500    88410829.36449
 15 03 05 00 36  0.0000000  0  6G16G18G19G21G22G27
  20585853.400   108179381.32309  20585850.140    84295649.23749
  21717139.960   114124382.70409  21717137.260    88928095.91248
  23552940.400   123771538.59908  23552936.980    96445364.11246
  22379155.320   117603254.43505  22379148.800    91638865.13543
  22102365.320   116148759.10709  22102361.020    90505518.81548
  21580658.500   113407156.35309  21580657.380    88369225.18548
 15 03 05 00 36 30.0000000  0  6G16G18G19G21G22G27
  20581303.920   108155473.40809  20581300.460    84277019.68749
  21713863.500   114107165.21309  21713860.840    88914679.66548
  23538379.800   123695021.10808  23538376.080    96385740.12346
  22391238.520   117666757.64204  22391234.120    91688348.00244
  22087558.780   116070950.48009  22087554.420    90444888.74948
  21570524.980   113353903.49209  21570523.780    88327729.47748
 15 03 05 00 37  0.0000000  0  6G16G18G19G21G22G27
  20576856.960   108132104.03609  20576853.340    84258809.79349
  21710685.040   114090461.80709  21710682.380    88901664.01948
  23523839.380   123618608.32008  23523834.600    96326197.76346
  22403355.520   117730423.99705  22403353.880    91737963.98344
  22072815.740   115993474.78209  22072811.220    90384518.09848
  21560423.840   113300822.07609  21560422.820    88286367.34848
 15 03 05 00 37 30.0000000  0  6G16G18G19G21G22G27
  20572503.380   108109225.16509  20572499.620    84240982.10348
  21707595.200   114074223.82909  21707592.420    88889011.05847
  23509309.200   123542250.96308  23509303.720    96266698.59746
  22415495.980   117794223.02005  22415494.280    91787677.46544
  22058127.020   115916285.18209  22058122.300    90324370.37447
  21550345.860   113247863.14309  21550344.920    88245100.66748
 15 03 05 00 38  0.0000000  0  5G16G18G19G22G27
  20568251.500   108086880.95609  20568247.640    84223571.03448
  21704602.060   114058494.11209  21704599.020    88876754.14047
  23494797.360   123465992.30307  23494792.180    96207276.28746
  22043501.240   115839426.89109  22043496.680    90264480.80548
  21540299.400   113195069.91909  21540298.140    88203963.12048
 15 03 05 00 38 30.0000000  0  5G16G18G19G22G27
  20564098.900   108065058.46509  20564094.840    84206566.49549
  21701703.160   114043260.03309  21701699.720    88864883.44147
  23480300.720   123389818.42807  23480297.180    96147919.99847
  22028936.300   115762888.04309  22028931.860    90204840.14448
  21530281.840   113142428.97809  21530280.660    88162944.22048
 15 03 05 00 39  0.0000000  0  5G16G18G19G22G27
  20560043.180   108043745.07709  20560039.040    84189958.65648
  21698895.880   114028508.07609  21698892.280    88853388.39747
  23465817.760   123313715.64208  23465815.760    96088619.06547
  22014430.020   115686657.10909  22014425.340    90145439.43248
  21520290.640   113089927.01409  21520289.940    88122033.59048
 15 03 05 00 39 30.0000000  0  5G16G18G19G22G27
  20556083.860   108022938.94109  20556079.740    84173746.07048
  21696180.060   114014235.76809  21696176.260    88842267.12447
  23451348.460   123237681.16208  23451347.500    96029371.45147
  21999982.300   115610733.55509  21999977.520    90086278.23148
  21510325.660   113037561.69209  21510325.160    88081229.43948
 15 03 05 00 40  0.0000000  0  6G16G18G19G21G22G27
  20552222.440   108002648.29009  20552218.400    84157935.16948
  21693557.040   114000450.38009  21693553.000    88831525.30948
  23436893.940   123161722.42808  23436893.240    95970182.83747
  22476615.180   118115410.15506  22476614.940    92037991.20441
  21985594.980   115535126.85509  21985590.320    90027363.93748
  21500388.380   112985340.49109  21500387.940    88040537.61149
 15 03 05 00 40 30.0000000  0  6G16G18G19G21G22G27
  20548459.740   107982876.80709  20548455.920    84142528.81349
  21691027.260   113987155.23209  21691023.040    88821165.47847
