     2.11           OBSERVATION DATA    M                   RINEX VERSION / TYPE
SPIDER V4,0,0,3554                      2015 03 24 02:17    PGM / RUN BY / DATE 
CFKZ                                                        MARKER NAME         
CFKZ                                                        MARKER NUMBER       
                                                            OBSERVER / AGENCY   
496632              LEICA GRX1200+GNSS  8.10/4.007          REC # / TYPE / VERS 
10301036            LEIAR25         NONE                    ANT # / TYPE        
  5212138.8290   540257.5452  3624418.8863                  APPROX POSITION XYZ 
        0.0720        0.0000        0.0000                  ANTENNA: DELTA H/E/N
     1     1                                                WAVELENGTH FACT L1/2
     4    C1    L1    P2    L2                              # / TYPES OF OBSERV 
    30.000                                                  INTERVAL            
  2015    03    05    00    00    0.0000000     GPS         TIME OF FIRST OBS   
  2015    03    05    23    59   30.0000000     GPS         TIME OF LAST OBS    
    16                                                      LEAP SECONDS        
    38                                                      # OF SATELLITES     
   G 1   820   820   820   820                              PRN / # OF OBS      
   G 2   932   932   932   932                              PRN / # OF OBS      
   G 3   855   855   855   855                              PRN / # OF OBS      
   G 4   844   844   844   844                              PRN / # OF OBS      
   G 5   621   620   620   620                              PRN / # OF OBS      
   G 6   805   805   805   805                              PRN / # OF OBS      
   G 7   669   669   669   669                              PRN / # OF OBS      
   G 9   808   808   808   808                              PRN / # OF OBS      
   G10   738   738   738   738                              PRN / # OF OBS      
   G11   782   782   782   782                              PRN / # OF OBS      
   G12   813   813   813   813                              PRN / # OF OBS      
   G13   784   783   783   783                              PRN / # OF OBS      
   G14   454   454   454   454                              PRN / # OF OBS      
   G15   678   678   678   678                              PRN / # OF OBS      
   G16   673   672   672   672                              PRN / # OF OBS      
   G17   931   931   930   930                              PRN / # OF OBS      
   G18   913   913   913   913                              PRN / # OF OBS      
   G19   762   762   762   762                              PRN / # OF OBS      
   G20   753   753   753   753                              PRN / # OF OBS      
   G21   693   693   692   692                              PRN / # OF OBS      
   G22   655   653   649   649                              PRN / # OF OBS      
   G23   752   752   752   752                              PRN / # OF OBS      
   G24   819   807   801   800                              PRN / # OF OBS      
   G25   856   856   856   856                              PRN / # OF OBS      
   G27   815   815   815   815                              PRN / # OF OBS      
   G28   877   877   876   876                              PRN / # OF OBS      
   G29   750   750   749   749                              PRN / # OF OBS      
   G30   716   716   716   716                              PRN / # OF OBS      
   G31   852   851   851   851                              PRN / # OF OBS      
   G32   767   766   766   766                              PRN / # OF OBS      
   R 2    30    30    30    30                              PRN / # OF OBS      
   R 3    30    30    30    30                              PRN / # OF OBS      
   R 9    30    30    30    30                              PRN / # OF OBS      
   R15    30    30    30    30                              PRN / # OF OBS      
   R16    30    30    30    30                              PRN / # OF OBS      
   R17    30    30    30    30                              PRN / # OF OBS      
   R18    30    30    30    30                              PRN / # OF OBS      
   R19    30    30    30    30                              PRN / # OF OBS      
BIT 2 OF LLI FLAGS DATA COLLECTED UNDER A/S CONDITION       COMMENT             
SNR is mapped to RINEX snr flag value [2-9]                 COMMENT             
Lx:     = 25dBHz -> 1; 26-27dBHz -> 2; 28-31dBHz -> 3       COMMENT             
       32-35dBHz -> 4; 36-38dBHz -> 5; 39-41dBHz -> 6       COMMENT             
       42-44dBHz -> 7; 45-48dBHz -> 8; >=49dBHz -> 9        COMMENT             
                                                            END OF HEADER       
 15 03 05 00 00  0.0000000  0 15G16G18G21G22G27G29G31R02R03R09R15R16
                                R17R18R19
  21271467.940   111782342.48009  21271464.620    87103121.88348
  22044755.380   115846029.54409  22044752.380    90269649.61047
  21651117.880   113777585.21709  21651113.860    88657934.00448
  23084071.300   121307668.56808  23084067.900    94525469.39747
  22506510.100   118272540.97609  22506510.100    92160435.07948
  24480302.820   128645241.23208  24480301.160   100243205.84046
  23654027.600   124302772.82008  23654026.080    96859303.98846
  22362761.500   119331999.29108  22362765.720    92813797.29307
  22216055.300   118924299.39008  22216056.380    92496689.69007
  21851509.620   116685848.28708  21851510.320    90755667.32404
  22402278.840   119710998.71008  22402283.600    93108580.02107
  19934187.380   106484858.67008  19934189.700    82821571.25408
  22426828.440   120010880.96008  22426829.400    93341992.94407
  20174951.240   107695439.53909  20174954.280    83763097.28008
  22049599.380   117950518.01209  22049600.380    91739309.36607
 15 03 05 00 00 30.0000000  0 15G16G18G21G22G27G29G31R02R03R09R15R16
                                R17R18R19
  21260074.880   111722471.66909  21260071.540    87056469.30548
  22036167.980   115800902.45709  22036165.040    90234485.65947
  21660786.560   113828393.99708  21660782.460    88697525.26248
  23066719.600   121216485.15108  23066716.320    94454417.45347
  22494897.260   118211515.08509  22494897.200    92112882.43047
  24494239.440   128718477.31608  24494237.540   100300272.90845
  23671961.600   124397016.81608  23671960.140    96932740.81046
  22363244.440   119334575.74308  22363248.840    92815801.23208
  22199311.880   118834670.79307  22199312.760    92426978.60607
  21836955.220   116608129.55908  21836956.120    90695219.47405
  22426581.420   119840864.90307  22426586.420    93209587.00907
  19940622.840   106519236.04408  19940625.180    82848309.20108
  22440553.300   120084324.66108  22440554.100    93399115.79607
  20178672.620   107715304.42209  20178675.600    83778547.75108
  22038969.020   117893653.07808  22038969.900    91695081.13507
 15 03 05 00 01  0.0000000  0 15G16G18G21G22G27G29G31R02R03R09R15R16
                                R17R18R19
  21248749.580   111662956.59809  21248746.140    87010093.92948
  22027655.780   115756170.47409  22027652.860    90199629.58847
  21670501.240   113879444.97509  21670497.120    88737305.23448
  23049392.620   121125431.52108  23049389.360    94383466.63047
  22483301.800   118150580.49209  22483301.720    92065400.95047
  24508181.580   128791742.91307  24508179.260   100357362.99445
  23689907.040   124491320.51908  23689905.580    97006224.15146
  22363865.540   119337889.28108  22363869.920    92818378.46107
  22182641.240   118745431.67508  22182642.040    92357570.43107
  21822518.500   116531038.26908  21822519.800    90635259.57504
  22450918.100   119970912.83608  22450923.320    93310735.31807
  19947209.800   106554422.51108  19947212.140    82875676.44508
  22454276.240   120157758.33907  22454277.140    93456230.88707
  20182427.900   107735350.01709  20182430.700    83794138.77108
  22028372.900   117836970.71609  22028373.640    91650994.84107
 15 03 05 00 01 30.0000000  0 15G16G18G21G22G27G29G31R02R03R09R15R16
                                R17R18R19
  21237492.800   111603801.73809  21237489.360    86963999.25248
  22019219.440   115711837.26309  22019216.520    90165084.25447
  21680262.120   113930738.89309  21680258.100    88777274.51748
  23032091.320   121034512.63109  23032087.960    94312620.79747
  22471724.080   118089739.41209  22471724.020    92017992.34747
  24522129.380   128865039.96607  24522126.840   100414477.63445
  23707863.740   124585682.93908  23707862.080    97079753.27146
  22364625.340   119341942.64708  22364629.580    92821531.07007
  22166044.660   118656588.47808  22166045.320    92288470.19407
  21808200.260   116454579.87209  21808201.620    90575791.98904
  22475288.540   120101140.48808  22475293.760    93412023.42107
  19953948.240   106590418.20908  19953950.640    82903673.08208
  22467997.360   120231183.64207  22467998.900    93513339.38507
  20186217.280   107755577.33109  20186219.960    83809871.13108
  22017811.000   117780472.13508  22017812.000    91607051.60107
 15 03 05 00 02  0.0000000  0 15G16G18G21G22G27G29G31R02R03R09R15R16
                                R17R18R19
  21226304.960   111545009.30209  21226301.580    86918186.98148
  22010859.420   115667905.06909  22010856.440    90130851.40647
  21690068.800   113982273.67508  21690064.840    88817431.48248
  23014816.300   120943731.23209  23014812.700    94241882.11246
  22460164.180   118028991.95909  22460164.060    91970656.70647
  24536083.160   128938368.86507  24536080.980   100471616.98745
  23725831.040   124680101.09108  23725829.260    97153325.79446
  22365523.820   119346736.13908  22365527.400    92825259.41707
  22149522.880   118568145.54208  22149523.440    92219681.27107
  21794001.120   116378757.55008  21794002.340    90516819.05105
  22499691.820   120231543.37808  22499696.980    93513447.83907
  19960837.820   106627221.19908  19960840.280    82932297.63008
  22481716.760   120304600.42107  22481718.880    93570441.35807
  20190040.400   107775985.08309  20190043.020    83825743.82808
  22007283.580   117724156.72708  22007283.820    91563250.68207
 15 03 05 00 02 30.0000000  0 15G16G18G21G22G27G29G31R02R03R09R15R16
                                R17R18R19
  21215186.940   111486583.88609  21215183.600    86872660.69748
  22002576.420   115624377.66009  22002573.400    90096933.97947
  21699921.500   114034050.17609  21699917.560    88857776.81148
  22997568.480   120853092.40909  22997564.560    94171254.49847
  22448622.600   117968340.75409  22448622.520    91923396.04847
  24550043.000   129011731.55907  24550041.620   100528782.70646
  23743808.860   124774574.48708  23743806.960    97226941.36646
  22366561.420   119352272.80109  22366564.480    92829565.71207
  22133077.120   118480109.79908  22133077.840    92151209.05107
  21779922.160   116303576.97808  21779923.360    90458345.28305
  22524127.220   120362118.83307  22524132.500    93615006.44707
  19967878.680   106664832.06308  19967881.100    82961550.52208
  22495435.120   120378010.58107  22495437.480    93627538.13607
  20193897.500   107796574.63509  20193900.140    83841757.92708
  21996790.240   117668025.99009  21996791.020    91519593.53407
 15 03 05 00 03  0.0000000  0 14G16G18G21G22G27G31R02R03R09R15R16R17
                                R18R19
  21204144.740   111428556.72909  21204141.400    86827444.73848
  21994376.400   115581286.36209  21994373.380    90063356.34647
  21709825.400   114086095.62109  21709821.480    88898331.71248
  22980353.900   120762628.28409  22980349.740    94100763.03847
  22437104.940   117907815.20009  22437104.800    91876233.28247
  23761802.260   124869129.65108  23761800.240    97300620.65746
  22367744.060   119358582.63409  22367746.880    92834473.41007
  22116713.740   118392515.67108  22116714.640    92083080.34707
  21765969.540   116229071.29908  21765970.840    90400396.47805
  22548599.820   120492893.21208  22548605.140    93716719.77606
  19975075.940   106703278.34408  19975078.300    82991453.17508
  22509157.780   120451443.76708  22509159.860    93684652.83406
  20197794.020   107817374.70509  20197796.740    83857935.76108
  21986337.200   117612109.34108  21986337.520    91476102.81107
 15 03 05 00 03 30.0000000  0 14G16G18G21G22G27G31R02R03R09R15R16R17
                                R18R19
  21193163.760   111370851.23409  21193160.420    86782479.42548
  21986244.660   115538554.07109  21986241.700    90030058.48647
  21719765.240   114138329.92808  21719761.360    88939033.76748
  22963157.940   120672262.34808  22963153.560    94030348.06647
  22425596.160   117847336.32608  22425595.960    91829106.94048
  23779795.520   124963684.29008  23779793.440    97374299.52546
  22369056.560   119365585.76408  22369059.500    92839920.27607
  22100418.660   118305286.65008  22100419.460    92015235.58207
  21752128.840   116155163.14208  21752130.000    90342912.35204
  22573093.840   120623782.09008  22573099.220    93818522.13906
  19982414.060   106742477.52608  19982416.460    83021941.41108
  22522869.660   120524818.79308  22522871.000    93741722.31606
  20201714.680   107838303.58209  20201717.440    83874213.78508
  21975909.000   117556325.48709  21975909.700    91432715.41707
 15 03 05 00 04  0.0000000  0 14G16G18G21G22G27G31R02R03R09R15R16R17
                                R18R19
  21182254.580   111313523.09809  21182251.260    86737808.15948
  21978191.680   115496235.70409  21978188.820    89997083.14547
  21729750.800   114190804.53408  21729746.960    88979923.07448
  22945991.260   120582050.78808  22945986.800    93960053.41147
  22414106.520   117786957.89709  22414106.240    91782058.86947
  23797798.340   125058289.31408  23797796.240    97448017.65246
  22370509.180   119373336.79309  22370511.880    92845948.90007
  22084202.660   118218481.67308  22084203.480    91947720.62707
  21738410.880   116081910.31308  21738412.120    90285937.95404
  22597618.720   120754835.06508  22597623.920    93920452.18506
  19989902.980   106782482.31508  19989905.440    83053056.24108
  22536581.280   120598190.29008  22536581.820    93798789.05906
  20205669.500   107859414.69609  20205672.260    83890633.53208
  21965515.720   117500728.36709  21965516.100    91389473.24507
 15 03 05 00 04 30.0000000  0 14G16G18G21G22G27G31R02R03R09R15R16R17
                                R18R19
  21171416.260   111256567.32109  21171412.980    86693427.04048
  21970216.520   115454326.31509  21970213.680    89964426.49347
  21739780.280   114243509.84908  21739776.480    89020992.15348
  22928853.020   120491989.19108  22928848.520    93889875.58547
  22402634.620   117726672.82409  22402634.300    91735083.48548
  23815808.780   125152934.48908  23815806.700    97521767.05946
  22372100.580   119381828.63509  22372103.220    92852553.65107
  22068065.340   118132098.14408  22068066.180    91880533.47107
  21724814.860   116009308.36308  21724816.060    90229469.75805
  22622172.180   120886040.13008  22622177.020    94022500.49806
  19997540.800   106823282.68108  19997543.340    83084789.84408
  22550290.940   120671550.40008  22550291.340    93855846.87407
  20209656.940   107880699.61209  20209659.660    83907188.46608
  21955155.800   117445309.61209  21955156.260    91346369.82407
 15 03 05 00 05  0.0000000  0 14G16G18G21G22G27G31R02R03R09R15R16R17
                                R18R19
  21160649.440   111199987.15809  21160646.200    86649338.61248
  21962319.660   115412828.48509  21962316.860    89932090.54247
  21749853.620   114296445.40009  21749849.840    89062240.63348
  22911743.980   120402081.29909  22911739.520    93819817.55147
  22391180.740   117666482.37309  22391180.340    91688181.88848
  23833826.480   125247618.08708  23833824.460    97595546.40246
  22373831.280   119391062.96008  22373833.500    92859735.95807
  22052007.800   118046141.25808  22052008.660    91813678.15107
  21711341.560   115937361.77508  21711342.760    90173511.32804
  22646753.760   121017395.64708  22646758.420    94124665.82907
  20005327.480   106864877.80308  20005330.140    83117141.60708
  22563998.380   120744899.64908  22563998.540    93912896.29407
  20213676.860   107902158.27109  20213679.560    83923878.53008
  21944829.380   117390069.68008  21944829.760    91303405.46507
 15 03 05 00 05 30.0000000  0 14G16G18G21G22G27G31R02R03R09R15R16R17
                                R18R19
  21149954.460   111143784.45209  21149951.240    86605544.30548
  21954501.440   115371743.95109  21954498.660    89900076.62747
  21759970.440   114349609.40109  21759966.640    89103667.13548
  22894664.680   120312329.53209  22894660.220    93749881.17447
  22379744.840   117606386.48109  22379744.440    91641353.94548
  23851850.820   125342336.75908  23851848.900    97669353.10046
  22375700.980   119401039.33008  22375703.140    92867495.36107
  22036030.800   117960614.90408  22036031.500    91747157.65507
  21697991.460   115866073.25308  21697992.780    90118064.71604
  22671362.300   121148895.46408  22671366.880    94226943.40307
  20013262.460   106907265.09208  20013265.200    83150109.48008
  22577703.240   120818237.77608  22577703.680    93969937.06207
  20217729.060   107923789.36409  20217731.760    83940702.73008
  21934536.060   117335007.65809  21934536.360    91260579.46307
 15 03 05 00 06  0.0000000  0 14G16G18G21G22G27G31R02R03R09R15R16R17
                                R18R19
  21139331.640   111087960.86909  21139328.400    86562045.41848
  21946762.100   115331073.62009  21946759.300    89868385.49147
  21770130.260   114402999.38709  21770126.400    89145269.72848
  22877615.460   120222735.95908  22877611.020    93680068.02947
  22368326.820   117546384.72209  22368326.560    91594599.33448
  23869881.060   125437086.94808  23869879.260    97743184.32446
  22377709.660   119411757.32209  22377711.900    92875831.57907
  22020134.840   117875522.87208  22020135.500    91680974.99307
  21684765.160   115795445.28708  21684766.600    90063131.84605
  22695997.180   121280536.39808  22696001.920    94329330.69007
  20021345.200   106950441.33108  20021347.940    83183690.98508
  22591405.780   120891563.65508  22591406.400    94026968.29207
  20221813.240   107945591.18909  20221816.000    83957659.70508
  21924275.820   117280122.33308  21924276.040    91217890.93507
 15 03 05 00 06 30.0000000  0 15G16G18G19G21G22G27G31R02R03R09R15R16
                                R17R18R19
  21128781.860   111032521.20709  21128778.540    86518845.68948
  21939102.380   115290821.82509  21939099.680    89837020.46647
  24544643.720   128982973.64308  24544637.180   100506189.55245
  21780333.220   114456616.43008  21780329.380    89187049.25048
  22860597.360   120133306.01009  22860593.040    93610382.41047
  22356927.280   117486479.84109  22356927.060    91547920.26948
  23887917.320   125531868.56308  23887915.620    97817040.04546
  22379857.900   119423219.82509  22379859.560    92884746.90607
  22004321.300   117790872.43408  22004322.120    91615135.81507
  21671663.600   115725483.57308  21671665.240    90008717.20005
  22720657.960   121412316.18608  22720662.900    94431825.96007
  20029575.840   106994407.37708  20029578.480    83217886.78408
  22605106.660   120964880.08008  22605107.420    94083992.18307
  20225929.700   107967565.39609  20225932.600    83974750.76508
  21914048.980   117225415.65408  21914049.040    91175341.31007
 15 03 05 00 07  0.0000000  0 15G16G18G19G21G22G27G31R02R03R09R15R16
                                R17R18R19
  21118304.420   110977461.63009  21118301.000    86475942.12548
  21931521.480   115250984.18909  21931518.840    89805978.17147
  24529813.800   128905052.46307  24529811.000   100445471.87046
  21790577.840   114510452.52108  21790574.080    89228999.44448
  22843609.840   120044036.71008  22843605.680    93540821.95547
  22345545.100   117426666.20408  22345544.920    91501312.25148
  23905957.980   125626672.75008  23905956.360    97890913.35046
  22382144.300   119435420.71209  22382145.820    92894236.50207
  21988589.980   117706661.69508  21988590.760    91549638.57207
  21658686.260   115656185.13308  21658688.020    89954818.44005
  22745342.540   121544223.15608  22745347.480    94534420.19706
  20037952.640   107039154.42708  20037955.200    83252690.02808
  22618804.420   121038180.44108  22618805.820    94141003.55007
  20230077.100   107989704.77409  20230080.080    83991970.27508
  21903853.960   117170880.60209  21903854.280    91132925.22107
 15 03 05 00 07 30.0000000  0 15G16G18G19G21G22G27G31R02R03R09R15R16
                                R17R18R19
  21107901.760   110922795.21809  21107898.280    86433344.92948
  21924021.920   115211573.59909  21924019.160    89775268.63747
  24514997.320   128827192.79608  24514995.420   100384802.11544
  21800865.840   114564516.82808  21800862.200    89271127.48048
  22826655.460   119954941.41409  22826651.460    93471397.10947
  22334182.360   117366954.81508  22334182.240    91454783.93548
  23924004.500   125721507.34808  23924002.820    97964810.36846
  22384571.120   119448371.15509  22384573.300    92904309.07307
  21972943.500   117622905.84007  21972944.200    91484495.15607
  21645835.760   115587564.24908  21645837.340    89901446.64005
  22770052.520   121676265.55408  22770057.440    94637119.75107
  20046477.220   107084691.27008  20046479.760    83288107.56008
  22632501.360   121111475.77408  22632502.500    94198011.00607
  20234257.340   108012019.43509  20234260.360    84009326.13708
  21893693.200   117116527.85308  21893693.240    91090650.85207
 15 03 05 00 08  0.0000000  0 15G16G18G19G21G22G27G31R02R03R09R15R16
                                R17R18R19
  21097568.780   110868495.08609  21097565.300    86391033.14848
  21916598.440   115172562.43309  21916595.500    89744870.33247
  24500187.460   128749365.61107  24500184.420   100324157.45445
  21811191.400   114618778.42208  21811187.880    89313409.25048
  22809729.260   119865993.68809  22809725.300    93402087.24147
  22322833.580   117307316.87109  22322833.560    91408312.84647
  23942050.740   125816340.33308  23942048.980    98038706.12246
  22387132.820   119462041.79808  22387135.100    92914941.84907
  21957377.380   117539580.00008  21957378.180    91419686.24607
  21633107.080   115519593.95008  21633108.480    89848580.86805
  22794781.540   121808409.49308  22794786.300    94739898.29106
  20055143.600   107130985.72208  20055146.140    83324114.34208
  22646191.780   121184736.02008  22646192.980    94254991.16807
  20238464.720   108034478.71509  20238467.700    84026794.47308
  21883560.960   117062326.93108  21883561.380    91048494.62307
 15 03 05 00 08 30.0000000  0 15G16G18G19G21G22G27G31R02R03R09R15R16
                                R17R18R19
  21087312.800   110814599.38409  21087309.300    86349036.50748
  21909258.220   115133988.57609  21909255.160    89714812.81747
  24485390.180   128671606.44108  24485387.840   100263566.08446
  21821561.020   114673271.53109  21821557.580    89355871.42548
  22792838.540   119777232.22109  22792834.580    93332922.51747
  22311505.660   117247788.55209  22311505.660    91361927.17648
  23960103.060   125911205.40008  23960101.300    98112626.85146
  22389836.080   119476469.11508  22389839.060    92926163.09007
  21941899.440   117456724.93308  21941900.220    91355243.43107
  21620507.740   115452314.15808  21620509.060    89796252.16805
  22819535.640   121940687.13908  22819540.280    94842780.81106
  20063958.220   107178072.05108  20063960.820    83360737.03808
  22659882.580   121257997.79108  22659883.980    94311972.53907
  20242705.900   108057118.31809  20242708.840    84044403.06508
  21873463.600   117008313.72508  21873463.760    91006484.38907
 15 03 05 00 09  0.0000000  0 15G16G18G19G21G22G27G31R02R03R09R15R16
                                R17R18R19
  21077130.180   110761089.17109  21077126.640    86307340.24248
  21901997.480   115095832.59909  21901994.400    89685080.89847
  24470602.440   128593894.79207  24470600.120   100203011.59345
  21831970.460   114727973.36609  21831967.020    89398496.24648
  22775979.880   119688639.03109  22775975.840    93263888.89647
  22300194.700   117188349.22109  22300194.680    91315610.83548
  23978156.860   126006078.23108  23978155.040    98186553.64546
  22392677.280   119491631.64208  22392680.020    92937956.23707
  21926506.300   117374323.35308  21926506.960    91291153.32007
  21608034.240   115385706.30608  21608035.360    89744446.02905
  22844310.040   122073073.23308  22844314.620    94945747.67806
  20072916.720   107225926.60608  20072919.320    83397957.23908
  22673569.760   121331239.57208  22673570.880    94368938.35507
  20246976.660   108079915.85009  20246979.580    84062134.47308
  21863397.260   116954466.33708  21863397.920    90964603.15207
 15 03 05 00 09 30.0000000  0 15G16G18G19G21G22G27G31R02R03R09R15R16
                                R17R18R19
  21067024.500   110707983.49009  21067020.960    86265959.20048
  21894819.700   115058112.66109  21894816.520    89655688.74647
  24455826.360   128516246.98507  24455823.300   100142506.84145
  21842422.460   114782899.11508  21842419.100    89441295.53348
  22759156.880   119600233.23609  22759152.680    93195001.30647
  22288903.840   117129015.68008  22288903.820    91269376.92748
  23996214.860   126100973.08308  23996213.000    98260497.59146
  22395659.480   119507546.23008  22395662.380    92950334.26707
  21911201.800   117292396.92308  21911202.460    91227432.84607
  21595690.320   115319790.30108  21595691.520    89693178.09205
  22869107.060   122205580.09707  22869111.720    95048808.48907
  20082021.740   107274563.39508  20082024.280    83435785.83908
  22687256.280   121404477.97908  22687256.680    94425901.55207
  20251280.020   108102887.29109  20251282.900    84080001.15308
  21853365.020   116900801.05408  21853365.260    90922863.47307
 15 03 05 00 10  0.0000000  0 15G16G18G19G21G22G27G31R02R03R09R15R16
                                R17R18R19
  21056992.600   110655265.52609  21056989.060    86224880.28348
  21887721.480   115020811.11909  21887718.200    89626622.63847
  24441059.340   128438644.31008  24441056.320   100082037.25346
  21852913.120   114838028.13908  21852909.780    89484253.22048
  22742366.360   119511998.31909  22742362.000    93126246.87047
  22277629.520   117069768.99409  22277629.420    91223210.72548
  24014272.740   126195867.39208  24014270.700    98334441.12745
  22398778.840   119524193.37408  22398782.640    92963282.00607
  21895983.060   117210929.91807  21895983.880    91164069.62607
  21583472.840   115254549.49008  21583473.940    89642435.24104
  22893922.140   122338184.02707  22893927.040    95151944.78506
  20091269.080   107323960.31508  20091271.500    83474205.65508
  22700938.720   121477693.43808  22700938.080    94482846.91706
  20255612.140   108126012.14009  20255614.980    84097987.16408
  21843362.980   116847297.63008  21843363.860    90881249.76207
 15 03 05 00 10 30.0000000  0 15G16G18G19G21G22G27G31R02R03R09R15R16
                                R17R18R19
  21047038.860   110602958.08009  21047035.260    86184121.23748
  21880707.180   114983951.19909  21880703.960    89597900.63947
  24426304.420   128361107.29707  24426302.020   100021618.98345
  21863446.020   114893379.37008  21863442.760    89527384.05548
  22725612.920   119423958.25009  22725608.360    93057644.25047
  22266375.840   117010630.53309  22266375.740    91177128.81848
  24032334.080   126290779.71508  24032331.960    98408398.70546
  22402039.460   119541593.71808  22402043.640    92976815.63807
  21880854.980   117129948.35108  21880856.000    91101084.05107
  21571386.300   115190008.10208  21571387.520    89592236.43205
  22918758.620   122470902.55007  22918763.740    95255170.20306
  20100662.240   107374136.34208  20100664.540    83513231.43708
  22714620.560   121550907.13908  22714619.720    94539790.92506
  20259976.720   108149310.84009  20259979.520    84116108.37208
  21833395.180   116793976.78008  21833395.520    90839778.00907
 15 03 05 00 11  0.0000000  0 15G16G18G19G21G22G27G31R02R03R09R15R16
                                R17R18R19
  21037159.500   110551041.75109  21037155.880    86143666.96248
  21873772.960   114947512.14209  21873769.800    89569506.58147
  24411558.500   128283614.98308  24411555.100    99961235.29945
  21874016.620   114948928.48909  21874013.360    89570669.08048
  22708892.940   119336094.02509  22708888.220    92989178.65547
  22255138.640   116951578.77909  22255138.580    91131114.51848
  24050394.240   126385685.25108  24050392.000    98482350.97646
  22405437.460   119559725.49208  22405441.480    92990918.16607
  21865814.340   117049434.55808  21865815.460    91038462.22607
  21559427.140   115126146.98108  21559428.420    89542566.63905
  22943611.680   122603709.58308  22943617.000    95358464.44406
  20110196.540   107425066.66708  20110198.840    83552843.89308
  22728297.660   121624096.81808  22728297.060    94596716.18207
  20264369.520   108172760.23509  20264372.280    84134346.80108
  21823457.380   116740815.67308  21823458.120    90798430.53207
 15 03 05 00 11 30.0000000  0 15G16G18G19G21G22G27G31R02R03R09R15R16
                                R17R18R19
  21027356.700   110499527.83109  21027353.060    86103526.25648
  21866920.960   114911505.05409  21866917.840    89541449.13347
  24396822.580   128206176.08707  24396819.380    99900893.41446
  21884626.560   115004684.16609  21884623.300    89614115.07448
  22692208.740   119248417.67909  22692203.900    92920859.46347
  22243919.760   116892623.37509  22243919.720    91085175.26248
  24068454.340   126480590.55508  24068452.060    98556303.08246
  22408974.180   119578597.75308  22408977.700    93005596.62407
  21850863.500   116969401.72608  21850864.520    90976214.51807
  21547597.660   115062978.22308  21547599.060    89493435.41205
  22968482.280   122736610.02308  22968487.700    95461831.35806
  20119873.160   107476757.74608  20119875.580    83593048.06208
  22741972.100   121697271.76308  22741971.440    94653630.01906
  20268792.220   108196369.12209  20268794.940    84152709.27708
  21813550.940   116687823.20608  21813551.560    90757214.22707
 15 03 05 00 12  0.0000000  0 15G16G18G19G21G22G27G31R02R03R09R15R16
                                R17R18R19
  21017632.340   110448426.35309  21017628.760    86063706.93248
  21860152.900   114875939.01109  21860149.800    89513735.34547
  24382098.220   128128798.51208  24382095.200    99840599.29645
  21895277.000   115060652.38809  21895273.660    89657726.68148
  22675562.220   119160939.57309  22675557.400    92852694.74247
  22232720.780   116833772.34309  22232720.700    91039317.35248
  24086515.340   126575500.87908  24086513.200    98630259.08246
  22412651.260   119598218.13408  22412654.460    93020856.95607
  21836004.840   116889862.23608  21836005.820    90914350.48207
  21535899.880   115000512.82108  21535901.100    89444851.19605
  22993371.040   122869607.38807  22993376.460    95565273.68006
  20129693.200   107529215.03508  20129695.760    83633848.15308
  22755645.280   121770439.81608  22755644.340    94710538.53806
  20273246.020   108220144.20609  20273248.840    84171201.01608
  21803677.520   116635006.22708  21803678.240    90716134.41307
 15 03 05 00 12 30.0000000  0 15G16G18G19G21G22G27G31R02R03R09R15R16
                                R17R18R19
  21007984.680   110397727.89909  21007981.160    86024201.64748
  21853466.940   114840804.67909  21853463.920    89486357.95447
  24367383.480   128051470.90607  24367379.760    99780343.98245
  21905965.440   115116820.22509  21905961.960    89701493.84148
  22658951.740   119073651.11909  22658946.960    92784677.81247
  22221539.560   116775014.58809  22221539.460    90993532.09848
  24104574.420   126670401.55608  24104572.400    98704207.58245
  22416466.180   119618574.71508  22416469.020    93036689.84007
  21821236.880   116810808.62808  21821237.900    90852864.38308
  21524332.120   114938741.68708  21524333.420    89396807.02205
  23018275.180   123002687.09707  23018280.620    95668779.99506
  20139654.000   107582424.05708  20139656.680    83675232.93308
  22769315.080   121843589.39608  22769314.060    94767432.62007
  20277728.700   108244073.09409  20277731.540    84189812.37908
  21793834.700   116582352.96708  21793834.940    90675181.86707
 15 03 05 00 13  0.0000000  0 15G16G18G19G21G22G27G31R02R03R09R15R16
                                R17R18R19
  20998415.640   110347442.75409  20998412.240    85985018.42548
  21846864.900   114806111.24809  21846862.020    89459324.13847
  24352679.340   127974201.19608  24352675.880    99720133.97046
  21916692.940   115173193.05609  21916689.340    89745420.73147
  22642379.280   118986562.74309  22642374.560    92716816.77647
  22210377.640   116716358.16809  22210377.460    90947825.81648
  24122632.620   126765297.97008  24122630.840    98778152.74946
  22420420.600   119639674.97208  22420422.940    93053101.19407
  21806561.960   116732253.11708  21806563.020    90791765.70607
  21512896.360   114877675.48108  21512897.760    89349311.07605
  23043195.160   123135851.92207  23043200.580    95772352.52306
  20149756.520   107636389.81808  20149759.180    83717206.28608
  22782982.760   121916728.28708  22782982.300    94824318.42007
  20282241.560   108268162.78309  20282244.360    84208548.82208
  21784023.660   116529870.41408  21784024.160    90634362.16408
 15 03 05 00 13 30.0000000  0 15G16G18G19G21G22G27G31R02R03R09R15R16
                                R17R18R19
  20988924.900   110297568.96509  20988921.580    85946155.74348
  21840346.380   114771856.48309  21840343.520    89432632.12347
  24337985.620   127896985.61808  24337982.380    99659966.05044
  21927458.480   115229765.65409  21927454.780    89789503.28747
  22625844.760   118899673.49609  22625840.040    92649110.91447
  22199234.340   116657799.50309  22199234.140    90902195.72448
  24140688.720   126860183.46308  24140687.100    98852089.41945
  22424513.300   119661514.49408  22424515.340    93070087.47907
  21791980.120   116654195.87608  21791981.060    90731054.53507
  21501592.340   114817313.06408  21501593.960    89302362.58405
  23068129.400   123269093.63307  23068134.960    95875984.84606
  20159999.420   107691105.69308  20160002.020    83759763.06908
  22796647.480   121989852.20507  22796646.620    94881192.57906
  20286783.660   108292408.56009  20286786.440    84227406.65508
  21774243.720   116477554.02208  21774243.640    90593671.64707
 15 03 05 00 14  0.0000000  0 15G16G18G19G21G22G27G31R02R03R09R15R16
                                R17R18R19
  20979513.520   110248112.24109  20979510.260    85907618.04548
  21833912.320   114738045.35109  21833909.340    89406285.82047
  24323302.660   127819827.67608  24323298.980    99599843.05345
  21938262.300   115286539.76409  21938258.480    89833742.85648
  22609349.360   118812989.83609  22609344.700    92581565.25547
  22188110.420   116599342.60909  22188110.120    90856644.93948
  24158742.840   126955058.54008  24158741.360    98926017.93646
  22428745.300   119684096.49909  22428747.200    93087651.29807
  21777492.900   116576644.75208  21777493.660    90670737.04607
  21490421.340   114757660.79308  21490423.120    89255966.37905
  23093078.000   123402412.54407  23093083.700    95979677.19306
  20170382.880   107746572.51508  20170385.480    83802903.90808
  22810309.900   122062964.96108  22810309.460    94938058.02906
  20291355.500   108316813.15209  20291358.220    84246388.01508
  21764495.220   116425406.86908  21764495.820    90553112.81108
 15 03 05 00 14 30.0000000  0 15G16G18G19G21G22G27G31R02R03R09R15R16
                                R17R18R19
  20970180.440   110199066.84609  20970177.260    85869400.87048
  21827561.540   114704671.45609  21827558.380    89380280.19647
  24308629.500   127742719.92908  24308626.120    99539759.15946
  21949102.560   115343506.05908  21949098.740    89878132.17848
  22592892.020   118726506.30109  22592887.480    92514175.53847
  22177004.340   116540979.86009  22177004.020    90811167.50048
  24176792.980   127049912.77708  24176791.420    98999930.23246
  22433114.660   119707412.72708  22433116.780    93105786.09007
  21763099.760   116499595.89908  21763100.360    90610810.19607
  21479382.280   114698713.12508  21479384.060    89210118.20305
  23118038.740   123535795.75007  23118044.620    96083419.54306
  20180904.880   107802779.13208  20180907.420    83846620.15308
  22823968.640   122136058.46307  22823968.960    94994908.55606
  20295955.360   108341367.45509  20295958.080    84265485.82908
  21754776.780   116373420.05708  21754776.880    90512678.64507
 15 03 05 00 15  0.0000000  0  7G16G18G19G21G22G27G31
  20960927.380   110150441.91609  20960924.260    85831511.32848
  21821295.680   114671743.39609  21821292.420    89354622.00647
  24293967.000   127665668.95108  24293963.400    99479719.51045
  21959980.380   115400669.66808  21959976.640    89922675.25248
  22576474.640   118640232.76009  22576470.180    92446949.46647
  22165917.520   116482718.67109  22165917.220    90765769.19048
  24194840.020   127144750.47508  24194838.480    99073829.60945
 15 03 05 00 15 30.0000000  0  7G16G18G19G21G22G27G31
  20951753.660   110102233.90209  20951750.580    85793946.65248
  21815113.840   114639256.96109  21815110.540    89329307.91147
  24279314.600   127588669.50208  24279311.100    99419719.99146
  21970894.400   115458023.70308  21970890.760    89967366.71048
  22560096.640   118554166.17509  22560092.240    92379884.62947
  22154849.020   116424553.69009  22154848.760    90720445.86648
  24212882.340   127239563.01308  24212880.720    99147709.41645
 15 03 05 00 16  0.0000000  0  7G16G18G19G21G22G27G31
  20942661.400   110054453.69009  20942658.340    85756715.32548
  21809017.940   114607222.55109  21809014.640    89304346.03947
  24264673.460   127511730.35708  24264670.240    99359767.52746
  21981845.860   115515574.96208  21981842.340    90012211.84148
  22543760.280   118468318.30509  22543755.880    92312990.23447
  22143800.620   116366494.12409  22143800.380    90675204.68148
  24230921.140   127334356.78008  24230919.340    99221574.61145
 15 03 05 00 16 30.0000000  0  7G16G18G19G21G22G27G31
  20933649.140   110007093.96509  20933646.080    85719811.65948
  21803006.300   114575631.45909  21803003.100    89279729.62847
  24250042.100   127434842.32008  24250038.980    99299854.83645
  21992832.840   115573312.41308  21992829.500    90057202.07648
  22527464.260   118382682.46009  22527459.860    92246261.03147
  22132770.500   116308530.74409  22132770.280    90630038.44048
  24248953.980   127429119.30808  24248952.040    99295415.42145
 15 03 05 00 17  0.0000000  0  7G16G18G19G21G22G27G31
  20924718.400   109960162.56809  20924715.340    85683241.74948
  21797080.440   114544491.54009  21797077.400    89255464.77347
  24235421.460   127358011.02408  24235418.460    99239986.34946
  22003855.960   115631239.74308  22003852.780    90102340.25647
  22511210.100   118297266.95009  22511205.780    92179703.53047
  22121759.860   116250669.74208  22121759.680    90584951.95748
  24266981.460   127523853.55608  24266979.260    99369234.21745
 15 03 05 00 17 30.0000000  0  7G16G18G19G21G22G27G31
  20915869.340   109913660.39909  20915866.280    85647006.30748
  21791240.380   114513802.50409  21791237.520    89231551.25647
  24220811.500   127281235.11608  24220808.420    99180161.04845
  22014914.620   115689353.99308  22014911.580    90147624.08748
  22494998.000   118212072.97209  22494993.860    92113318.65147
  22110768.500   116192910.10509  22110768.400    90539944.47048
  24285002.780   127618555.43308  24285000.520    99443027.80445
 15 03 05 00 18  0.0000000  0  7G16G18G19G21G22G27G31
  20907102.300   109867588.78309  20907099.180    85611106.35948
  21785486.260   114483565.08209  21785483.560    89207989.65647
  24206211.920   127204513.90208  24206208.420    99120378.32345
  22026008.580   115747653.56108  22026005.580    90193052.32647
  22478828.540   118127103.07409  22478824.560    92047108.39047
  22099796.440   116135251.75909  22099796.400    90495015.91548
  24303017.280   127713221.80708  24303015.200    99516793.70746
 15 03 05 00 18 30.0000000  0  7G16G18G19G21G22G27G31
  20898417.900   109821951.49309  20898414.660    85575544.84148
  21779818.800   114453782.85409  21779816.140    89184782.72947
  24191623.220   127127850.05308  24191619.960    99060640.35346
  22037137.900   115806138.49108  22037134.740    90238625.00947
  22462702.740   118042361.79409  22462698.700    91981076.25247
  22088844.120   116077696.96809  22088844.040    90450168.03748
  24321024.800   127807851.95508  24321022.820    99590531.32745
 15 03 05 00 19  0.0000000  0  7G16G18G19G21G22G27G31
  20889815.460   109776745.17709  20889812.140    85540319.15448
  21774237.240   114424451.67709  21774234.540    89161927.29147
  24177044.360   127051237.61608  24177040.740    99000942.38545
  22048301.040   115864801.00308  22048297.780    90284336.05847
  22446619.980   117957846.00909  22446615.820    91915219.83147
  22077910.540   116020240.35209  22077910.400    90405396.67048
  24339023.920   127902437.35408  24339021.880    99664234.18045
 15 03 05 00 19 30.0000000  0  7G16G18G19G21G22G27G31
  20881296.440   109731977.58509  20881293.100    85505435.32448
  21768742.860   114395578.23409  21768740.060    89139428.52447
  24162476.440   126974682.80808  24162472.940    98941289.35846
  22059498.880   115923645.62908  22059495.600    90330189.01347
  22430581.820   117873564.41809  22430577.580    91849545.90547
  22066996.860   115962888.31409  22066996.640    90360706.78848
  24357015.100   127996981.38108  24357013.220    99737904.69345
 15 03 05 00 20  0.0000000  0  7G16G18G19G21G22G27G31
  20872860.580   109687646.78609  20872857.220    85470891.84948
  21763335.220   114367160.38409  21763332.320    89117284.75847
  24147918.680   126898181.30508  24147915.180    98881677.85846
  22070730.260   115982666.14709  22070726.860    90376179.01447
  22414587.920   117789515.46809  22414583.560    91784053.24347
  22056102.340   115905636.97809  22056102.060    90316095.39348
  24374997.040   128091476.95008  24374995.440    99811537.44846
 15 03 05 00 20 30.0000000  0  7G16G18G19G21G22G27G31
  20864508.860   109643758.13809  20864505.480    85436692.91748
  21758015.120   114339202.63609  21758012.120    89095499.50847
  24133371.740   126821737.05808  24133368.020    98822110.93546
  22081995.620   116041865.37708  22081992.100    90422308.28947
  22398639.460   117705705.31409  22398634.960    91718746.67547
  22045227.740   115848490.38809  22045227.420    90271565.60948
  24392970.000   128185924.87808  24392968.380    99885133.15046
 15 03 05 00 21  0.0000000  0  7G16G18G19G21G22G27G31
  20856241.720   109600313.80609  20856238.280    85402840.20548
  21752782.760   114311706.20209  21752779.680    89074073.73347
  24118835.580   126745349.61308  24118832.160    98762588.33646
  22093294.480   116101241.08508  22093291.000    90468575.08847
  22382737.020   117622137.04109  22382732.340    91653628.57147
  22034373.100   115791448.80409  22034372.780    90227117.64648
  24410933.300   128280322.50908  24410931.860    99958689.57446
 15 03 05 00 21 30.0000000  0  7G16G18G19G21G22G27G31
  20848059.440   109557315.12209  20848055.860    85369334.74348
  21747638.140   114284671.45109  21747635.120    89053007.72947
  24104310.260   126669018.93008  24104306.780    98703109.91546
  22104626.460   116160790.90508  22104622.900    90514977.55247
  22366880.960   117538812.46309  22366876.160    91588700.35147
  22023538.400   115734512.20009  22023538.080    90182751.48348
  24428886.500   128374666.68408  24428885.200   100032204.39746
 15 03 05 00 22  0.0000000  0  7G16G18G19G21G22G27G31
  20839962.620   109514765.68109  20839958.960    85336179.33848
  21742581.920   114258101.52909  21742579.060    89032303.90847
  24089795.780   126592746.38108  24089792.760    98643676.84446
  22115991.400   116220514.57008  22115988.060    90561515.46247
  22351072.000   117455735.63109  22351067.160    91523965.19847
  22012724.040   115677682.51709  22012723.720    90138468.63248
  24446829.300   128468956.42108  24446828.120   100105676.73146
 15 03 05 00 22 30.0000000  0  7G16G18G19G21G22G27G31
  20831949.760   109472657.88009  20831946.100    85303368.06948
  21737612.540   114231987.86309  21737609.820    89011955.61347
  24075291.000   126516522.78508  24075287.820    98584281.82846
  22127387.500   116280401.74508  22127384.280    90608180.78747
  22335308.900   117372900.09509  22335304.100    91459418.05747
  22001928.340   115620950.64109  22001928.020    90094261.99748
  24464759.340   128563179.12908  24464758.300   100179096.89746
 15 03 05 00 23  0.0000000  0  7G16G18G19G21G22G27G31
  20824023.720   109431006.49309  20824020.120    85270912.45148
  21732732.820   114206345.02709  21732730.220    88991974.20647
  24060797.720   126440360.99108  24060794.420    98524935.05746
  22138816.740   116340463.44208  22138813.620    90654982.10847
  22319594.600   117290321.24309  22319589.840    91395070.94547
  21991153.760   115564329.87009  21991153.460    90050141.94048
  24482678.660   128657345.16808  24482677.720   100252472.86446
 15 03 05 00 23 30.0000000  0  7G16G18G19G21G22G27G31
  20816182.720   109389802.02009  20816179.240    85238805.07348
  21727940.620   114181161.86109  21727938.060    88972350.96548
  24046314.360   126364249.73208  24046310.880    98465627.59946
  22150276.640   116400685.98108  22150273.500    90701908.76347
  22303927.380   117207989.96909  22303922.660    91330916.72648
  21980398.140   115507809.03409  21980397.860    90006099.76448
  24500584.580   128751440.51408  24500583.640   100325793.74546
 15 03 05 00 24  0.0000000  0  7G16G18G19G21G22G27G31
  20808428.920   109349055.79909  20808425.500    85207054.77848
  21723238.020   114156449.51609  21723235.440    88953094.61048
  24031842.200   126288198.26008  24031838.640    98406366.76746
  22161768.700   116461077.24508  22161765.500    90748966.88747
  22288309.740   117125918.81709  22288305.000    91266965.21447
  21969663.360   115451398.02309  21969663.100    89962143.16548
  24518478.240   128845471.65408  24518477.260   100399064.60246
 15 03 05 00 24 30.0000000  0  7G16G18G19G21G22G27G31
  20800761.860   109308765.40009  20800758.520    85175659.67448
  21718624.360   114132204.72709  21718621.780    88934202.58147
  24017380.820   126212202.42508  24017376.940    98347149.25446
  22173291.760   116521631.42608  22173288.520    90796151.96347
  22272741.240   117044105.81809  22272736.460    91203214.85647
  21958948.720   115395092.99509  21958948.500    89918269.12648
  24536358.380   128939431.74108  24536357.260   100472280.06345
 15 03 05 00 25  0.0000000  0  7G16G18G19G21G22G27G31
  20793182.120   109268933.76009  20793178.780    85144622.03248
  21714100.000   114108429.37509  21714097.460    88915676.33947
  24002930.240   126136263.30008  24002926.200    98287975.93846
  22184845.700   116582347.84808  22184842.520    90843463.46347
  22257222.500   116962554.39409  22257217.660    91139668.32947
  21948254.560   115338895.27609  21948254.380    89874478.71548
  24554224.600   129033318.73508  24554223.680   100545438.55845
 15 03 05 00 25 30.0000000  0  7G16G18G19G21G22G27G31
  20785690.240   109229563.82809  20785686.900    85113944.16948
  21709665.440   114085125.76509  21709662.840    88897517.70047
  23988490.500   126060382.14908  23988486.500    98228847.84646
  22196430.400   116643226.29608  22196427.360    90890901.21947
  22241754.260   116881268.62809  22241749.460    91076328.82247
  21937581.220   115282806.54009  21937580.980    89830773.25048
  24572076.780   129127131.60208  24572075.820   100618539.34145
 15 03 05 00 26  0.0000000  0  7G16G18G19G21G22G27G31
  20778286.160   109190655.44609  20778282.820    85083625.95348
  21705320.480   114062292.79909  21705317.740    88879725.80147
  23974061.560   125984557.29508  23974057.400    98169763.54446
  22208045.140   116704262.42708  22208042.120    90938461.82847
  22226336.680   116800249.17109  22226331.980    91013196.82548
  21926928.300   115226825.05209  21926928.020    89787151.33248
  24589913.900   129220865.42808  24589912.980   100691578.47945
 15 03 05 00 26 30.0000000  0  7G16G18G19G21G22G27G31
  20770970.360   109152210.92809  20770967.020    85053669.18448
  21701065.420   114039932.59909  21701062.720    88862302.27147
  23959643.420   125908789.56808  23959639.320    98110723.82146
  22219689.860   116765455.68108  22219686.760    90986144.88547
  22210970.440   116719499.14809  22210965.780    90950274.75747
  21916296.020   115170951.95409  21916295.600    89743613.86148
  24607735.500   129314518.31308  24607734.540   100764554.56145
 15 03 05 00 27  0.0000000  0  7G16G18G19G21G22G27G31
  20763743.080   109114231.61509  20763739.740    85024074.92448
  21696900.440   114018045.30609  21696897.720    88845247.26647
  23945235.940   125833078.35908  23945231.960    98051728.13946
  22231364.100   116826804.05508  22231360.980    91033948.80747
  22195655.820   116639020.39709  22195651.140    90887564.08847
  21905684.340   115115187.22509  21905683.800    89700160.84448
  24625541.160   129408086.89708  24625540.260   100837464.94545
 15 03 05 00 27 30.0000000  0  7G16G18G19G21G22G27G31
  20756604.840   109076720.01509  20756601.460    84994845.10748
  21692825.720   113996632.03709  21692822.940    88828561.60848
  23930839.340   125757423.98108  23930835.400    97992776.69646
  22243067.640   116888306.27608  22243064.460    91081872.61547
  22180393.480   116558816.35909  22180388.780    90825067.46947
  21895093.500   115059531.83809  21895092.900    89656793.03148
  24643330.360   129501569.11208  24643329.520   100910308.00945
 15 03 05 00 28  0.0000000  0  7G16G18G19G21G22G27G31
  20749556.780   109039682.08409  20749553.400    84965984.38748
  21688842.340   113975698.56909  21688839.480    88812249.82948
  23916454.320   125681830.83708  23916450.640    97933873.01746
  22254800.940   116949964.76608  22254797.660    91129918.18447
  22165184.620   116478893.67009  22165179.940    90762790.08447
  21884524.340   115003990.19909  21884523.680    89613513.86248
  24661103.420   129594966.54208  24661102.620   100983085.00445
 15 03 05 00 28 30.0000000  0  7G16G18G19G21G22G27G31
  20742597.740   109003111.76709  20742594.280    84937488.03248
  21684948.880   113955237.96509  21684945.940    88796306.52648
  23902079.480   125606291.33908  23902075.920    97875011.11846
  22266562.180   117011770.25508  22266558.940    91178078.29547
  22150028.300   116399247.12809  22150023.680    90700727.87247
  21873975.460   114948555.27709  21873974.780    89570317.83948
  24678858.520   129688268.94508  24678857.540   101055787.98545
 15 03 05 00 29  0.0000000  0  7G16G18G19G21G22G27G31
  20735728.720   108967014.61309  20735725.180    84909360.38448
  21681146.220   113935254.83909  21681143.260    88780735.26947
  23887715.660   125530809.21608  23887712.380    97816193.91146
  22278351.940   117073725.09208  22278348.580    91226354.77547
  22134925.780   116319883.17609  22134921.220    90638885.85848
  21863447.660   114893231.28809  21863446.960    89527208.25248
  24696595.720   129781477.38308  24696594.760   101128417.67445
 15 03 05 00 29 30.0000000  0  6G16G18G19G21G22G27
  20728949.620   108931390.19109  20728946.060    84881601.08848
  21677434.000   113915747.51109  21677431.200    88765534.77247
  23873362.280   125455382.54908  23873359.080    97757419.93646
  22290169.260   117135825.06609  22290165.720    91274744.35047
  22119877.000   116240801.58409  22119872.520    90577263.86848
  21852940.560   114838016.26809  21852939.920    89484183.58348
 15 03 05 00 30  0.0000000  0  6G16G18G19G21G22G27
  20722262.120   108896247.18909  20722258.620    84854216.93048
  21673813.880   113896724.08809  21673811.100    88750711.33847
  23859020.920   125380018.47408  23859017.700    97698694.71447
  22302015.300   117198075.80309  22302011.780    91323251.41247
  22104883.860   116162012.09409  22104879.380    90515869.48248
  21842455.640   114782917.85709  21842455.080    89441249.77748
 15 03 05 00 30 30.0000000  0  6G16G18G19G21G22G27
  20715665.820   108861583.32509  20715662.400    84827206.12748
  21670285.320   113878181.54309  21670282.500    88736262.62048
  23844690.720   125304712.95408  23844687.140    97640015.09446
  22313888.880   117260471.43509  22313885.320    91371871.37147
  22089946.120   116083513.39909  22089941.520    90454701.68448
  21831992.260   114727932.43709  21831991.740    89398404.02648
 15 03 05 00 31  0.0000000  0  6G16G18G19G21G22G27
  20709161.180   108827401.11609  20709157.800    84800570.63248
  21666848.580   113860121.16909  21666845.700    88722189.59948
  23830371.780   125229466.84208  23830368.480    97581381.83046
  22325789.760   117323010.85608  22325786.160    91420603.38547
  22075064.440   116005309.30909  22075059.700    90393763.46748
  21821550.640   114673061.18509  21821550.100    89355647.22548
 15 03 05 00 31 30.0000000  0  6G16G18G19G21G22G27
  20702747.260   108793695.68409  20702743.900    84774306.66548
  21663502.620   113842537.74909  21663499.700    88708488.25247
  23816063.200   125154273.98508  23816059.440    97522789.98146
  22337716.520   117385686.67808  22337712.880    91469441.67247
  22060237.880   115927395.42809  22060233.080    90333051.37148
  21811129.600   114618298.09009  21811129.040    89312974.70248
 15 03 05 00 32  0.0000000  0  6G16G18G19G21G22G27
  20696426.960   108760482.29409  20696423.580    84748426.09748
  21660249.980   113825445.08409  21660246.980    88695169.29647
  23801767.060   125079147.57008  23801763.460    97464249.97447
  22349671.420   117448510.48808  22349667.840    91518395.28047
  22045469.500   115849787.60909  22045464.760    90272577.76848
  21800731.780   114563657.25609  21800731.200    89270397.44948
 15 03 05 00 32 30.0000000  0  6G16G18G19G21G22G27
  20690198.360   108727750.65409  20690194.900    84722920.91548
  21657088.560   113808831.90509  21657085.520    88682223.97547
  23787481.300   125004075.79108  23787477.540    97405752.51946
  22361652.020   117511468.79808  22361648.340    91567453.70947
  22030757.480   115772476.09509  22030752.840    90212335.06047
  21790355.020   114509127.18809  21790354.460    89227906.51948
 15 03 05 00 33  0.0000000  0  6G16G18G19G21G22G27
  20684062.340   108695505.53509  20684058.860    84697794.83848
  21654019.240   113792702.77409  21654016.120    88669655.82247
  23773206.800   124929062.12508  23773202.960    97347300.31446
  22373658.420   117574562.94808  22373654.720    91616617.97947
  22016103.120   115695467.15709  22016098.500    90152328.12748
  21780000.060   114454711.57909  21779999.460    89185504.77148
 15 03 05 00 33 30.0000000  0  6G16G18G19G21G22G27
  20678020.140   108663753.78309  20678016.720    84673053.21348
  21651043.040   113777062.92109  21651039.880    88657468.93847
  23758944.160   124854112.03708  23758940.320    97288897.68746
  22385691.340   117637796.54308  22385687.820    91665890.89847
  22001507.880   115618768.63509  22001503.220    90092563.08547
  21769667.960   114400416.05609  21769667.300    89143196.58848
 15 03 05 00 34  0.0000000  0  6G16G18G19G21G22G27
  20672070.900   108632490.74409  20672067.580    84648692.40048
  21648159.060   113761907.51709  21648155.880    88645659.53847
  23744692.380   124779219.13208  23744688.820    97230539.62646
  22397749.280   117701161.61108  22397745.800    91715266.25547
  21986970.860   115542376.24509  21986966.200    90033036.56848
  21759357.580   114346234.88809  21759356.920    89100977.51648
 15 03 05 00 34 30.0000000  0  6G16G18G19G21G22G27
  20666215.140   108601718.90209  20666211.920    84624714.33848
  21645367.460   113747237.52309  21645364.260    88634228.39148
  23730451.860   124704384.73108  23730448.180    97172227.11046
  22409832.240   117764657.93308  22409828.760    91764743.91247
  21972492.760   115466293.41609  21972488.140    89973751.27348
  21749069.260   114292169.45909  21749068.580    89058848.63348
 15 03 05 00 35  0.0000000  0  6G16G18G19G21G22G27
  20660453.680   108571442.30109  20660450.480    84601122.17648
  21642668.860   113733056.34509  21642665.700    88623178.13047
  23716222.880   124629611.17808  23716219.320    97113962.01846
  22421940.360   117828286.26808  22421936.940    91814324.41647
  21958074.500   115390524.95909  21958069.900    89914710.93748
  21738803.540   114238222.77609  21738802.860    89016812.26048
 15 03 05 00 35 30.0000000  0  6G16G18G19G21G22G27
  20654786.340   108541660.32809  20654783.180    84577915.44448
  21640062.980   113719362.40809  21640059.920    88612507.54848
  23702005.320   124554896.38208  23702001.380    97055742.70346
  22434072.860   117892042.70208  22434069.520    91864004.74447
  21943716.120   115315071.40209  21943711.580    89855915.98448
  21728560.120   114184393.19309  21728559.460    88974867.14948
 15 03 05 00 36  0.0000000  0  6G16G18G19G21G22G27
  20649213.900   108512377.21309  20649210.740    84555097.43248
  21637550.440   113706158.90309  21637547.380    88602219.10147
  23687799.360   124480243.35308  23687795.380    96997571.54646
  22446229.980   117955928.39408  22446226.660    91913785.78847
  21929418.580   115239937.78209  21929414.100    89797370.34148
  21718339.580   114130683.92709  21718338.980    88933015.80048
 15 03 05 00 36 30.0000000  0  6G16G18G19G21G22G27
  20643736.020   108483591.26909  20643732.940    84532666.82848
  21635130.760   113693443.47809  21635127.760    88592310.99148
  23673604.720   124405649.41008  23673600.840    96939446.37147
  22458410.720   118019938.38608  22458407.380    91963663.69647
  21915181.840   115165123.62609  21915177.400    89739073.62948
  21708141.480   114077092.51109  21708140.880    88891256.28948
 15 03 05 00 37  0.0000000  0  6G16G18G19G21G22G27
  20638353.540   108455306.43809  20638350.500    84510626.69448
  21632804.500   113681218.93309  21632801.540    88582785.35848
  23659421.740   124331116.47408  23659417.520    96881368.74946
  22470615.300   118084073.68509  22470611.840    92013639.23347
  21901006.840   115090633.40609  21901002.340    89681029.31248
  21697966.320   114023621.71809  21697965.700    88849590.75948
 15 03 05 00 37 30.0000000  0  6G16G18G19G21G22G27
  20633067.000   108427525.58009  20633063.960    84488979.26848
  21630572.100   113669487.14009  21630569.040    88573643.71348
  23645250.460   124256645.85108  23645246.480    96823339.74546
  22482843.820   118148334.53708  22482840.280    92063712.61147
  21886894.280   115016471.04309  21886889.680    89623240.47648
  21687814.420   113970273.33609  21687813.820    88808020.61248
 15 03 05 00 38  0.0000000  0  6G16G18G19G21G22G27
  20627877.220   108400253.03909  20627874.160    84467727.93148
  21628434.040   113658250.83109  21628430.840    88564888.14248
  23631091.400   124182240.78608  23631087.260    96765361.79346
  22495096.140   118212721.14108  22495092.580    92113883.97347
  21872845.080   114942641.66209  21872840.400    89565711.11548
  21677686.440   113917050.64509  21677685.880    88766548.40548
 15 03 05 00 38 30.0000000  0  6G16G18G19G21G22G27
  20622782.740   108373480.99209  20622779.580    84446866.59648
  21626388.660   113647502.20309  21626385.460    88556512.60548
  23616943.340   124107892.31008  23616939.400    96707427.93047
  22507370.540   118277223.53809  22507366.940    92164145.57947
