     2.11           OBSERVATION DATA    G                   RINEX VERSION / TYPE
SPIDER V4,0,0,3554                      2015 03 18 01:10    PGM / RUN BY / DATE 
CKHR                                                        MARKER NAME         
CKHR                                                        MARKER NUMBER       
                                                            OBSERVER / AGENCY   
496547              LEICA GRX1200+GNSS  8.10/4.007          REC # / TYPE / VERS 
10301042            LEIAR25         NONE                    ANT # / TYPE        
  5141838.0877   498328.5776  3730203.3049                  APPROX POSITION XYZ 
        0.0720        0.0000        0.0000                  ANTENNA: DELTA H/E/N
     1     1                                                WAVELENGTH FACT L1/2
     4    C1    L1    P2    L2                              # / TYPES OF OBSERV 
    30.000                                                  INTERVAL            
  2015    03    05    06    26   30.0000000     GPS         TIME OF FIRST OBS   
  2015    03    05    23    59   30.0000000     GPS         TIME OF LAST OBS    
    16                                                      LEAP SECONDS        
    29                                                      # OF SATELLITES     
   G 1   285   285   285   285                              PRN / # OF OBS      
   G 2   847   847   847   847                              PRN / # OF OBS      
   G 3   436   436   436   436                              PRN / # OF OBS      
   G 4   152   152   152   152                              PRN / # OF OBS      
   G 5   544   544   544   544                              PRN / # OF OBS      
   G 6   764   763   763   763                              PRN / # OF OBS      
   G 7   577   577   577   577                              PRN / # OF OBS      
   G 9   638   638   638   638                              PRN / # OF OBS      
   G10   657   657   657   657                              PRN / # OF OBS      
   G11   187   187   187   187                              PRN / # OF OBS      
   G12   821   820   820   820                              PRN / # OF OBS      
   G13   706   705   705   705                              PRN / # OF OBS      
   G14     1     1     1     1                              PRN / # OF OBS      
   G15   684   684   684   684                              PRN / # OF OBS      
   G16   225   225   225   225                              PRN / # OF OBS      
   G17   758   758   758   758                              PRN / # OF OBS      
   G18   519   518   518   518                              PRN / # OF OBS      
   G20   667   666   666   666                              PRN / # OF OBS      
   G21   435   435   435   435                              PRN / # OF OBS      
   G22    82    79    81    79                              PRN / # OF OBS      
   G23   534   534   534   534                              PRN / # OF OBS      
   G24   824   815   811   810                              PRN / # OF OBS      
   G25   850   850   850   850                              PRN / # OF OBS      
   G27   171   171   171   171                              PRN / # OF OBS      
   G28   504   503   503   503                              PRN / # OF OBS      
   G29   746   746   745   745                              PRN / # OF OBS      
   G30   620   620   620   620                              PRN / # OF OBS      
   G31   684   684   684   684                              PRN / # OF OBS      
   G32   172   172   172   172                              PRN / # OF OBS      
BIT 2 OF LLI FLAGS DATA COLLECTED UNDER A/S CONDITION       COMMENT             
SNR is mapped to RINEX snr flag value [2-9]                 COMMENT             
Lx:     = 25dBHz -> 1; 26-27dBHz -> 2; 28-31dBHz -> 3       COMMENT             
       32-35dBHz -> 4; 36-38dBHz -> 5; 39-41dBHz -> 6       COMMENT             
       42-44dBHz -> 7; 45-48dBHz -> 8; >=49dBHz -> 9        COMMENT             
                                                            END OF HEADER       
 15 03 05 06 26 30.0000000  0  9G01G03G04G09G11G17G23G31G32
  20458264.420   107508904.36909  20458265.140    83773174.94549
  20509742.960   107779425.70509  20509742.940    83983968.60249
  21762884.860   114364731.41509  21762884.060    89115371.70348
  23720994.780   124654670.16408  23720994.800    97133507.54846
  21074992.500   110749832.39609  21074989.980    86298560.37548
  22605625.740   118793364.27009  22605623.280    92566247.37648
  21597128.880   113493676.72309  21597124.700    88436614.91348
  23938447.140   125797390.25508  23938447.200    98023938.21846
  22086338.940   116064494.16209  22086337.460    90439860.19847
 15 03 05 06 27  0.0000000  0  9G01G03G04G09G11G17G23G31G32
  20461231.160   107524494.68009  20461231.860    83785323.13049
  20509524.840   107778279.19009  20509524.780    83983075.10749
  21775963.600   114433460.91709  21775962.920    89168927.02048
  23700459.240   124546756.62908  23700459.460    97049418.98746
  21087890.260   110817610.71109  21087887.760    86351374.51848
  22594680.600   118735846.97709  22594678.120    92521428.59348
  21583457.220   113421831.50709  21583452.980    88380631.53648
  23935494.160   125781873.45408  23935494.220    98011847.07846
  22100052.140   116136557.32209  22100050.720    90496013.17347
 15 03 05 06 27 30.0000000  0  9G01G03G04G09G11G17G23G31G32
  20464272.360   107540476.21509  20464273.060    83797776.17249
  20509356.500   107777394.68909  20509356.500    83982385.78949
  21789101.400   114502500.78809  21789100.880    89222724.17948
  23679956.220   124439014.11108  23679956.600    96965463.69446
  21100867.180   110885804.77809  21100864.680    86404512.63148
  22583828.600   118678819.10009  22583826.100    92476991.18048
  21569859.400   113350374.38109  21569855.140    88324950.56848
  23932637.960   125766865.12808  23932638.340    98000152.21546
  22113785.820   116208727.97509  22113784.400    90552249.92048
 15 03 05 06 28  0.0000000  0  9G01G03G04G09G11G17G23G31G32
  20467385.040   107556833.17809  20467385.740    83810521.75749
  20509234.800   107776755.00909  20509234.800    83981887.23949
  21802295.120   114571833.93409  21802294.560    89276749.88448
  23659483.320   124331428.50208  23659483.740    96881630.66047
  21113919.900   110954396.78609  21113917.340    86457960.83048
  22573067.020   118622266.19009  22573064.440    92432923.87348
  21556332.620   113279290.69809  21556328.380    88269560.60448
  23929875.860   125752349.88408  23929876.320    97988841.54546
  22127536.560   116280988.45409  22127535.160    90608556.66848
 15 03 05 06 28 30.0000000  0  9G01G03G04G09G11G17G23G31G32
  20470569.920   107573569.74609  20470570.680    83823563.13649
  20509160.240   107776362.96009  20509160.240    83981581.66449
  21815545.340   114641463.44509  21815544.660    89331006.50347
  23639041.440   124224005.40408  23639041.800    96797924.25846
  21127048.800   111023389.05909  21127046.200    86511720.92248
  22562396.860   118566193.87109  22562394.200    92389231.06548
  21542877.780   113208585.28709  21542873.540    88214465.41048
  23927208.700   125738332.64208  23927208.960    97977918.97047
  22141304.840   116353340.95409  22141303.460    90664935.12148
 15 03 05 06 29  0.0000000  0  9G01G03G04G09G11G17G23G31G32
  20473827.420   107590687.78209  20473828.180    83836901.76549
  20509132.840   107776219.02509  20509132.920    83981469.41749
  21828852.100   114711389.82409  21828851.160    89385494.47048
  23618631.100   124116748.19308  23618631.520    96714347.12246
  21140253.700   111092781.26109  21140251.200    86565792.64948
  22551818.800   118510605.26309  22551816.000    92345915.15548
  21529495.520   113138261.05909  21529491.260    88159667.23548
  23924636.840   125724816.04708  23924636.880    97967386.50147
  22155090.660   116425785.56709  22155089.280    90721385.34648
 15 03 05 06 29 30.0000000  0  9G01G03G04G09G11G17G23G31G32
  20477157.460   107608186.98209  20477158.180    83850537.41349
  20509152.380   107776321.56909  20509152.500    83981549.23749
  21842215.040   114781611.39709  21842213.900    89440212.44548
  23598252.580   124009658.26108  23598253.080    96630900.36746
  21153534.280   111162571.41109  21153531.900    86620174.47948
  22541332.900   118455501.18409  22541330.020    92302976.83548
  21516186.000   113068318.60509  21516181.680    88105166.56248
  23922160.340   125711800.48008  23922160.100    97957244.46247
  22168893.580   116498320.08609  22168892.180    90777905.62748
 15 03 05 06 30  0.0000000  0  9G01G03G04G09G11G17G23G31G32
  20480560.340   107626068.80609  20480561.000    83864471.20849
  20509218.800   107776670.69009  20509218.960    83981821.19049
  21855634.180   114852128.51909  21855632.980    89495160.73347
  23577906.580   123902738.57708  23577907.020    96547586.21446
  21166890.480   111232759.09109  21166888.160    86674866.06648
  22530939.700   118400884.28109  22530936.860    92260418.12148
  21502949.640   112998760.21509  21502945.160    88050965.15448
  23919779.500   125699288.15208  23919779.080    97947494.55046
  22182713.520   116570944.03809  22182712.060    90834495.60747
 15 03 05 06 30 30.0000000  0  9G01G03G04G09G11G17G23G31G32
  20484036.760   107644337.31209  20484037.360    83878706.31349
  20509332.700   107777269.09909  20509332.880    83982287.39749
  21869110.080   114922944.01309  21869108.900    89550341.50848
  23557594.100   123795994.76508  23557594.560    96464409.12446
  21180322.680   111303346.02809  21180320.380    86729868.77848
  22520640.240   118346760.08009  22520637.460    92218243.33348
  21489787.340   112929591.18109  21489782.760    87997067.15248
  23917495.080   125687283.67508  23917494.800    97938140.35746
  22196550.940   116643659.69509  22196549.640    90891157.04148
 15 03 05 06 47 30.0000000  0  9G01G03G04G09G11G17G23G31G32
  20646484.180   108498006.43609  20646484.840    84543904.07149
  20540232.320   107939648.79109  20540232.960    84108820.21749
  22359857.120   117501841.69109  22359856.760    91559875.18747
  22889566.620   120285484.29908  22889567.760    93728952.75147
  21680009.860   113929219.94009  21680007.940    88776006.84948
  22228307.900   116810546.20809  22228305.860    91021195.90548
  21088016.140   110818272.50709  21088011.960    86351882.94048
  23898512.360   125587529.61208  23898511.580    97860409.56446
  22675623.580   119161205.66209  22675622.940    92852884.55047
 15 03 05 06 48  0.0000000  0  9G01G03G04G09G11G17G23G31G32
  20652551.280   108529889.10409  20652551.860    84568747.58849
  20541879.680   107948305.41109  20541880.260    84115565.52849
  22375188.100   117582407.02609  22375187.840    91622653.20247
  22870638.920   120186018.04908  22870640.080    93651446.48747
  21695879.260   114012614.21909  21695877.360    88840989.24648
  22221443.620   116774474.11009  22221441.580    90993087.65848
  21077567.460   110763363.49509  21077563.060    86309096.60348
  23899684.060   125593687.58108  23899683.420    97865207.84246
  22689895.640   119236205.25809  22689895.040    92911325.63547
 15 03 05 06 48 30.0000000  0  9G01G03G04G09G11G17G23G31G32
  20658728.440   108562350.39909  20658729.000    84594041.99949
  20543603.420   107957363.53709  20543603.940    84122623.71249
  22390604.060   117663419.10809  22390603.820    91685779.33147
  22851792.800   120086980.43908  22851794.100    93574274.24347
  21711847.460   114096528.12309  21711845.640    88906376.55648
  22214717.160   116739126.26609  22214715.200    90965543.78348
  21067235.220   110709066.86109  21067230.700    86266787.46648
  23900991.700   125600559.97708  23900991.180    97870562.81546
  22704211.660   119311435.25809  22704210.940    92969946.26147
 15 03 05 06 49  0.0000000  0  9G01G03G04G09G11G17G23G31G32
  20664981.460   108595210.41709  20664982.080    84619647.09349
  20545369.200   107966642.37109  20545369.660    84129853.87849
  22406070.600   117744697.04609  22406070.520    91749112.61647
  22832994.360   119988193.31309  22832995.600    93497297.18247
  21727879.900   114180780.00709  21727878.280    88972027.23148
  22208094.540   116704324.02109  22208092.600    90938425.03248
  21056985.340   110655203.71709  21056980.780    86224816.09148
  23902401.280   125607967.04408  23902400.660    97876334.43146
  22718536.940   119386714.72609  22718536.160    93028605.40747
 15 03 05 06 49 30.0000000  0  9G01G03G04G09G11G17G23G31G32
  20671309.520   108628464.81709  20671310.260    84645559.49849
  20547175.920   107976136.79109  20547176.380    84137252.02949
  22421586.700   117826235.14109  22421586.800    91812648.63847
  22814243.100   119889654.16709  22814244.200    93420513.34247
  21743975.540   114265363.79409  21743974.080    89037936.52448
  22201575.200   116670064.19609  22201573.160    90911728.95548
  21046817.060   110601770.03809  21046812.620    86183179.37848
  23903911.780   125615904.85408  23903911.240    97882519.60246
  22732870.640   119462038.12609  22732869.780    93087298.81447
 15 03 05 06 50  0.0000000  0  9G01G03G04G09G11G17G23G31G32
  20677713.700   108662119.33609  20677714.560    84671783.70049
  20549024.580   107985851.69909  20549025.040    84144822.00149
  22437153.340   117908038.03709  22437153.440    91876390.98047
  22795540.380   119791370.53208  22795541.420    93343928.63247
  21760135.160   114350283.01309  21760133.680    89104107.21748
  22195160.360   116636353.32209  22195158.140    90885460.64248
  21036731.640   110548772.30909  21036727.420    86141882.38948
  23905524.400   125624378.95008  23905523.820    97889122.68646
  22747213.480   119537410.19309  22747212.600    93146030.15447
 15 03 05 06 50 30.0000000  0  9G01G03G04G09G11G17G23G31G32
  20684193.980   108696174.09409  20684194.980    84698319.77149
  20550915.080   107995786.42509  20550915.640    84152563.26649
  22452770.280   117990104.75409  22452770.340    91940338.91447
  22776886.560   119693344.28208  22776887.540    93267544.49047
  21776358.460   114435536.03909  21776356.860    89170538.01048
  22188850.140   116603192.32709  22188847.820    90859620.80748
  21026729.400   110496211.52809  21026725.420    86100925.88348
  23907239.220   125633389.98308  23907238.620    97896144.16946
  22761565.380   119612829.99209  22761564.680    93204798.68347
 15 03 05 06 51  0.0000000  0  9G01G03G04G09G11G17G23G31G32
  20690750.500   108730629.16809  20690751.600    84725167.78049
  20552847.260   108005940.27809  20552847.940    84160475.27449
  22468437.240   118072434.25209  22468437.280    92004491.62447
  22758282.040   119595577.36108  22758283.020    93191362.41447
  21792644.860   114521120.49209  21792643.060    89237227.07748
  22182644.660   116570582.14209  22182642.360    90834210.18148
  21016810.580   110444088.82009  21016806.800    86060310.72148
  23909056.140   125642937.75708  23909055.540    97903583.89346
  22775926.180   119688296.62109  22775925.440    93263603.71747
 15 03 05 06 51 30.0000000  0  9G01G03G04G09G11G17G23G31G32
  20697383.440   108765485.95709  20697384.660    84752328.82149
  20554821.260   108016313.87309  20554822.060    84168558.51149
  22484154.200   118155026.82409  22484154.280    92068849.32747
  22739727.500   119498072.92109  22739728.500    93115384.87547
  21808994.220   114607036.21609  21808992.300    89304174.27148
  22176544.420   116538525.14109  22176542.220    90809230.59948
  21006975.560   110392405.94109  21006971.880    86020038.29848
  23910975.560   125653024.00708  23910974.940    97911443.21446
  22790296.060   119763810.32209  22790295.400    93322445.42547
 15 03 05 06 52  0.0000000  0  9G01G03G04G09G11G17G23G31G32
  20704092.000   108800740.35309  20704093.440    84779799.67649
  20556836.200   108026902.33609  20556837.020    84176809.18749
  22499920.220   118237877.16209  22499920.240    92133407.88447
  22721222.640   119400828.71809  22721223.560    93039610.11747
  21825405.460   114693277.43609  21825403.540    89371375.09748
  22170548.800   116507017.96109  22170546.760    90784679.46448
  20997223.800   110341159.95109  20997220.120    85980106.29748
  23912996.820   125663644.92808  23912996.280    97919719.15246
  22804673.920   119839366.06109  22804673.220    93381319.88947
 15 03 05 06 52 30.0000000  0  9G01G03G04G09G11G17G23G31G32
  20710877.940   108836400.94209  20710879.580    84807587.05848
  20558893.520   108037713.53109  20558894.400    84185233.42548
  22515736.740   118320992.91009  22515736.780    92198173.24947
  22702769.360   119303855.21809  22702770.120    92964046.30147
  21841879.780   114779850.63509  21841878.020    89438834.60447
  22164659.720   116476070.38409  22164657.720    90760564.39548
  20987557.040   110290360.15409  20987553.320    85940521.99448
  23915121.300   125674808.80408  23915120.860    97928418.18646
  22819061.260   119914971.38309  22819060.580    93440233.02347
 15 03 05 06 53  0.0000000  0  9G01G03G04G09G11G17G23G31G32
  20717740.460   108872463.27409  20717742.100    84835687.48649
  20560992.220   108048742.30009  20560993.180    84193827.20449
  22531602.620   118404368.26009  22531602.720    92263140.89447
  22684367.080   119207149.70709  22684367.660    92888691.30647
  21858416.000   114866749.22809  21858414.340    89506547.68148
  22158876.400   116445678.54909  22158874.440    90736882.36648
  20977974.500   110240002.64709  20977970.760    85901282.34748
  23917348.040   125686511.30808  23917347.920    97937536.92846
  22833456.860   119990620.96908  22833456.500    93499180.61347
 15 03 05 06 53 30.0000000  0  9G01G03G04G09G11G17G23G31G32
  20724680.580   108908933.16809  20724682.160    84864105.49349
  20563133.340   108059993.76409  20563134.240    84202594.51549
  22547518.860   118488007.95309  22547519.100    92328314.52047
  22666017.240   119110719.91609  22666017.720    92813551.16047
  21875014.900   114953977.01809  21875013.360    89574517.26648
  22153200.080   116415849.08309  22153198.120    90713638.54948
  20968477.360   110190094.16709  20968473.600    85862392.58048
  23919678.380   125698758.44708  23919678.480    97947080.05746
  22847861.860   120066319.68409  22847861.560    93558166.50247
 15 03 05 06 54  0.0000000  0  9G01G03G04G09G11G17G23G31G32
  20731696.320   108945800.73109  20731697.900    84892833.37249
  20565314.900   108071457.35109  20565315.720    84211527.11149
  22563483.280   118571901.29209  22563483.640    92393685.80547
  22647718.280   119014557.78009  22647718.780    92738619.56448
  21891674.320   115041522.38509  21891672.820    89642734.30748
  22147629.000   116386572.92609  22147627.060    90690825.87148
  20959063.820   110140625.54109  20959060.040    85823845.55748
  23922110.640   125711540.19608  23922110.700    97957039.76946
  22862274.180   120142056.81809  22862274.000    93617182.30747
 15 03 05 06 54 30.0000000  0  9G01G03G04G09G11G17G23G31G32
  20738789.020   108983072.81309  20738790.600    84921876.46949
  20567537.980   108083139.18709  20567538.720    84220629.77349
  22579497.060   118656053.71109  22579497.360    92459258.97147
  22629471.860   118918671.94109  22629472.380    92663903.26347
  21908395.160   115129390.16509  21908393.620    89711202.59248
  22142164.760   116357858.11909  22142162.820    90668450.62748
  20949735.400   110091604.45209  20949731.600    85785647.26448
  23924645.920   125724863.74708  23924646.120    97967421.67546
  22876694.940   120217838.25809  22876694.840    93676232.64747
 15 03 05 06 55  0.0000000  0  9G01G03G04G09G11G17G23G31G32
  20745958.140   109020746.32009  20745959.660    84951232.35949
  20569801.840   108095035.56309  20569802.600    84229899.62449
  22595559.360   118740460.95009  22595559.480    92525030.71547
  22611277.840   118823061.21609  22611278.340    92589401.34848
  21925176.460   115217575.69509  21925174.880    89779918.48748
  22136806.980   116329702.49909  22136805.040    90646511.10948
  20940491.560   110043028.17609  20940487.800    85747795.58348
  23927283.480   125738725.80008  23927284.160    97978223.15646
  22891123.380   120293660.05609  22891123.280    93735314.43547
 15 03 05 06 55 30.0000000  0  9G01G03G04G09G11G17G23G31G32
  20753204.300   109058824.67209  20753205.760    84980903.72049
  20572107.020   108107149.25509  20572107.820    84239338.81649
  22611670.640   118825125.56809  22611670.620    92591003.00147
  22593137.180   118727730.83709  22593137.560    92515117.89448
  21942018.360   115306080.23809  21942016.800    89848882.95748
  22131556.360   116302109.79209  22131554.420    90625010.23748
  20931333.200   109994901.17409  20931329.480    85710293.98848
  23930024.220   125753130.02108  23930025.400    97989447.11446
  22905560.080   120369524.73309  22905559.720    93794429.67347
 15 03 05 06 56  0.0000000  0  9G01G03G04G09G11G17G23G31G32
  20760526.320   109097301.77209  20760527.720    85010885.79149
  20574452.280   108119473.53809  20574453.060    84248942.08849
  22627829.560   118910040.41109  22627829.480    92657170.27247
  22575049.060   118632676.59909  22575049.300    92441049.61447
  21958919.420   115394895.76609  21958917.900    89918089.75048
  22126411.860   116275074.89709  22126409.940    90603944.01148
  20922259.360   109947218.19609  20922255.640    85673138.36348
  23932867.200   125768069.67608  23932868.400    98001088.28546
  22920003.600   120445425.31509  22920003.280    93853572.84447
 15 03 05 06 56 30.0000000  0  9G01G03G04G09G11G17G23G31G32
  20767925.620   109136185.05309  20767926.980    85041184.38949
  20576838.960   108132015.27409  20576839.660    84258714.81649
  22644037.280   118995211.81109  22644037.200    92723537.45147
  22557015.260   118537907.84909  22557015.320    92367203.78847
  21975880.720   115484027.72609  21975879.200    89987543.12047
  22121375.020   116248606.03709  22121373.140    90583318.86248
  20913271.720   109899987.31909  20913267.880    85636335.04448
  23935813.680   125783552.86908  23935814.540    98013153.04546
  22934455.240   120521368.54709  22934454.700    93912749.28047
 15 03 05 06 57  0.0000000  0  9G01G03G04G09G11G17G23G31G32
  20775401.780   109175471.99009  20775403.060    85071797.49849
  20579266.420   108144771.27609  20579267.060    84268654.50049
  22660293.100   119080636.08909  22660293.100    92790101.68447
  22539035.600   118443423.83609  22539035.580    92293579.82848
  21992901.480   115573471.87709  21992899.920    90057239.74748
  22116445.580   116222701.52909  22116443.660    90563133.45348
  20904369.940   109853206.78109  20904365.900    85599882.62548
  23938863.000   125799576.96408  23938863.660    98025639.24546
  22948914.360   120597351.01809  22948913.840    93971956.26547
 15 03 05 06 57 30.0000000  0  9G01G03G04G09G11G17G23G31G32
  20782954.560   109215161.70209  20782955.840    85102724.45649
  20581734.320   108157740.18609  20581734.980    84278760.08749
  22676596.600   119166311.28909  22676596.740    92856861.42747
  22521110.280   118349225.66409  22521110.300    92220178.61747
  22009981.140   115663225.39709  22009979.640    90127177.44448
  22111623.520   116197361.35609  22111621.660    90543387.79748
  20895553.760   109806876.49109  20895549.580    85563781.05248
  23942015.120   125816140.76808  23942015.560    98038546.00246
  22963380.680   120673371.24409  22963380.260    94031192.66647
 15 03 05 06 58  0.0000000  0  9G01G03G04G09G11G17G23G31G32
  20790583.680   109255252.69109  20790585.000    85133964.11449
  20584242.300   108170919.87009  20584243.040    84289029.92249
  22692947.380   119252234.77409  22692947.620    92923814.65447
  22503239.360   118255313.60909  22503239.500    92147000.35748
  22027118.960   115753284.64509  22027117.560    90197353.39748
  22106908.660   116172584.70209  22106906.880    90524081.25448
  20886822.940   109760995.54409  20886818.780    85528029.63148
  23945269.880   125833242.95708  23945270.300    98051872.29846
  22977853.580   120749426.80208  22977853.440    94090456.59447
 15 03 05 06 58 30.0000000  0  9G01G03G04G09G11G17G23G31G32
  20798289.360   109295746.15709  20798290.740    85165517.38949
  20586790.520   108184310.99309  20586791.300    84299464.50849
  22709345.520   119338406.92709  22709345.740    92990961.62947
  22485423.560   118161690.90309  22485423.760    92074047.55848
  22044314.860   115843649.41509  22044313.460    90267767.39747
  22102301.440   116148373.37209  22102299.560    90505215.21248
  20878177.840   109715565.78809  20878173.840    85492629.78748
  23948627.200   125850884.68708  23948627.720    98065619.01646
  22992333.360   120825518.21809  22992333.080    94149748.50646
 15 03 05 06 59  0.0000000  0  9G01G03G04G09G11G17G23G31G32
  20806072.040   109336644.17209  20806073.440    85197385.88649
  20589379.300   108197915.12909  20589380.080    84310065.07848
  22725791.120   119424828.81009  22725791.280    93058303.19647
  22467663.580   118068361.28909  22467663.840    92001323.14548
  22061568.880   115934319.57309  22061567.340    90338419.35047
  22097802.360   116124730.37409  22097800.420    90486792.02948
  20869619.140   109670590.01009  20869615.340    85457583.69348
  23952087.520   125869067.83208  23952087.980    98079787.64146
  23006820.160   120901646.96809  23006820.120    94209069.48347
 15 03 05 06 59 30.0000000  0  9G01G03G04G09G11G17G23G31G32
  20813931.880   109377947.93109  20813933.300    85229570.55849
  20592008.800   108211733.00309  20592009.580    84320832.18949
  22742284.180   119511500.17309  22742284.320    93125839.16847
  22449959.960   117975328.02009  22449960.240    91928829.65948
  22078880.860   116025294.54009  22078879.280    90409308.81847
  22093411.780   116101657.66509  22093409.840    90468813.22348
  20861147.300   109626070.55809  20861143.700    85422893.17948
  23955651.100   125887793.48609  23955651.160    98094379.00146
  23021314.320   120977813.42409  23021314.320    94268419.83047
 15 03 05 07 00  0.0000000  0  9G01G03G04G09G11G17G23G31G32
  20821867.560   109419650.44009  20821869.140    85262065.94949
  20594677.540   108225757.06609  20594678.260    84331759.97349
  22758823.220   119598413.09909  22758823.420    93193563.39947
  22432311.700   117882585.91909  22432311.980    91856563.05548
  22096249.120   116116565.53609  22096247.600    90480428.96447
  22089128.380   116079148.22509  22089126.540    90451273.32848
  20852761.000   109582000.69609  20852757.580    85388553.01248
  23959316.700   125907054.35809  23959316.200    98109387.41946
  23035814.100   121054009.91708  23035813.880    94327793.60446
 15 03 05 07 00 30.0000000  0  9G01G03G04G09G11G17G23G31G32
  20829880.660   109461759.64109  20829882.420    85294878.23449
  20597386.940   108239994.82309  20597387.640    84342854.28249
  22775409.620   119685574.74709  22775409.800    93261481.43347
  22414720.680   117790144.86909  22414720.940    91784531.04548
  22113674.900   116208138.54909  22113673.540    90551784.47947
  22084953.960   116057211.55009  22084952.280    90434179.75448
  20844461.780   109538388.97509  20844458.540    85354569.84048
  23963085.680   125926858.67909  23963084.920    98124819.31046
  23050321.040   121130243.83908  23050320.680    94387196.56047
 15 03 05 07 01  0.0000000  0  9G01G03G04G09G11G17G23G31G32
  20837970.460   109504271.45909  20837972.300    85328004.25649
  20600136.120   108254441.74009  20600136.860    84354111.56749
  22792042.440   119772979.94109  22792042.640    93329589.24647
  22397186.540   117698002.68309  22397186.780    91712731.90648
  22131157.060   116300007.70709  22131155.900    90623370.72547
  22080887.920   116035844.16509  22080886.380    90417529.77648
  20836249.260   109495232.53209  20836246.140    85320941.41348
  23966957.220   125947202.28209  23966956.600    98140671.39747
  23064834.000   121206510.46808  23064833.980    94446624.94346
 15 03 05 07 01 30.0000000  0 10G01G03G04G06G09G11G17G23G31G32
  20846137.240   109547187.69409  20846139.040    85361445.40349
  20602925.400   108269099.20309  20602926.140    84365532.92049
  22808721.740   119860629.35009  22808721.980    93397887.30846
  24660515.600                                                  
  22379710.000   117606163.10009  22379710.240    91641168.56648
  22148695.660   116392172.99909  22148694.600    90695187.73247
  22076930.760   116015048.57409  22076929.220    90401325.35648
  20828123.920   109452533.57709  20828120.760    85287669.47348
  23970931.500   125968086.75209  23970931.180    98156944.95547
  23079353.660   121282810.96309  23079353.480    94506079.79446
 15 03 05 07 02  0.0000000  0 10G01G03G04G06G09G11G17G23G31G32
  20854383.660   109590522.76109  20854385.440    85395212.91748
  20605757.440   108283981.17509  20605758.160    84377129.21049
  22825450.020   119948536.21209  22825450.180    93466386.02446
  24641520.400   129492061.61307  24641522.440   100902908.43346
  22362294.120   117514642.37209  22362294.540    91569853.68448
  22166293.040   116484646.89109  22166291.860    90767245.20547
  22073085.240   115994839.53109  22073083.660    90385577.97848
  20820088.620   109410307.25709  20820085.320    85254765.82748
  23975011.280   125989526.22509  23975011.220    98173650.97447
  23093882.340   121359159.29308  23093882.360    94565571.88247
 15 03 05 07 02 30.0000000  0 10G01G03G04G06G09G11G17G23G31G32
  20862704.000   109634246.02209  20862705.760    85429282.91849
  20608626.300   108299056.64209  20608626.980    84388876.26849
  22842221.200   120036669.22108  22842221.380    93535060.94547
  24622520.500   129392217.68107  24622522.540   100825107.87246
  22344933.480   117423411.86609  22344934.140    91498764.94448
  22183942.880   116577396.94809  22183941.620    90839517.86847
  22069345.660   115975187.56109  22069344.040    90370264.68948
  20812137.540   109368523.40909  20812134.020    85222206.95548
  23979190.760   126011489.79808  23979190.700    98190765.35846
  23108414.200   121435524.13309  23108414.500    94625076.81047
 15 03 05 07 03  0.0000000  0 10G01G03G04G06G09G11G17G23G31G32
  20871100.480   109678369.07109  20871102.220    85463664.44449
  20611534.120   108314336.80809  20611534.760    84400782.84249
  22859037.260   120125038.71709  22859037.660    93603920.13946
  24603519.180   129292365.09107  24603520.760   100747300.52845
  22327630.680   117332485.04909  22327631.520    91427912.85448
  22201646.980   116670432.73209  22201645.740    90912013.18647
  22065714.200   115956104.41809  22065712.580    90355394.64248
  20804273.000   109327194.43609  20804269.280    85190002.53848
  23983472.140   126033989.06408  23983472.080    98208297.16647
  23122951.440   121511916.47309  23122951.580    94684603.21647
 15 03 05 07 03 30.0000000  0 10G01G03G04G06G09G11G17G23G31G32
  20879574.340   109722899.00109  20879576.080    85498363.02249
  20614482.160   108329828.39309  20614482.720    84412854.16149
  22875899.540   120213650.93808  22875900.200    93672968.48647
  24584517.880   129192512.63808  24584519.360   100669493.32245
  22310387.360   117241870.99609  22310388.340    91357304.45848
  22219406.460   116763759.76509  22219405.340    90984735.45647
  22062192.360   115937597.67009  22062190.880    90340973.74048
  20796496.520   109286328.18509  20796492.680    85158158.68248
  23987856.700   126057030.99208  23987856.980    98226251.81647
  23137495.060   121588343.03208  23137495.160    94744156.24447
 15 03 05 07 04  0.0000000  0 10G01G03G04G06G09G11G17G23G31G32
  20888124.620   109767830.66609  20888126.300    85533374.63549
  20617469.360   108345525.90109  20617469.880    84425085.93349
  22892806.980   120302499.65109  22892807.640    93742201.12447
  24565516.120   129092656.97507  24565517.880   100591683.64645
  22293202.900   117151566.40309  22293204.000    91286937.21048
  22237220.100   116857371.08109  22237219.140    91057679.22347
  22058779.500   115919663.33209  22058778.120    90326998.86048
  20788807.240   109245920.43909  20788803.400    85126672.09748
  23992343.460   126080610.28108  23992344.140    98244625.18047
  23152044.040   121664798.17208  23152044.160    94803731.55147
 15 03 05 07 04 30.0000000  0 10G01G03G04G06G09G11G17G23G31G32
  20896751.720   109813166.20609  20896753.320    85568700.95848
  20620496.060   108361431.14109  20620496.600    84437479.58549
  22909759.780   120391586.18209  22909760.440    93811619.04247
  24546514.340   128992801.85008  24546516.160   100513874.33545
  22276078.140   117061575.39809  22276079.280    91216814.31848
  22255088.080   116951267.11909  22255087.180    91130844.86347
  22055476.180   115902304.03709  22055474.760    90313472.08348
  20781205.640   109205973.66109  20781201.820    85095544.72248
  23996932.780   126104728.64208  23996933.800    98263418.61246
  23166598.720   121741283.46108  23166598.620    94863330.37946
 15 03 05 07 05  0.0000000  0 10G01G03G04G06G09G11G17G23G31G32
  20905455.020   109858901.98609  20905456.520    85604339.15748
  20623561.540   108377540.13409  20623562.060    84450031.99849
  22926756.960   120480905.80909  22926757.660    93881218.61546
  24527512.360   128892945.39507  24527514.020   100436063.96345
  22259012.720   116971896.26509  22259013.840    91146934.45048
  22273009.280   117045442.12109  22273008.300    91204227.87947
  22052281.660   115885516.58409  22052280.240    90300390.88248
  20773691.140   109166484.92609  20773687.400    85064774.25048
  24001624.100   126129382.44108  24001625.180    98282629.26046
  23181158.240   121817794.90408  23181158.300    94922949.55246
 15 03 05 07 05 30.0000000  0 10G01G03G04G06G09G11G17G23G31G32
  20914234.840   109905040.19609  20914236.360    85640290.93348
  20626666.140   108393854.77009  20626666.640    84462744.65249
  22943798.640   120570459.54309  22943799.340    93951000.57846
  24508510.920   128793091.70208  24508512.880   100358255.85045
  22242007.460   116882533.15509  22242008.540    91077300.84548
  22290983.680   117139896.76209  22290982.500    91277828.78947
  22049196.560   115869304.00109  22049195.140    90287757.62448
  20766264.360   109127457.18009  20766260.700    85034363.00148
  24006417.800   126154573.61808  24006418.540    98302258.67945
  23195723.300   121894334.13309  23195723.520    94982590.37746
 15 03 05 07 06  0.0000000  0 10G01G03G04G06G09G11G17G23G31G32
  20923090.840   109951578.85309  20923092.480    85676554.74448
  20629809.400   108410372.84209  20629809.900    84475615.81648
  22960884.260   120660244.67809  22960884.960    94020962.85846
  24489509.960   128693240.51308  24489511.920   100280449.61245
  22225062.380   116793486.00609  22225063.380    91007913.43648
  22309010.400   117234627.33909  22309009.080    91351644.71147
  22046220.620   115853664.65109  22046219.100    90275571.04548
  20758925.080   109088889.05409  20758921.460    85004309.88948
  24011313.500   126180300.06408  24011313.920    98322305.22545
  23210293.140   121970898.82508  23210293.320    95042251.04146
 15 03 05 07 06 30.0000000  0 10G01G03G04G06G09G11G17G23G31G32
  20932024.000   109998522.97309  20932025.720    85713134.50848
  20632992.260   108427099.06309  20632992.820    84488649.19149
  22978014.640   120750265.00908  22978015.640    94091108.44447
  24470510.860   128593398.74108  24470512.560   100202650.67545
  22208178.760   116704761.81309  22208179.780    90938777.68548
  22327090.140   117329637.10909  22327088.840    91425678.16847
  22043354.900   115838604.30509  22043353.320    90263835.63748
  20751674.380   109050786.36009  20751670.800    84974619.46448
  24016312.020   126206566.38108  24016312.080    98342772.41845
  23224868.740   122047493.59508  23224868.780    95101935.20147
 15 03 05 07 07  0.0000000  0 10G01G03G04G06G09G11G17G23G31G32
  20941033.020   110045865.24909  20941034.720    85750024.51948
  20636213.320   108444025.88409  20636213.980    84501838.86749
  22995188.220   120840512.64208  22995189.420    94161431.11347
  24451512.360   128493560.85508  24451513.880   100124854.78645
  22191355.560   116616355.16409  22191356.700    90869889.36848
  22345221.240   117424916.73209  22345219.960    91499921.91247
  22040597.980   115824116.04909  22040596.440    90252546.01348
  20744510.920   109013142.38909  20744507.460    84945286.48548
  24021411.920   126233364.93908  24021411.260    98363654.40545
  23239448.560   122124110.70608  23239449.100    95161636.70547
 15 03 05 07 07 30.0000000  0 10G01G03G04G06G09G11G17G23G31G32
  20950119.200   110093612.74309  20950120.860    85787230.27949
  20639473.860   108461160.16409  20639474.640    84515190.20149
  23012406.220   120930993.44909  23012407.500    94231935.49446
  24432516.380   128393735.83608  24432517.900   100047068.99446
  22174594.540   116528275.12009  22174595.680    90801255.53348
  22363404.680   117520471.60409  22363403.580    91574380.14547
  22037951.380   115810207.50909  22037949.800    90241708.12948
  20737436.240   108975964.85009  20737432.820    84916316.95048
  24026614.420   126260702.85608  24026613.440    98384956.64145
  23254033.720   122200756.94908  23254034.460    95221360.91046
 15 03 05 07 08  0.0000000  0 10G01G03G04G06G09G11G17G23G31G32
  20959280.900   110141756.98409  20959282.500    85824745.21149
  20642772.260   108478493.18609  20642773.060    84528696.40149
  23029666.820   121021698.11209  23029668.140    94302614.31646
  24413521.580   128293917.09408  24413523.400    99969288.11145
  22157894.400   116440515.14009  22157895.520    90732871.10848
  22381638.640   117616291.56909  22381637.740    91649044.95047
  22035413.520   115796870.55309  22035411.880    90231315.62648
  20730448.780   108939245.81209  20730445.460    84887704.70248
  24031917.780   126288571.05009  24031916.960    98406672.07245
  23268623.000   122277423.39908  23268623.540    95281100.90246
 15 03 05 07 08 30.0000000  0 10G01G03G04G06G09G11G17G23G31G32
  20968519.580   110190305.92609  20968521.140    85862575.48148
  20646109.920   108496032.68409  20646110.740    84542363.49149
  23046971.320   121112633.61009  23046972.620    94373472.97446
  24394529.880   128194114.62408  24394531.880    99891519.82646
  22141256.980   116353085.13409  22141258.160    90664743.81048
  22399924.260   117712382.54109  22399923.480    91723920.92447
  22032986.080   115784113.87009  22032984.380    90221375.28248
  20723550.300   108902993.87409  20723546.960    84859456.43348
  24037323.440   126316977.58308  24037322.920    98428806.98946
  23283217.520   122354117.84908  23283218.200    95340862.67546
 15 03 05 07 09  0.0000000  0 10G01G03G04G06G09G11G17G23G31G32
  20977834.540   110239256.11109  20977836.100    85900718.41548
  20649486.200   108513775.10309  20649487.040    84556188.69949
  23064318.900   121203795.37508  23064320.380    94444507.98447
  24375541.000   128094326.77208  24375543.080    99813762.97646
  22124682.060   116265983.64109  22124683.240    90596872.49548
  22418260.540   117808739.52309  22418259.760    91799004.16647
  22030668.540   115771934.44009  22030666.820    90211884.76748
  20716740.280   108867206.31509  20716736.820    84831570.01748
  24042830.680   126345918.28008  24042830.480    98451358.10846
  23297816.700   122430836.48008  23297817.520    95400643.26346
 15 03 05 07 09 30.0000000  0 10G01G03G04G06G09G11G17G23G31G32
  20987225.560   110288606.27009  20987227.180    85939173.00348
  20652900.780   108531718.97609  20652901.660    84570170.88049
  23081709.220   121295181.38508  23081710.620    94515717.71847
  24356554.900   127994554.24008  24356557.000    99736018.05446
  22108169.760   116179211.34209  22108171.020    90529257.68548
  22436646.920   117905359.68709  22436645.960    91874292.47747
  22028460.740   115760331.83609  22028458.980    90202843.70848
  20710018.560   108831882.48409  20710014.900    84804044.93848
  24048439.340   126375391.97908  24048439.500    98474324.55346
  23312420.400   122507577.67808  23312421.080    95460441.47247
 15 03 05 07 10  0.0000000  0 10G01G03G04G06G09G11G17G23G31G32
  20996692.860   110338357.68509  20996694.640    85977940.28448
  20656353.980   108549865.43609  20656354.820    84584310.93448
  23099142.320   121386792.23208  23099143.620    94587102.66347
  24337572.460   127894800.38708  24337574.380    99658287.70346
  22091720.660   116092771.43409  22091722.080    90461901.90348
  22455083.240   118002242.55409  22455082.080    91949785.49147
  22026363.000   115749307.87009  22026361.300    90194253.55448
  20703385.400   108797024.30209  20703381.560    84776882.71448
  24054149.560   126405399.35308  24054149.880    98497706.82946
  23327028.380   122584342.58508  23327028.960    95520258.14346
 15 03 05 07 10 30.0000000  0 10G01G03G04G06G09G11G17G23G31G32
  21006236.300   110388509.41609  21006238.240    86017019.48149
  20659845.540   108568213.43709  20659846.400    84598608.02649
  23116617.760   121478625.67708  23116619.080    94658661.01746
  24318593.520   127795066.13308  24318595.540    99580572.66945
  22075335.020   116006665.02709  22075336.640    90394805.98148
  22473568.960   118099385.26109  22473567.760    92025480.98247
  22024375.120   115738861.49609  22024373.400    90186113.46248
  20696840.680   108762631.38509  20696836.740    84750083.01848
  24059961.000   126435939.29408  24059961.520    98521504.10747
  23341640.620   122661130.01208  23341641.160    95580092.34646
 15 03 05 07 11  0.0000000  0 10G01G03G04G06G09G11G17G23G31G32
  21015855.980   110439061.76909  21015858.140    86056410.85548
  20663375.480   108586763.16809  20663376.400    84613062.32149
  23134135.460   121570681.28609  23134136.760    94730392.49946
  24299618.960   127695354.02908  24299621.420    99502874.89746
  22059013.320   115920894.38209  22059015.060    90327971.70248
  22492103.860   118196786.43909  22492102.760    92101377.87947
  22022497.280   115728993.49809  22022495.540    90178424.06048
  20690384.660   108728704.70009  20690380.620    84723646.62348
  24065873.720   126467011.80708  24065874.580    98545716.35047
  23356257.320   122737939.88809  23356257.640    95639944.07546
 15 03 05 07 11 30.0000000  0 10G01G03G04G06G09G11G17G23G31G32
  21025550.880   110490009.30909  21025553.220    86096110.15748
  20666942.760   108605509.14609  20666943.700    84627669.53848
  23151694.220   121662952.78508  23151695.520    94802292.23646
  24280648.060   127595660.57808  24280650.320    99425191.58845
  22042754.840   115835456.02109  22042756.640    90261396.34748
  22510686.600   118294439.06309  22510685.720    92177470.72447
  22020728.560   115719699.04009  22020726.920    90171181.58048
  20684016.500   108695239.67809  20684012.400    84697569.97448
  24071886.680   126498611.09208  24071887.740    98570339.07447
  23370877.100   122814766.84308  23370877.520    95699809.10646
 15 03 05 07 12  0.0000000  0 11G01G03G04G06G09G11G17G20G23G31G32
  21035322.420   110541359.06409  21035324.840    86136122.88248
  20670548.700   108624458.28909  20670549.600    84642435.04748
  23169295.220   121755446.09408  23169296.520    94874364.77446
  24261682.500   127495994.96808  24261684.640    99347529.95545
  22026561.360   115750358.97509  22026563.160    90195086.95048
  22529318.180   118392348.48309  22529317.480    92253763.65347
  22019070.520   115710985.87409  22019068.980    90164392.04048
  24523505.780                                                  
  20677737.580   108662243.73609  20677733.520    84671858.83648
  24078001.320   126530743.81508  24078002.380    98595377.47846
  23385501.160   122891617.72008  23385501.940    95759692.73046
 15 03 05 07 12 30.0000000  0 11G01G03G04G06G09G11G17G20G23G31G32
  21045166.820   110593091.02909  21045169.120    86176433.43048
  20674189.460   108643590.58509  20674190.340    84657343.28549
  23186934.580   121848140.52909  23186935.680    94946594.03646
  24242718.780   127396339.23208  24242721.060    99269876.07346
  22010429.440   115665585.24709  22010431.200    90129029.49048
  22547994.460   118490493.09909  22547993.980    92330239.83247
  22017519.320   115702834.21309  22017517.880    90158040.03548
  24507958.900   128790178.58108  24507955.780   100355977.64744
  20671544.220   108629697.43309  20671540.220    84646498.06148
  24084213.740   126563389.50408  24084214.820    98620815.60347
  23400126.240   122968472.15908  23400126.980    95819579.21246
 15 03 05 07 13  0.0000000  0 11G01G03G04G06G09G11G17G20G23G31G32
  21055090.380   110645238.31209  21055092.420    86217067.59849
  20677871.380   108662939.08209  20677872.300    84672419.98249
  23204618.320   121941068.31209  23204619.480    95019005.14446
  24223763.460   127296728.57408  24223765.740    99192257.33446
  21994365.660   115581169.86509  21994367.460    90063251.25048
  22566721.440   118588903.92009  22566721.040    92406923.46047
  22016081.300   115695277.60009  22016080.000    90152151.69748
  24492418.920   128708517.36108  24492416.300   100292345.37545
  20665442.780   108597634.52509  20665438.860    84621513.96448
  24090530.020   126596580.79908  24090530.980    98646678.87246
  23414758.160   123045363.34608  23414759.220    95879494.24546
 15 03 05 07 13 30.0000000  0 11G01G03G04G06G09G11G17G20G23G31G32
  21065089.480   110697782.16909  21065091.260    86258010.79648
  20681590.840   108682484.98409  20681591.820    84687650.50849
  23222342.700   122034209.54009  23222343.780    95091582.58146
  24204813.540   127197146.45307  24204816.000    99114660.83146
  21978366.800   115497096.09809  21978368.760    89997739.22448
  22585495.380   118687560.86809  22585494.800    92483798.86947
  22014752.940   115688297.46309  22014751.680    90146712.57148
  24476887.980   128626902.64507  24476885.360   100228749.35445
  20659429.820   108566036.69609  20659425.940    84596892.26948
  24096946.580   126630298.77508  24096947.240    98672952.55846
  23429393.480   123122272.29609  23429394.620    95939423.12846
 15 03 05 07 14  0.0000000  0 11G01G03G04G06G09G11G17G20G23G31G32
  21075164.300   110750724.39409  21075165.880    86299264.41648
  20685348.240   108702230.15209  20685349.200    84703036.31249
  23240107.860   122127565.52908  23240109.040    95164327.34046
  24185869.880   127097596.84008  24185872.540    99037089.67546
  21962433.560   115413367.73309  21962435.820    89932496.34848
  22604316.220   118786464.01909  22604315.400    92560866.15347
  22013534.720   115681895.89409  22013533.440    90141724.28148
  24461366.100   128545336.42306  24461363.700   100165191.14444
  20653505.960   108534906.68509  20653502.040    84572635.11048
  24103463.620   126664544.71708  24103463.920    98699637.65446
  23444032.780   123199200.71009  23444033.400    95999367.25746
 15 03 05 07 14 30.0000000  0 11G01G03G04G06G09G11G17G20G23G31G32
  21085314.480   110804063.51409  21085316.020    86340827.29748
  20689143.360   108722173.11409  20689144.260    84718576.24448
  23257913.440   122221133.78208  23257914.840    95237237.55246
  24166932.560   126998080.43908  24166935.020    98959544.33546
  21946566.160   115329985.28409  21946568.720    89867523.01548
  22623183.360   118885610.45809  22623182.300    92638122.98747
  22012426.580   115676072.36409  22012425.320    90137186.41748
  24445853.280   128463817.64808  24445850.860   100101669.91344
  20647670.940   108504243.47509  20647667.040    84548741.69248
  24110080.760   126699316.83708  24110080.680    98726732.76446
  23458675.400   123276147.06008  23458676.020    96059325.29646
 15 03 05 07 15  0.0000000  0 11G01G03G04G06G09G11G17G20G23G31G32
  21095540.680   110857802.90909  21095542.340    86382702.07748
  20692976.780   108742317.27609  20692977.640    84734272.94849
  23275759.820   122314916.81109  23275761.180    95310315.08546
  24148002.480   126898602.77507  24148005.140    98882029.19746
  21930765.780   115246954.09209  21930768.440    89802823.37348
  22642097.100   118985001.83209  22642095.900    92715570.68447
  22011429.200   115670830.18209  22011427.880    90133101.54548
  24430350.580   128382351.50607  24430348.420   100038189.70544
  20641925.580   108474051.17809  20641921.720    84525215.23048
  24116798.440   126734618.07408  24116798.180    98754240.18046
  23473321.840   123353114.78708  23473322.620    96119299.94846
 15 03 05 07 15 30.0000000  0 11G01G03G04G06G09G11G17G20G23G31G32
  21105841.200   110911933.31109  21105843.120    86424881.53648
  20696846.640   108762653.42509  20696847.580    84750119.25349
  23293645.140   122408904.47108  23293646.580    95383552.06946
  24129078.560   126799156.95708  24129081.220    98804538.89446
  21915030.920   115164266.92609  21915033.560    89738391.81148
  22661055.220   119084627.15209  22661054.140    92793200.68747
  22010540.700   115666160.28709  22010539.320    90129462.60748
  24414855.940   128300928.52007  24414853.860    99974743.17044
  20636268.160   108444321.08009  20636264.320    84502048.93248
  24123614.900   126770438.81808  24123614.780    98782152.40846
  23487970.800   123430094.47509  23487971.280    96179284.00846
 15 03 05 07 16  0.0000000  0 11G01G03G04G06G09G11G17G20G23G31G32
  21116217.400   110966461.33809  21116219.620    86467370.83648
  20700754.260   108783188.27509  20700755.280    84766120.39248
  23311570.540   122503102.61609  23311571.960    95456953.04346
  24110162.500   126699751.86508  24110165.060    98727080.29446
  21899363.180   115081932.40709  21899365.760    89674235.04148
  22680058.680   119184491.40509  22680057.920    92871016.87147
  22009762.540   115662070.34809  22009761.120    90126275.58648
  24399371.120   128219555.71707  24399369.400    99911335.67045
  20630699.960   108415060.19709  20630696.180    84479248.24148
  24130531.380   126806785.35008  24130531.600    98810474.28246
  23502623.260   123507092.83408  23502623.600    96239282.60646
 15 03 05 07 16 30.0000000  0 11G01G03G04G06G09G11G17G20G23G31G32
  21126669.080   111021385.77909  21126671.540    86510169.01948
  20704699.460   108803920.69309  20704700.540    84782275.47149
  23329535.740   122597509.34908  23329537.100    95530516.56546
  24091254.480   126600388.49808  24091256.960    98649654.22346
  21883762.780   114999951.23209  21883765.180    89610353.59148
  22699107.060   119284591.78209  22699106.660    92949017.00547
  22009094.480   115658559.08309  22009093.000    90123539.47248
  24383895.800   128138232.71408  24383894.800    99847967.00645
  20625220.940   108386267.88909  20625217.180    84456812.66948
  24137547.460   126843655.78008  24137548.000    98839204.39546
  23517278.860   123584108.58708  23517279.680    96299294.70546
 15 03 05 07 17  0.0000000  0 11G01G03G04G06G09G11G17G20G23G31G32
  21137195.520   111076702.54709  21137198.040    86553272.91848
  20708681.480   108824846.67809  20708682.640    84798581.37849
  23347539.600   122692119.43908  23347540.980    95604238.57046
  24072354.000   126501065.09608  24072356.340    98572259.31546
  21868229.280   114918321.41009  21868231.500    89546745.93048
  22718199.340   119384922.30209  22718199.120    93027196.53347
  22008535.720   115655622.56709  22008534.240    90121251.23048
  24368429.500   128056955.71807  24368428.460    99784634.11645
  20619830.500   108357940.92009  20619826.760    84434739.69148
  24144662.440   126881045.83808  24144663.200    98868339.40746
  23531937.140   123661137.67708  23531938.380    96359317.20347
 15 03 05 07 17 30.0000000  0 11G01G03G04G06G09G11G17G20G23G31G32
  21147797.420   111132415.60309  21147799.900    86596685.61148
  20712701.220   108845970.38609  20712702.400    84815041.35549
  23365582.740   122786936.10709  23365584.100    95678121.51646
  24053462.240   126401787.98308  24053464.840    98494900.49546
  21852763.820   114837048.92609  21852765.840    89483416.71148
  22737336.100   119485486.10209  22737335.780    93105557.78447
  22008087.000   115653264.79009  22008085.680    90119413.93848
  24352972.680   127975729.69908  24352971.960    99721341.06944
  20614529.500   108330083.76409  20614525.780    84413032.81348
  24151877.020   126918959.08008  24151877.900    98897882.08646
  23546598.860   123738184.04908  23546600.240    96419353.17947
 15 03 05 07 18  0.0000000  0 11G01G03G04G06G09G11G17G20G23G31G32
  21158474.300   111188522.36309  21158476.700    86640405.08548
  20716758.160   108867289.28709  20716759.280    84831653.42749
  23383664.540   122881956.07209  23383665.920    95752162.89946
  24034579.140   126302556.86708  24034581.860    98417577.48446
  21837366.320   114756133.14909  21837368.020    89420365.45848
  22756516.440   119586278.39509  22756515.920    93184097.10447
  22007748.000   115651483.69809  22007746.780    90118026.00548
  24337525.360   127894552.52807  24337524.600    99658085.99645
  20609317.480   108302694.17209  20609313.760    84391690.26148
  24159190.500   126957391.98408  24159191.240    98927829.70845
  23561263.260   123815245.30508  23561264.440    96479400.75546
 15 03 05 07 18 30.0000000  0 11G01G03G04G06G09G11G17G20G23G31G32
  21169226.520   111245024.61709  21169228.780    86684432.74848
  20720852.660   108888805.43309  20720853.680    84848419.21048
  23401785.120   122977180.40708  23401786.860    95826363.50846
  24015705.720   126203376.03608  24015708.440    98340293.66846
  21822037.440   114675577.89809  21822038.800    89357595.13948
  22775740.300   119687299.52809  22775739.600    93262814.74947
  22007519.140   115650281.54009  22007518.020    90117089.20348
  24322087.740   127813426.43107  24322086.840    99594870.75145
  20604194.880   108275774.68609  20604191.140    84370714.03448
  24166603.160   126996346.07508  24166603.900    98958183.43645
  23575930.860   123892323.37708  23575931.840    96539461.43746
 15 03 05 07 19  0.0000000  0 11G01G03G04G06G09G11G17G20G23G31G32
  21180053.180   111301918.14609  21180055.300    86728765.29848
  20724983.880   108910514.74409  20724984.820    84865335.50148
  23419943.660   123072603.93908  23419945.660    95900719.33146
  23996841.480   126104243.56008  23996844.240    98263047.53446
  21806776.740   114595380.92009  21806777.800    89295104.00048
  22795006.520   119788543.69009  22795005.820    93341706.16747
  22007399.760   115649654.32809  22007398.640    90116600.40748
  24306659.140   127732348.36007  24306657.980    99531692.93445
  20599161.000   108249321.51809  20599157.260    84350101.16348
  24174114.140   127035816.86708  24174115.060    98988939.79545
  23590601.000   123969414.04909  23590601.840    96599531.92746
 15 03 05 07 19 30.0000000  0 11G01G03G04G06G09G11G17G20G23G31G32
  21190954.620   111359204.92709  21190956.640    86773404.27548
  20729152.220   108932419.43209  20729153.200    84882404.04249
  23438140.440   123168227.92309  23438142.500    95975231.37546
  23977987.340   126005163.92108  23977990.020    98185842.57346
  21791584.900   114515546.24009  21791585.800    89232895.16648
  22814315.240   119890011.36509  22814314.660    93420771.75947
  22007390.240   115649604.03009  22007389.140    90116561.15648
  24291239.900   127651320.56007  24291238.860    99468554.36145
  20594216.460   108223337.49309  20594212.640    84329853.86548
  24181723.940   127075805.75508  24181724.960    99020099.86646
  23605273.940   124046519.49708  23605274.740    96659613.92246
 15 03 05 07 20  0.0000000  0 11G01G03G04G06G09G11G17G20G23G31G32
  21201930.220   111416881.73209  21201932.200    86818347.16448
  20733357.140   108954516.40109  20733358.200    84899622.41449
  23456374.540   123264048.27409  23456376.740    96049896.38746
  23959143.000   125906136.23808  23959145.620    98108678.16546
  21776461.780   114436072.61009  21776462.460    89170967.66848
  22833665.640   119991697.84909  22833665.220    93500007.85747
  22007490.040   115650127.89909  22007488.960    90116969.30648
  24275829.940   127570340.76107  24275829.100    99405453.10445
  20589360.660   108197819.70309  20589356.760    84309969.86948
  24189431.760   127116308.81508  24189432.660    99051660.60146
  23619948.780   124123636.58108  23619949.580    96719704.99646
 15 03 05 07 20 30.0000000  0 11G01G03G04G06G09G11G17G20G23G31G32
  21212980.220   111474949.85509  21212982.240    86863594.98248
  20737599.000   108976807.26609  20737600.080    84916991.86648
  23474646.180   123360065.51009  23474648.180    96124714.86346
  23940309.400   125807164.35308  23940311.800    98031557.12846
  21761407.960   114356963.36109  21761408.520    89109324.10048
  22853057.620   120093602.73709  22853057.340    93579414.12747
  22007699.400   115651227.45209  22007698.320    90117826.04648
  24260429.780   127489410.90808  24260428.880    99342390.79044
  20584593.940   108172770.03409  20584589.960    84290450.63049
  24197237.680   127157327.25508  24197238.240    99083622.92146
  23634626.080   124200766.82008  23634626.980    96779806.31146
 15 03 05 07 21  0.0000000  0 11G01G03G04G06G09G11G17G20G23G31G32
  21224105.140   111533411.99109  21224107.280    86909149.80948
  20741878.340   108999294.96909  20741879.400    84934514.69648
  23492955.580   123456281.63808  23492957.460    96199688.27946
  23921487.300   125708253.43108  23921489.640    97954483.61146
  21746424.300   114278223.18109  21746424.800    89047968.12248
  22872491.400   120195727.20809  22872491.260    93658991.50347
  22008018.780   115652905.52209  22008017.680    90119133.57148
  24245039.420   127408533.99907  24245038.540    99279369.74744
  20579916.840   108148191.70709  20579912.900    84271298.66748
  24205141.920   127198863.06008  24205142.240    99115988.39646
  23649306.580   124277912.96608  23649307.680    96839920.04446
 15 03 05 07 21 30.0000000  0 11G01G03G04G06G09G11G17G20G23G31G32
  21235304.140   111592263.21709  21235306.400    86955007.82648
  20746194.260   109021974.81909  20746195.300    84952187.26149
  23511301.700   123552690.90808  23511303.620    96274812.18546
  23902676.240   125609400.99308  23902678.800    97877455.72946
  21731510.300   114199849.20109  21731510.700    88986897.49848
  22891965.760   120298064.87409  22891965.660    93738734.99847
  22008447.340   115655157.37509  22008446.220    90120888.21548
  24229658.500   127327706.54807  24229657.320    99216387.15445
  20575328.560   108124080.37509  20575324.700    84252510.60549
  24213143.360   127240910.74008  24213143.700    99148752.71646
  23663989.220   124355070.57908  23663990.520    96900042.68546
 15 03 05 07 22  0.0000000  0 11G01G03G04G06G09G11G17G20G23G31G32
  21246576.960   111651502.22109  21246579.320    87001168.01448
  20750546.560   109044845.82909  20750547.620    84970008.77948
  23529684.320   123649291.36108  23529686.080    96350085.14846
  23883876.600   125510608.38408  23883879.300    97800474.42646
  21716666.120   114121842.05409  21716666.440    88926112.71448
  22911480.080   120400612.87908  22911479.960    93818642.42647
  22008984.820   115657981.66809  22008983.680    90123088.89548
  24214286.920   127246927.72708  24214285.880    99153442.52644
  20570829.020   108100435.25409  20570825.160    84234085.82349
  24221241.740   127283468.42408  24221242.300    99181914.44146
  23678673.960   124432238.26008  23678675.140    96960173.20146
 15 03 05 07 22 30.0000000  0 11G01G03G04G06G09G11G17G20G23G31G32
  21257924.400   111711132.98709  21257926.800    87047633.46348
  20754936.060   109067912.27609  20754937.060    84987982.57648
  23548103.840   123746086.05608  23548105.980    96425509.36946
  23865089.640   125411882.06708  23865092.460    97723544.78746
  21701892.860   114044207.78609  21701893.140    88865618.48048
  22931034.880   120503373.62709  22931034.640    93898715.58046
  22009632.040   115661382.76909  22009630.920    90125739.04448
  24198925.420   127166202.39708  24198925.140    99090539.60445
