     2.11           OBSERVATION DATA    M                   RINEX VERSION / TYPE
SPIDER V4,0,0,3554                      2015 03 19 01:14    PGM / RUN BY / DATE 
CNGR                                                        MARKER NAME         
CNGR                                                        MARKER NUMBER       
                                                            OBSERVER / AGENCY   
496521              LEICA GRX1200+GNSS  8.10/4.007          REC # / TYPE / VERS 
10321004            LEIAR25         NONE                    ANT # / TYPE        
  5218738.7445   688113.1521  3590185.5476                  APPROX POSITION XYZ 
        0.0720        0.0000        0.0000                  ANTENNA: DELTA H/E/N
     1     1                                                WAVELENGTH FACT L1/2
     4    C1    L1    P2    L2                              # / TYPES OF OBSERV 
    30.000                                                  INTERVAL            
  2015    03    05    00    00    0.0000000     GPS         TIME OF FIRST OBS   
  2015    03    05    23    59   30.0000000     GPS         TIME OF LAST OBS    
    16                                                      LEAP SECONDS        
    38                                                      # OF SATELLITES     
   G 1   815   815   815   815                              PRN / # OF OBS      
   G 2   934   934   933   933                              PRN / # OF OBS      
   G 3   861   860   860   860                              PRN / # OF OBS      
   G 4   843   843   843   843                              PRN / # OF OBS      
   G 5   625   625   625   625                              PRN / # OF OBS      
   G 6   818   818   818   818                              PRN / # OF OBS      
   G 7   677   677   676   676                              PRN / # OF OBS      
   G 9   817   817   817   817                              PRN / # OF OBS      
   G10   732   731   731   731                              PRN / # OF OBS      
   G11   777   777   776   776                              PRN / # OF OBS      
   G12   842   841   841   841                              PRN / # OF OBS      
   G13   750   750   749   749                              PRN / # OF OBS      
   G14   467   467   466   466                              PRN / # OF OBS      
   G15   647   647   646   646                              PRN / # OF OBS      
   G16   665   665   665   665                              PRN / # OF OBS      
   G17   933   933   933   933                              PRN / # OF OBS      
   G18   901   901   901   901                              PRN / # OF OBS      
   G19   754   754   754   754                              PRN / # OF OBS      
   G20   737   737   737   737                              PRN / # OF OBS      
   G21   709   694   685   680                              PRN / # OF OBS      
   G22   667   662   656   655                              PRN / # OF OBS      
   G23   762   761   761   761                              PRN / # OF OBS      
   G24   801   800   794   794                              PRN / # OF OBS      
   G25   860   860   860   860                              PRN / # OF OBS      
   G27   809   809   809   809                              PRN / # OF OBS      
   G28   845   845   844   844                              PRN / # OF OBS      
   G29   749   748   748   748                              PRN / # OF OBS      
   G30   725   725   725   725                              PRN / # OF OBS      
   G31   865   864   864   864                              PRN / # OF OBS      
   G32   776   776   776   776                              PRN / # OF OBS      
   R 2    30    30    30    30                              PRN / # OF OBS      
   R 3    30    30    30    30                              PRN / # OF OBS      
   R 9    30    30    30    30                              PRN / # OF OBS      
   R15    30    30    30    30                              PRN / # OF OBS      
   R16    30    30    30    30                              PRN / # OF OBS      
   R17    30    30    30    30                              PRN / # OF OBS      
   R18    30    30    30    30                              PRN / # OF OBS      
   R19    30    30    30    30                              PRN / # OF OBS      
BIT 2 OF LLI FLAGS DATA COLLECTED UNDER A/S CONDITION       COMMENT             
SNR is mapped to RINEX snr flag value [2-9]                 COMMENT             
Lx:     = 25dBHz -> 1; 26-27dBHz -> 2; 28-31dBHz -> 3       COMMENT             
       32-35dBHz -> 4; 36-38dBHz -> 5; 39-41dBHz -> 6       COMMENT             
       42-44dBHz -> 7; 45-48dBHz -> 8; >=49dBHz -> 9        COMMENT             
                                                            END OF HEADER       
 15 03 05 00 00  0.0000000  0 15G16G18G21G22G27G29G31R02R03R09R15R16
                                R17R18R19
  21349837.680   112194173.32209  21349834.380    87424030.63248
  21937445.620   115282126.69909  21937442.740    89830247.61547
  21615486.300   113590504.02509  21615482.960    88512227.63548
  23015515.100   120947378.59408  23015511.120    94244706.83447
  22633159.700   118938087.44008  22633159.820    92679042.70747
  24344534.660   127931773.58208  24344533.820    99687254.92545
  23672658.300   124400669.50708  23672656.000    96935585.08746
  22269548.520   118834590.17308  22269553.000    92426926.99908
  22080253.340   118197329.98508  22080254.220    91931282.53607
  21960785.720   117269368.28308  21960787.180    91209522.15205
  22384069.640   119613691.83708  22384074.180    93032895.29807
  20010113.480   106890437.27608  20010115.800    83137028.16108
  22343858.960   119566889.59808  22343859.780    92996662.18607
  20208598.180   107874956.00809  20208600.920    83902806.67408
  22185738.740   118678779.22208  22185739.180    92305719.52807
 15 03 05 00 00 30.0000000  0 15G16G18G21G22G27G29G31R02R03R09R15R16
                                R17R18R19
  21338093.860   112132459.12609  21338090.580    87375941.65048
  21928953.600   115237500.66909  21928950.600    89795474.11047
  21624967.460   113640327.50309  21624964.040    88551051.12048
  22998084.240   120855779.78109  22998080.320    94173331.18547
  22621266.000   118875585.59308  22621266.040    92630340.00247
  24358222.860   128003706.52508  24358221.900    99743306.60245
  23690336.020   124493566.64408  23690333.760    97007972.40946
  22270533.460   118839846.74608  22270538.500    92431015.52508
  22063632.800   118108359.98808  22063633.780    91862083.68807
  21946337.080   117192213.11308  21946338.360    91149512.57805
  22408257.000   119742941.59308  22408261.580    93133422.80507
  20016438.240   106924222.81608  20016440.560    83163305.77208
  22357060.880   119637536.48708  22357061.740    93051609.79807
  20211712.020   107891577.87109  20211714.680    83915734.78108
  22175020.340   118621443.37308  22175020.980    92261125.00807
 15 03 05 00 01  0.0000000  0 15G16G18G21G22G27G29G31R02R03R09R15R16
                                R17R18R19
  21326417.120   112071097.50109  21326413.800    87328127.40748
  21920537.480   115193273.52909  21920534.320    89761011.42247
  21634492.660   113690382.43809  21634489.180    88590054.97648
  22980678.980   120764315.28708  22980675.060    94102060.20647
  22609386.740   118813159.58408  22609386.700    92581696.40647
  24371918.280   128075675.72808  24371917.220    99799386.51545
  23708023.940   124586517.25708  23708021.820    97080401.39546
  22271657.160   118845841.20009  22271661.840    92435677.85908
  22047087.340   118019791.55508  22047088.340    91793197.14807
  21932005.520   117115682.93708  21932006.720    91089989.13404
  22432477.420   119872367.74108  22432481.960    93234087.54707
  20022913.300   106958811.63308  20022915.680    83190208.16708
  22370261.340   119708175.94407  22370262.940    93106551.62308
  20214857.400   107908367.60309  20214859.920    83928793.46808
  22164332.080   118564268.45908  22164332.600    92216655.66307
 15 03 05 00 01 30.0000000  0 15G16G18G21G22G27G29G31R02R03R09R15R16
                                R17R18R19
  21314809.260   112010097.86909  21314805.980    87280595.23248
  21912198.860   115149453.77709  21912195.740    89726866.18547
  21644062.980   113740674.55409  21644059.460    88629243.63848
  22963301.140   120672994.85008  22963297.220    94030901.48647
  22597523.300   118750816.67008  22597523.180    92533117.54547
  24385621.940   128147688.22308  24385620.800    99855500.13346
  23725722.740   124679525.21008  23725720.780    97152875.07146
  22272920.540   118852581.00509  22272924.740    92440919.98008
  22030618.980   117931636.04708  22030619.840    91724631.79907
  21917792.960   117039788.30108  21917794.020    91030959.98605
  22456731.420   120001973.32008  22456736.000    93334891.82807
  20029539.680   106994208.81108  20029542.100    83217739.28208
  22383461.800   119778814.56108  22383463.480    93161492.77107
  20218035.340   107925331.28109  20218037.920    83941987.45008
  22153675.080   118507260.90308  22153675.560    92172316.49707
 15 03 05 00 02  0.0000000  0 15G16G18G21G22G27G29G31R02R03R09R15R16
                                R17R18R19
  21303269.840   111949458.24609  21303266.640    87233343.58448
  21903937.440   115106039.37809  21903934.160    89693036.79147
  21653677.220   113791197.49009  21653673.700    88668612.15548
  22945950.520   120581817.04709  22945946.480    93959853.90747
  22585674.780   118688552.67708  22585674.640    92484600.18247
  24399333.120   128219740.01708  24399331.680    99911644.34545
  23743431.060   124772583.23908  23743429.100    97225387.77046
  22274322.520   118860062.03608  22274326.340    92446738.61507
  22014227.940   117843893.51008  22014228.660    91656387.62407
  21903699.100   116964527.87508  21903700.040    90972424.11604
  22481017.280   120131749.40508  22481021.980    93435828.71107
  20036316.200   107030408.03508  20036318.720    83245894.20508
  22396661.500   119849448.05408  22396662.660    93216429.91406
  20221244.780   107942463.38809  20221247.480    83955312.43408
  22143048.380   118450415.50508  22143048.900    92128103.43207
 15 03 05 00 02 30.0000000  0 15G16G18G21G22G27G29G31R02R03R09R15R16
                                R17R18R19
  21291800.060   111889184.38009  21291796.900    87186376.94948
  21895754.140   115063035.18909  21895750.640    89659527.05447
  21663335.780   113841953.31309  21663332.200    88708162.14748
  22928628.280   120490788.10009  22928624.100    93888922.31047
  22573841.980   118626371.29508  22573841.880    92436147.19647
  24413052.300   128291834.16308  24413050.660    99967821.65945
  23761149.100   124865692.07508  23761147.200    97297940.04246
  22275864.080   118868288.30609  22275867.160    92453136.84807
  21997915.660   117756572.05008  21997916.360    91588470.95107
  21889725.200   116889908.51808  21889726.300    90914386.85005
  22505334.780   120261694.45808  22505339.620    93536897.04607
  20043243.220   107067411.01708  20043245.840    83274674.29408
  22409860.580   119920079.56808  22409861.260    93271365.53507
  20224486.260   107959766.59309  20224489.020    83968770.49208
  22132452.540   118393735.09309  22132453.080    92084018.69407
 15 03 05 00 03  0.0000000  0 15G16G18G21G22G27G29G31R02R03R09R15R16
                                R17R18R19
  21280399.760   111829275.54609  21280396.620    87139694.74748
  21887648.660   115020440.44209  21887645.000    89626336.35047
  21673037.700   113892937.20009  21673034.120    88747889.84748
  22911334.380   120399908.08509  22911330.180    93818106.76847
  22562024.380   118564270.01608  22562024.400    92387756.62848
  24426779.080   128363968.67708  24426777.400   100024030.37946
  23778875.800   124958846.12408  23778873.780    97370527.56746
  22277545.200   118877257.25709  22277547.400    92460112.68907
  21981682.320   117669673.37208  21981682.820    91520883.14307
  21875871.440   116815930.71708  21875872.780    90856848.56705
  22529682.700   120391802.24308  22529687.600    93638091.91007
  20050319.780   107105212.68508  20050322.440    83304075.57508
  22423059.140   119990706.19808  22423059.500    93326297.35507
  20227759.040   107977237.08909  20227761.780    83982358.65908
  22121886.940   118337216.33209  22121887.460    92040059.70007
 15 03 05 00 03 30.0000000  0 15G16G18G21G22G27G29G31R02R03R09R15R16
                                R17R18R19
  21269069.740   111769735.66309  21269066.520    87093300.04648
  21879621.640   114978258.49809  21879618.000    89593467.32547
  21682783.120   113944149.59109  21682779.500    88787795.59848
  22894069.580   120309180.95309  22894065.360    93747410.35647
  22550222.320   118502250.34008  22550222.520    92339429.65348
  24440513.620   128436144.81508  24440512.200   100080271.47746
  23796610.740   125052043.63608  23796608.720    97443148.93846
  22279365.760   118886970.52608  22279368.060    92467667.46408
  21965528.960   117583202.98408  21965529.380    91453628.42207
  21862138.640   116742598.92108  21862140.140    90799812.72705
  22554060.640   120522070.08508  22554065.620    93739411.27907
  20057545.760   107143812.34708  20057548.440    83334097.51708
  22436257.020   120061328.76908  22436257.200    93381225.99007
  20231063.200   107994875.13809  20231065.920    83996077.12908
  22111351.660   118280859.92608  22111352.140    91996226.97107
 15 03 05 00 04  0.0000000  0 15G16G18G21G22G27G29G31R02R03R09R15R16
                                R17R18R19
  21257810.200   111710566.12909  21257806.940    87047193.91748
  21871673.180   114936489.82809  21871669.640    89560920.32147
  21692571.460   113995587.54409  21692567.800    88827877.12048
  22876834.180   120218608.51009  22876830.040    93676834.48147
  22538435.700   118440311.72508  22538436.040    92291165.85248
  24454255.940   128508361.72808  24454254.760   100136544.39846
  23814353.320   125145281.08208  23814351.280    97515801.42646
  22281324.600   118897427.32708  22281328.640    92475800.56308
  21949456.360   117497164.40708  21949456.860    91386709.55407
  21848527.260   116669915.52508  21848528.960    90743281.22005
  22578467.400   120652492.29808  22578472.480    93840850.72407
  20064920.640   107183207.36208  20064923.360    83364738.07008
  22449453.680   120131946.67708  22449453.440    93436151.01307
  20234398.380   108012679.00909  20234401.200    84009924.58608
  22100846.500   118224664.41409  22100846.960    91952519.38207
 15 03 05 00 04 30.0000000  0 15G16G18G21G22G27G29G31R02R03R09R15R16
                                R17R18R19
  21246621.940   111651771.08709  21246618.600    87001379.60148
  21863804.140   114895138.61409  21863800.800    89528698.62047
  21702402.620   114047250.69308  21702398.920    88868134.12048
  22859629.040   120128195.44009  22859624.920    93606382.79247
  22526664.920   118378456.18708  22526665.320    92242966.78148
  24468006.480   128580622.07608  24468005.480   100192851.14845
  23832103.340   125238557.41508  23832101.280    97588484.20546
  22283422.480   118908629.71508  22283428.840    92484513.59708
  21933465.580   117411564.35708  21933466.060    91320131.77507
  21835038.200   116597885.34908  21835039.840    90687257.77305
  22602902.540   120783066.20507  22602907.560    93942408.17006
  20072444.260   107223396.97309  20072446.960    83395996.65608
  22462649.660   120202561.33108  22462649.400    93491073.52607
  20237764.780   108030649.67409  20237767.660    84023901.77608
  22090371.580   118168630.74108  22090372.100    91908937.67107
 15 03 05 00 05  0.0000000  0 15G16G18G21G22G27G29G31R02R03R09R15R16
                                R17R18R19
  21235504.300   111593347.39409  21235500.920    86955854.65848
  21856013.780   114854200.86509  21856010.660    89496799.10447
  21712275.300   114099132.05608  21712271.640    88908561.16148
  22842453.760   120037939.07409  22842449.660    93536053.20947
  22514909.080   118316678.62309  22514909.460    92194828.47548
  24481764.280   128652920.16508  24481763.280   100249187.34846
  23849859.140   125331864.41108  23849857.020    97661190.89446
  22285660.160   118920572.73809  22285667.340    92493802.61308
  21917556.360   117326401.35408  21917556.940    91253893.91307
  21821671.140   116526506.25308  21821672.700    90631740.71905
  22627364.520   120913783.43108  22627369.480    94044077.05806
  20080115.280   107264373.75509  20080117.880    83427867.48508
  22475843.940   120273166.80508  22475844.120    93545988.92807
  20241161.240   108048780.58709  20241164.180    84038003.61808
  22079925.780   118112752.79209  22079926.360    91865477.08007
 15 03 05 00 05 30.0000000  0 15G16G18G21G22G27G29G31R02R03R09R15R16
                                R17R18R19
  21224458.720   111535302.56909  21224455.340    86910624.93248
  21848303.580   114813683.95309  21848300.660    89465227.50147
  21722190.220   114151235.56408  21722186.640    88949161.29648
  22825309.840   119947847.34708  22825305.800    93465851.92147
  22503169.140   118254984.60408  22503169.440    92146755.26248
  24495530.440   128725261.73208  24495529.260   100305557.36246
  23867621.220   125425204.37808  23867619.000    97733923.27446
  22288038.580   118933261.48709  22288044.600    92503671.64607
  21901730.600   117241685.04708  21901731.220    91188003.47607
  21808427.660   116455786.61108  21808429.180    90576736.57005
  22651853.280   121044643.58708  22651858.280    94145857.11106
  20087934.280   107306140.82508  20087936.760    83460352.96908
  22489037.060   120343768.76907  22489038.800    93600901.50807
  20244588.600   108067076.33409  20244591.640    84052233.64408
  22069509.920   118057035.33909  22069510.560    91822141.31807
 15 03 05 00 06  0.0000000  0 15G16G18G21G22G27G29G31R02R03R09R15R16
                                R17R18R19
  21213485.100   111477635.92709  21213481.780    86865689.90548
  21840673.240   114773586.35609  21840670.340    89433982.63848
  21732146.460   114203556.38708  21732142.980    88989930.77248
  22808197.180   119857920.01209  22808193.080    93395778.73447
  22491444.580   118193371.28108  22491444.740    92098744.93648
  24509304.300   128797643.70008  24509302.740   100361958.87946
  23885388.420   125518571.25508  23885386.200    97806676.63546
  22290556.580   118946692.88709  22290560.260    92514118.30707
  21885988.640   117157416.86408  21885989.200    91122461.59207
  21795307.720   116385726.42308  21795309.220    90522245.33505
  22676367.680   121175640.96908  22676372.640    94247743.90806
  20095900.060   107348692.47208  20095902.460    83493448.69608
  22502228.740   120414363.79508  22502229.740    93655808.79807
  20248046.140   108085532.89109  20248049.240    84066588.77008
  22059123.460   118001474.81109  22059123.980    91778927.62607
 15 03 05 00 06 30.0000000  0 15G16G18G21G22G27G29G31R02R03R09R15R16
                                R17R18R19
  21202584.160   111420351.34509  21202580.920    86821052.57748
  21833123.340   114733911.31209  21833120.380    89403067.03748
  21742144.040   114256094.60208  21742140.720    89030869.63948
  22791116.700   119768161.53309  22791112.500    93325837.09947
  22479735.680   118131840.58608  22479735.740    92050798.97748
  24523086.280   128870067.67208  24523084.460   100418393.12846
  23903160.540   125611964.10508  23903158.280    97879450.21546
  22293213.640   118960868.75708  22293215.320    92525144.00507
  21870331.580   117073602.96808  21870332.180    91057273.03707
  21782312.140   116316330.31608  21782313.480    90468270.59705
  22700907.160   121306772.28808  22700912.240    94349734.86106
  20104012.620   107392028.53808  20104015.060    83527154.50508
  22515420.320   120484953.43508  22515420.780    93710711.90807
  20251534.000   108104150.95609  20251537.040    84081069.50208
  22048766.480   117946071.98709  22048766.880    91735836.56107
 15 03 05 00 07  0.0000000  0 15G16G18G21G22G27G29G31R02R03R09R15R16
                                R17R18R19
  21191756.480   111363451.48509  21191753.220    86776715.04148
  21825654.260   114694660.97109  21825651.260    89372482.38147
  21752182.760   114308848.76809  21752179.500    89071976.79648
  22774069.020   119678575.37609  22774064.760    93256029.75347
  22468042.520   118070393.22208  22468042.580    92002917.97148
  24536876.420   128942534.61908  24536874.400   100474860.87345
  23920937.120   125705380.53808  23920935.020    97952242.15946
  22296009.680   118975789.44309  22296011.660    92536748.98108
  21854760.140   116990248.00708  21854761.020    90992441.45708
  21769441.580   116247601.91508  21769442.900    90414815.21805
  22725470.760   121438032.43808  22725475.880    94451826.04307
  20112271.540   107436146.76708  20112274.080    83561468.67308
  22528610.180   120555538.15708  22528612.560    93765611.00708
  20255052.000   108122930.08109  20255054.980    84095675.50308
  22038438.980   117890826.61409  22038439.200    91692867.95907
 15 03 05 00 07 30.0000000  0 15G16G18G21G22G27G29G31R02R03R09R15R16
                                R17R18R19
  21181002.740   111306940.12109  21180999.460    86732680.22448
  21818266.660   114655838.74509  21818263.740    89342231.31848
  21762262.580   114361818.64609  21762259.320    89113252.02548
  22757054.860   119589165.46109  22757050.560    93186359.75547
  22456365.540   118009031.02208  22456365.660    91955103.31948
  24550674.960   129015046.05208  24550672.920   100531363.30745
  23938717.860   125798818.96708  23938715.980    98025051.25946
  22298945.460   118991456.47209  22298948.200    92548934.46608
  21839275.560   116907357.68508  21839276.480    90927971.21508
  21756696.940   116179545.85308  21756698.020    90361882.74905
  22750058.240   121569420.06008  22750063.300    94554016.34906
  20120676.760   107481046.35508  20120679.380    83596390.56008
  22541800.060   120626119.30208  22541802.600    93820507.39706
  20258600.320   108141870.93409  20258603.260    84110407.29208
  22028141.080   117835739.76608  22028141.100    91650022.66007
 15 03 05 00 08  0.0000000  0 14G16G18G21G22G27G31R02R03R09R15R16R17
                                R18R19
  21170329.960   111250854.19409  21170326.620    86688976.91748
  21810967.400   114617480.73509  21810964.420    89312341.98547
  21772389.720   114415037.20409  21772386.500    89154721.03448
  22740081.340   119499969.23509  22740076.980    93116856.24947
  22444711.500   117947788.92209  22444711.600    91907382.25648
  23956508.840   125892311.21408  23956507.080    98097902.28746
  22302028.020   119007905.02109  22302030.900    92561727.84907
  21823885.200   116824972.02808  21823886.100    90863893.53607
  21744085.220   116112199.97808  21744086.180    90309502.64005
  22774675.380   121700966.22307  22774680.420    94656329.96706
  20129234.380   107526759.99608  20129237.100    83631945.60408
  22554996.160   120696731.97908  22554997.600    93875428.41807
  20262185.380   108161007.77209  20262188.280    84125291.51808
  22017879.200   117780845.86308  22017879.160    91607327.43707
 15 03 05 00 08 30.0000000  0 14G16G18G21G22G27G31R02R03R09R15R16R17
                                R18R19
  21159723.620   111195117.37709  21159720.240    86645545.64648
  21803741.840   114579510.32409  21803738.780    89282754.66647
  21782548.920   114468424.13509  21782545.740    89196321.24748
  22723134.020   119410910.80409  22723129.760    93047460.11647
  22433065.540   117886588.63809  22433065.600    91859693.76148
  23974294.700   125985776.36808  23974293.040    98170732.20446
  22305242.140   119025055.12509  22305245.020    92575066.83107
  21808575.020   116743015.05808  21808575.680    90800149.24507
  21731592.100   116045487.77408  21731593.180    90257615.39905
  22799306.360   121832586.51708  22799311.480    94758701.19106
  20137929.080   107573205.51208  20137931.840    83668069.87508
  22568182.940   120767296.14708  22568184.200    93930311.68108
  20265792.120   108180260.13309  20265794.880    84140265.58308
  22007638.320   117726064.31508  22007638.480    91564719.61207
 15 03 05 00 09  0.0000000  0 14G16G18G21G22G27G31R02R03R09R15R16R17
                                R18R19
  21149192.300   111139774.81209  21149188.840    86602421.58448
  21796598.500   114541971.98509  21796595.400    89253504.03447
  21792748.020   114522020.71709  21792744.900    89238084.81648
  22706221.680   119322036.20109  22706217.520    92978207.23447
  22421435.880   117825473.55809  22421435.780    91812071.66848
  23992082.980   126079254.20608  23992081.520    98243571.98546
  22308595.660   119042950.28308  22308598.280    92588985.34107
  21793353.840   116661534.75108  21793354.520    90736775.71208
  21719226.280   115979455.59108  21719227.460    90206257.05205
  22823958.660   121964320.75807  22823963.800    94861161.09106
  20146768.540   107620424.24908  20146771.300    83704795.54708
  22581369.040   120837855.60708  22581370.680    93985191.20207
  20269428.420   108199670.71109  20269431.160    84155362.72408
  21997426.420   117671438.34408  21997426.820    91522232.78907
 15 03 05 00 09 30.0000000  0 14G16G18G21G22G27G31R02R03R09R15R16R17
                                R18R19
  21138736.340   111084828.47409  21138732.800    86559606.26748
  21789537.580   114504866.78909  21789534.420    89224590.91148
  21802986.700   114575825.09409  21802983.560    89280010.31348
  22689344.720   119233347.41709  22689340.640    92909099.14047
  22409822.260   117764443.44109  22409822.180    91764515.77848
  24009873.220   126172741.85708  24009871.780    98316419.44246
  22312088.500   119061589.80408  22312090.280    92603482.76107
  21778222.520   116580535.42308  21778223.280    90673776.26307
  21706988.380   115914106.04808  21706989.640    90155429.63705
  22848631.360   122096163.84408  22848636.600    94963705.61606
  20155752.140   107668412.87808  20155754.940    83742120.02208
  22594554.180   120908409.64507  22594554.040    94040066.66906
  20273093.980   108219238.26109  20273096.820    84170581.95308
  21987243.420   117616966.75608  21987243.920    91479866.04507
 15 03 05 00 10  0.0000000  0 14G16G18G21G22G27G31R02R03R09R15R16R17
                                R18R19
  21128356.560   111030282.49609  21128352.940    86517102.92048
  21782559.720   114468197.91609  21782556.420    89196017.78347
  21813265.000   114629837.50209  21813261.840    89322097.90748
  22672503.980   119144848.85209  22672499.820    92840139.26647
  22398225.080   117703500.31208  22398225.040    91717027.66248
  24027665.020   126266237.65308  24027663.560    98389273.24246
  22315721.520   119080975.18709  22315723.100    92618560.32107
  21763182.000   116500022.42708  21763182.720    90611155.06308
  21694879.100   115849443.51008  21694880.300    90105136.57705
  22873323.940   122228113.32307  22873329.260    95066332.89106
  20164879.700   107717170.48108  20164882.480    83780042.58308
  22607738.020   120978960.20008  22607737.760    94094939.23407
  20276789.000   108238963.63709  20276791.960    84185923.93608
  21977089.540   117562650.68808  21977090.060    91437620.26407
 15 03 05 00 10 30.0000000  0 14G16G18G21G22G27G31R02R03R09R15R16R17
                                R18R19
  21118052.500   110976134.32109  21118048.880    86474909.55048
  21775664.440   114431963.11709  21775661.080    89167782.89347
  21823581.680   114684051.51709  21823578.420    89364342.59848
  22655699.160   119056539.01309  22655695.100    92771326.46447
  22386643.620   117642640.07208  22386643.660    91669604.14248
  24045457.060   126359734.73208  24045455.420    98462128.04346
  22319493.400   119101101.25509  22319495.140    92634213.92107
  21748232.380   116419996.00808  21748233.060    90548912.30707
  21682898.260   115785466.50708  21682899.240    90055376.70805
  22898034.920   122360160.80808  22898040.400    95169036.36206
  20174149.900   107766690.15608  20174152.700    83818557.86708
  22620920.820   121049502.43908  22620920.920    94149805.42407
  20280512.620   108258841.53909  20280515.620    84201384.54808
  21966963.800   117508484.98308  21966964.320    91395491.42607
 15 03 05 00 11  0.0000000  0 14G16G18G21G22G27G31R02R03R09R15R16R17
                                R18R19
  21107825.180   110922389.47609  21107821.580    86433030.46648
  21768852.580   114396166.53009  21768849.200    89139889.46347
  21833936.840   114738467.78709  21833933.380    89406744.89548
  22638931.400   118968423.83509  22638927.340    92702665.32347
  22375078.560   117581866.21208  22375078.680    91622247.92048
  24063249.300   126453233.29008  24063247.740    98534983.95745
  22323404.560   119121971.40809  22323406.500    92650446.23207
  21733374.960   116340463.69908  21733375.820    90487053.88008
  21671046.880   115722180.98008  21671047.960    90006154.68205
  22922764.080   122492305.57607  22922769.580    95271815.58007
  20183562.880   107816972.39208  20183565.620    83857666.26908
  22634102.480   121120039.71207  22634103.160    94204667.71407
  20284265.380   108278874.28609  20284268.320    84216965.60408
  21956866.640   117454472.08708  21956867.160    91353481.43507
 15 03 05 00 11 30.0000000  0 14G16G18G21G22G27G31R02R03R09R15R16R17
                                R18R19
  21097674.860   110869049.36109  21097671.360    86391466.75848
  21762124.280   114360809.22709  21762120.960    89112338.34547
  21844330.240   114793085.02409  21844326.620    89449303.77948
  22622201.100   118880505.37009  22622197.000    92634157.49247
  22363529.940   117521178.46108  22363530.040    91574958.80048
  24081041.080   126546729.82508  24081039.580    98607838.31646
  22327455.040   119143584.35809  22327456.060    92667256.37307
  21718610.400   116261428.65108  21718611.460    90425582.22408
  21659325.380   115659588.88608  21659326.560    89957471.94605
  22947510.440   122624542.39607  22947515.920    95374666.29006
  20193117.880   107868013.50508  20193120.640    83897364.90608
  22647283.180   121190571.21908  22647282.120    94259525.61106
  20288046.960   108299060.62509  20288049.840    84232666.10908
  21946797.900   117400610.79408  21946798.260    91311589.35407
 15 03 05 00 12  0.0000000  0 14G16G18G21G22G27G31R02R03R09R15R16R17
                                R18R19
  21087601.640   110816114.13509  21087598.200    86350218.54748
  21755479.420   114325890.32609  21755476.100    89085128.82647
  21854761.080   114847899.36109  21854757.420    89492016.24748
  22605508.280   118792784.02209  22605504.200    92565803.22747
  22351997.360   117460574.95908  22351997.500    91527735.33148
  24098831.600   126640219.66008  24098830.140    98680687.45646
  22331644.500   119165937.51009  22331645.260    92684642.22208
  21703939.280   116182893.05808  21703940.540    90364499.02508
  21647733.980   115597691.13908  21647735.240    89909329.27005
  22972272.800   122756864.55807  22972278.380    95477583.42607
  20202814.080   107919808.85508  20202816.800    83937650.16808
  22660462.200   121261094.76408  22660461.940    94314377.13807
  20291856.800   108319397.34009  20291859.620    84248483.57408
  21936756.880   117346897.88508  21936757.120    91269812.67207
 15 03 05 00 12 30.0000000  0 15G16G18G19G21G22G27G31R02R03R09R15R16
                                R17R18R19
  21077606.000   110763586.64209  21077602.600    86309288.04748
  21748918.480   114291412.65309  21748915.160    89058263.12947
  24516218.860   128833598.03805  24516217.760   100389803.24943
  21865229.220   114902910.07609  21865225.620    89534881.73948
  22588853.620   118705263.44309  22588849.620    92497605.42947
  22340481.160   117400056.82009  22340481.240    91480578.38748
  24116620.420   126733700.45308  24116619.200    98753529.55146
  22335972.620   119189031.20509  22335973.800    92702603.96708
  21689362.440   116104861.87008  21689363.720    90303808.13208
  21636273.160   115536490.97008  21636274.560    89861729.16405
  22997050.660   122889269.89507  22997056.280    95580565.23407
  20212651.080   107972356.31108  20212653.740    83978520.40308
  22673639.760   121331611.21808  22673639.780    94369223.27606
  20295694.800   108339884.55409  20295697.620    84264418.09908
  21926743.680   117293334.04108  21926743.920    91228151.94207
 15 03 05 00 13  0.0000000  0 15G16G18G19G21G22G27G31R02R03R09R15R16
                                R17R18R19
  21067686.820   110711460.90209  21067683.400    86268670.60048
  21742440.180   114257369.05909  21742436.900    89031735.67048
  24501462.640   128756053.63404  24501459.440   100329386.20543
  21875732.640   114958106.29109  21875729.100    89577891.77948
  22572236.000   118617937.69109  22572232.060    92429559.42147
  22328979.720   117339615.86409  22328979.640    91433481.56048
  24134405.480   126827161.20608  24134404.260    98826356.01746
  22340437.460   119212856.31309  22340438.700    92721134.60707
  21674879.080   116027330.65408  21674880.080    90243506.09408
  21624941.820   115475982.40108  21624943.260    89814666.95505
  23021841.520   123021744.59807  23021847.260    95683600.99306
  20222626.680   108025644.26408  20222629.340    84019966.57208
  22686814.600   121402111.89208  22686814.180    94424057.19707
  20299559.100   108360512.81209  20299562.020    84280462.32508
  21916756.580   117239909.63308  21916756.780    91186599.66807
 15 03 05 00 13 30.0000000  0 15G16G18G19G21G22G27G31R02R03R09R15R16
                                R17R18R19
  21057842.560   110659729.19009  21057839.160    86228360.19148
  21736042.940   114223751.43009  21736039.780    89005540.14247
  24486711.020   128678532.52205  24486707.160   100268968.16542
  21886269.300   115013477.03109  21886265.740    89621037.81248
  22555654.140   118530800.05109  22555650.440    92361660.01747
  22317491.180   117279242.76409  22317491.020    91386437.62148
  24152184.340   126920589.45208  24152182.960    98899157.16246
  22345037.340   119237402.22409  22345037.880    92740225.92207
  21660488.040   115950293.63808  21660488.960    90183588.46008
  21613738.560   115416158.33308  21613740.100    89768137.13905
  23046642.720   123154274.52007  23046648.480    95786679.70106
  20232738.540   108079660.21608  20232741.280    84061978.95808
  22699984.080   121472586.82108  22699983.960    94478870.99607
  20303447.820   108381271.66209  20303450.820    84296608.11808
  21906793.540   117186614.18908  21906793.660    91145147.70407
 15 03 05 00 14  0.0000000  0 15G16G18G19G21G22G27G31R02R03R09R15R16
                                R17R18R19
  21048082.300   110608438.86409  21048078.880    86188393.71648
  21729735.660   114190606.29809  21729732.540    88979712.78647
  24471972.600   128601079.95305  24471968.660   100208615.54443
  21896847.520   115069065.66609  21896843.840    89664353.63448
  22539117.160   118443898.49909  22539113.540    92293944.56947
  22306024.180   117218983.10109  22306024.000    91339482.06648
  24169965.020   127014027.31708  24169963.640    98971965.79245
  22349780.780   119262714.43809  22349781.500    92759913.22707
  21646198.620   115873800.99908  21646199.440    90124094.20108
  21602672.700   115357067.35208  21602674.180    89722177.48805
  23071462.240   123286902.24207  23071468.060    95889834.48007
  20242994.760   108134447.21208  20242997.560    84104591.05008
  22713157.740   121543082.00908  22713158.820    94533700.52207
  20307369.440   108402206.12509  20307372.560    84312890.49908
  21896863.060   117133493.21308  21896863.200    91103831.43107
 15 03 05 00 14 30.0000000  0 15G16G18G19G21G22G27G31R02R03R09R15R16
                                R17R18R19
  21038397.780   110557546.83309  21038394.380    86148737.61248
  21723509.940   114157889.79209  21723506.880    88954219.43448
  24457238.720   128523651.03005  24457233.440   100148284.48244
  21907458.360   115124825.50209  21907454.540    89707802.86348
  22522616.940   118357190.23509  22522613.440    92226379.73347
  22294570.160   117158791.97509  22294570.000    91292579.93748
  24187738.480   127107426.95408  24187737.120    99044744.65846
  22354658.600   119288746.46709  22354660.340    92780160.36508
  21632003.160   115797810.78508  21632003.920    90064990.74008
  21591736.020   115298665.82408  21591737.420    89676754.09805
  23096290.580   123419576.79707  23096296.440    95993025.63006
  20253386.120   108189956.07508  20253388.980    84147764.59508
  22726326.760   121613551.45607  22726327.500    94588510.16706
  20311315.240   108423269.28709  20311318.340    84329272.98108
  21886956.480   117080499.71408  21886956.660    91062614.31107
 15 03 05 00 15  0.0000000  0  7G16G18G19G21G22G27G31
  21028798.400   110507102.18209  21028795.000    86109430.10248
  21717375.020   114125650.39109  21717371.960    88929097.84148
  24442517.900   128446292.37305  24442512.600   100088005.00942
  21918110.340   115180801.61909  21918106.340    89751420.62148
  22506163.000   118270725.00609  22506159.580    92159004.28547
  22283138.200   117098716.69609  22283138.120    91245768.06648
  24205513.080   127200832.62108  24205511.600    99117528.18446
 15 03 05 00 15 30.0000000  0  7G16G18G19G21G22G27G31
  21019279.480   110457080.02009  21019276.100    86070451.79348
  21711325.960   114093862.38509  21711322.940    88904327.98547
  24427805.300   128368977.07806  24427800.980   100027759.44743
  21928798.080   115236965.76509  21928793.960    89795184.89048
  22489750.740   118184478.31909  22489747.260    92091799.10747
  22271723.220   117038730.56609  22271723.140    91199025.66248
  24223283.120   127294214.28108  24223281.660    99190293.00345
 15 03 05 00 16  0.0000000  0  7G16G18G19G21G22G27G31
  21009841.040   110407480.29609  21009837.620    86031802.66748
  21705362.740   114062525.19809  21705359.640    88879909.41348
  24413100.560   128291703.17605  24413096.420    99967546.10043
  21939520.720   115293313.77809  21939516.640    89839092.43348
  22473380.360   118098450.99209  22473376.700    92024764.84947
  22260324.880   116978831.83209  22260324.760    91152351.36548
  24241047.740   127387567.31608  24241046.440    99263035.53845
 15 03 05 00 16 30.0000000  0  7G16G18G19G21G22G27G31
  21000483.220   110358304.12109  21000479.780    85993483.57348
  21699485.200   114031638.45309  21699482.040    88855841.83948
  24398403.420   128214469.69705  24398399.020    99907364.20244
  21950277.840   115349843.07009  21950273.860    89883141.22048
  22457052.060   118012644.61509  22457048.160    91957902.77047
  22248942.960   116919019.70709  22248942.820    91105744.55148
  24258806.080   127480887.70508  24258804.780    99335752.61245
 15 03 05 00 17  0.0000000  0  7G16G18G19G21G22G27G31
  20991206.360   110309553.52009  20991202.960    85955496.10648
  21693693.720   114001204.03909  21693690.540    88832126.73348
  24383713.940   128137276.53905  24383709.460    99847213.83343
  21961069.060   115406551.46609  21961065.140    89927329.60348
  22440766.300   117927061.71709  22440762.140    91891214.83447
  22237577.580   116859294.55209  22237577.460    91059205.51348
  24276557.660   127574172.49908  24276556.520    99408441.94146
 15 03 05 00 17 30.0000000  0  7G16G18G19G21G22G27G31
  20982011.440   110261233.95509  20982008.140    85917844.51348
  21687989.040   113971226.16609  21687985.940    88808767.39148
  24369032.740   128060126.74306  24369028.480    99787097.12343
  21971894.660   115463440.59909  21971890.800    89971658.79348
  22424524.120   117841708.01009  22424519.860    91824705.48647
  22226229.420   116799659.95309  22226229.280    91012737.02648
  24294302.540   127667422.16508  24294301.460    99481103.93046
 15 03 05 00 18  0.0000000  0  7G16G18G19G21G22G27G31
  20972898.740   110213346.90809  20972895.560    85880529.94348
  21682371.360   113941705.68109  21682368.240    88785764.42247
  24354359.760   127983019.80806  24354355.560    99727013.88344
  21982754.360   115520509.02809  21982750.600    90016127.70147
  22408325.980   117756586.05209  22408321.600    91758376.72547
  22214898.540   116740115.95209  22214898.340    90966339.12848
  24312040.100   127760633.64108  24312039.080    99553736.13645
 15 03 05 00 18 30.0000000  0  7G16G18G19G21G22G27G31
  20963868.680   110165894.28409  20963865.600    85843553.87948
  21676841.040   113912644.08709  21676837.840    88763119.03447
  24339694.860   127905956.48606  24339691.060    99666964.60944
  21993647.800   115577754.90909  21993644.100    90060734.88348
  22392172.440   117671698.50809  22392167.940    91692230.61147
  22203585.000   116680662.95909  22203584.760    90920012.14148
  24329769.940   127853804.28708  24329768.900    99626336.51946
 15 03 05 00 19  0.0000000  0  7G16G18G19G21G22G27G31
  20954922.860   110118884.22709  20954919.880    85806922.68248
  21671399.460   113884048.72009  21671396.220    88740836.96047
  24325039.240   127828942.18906  24325035.820    99606953.50545
  22004575.660   115635181.95009  22004572.080    90105483.23548
  22376065.040   117587053.69709  22376060.560    91626273.66347
  22192289.900   116621307.06309  22192289.620    90873760.82648
  24347492.560   127946937.16308  24347491.640    99698907.45846
 15 03 05 00 19 30.0000000  0  7G16G18G19G21G22G27G31
  20946059.040   110072304.89309  20946056.100    85770627.10148
  21666044.140   113855906.52509  21666040.880    88718907.99047
  24310390.640   127751963.70406  24310387.380    99546970.34244
  22015535.180   115692775.04509  22015531.700    90150360.96548
  22360001.720   117502640.64609  22359997.200    91560497.28447
  22181010.680   116562035.02909  22181010.500    90827574.85448
  24365204.920   128040015.78308  24365203.880    99771436.13646
 15 03 05 00 20  0.0000000  0  7G16G18G19G21G22G27G31
  20937278.920   110026165.12509  20937275.960    85734674.04148
  21660776.680   113828226.09109  21660773.460    88697338.83747
  24295750.180   127675027.25207  24295747.020    99487019.88943
  22026527.220   115750538.81009  22026523.780    90195371.69748
  22343984.200   117418468.48309  22343979.720    91494908.62347
  22169748.760   116502853.88409  22169748.740    90781459.71148
  24382907.760   128133043.99708  24382906.560    99843925.51245
 15 03 05 00 20 30.0000000  0  7G16G18G19G21G22G27G31
  20928583.300   109980469.55109  20928580.320    85699067.09948
  21655597.840   113801011.01709  21655594.600    88676132.29748
  24281118.300   127598136.11706  24281115.080    99427104.71444
  22037552.140   115808475.29208  22037548.760    90240516.99748
  22328013.520   117334542.62909  22328009.180    91429511.88247
  22158504.840   116443766.83209  22158504.820    90735417.87948
  24400600.960   128226021.85408  24400599.660    99916375.64345
 15 03 05 00 21  0.0000000  0  7G16G18G19G21G22G27G31
  20919972.220   109935218.16209  20919969.280    85663806.29148
  21650507.380   113774260.31409  21650504.120    88655287.61448
  24266494.400   127521287.56606  24266490.960    99367222.80244
  22048609.060   115866580.08008  22048605.800    90285793.46048
  22312089.860   117250863.88809  22312085.580    91364307.70348
  22147278.560   116384772.00409  22147278.480    90689447.92048
  24418283.620   128318944.32408  24418282.260    99988782.65046
 15 03 05 00 21 30.0000000  0  7G16G18G19G21G22G27G31
  20911446.120   109890413.47009  20911443.220    85628893.54948
  21645505.560   113747975.44309  21645502.300    88634805.90748
  24251878.760   127444482.70306  24251875.400    99307374.89844
  22059697.780   115924852.02309  22059694.660    90331200.17248
  22296213.720   117167435.21509  22296209.580    91299298.38947
  22136070.060   116325870.56409  22136069.920    90643550.71648
  24435955.400   128411809.55008  24435954.300   100061144.99045
 15 03 05 00 22  0.0000000  0  7G16G18G19G21G22G27G31
  20903005.380   109846057.38409  20903002.540    85594330.37648
  21640592.640   113722157.70909  21640589.460    88614688.20548
  24237271.440   127367721.24107  24237268.180    99247560.78645
  22070817.940   115983289.09408  22070814.920    90376735.54348
  22280385.620   117084258.92109  22280381.620    91234485.72548
  22124879.320   116267062.70209  22124879.100    90597726.42748
  24453615.800   128504614.68508  24453614.560   100133460.55345
 15 03 05 00 22 30.0000000  0  7G16G18G19G21G22G27G31
  20894650.660   109802153.08909  20894647.860    85560119.24348
  21635769.020   113696809.26209  21635765.920    88594936.19348
  24222672.620   127291004.60007  24222669.480    99187781.64244
  22081969.620   116041891.79209  22081966.620    90422399.99248
  22264606.460   117001339.26209  22264602.460    91169873.04247
  22113706.720   116208350.11609  22113706.400    90551976.38548
  24471264.420   128597357.94808  24471263.380   100205727.86845
 15 03 05 00 23  0.0000000  0  7G16G18G19G21G22G27G31
  20886381.920   109758700.49609  20886379.080    85526260.07848
  21631034.560   113671929.68309  21631031.520    88575549.51048
  24208082.100   127214330.90507  24208079.080    99128035.94145
  22093152.180   116100656.26808  22093149.160    90468190.48348
  22248876.340   116918676.73209  22248872.280    91105460.71448
  22102551.940   116149731.31309  22102551.420    90506299.40748
  24488900.400   128690034.85208  24488899.300   100277943.49845
 15 03 05 00 23 30.0000000  0  7G16G18G19G21G22G27G31
  20878199.400   109715700.60609  20878196.440    85492753.67648
  21626389.080   113647518.22009  21626386.120    88556527.61148
  24193499.600   127137699.21407  24193496.300    99068322.97444
  22104365.000   116159579.32009  22104361.920    90514104.56848
  22233195.480   116836272.64709  22233191.220    91041249.78347
  22091414.900   116091205.59609  22091414.160    90460694.98248
  24506523.020   128782641.80908  24506521.940   100350104.60446
 15 03 05 00 24  0.0000000  0  7G16G18G19G21G22G27G31
  20870104.100   109673159.23909  20870101.040    85459604.56348
  21621833.680   113623580.44009  21621830.960    88537874.81247
  24178925.780   127061113.29607  24178922.040    99008645.68744
  22115608.440   116218663.33908  22115605.200    90560144.06148
  22217565.100   116754133.96509  22217560.600    90977245.64247
  22080296.300   116032777.32408  22080295.600    90415166.50348
  24524132.540   128875179.67808  24524131.720   100422211.85445
 15 03 05 00 24 30.0000000  0  7G16G18G19G21G22G27G31
  20862096.000   109631076.17109  20862092.880    85426812.55848
  21617368.240   113600115.17009  21617365.580    88519590.19448
  24164360.240   126984571.15107  24164356.540    98949002.48944
  22126881.760   116277904.71809  22126878.460    90606306.17548
  22201985.200   116672260.82509  22201980.480    90913448.42948
  22069195.900   115974444.84609  22069195.300    90369712.64648
  24541728.120   128967643.89008  24541727.160   100494261.74645
 15 03 05 00 25  0.0000000  0  7G16G18G19G21G22G27G31
  20854175.780   109589455.11109  20854172.600    85394380.56748
  21612993.240   113577124.96809  21612990.620    88501675.77748
  24149803.340   126908074.62707  24149799.900    98889394.83744
  22138184.960   116337303.54208  22138181.640    90652590.97148
  22186456.620   116590657.42609  22186451.740    90849861.39148
  22058114.080   115916210.29008  22058113.700    90324335.11648
  24559309.360   129060033.07908  24559308.700   100566253.08245
 15 03 05 00 25 30.0000000  0  7G16G18G19G21G22G27G31
  20846343.520   109548296.06009  20846340.320    85362308.58548
  21608708.520   113554609.05109  21608705.980    88484130.92848
  24135254.740   126831621.98007  24135251.360    98829821.40745
  22149517.480   116396856.63909  22149514.220    90698995.97748
  22170979.540   116509324.78409  22170974.580    90786485.34647
  22047050.640   115858072.35408  22047050.480    90279032.85848
  24576875.540   129152343.19708  24576874.800   100638182.88745
 15 03 05 00 26  0.0000000  0  7G16G18G19G21G22G27G31
  20838599.780   109507601.92909  20838596.540    85330598.87548
  21604514.440   113532569.31709  21604511.940    88466957.13148
  24120714.800   126755214.45807  24120711.280    98770283.09444
  22160879.220   116456562.68909  22160875.940    90745520.17048
  22155554.680   116428266.55909  22155549.720    90723323.12148
  22036005.900   115800032.38109  22036005.820    90233806.93648
  24594426.320   129244572.44108  24594425.420   100710049.66845
 15 03 05 00 26 30.0000000  0  7G16G18G19G21G22G27G31
  20830944.640   109467373.31909  20830941.360    85299251.91048
  21600411.020   113511006.06409  21600408.560    88450154.61548
  24106183.300   126678851.29607  24106179.800    98710779.39645
  22172269.660   116516419.50809  22172266.300    90792161.84748
  22140182.240   116347484.09109  22140177.320    90660375.78348
  22024979.740   115742089.82209  22024979.680    90188656.91048
  24611960.960   129336717.07608  24611960.360   100781850.46846
 15 03 05 00 27  0.0000000  0  7G16G18G19G21G22G27G31
  20823378.960   109427614.80909  20823375.620    85268271.25548
  21596398.920   113489922.58109  21596396.460    88433725.95148
  24091660.640   126602535.03007  24091657.360    98651312.22345
  22183689.020   116576428.32409  22183685.540    90838921.95148
  22124863.240   116266982.42109  22124858.400    90597647.24148
  22013972.800   115684247.91209  22013972.720    90143585.30648
  24629479.460   129428777.07608  24629478.980   100853585.31146
 15 03 05 00 27 30.0000000  0  7G16G18G19G21G22G27G31
  20815902.080   109388323.20809  20815898.720    85237654.42548
  21592477.340   113469314.21009  21592474.820    88417667.48948
  24077145.880   126526260.19307  24077142.760    98591877.31545
  22195135.980   116636582.10309  22195132.380    90885795.02048
  22109597.200   116186759.24409  22109592.500    90535135.70948
  22002984.180   115626501.92709  22002984.100    90098588.46648
  24646980.400   129520744.51808  24646979.780   100925248.05745
 15 03 05 00 28  0.0000000  0  7G16G18G19G21G22G27G31
  20808514.980   109349503.64609  20808511.580    85207405.42048
  21588647.180   113449185.78509  21588644.520    88401983.02048
  24062639.880   126450030.37007  24062636.760    98532477.50645
  22206610.860   116696882.50209  22206607.100    90932782.34448
  22094385.260   116106820.30409  22094380.640    90472845.65948
  21992014.520   115568855.46709  21992014.420    90053669.16948
  24664463.840   129612620.18508  24664463.360   100996839.26945
 15 03 05 00 28 30.0000000  0  7G16G18G19G21G22G27G31
  20801217.800   109311156.98009  20801214.400    85177524.90948
  21584908.400   113429537.16809  21584905.560    88386672.43448
  24048142.380   126373844.86507  24048139.220    98473112.22545
  22218113.140   116757327.16109  22218109.340    90979882.08247
  22079227.760   116027167.20109  22079223.160    90410778.35748
  21981063.760   115511308.36009  21981063.620    90008827.29248
  24681929.280   129704400.71108  24681928.920   101068356.34745
 15 03 05 00 29  0.0000000  0  6G16G18G19G21G22G27
  20794009.040   109273275.08409  20794005.600    85148006.54348
  21581259.140   113410359.19709  21581256.120    88371728.57148
  24033651.340   126297693.64107  24033648.080    98413773.66045
  22229640.660   116817904.74509  22229636.980    91027085.38448
  22064123.300   115947792.65709  22064118.640    90348928.08848
  21970130.000   115453851.22909  21970129.840    89964055.53448
 15 03 05 00 29 30.0000000  0  6G16G18G19G21G22G27
  20786894.320   109235887.32809  20786890.840    85118873.22848
  21577704.660   113391679.92109  21577701.560    88357173.30148
  24019172.120   126221604.66407  24019168.800    98354483.57045
  22241198.360   116878640.85809  22241194.760    91074412.22147
  22049077.520   115868726.19709  22049072.740    90287317.87448
  21959218.580   115396511.87109  21959218.500    89919375.55248
 15 03 05 00 30  0.0000000  0  6G16G18G19G21G22G27
  20779870.000   109198974.69709  20779866.500    85090110.13848
  21574241.240   113373479.59509  21574238.180    88342991.24748
  24004700.720   126145557.22508  24004697.540    98295225.85646
  22252782.020   116939513.40209  22252778.420    91121845.36847
  22034086.960   115789949.78109  22034082.040    90225933.67448
  21948325.760   115339270.22009  21948325.760    89874771.68848
 15 03 05 00 30 30.0000000  0  6G16G18G19G21G22G27
  20772937.400   109162544.17209  20772933.920    85061722.71748
  21570870.120   113355764.40009  21570867.040    88329187.21348
  23990238.160   126069556.55008  23990234.920    98236004.56646
  22264392.260   117000525.82209  22264388.640    91169387.51247
  22019153.060   115711471.33609  22019148.060    90164781.67448
  21937452.660   115282131.95109  21937452.720    89830248.37948
 15 03 05 00 31  0.0000000  0  6G16G18G19G21G22G27
  20766097.120   109126598.59409  20766093.700    85033713.18048
  21567591.620   113338535.82909  21567588.520    88315762.37248
  23975784.720   125993603.83308  23975781.480    98176820.67145
  22276028.980   117061677.29009  22276025.280    91217038.01047
  22004276.580   115633294.90909  22004271.580    90103865.00648
  21926599.540   115225098.65409  21926599.660    89785806.88148
 15 03 05 00 31 30.0000000  0  6G16G18G19G21G22G27
  20759348.180   109091133.07709  20759344.880    85006077.71848
  21564404.700   113321788.57009  21564401.580    88302712.58448
  23961339.420   125917692.79908  23961336.020    98117669.25145
  22287690.780   117122960.43409  22287687.000    91264791.09947
  21989456.640   115555416.00109  21989451.660    90043180.18348
  21915765.280   115168164.24209  21915765.440    89741442.43348
 15 03 05 00 32  0.0000000  0  6G16G18G19G21G22G27
  20752691.920   109056154.48409  20752688.740    84978821.67048
  21561310.400   113305527.90609  21561307.260    88290041.94048
  23946903.040   125841828.29308  23946899.480    98058554.09045
  22299378.220   117184378.45608  22299374.380    91312649.28647
  21974694.680   115477841.96809  21974689.860    89982732.91848
  21904951.000   115111334.42509  21904951.060    89697159.48348
 15 03 05 00 32 30.0000000  0  6G16G18G19G21G22G27
  20746129.000   109021666.21909  20746125.920    84951947.69748
  21558309.100   113289756.19109  21558305.900    88277752.30148
  23932475.840   125766012.13608  23932472.100    97999476.59645
  22311091.400   117245931.54009  22311087.400    91360612.72047
  21959991.500   115400576.76209  21959986.820    89922526.29248
  21894157.060   115054611.41509  21894156.900    89652959.75148
 15 03 05 00 33  0.0000000  0  6G16G18G19G21G22G27
  20739659.720   108987670.10009  20739656.760    84925457.21648
  21555401.140   113274474.90009  21555397.900    88265844.81848
  23918057.780   125690244.74308  23918054.100    97940437.09146
  22322829.980   117307618.10509  22322825.880    91408680.17147
  21945347.720   115323623.60109  21945343.140    89862562.82348
  21883383.580   114997995.94609  21883383.240    89608843.81848
 15 03 05 00 33 30.0000000  0  6G16G18G19G21G22G27
  20733284.060   108954165.76209  20733281.160    84899349.94849
  21552586.100   113259681.98809  21552582.860    88254317.89448
  23903648.620   125614524.54008  23903645.100    97881434.37746
  22334593.180   117369434.60108  22334589.140    91456848.85947
  21930763.460   115246983.06309  21930758.960    89802842.96948
  21872630.260   114941486.53709  21872629.740    89564810.53148
 15 03 05 00 34  0.0000000  0  6G16G18G19G21G22G27
  20727002.380   108921155.19209  20726999.520    84873627.41648
  21549864.280   113245379.15309  21549861.140    88243172.84048
  23889248.380   125538851.57408  23889245.200    97822468.45246
  22346380.840   117431379.59808  22346376.880    91505117.68447
  21916239.160   115170657.42809  21916234.680    89743368.46648
  21861897.280   114885084.03109  21861896.720    89520860.53648
 15 03 05 00 34 30.0000000  0  6G16G18G19G21G22G27
  20720814.980   108888639.91009  20720812.080    84848290.82948
  21547235.740   113231566.30809  21547232.680    88232409.59448
  23874857.220   125463226.25108  23874854.140    97763539.64446
  22358192.720   117493452.00308  22358188.920    91553485.79048
  21901775.300   115094649.07809  21901770.760    89684141.20548
  21851184.680   114828788.92509  21851184.120    89476994.23648
 15 03 05 00 35  0.0000000  0  6G16G18G19G21G22G27
  20714722.480   108856623.26209  20714719.520    84823342.79248
  21544700.980   113218246.02609  21544697.920    88222030.16848
  23860475.480   125387650.23608  23860472.300    97704649.28146
  22370028.880   117555651.86708  22370025.280    91601953.21247
  21887372.620   115018962.07909  21887367.940    89625164.35248
  21840492.920   114772603.47009  21840492.440    89433213.36748
 15 03 05 00 35 30.0000000  0  6G16G18G19G21G22G27
  20708724.160   108825101.51809  20708721.140    84798780.39348
  21542259.060   113205413.54409  21542256.020    88212030.84248
  23846102.200   125312118.15808  23846098.940    97645793.13546
  22381887.980   117617972.14709  22381884.520    91650514.45947
  21873030.520   114943593.77209  21873025.760    89566435.81348
  21829821.100   114716522.95409  21829820.640    89389514.28148
 15 03 05 00 36  0.0000000  0  6G16G18G19G21G22G27
  20702821.240   108794080.99409  20702818.140    84774608.54848
  21539910.940   113193073.97509  21539907.840    88202415.60348
  23831738.300   125236635.18908  23831734.800    97586975.24746
  22393770.640   117680416.09709  22393767.280    91699172.07647
  21858750.340   114868551.20609  21858745.580    89507961.12748
  21819170.200   114660552.68509  21819169.860    89345901.08948
 15 03 05 00 36 30.0000000  0  6G16G18G19G21G22G27
  20697013.900   108763562.76409  20697010.740    84750828.10149
  21537656.660   113181227.71609  21537653.600    88193184.76348
  23817383.720   125161201.38008  23817380.200    97528195.68046
  22405676.500   117742981.58208  22405673.200    91747924.39247
  21844532.500   114793836.59109  21844527.740    89449741.95748
  21808540.340   114604692.96609  21808540.000    89302374.05448
 15 03 05 00 37  0.0000000  0  6G16G18G19G21G22G27
  20691302.400   108733548.14809  20691299.200    84727440.09549
  21535496.260   113169874.78509  21535493.260    88184338.33548
  23803038.280   125085815.94408  23803034.760    97469453.80946
  22417605.220   117805666.95308  22417601.920    91796770.14847
  21830377.420   114719451.73509  21830372.700    89391779.75848
  21797931.580   114548943.99009  21797931.280    89258933.30348
 15 03 05 00 37 30.0000000  0  6G16G18G19G21G22G27
  20685687.280   108704039.89409  20685683.980    84704446.65248
  21533430.020   113159016.93109  21533427.100    88175877.67148
  23788702.340   125010480.17108  23788698.800    97410750.64846
  22429556.820   117868472.38108  22429553.480    91845709.42447
  21816285.860   114645400.37909  21816281.140    89334077.42148
  21787344.220   114493307.47909  21787343.920    89215580.19448
 15 03 05 00 38  0.0000000  0  6G16G18G19G21G22G27
  20680168.180   108675036.54909  20680164.800    84681846.64649
  21531457.380   113148650.87409  21531454.520    88167800.24548
  23774375.440   124935191.38008  23774371.900    97352084.09046
  22441530.140   117931392.22909  22441526.800    91894737.87547
  21802257.620   114571681.77909  21802253.000    89276634.38948
  21776777.840   114437780.82509  21776777.560    89172312.68848
 15 03 05 00 38 30.0000000  0  6G16G18G19G21G22G27
  20674745.020   108646537.73009  20674741.640    84659639.76349
  21529578.300   113138776.24709  21529575.460    88160105.73148
  23760057.160   124859948.01408  23760053.520    97293452.92046
  22453524.840   117994424.03809  22453521.400    91943853.55247
  21788292.880   114498296.44709  21788288.280    89219451.02348
  21766232.200   114382363.05209  21766231.920    89129130.01848
 15 03 05 00 39  0.0000000  0  6G16G18G19G21G22G27
