     2.11           OBSERVATION DATA    G                   RINEX VERSION / TYPE
SPIDER V4,0,0,3554                      2015 04 03 01:26    PGM / RUN BY / DATE 
EADB                                                        MARKER NAME         
EADB                                                        MARKER NUMBER       
                                                            OBSERVER / AGENCY   
462408              LEICA GRX1200PRO    3.00/2.127          REC # / TYPE / VERS 
103310              LEIAT504                                ANT # / TYPE        
  5238464.6656   142765.3090  3625629.6523                  APPROX POSITION XYZ 
        0.0770        0.0000        0.0000                  ANTENNA: DELTA H/E/N
     1     1                                                WAVELENGTH FACT L1/2
     4    C1    L1    P2    L2                              # / TYPES OF OBSERV 
    30.000                                                  INTERVAL            
  2015    03    05    00    00    0.0000000     GPS         TIME OF FIRST OBS   
  2015    03    05    23    59   30.0000000     GPS         TIME OF LAST OBS    
    16                                                      LEAP SECONDS        
    30                                                      # OF SATELLITES     
   G 1   835   835   835   835                              PRN / # OF OBS      
   G 2   928   928   928   928                              PRN / # OF OBS      
   G 3   846   846   846   846                              PRN / # OF OBS      
   G 4   849   849   849   849                              PRN / # OF OBS      
   G 5   673   673   673   673                              PRN / # OF OBS      
   G 6   725   725   725   725                              PRN / # OF OBS      
   G 7   649   649   649   649                              PRN / # OF OBS      
   G 9   787   787   787   787                              PRN / # OF OBS      
   G10   785   785   785   785                              PRN / # OF OBS      
   G11   800   800   800   800                              PRN / # OF OBS      
   G12   818   818   818   818                              PRN / # OF OBS      
   G13   820   820   820   820                              PRN / # OF OBS      
   G14   446   446   444   444                              PRN / # OF OBS      
   G15   730   730   730   730                              PRN / # OF OBS      
   G16   691   691   691   691                              PRN / # OF OBS      
   G17   927   927   927   927                              PRN / # OF OBS      
   G18   922   922   921   921                              PRN / # OF OBS      
   G19   790   790   790   790                              PRN / # OF OBS      
   G20   793   793   793   793                              PRN / # OF OBS      
   G21   704   704   704   704                              PRN / # OF OBS      
   G22   773   773   772   772                              PRN / # OF OBS      
   G23   731   731   731   731                              PRN / # OF OBS      
   G24   806   806   806   806                              PRN / # OF OBS      
   G25   850   850   850   850                              PRN / # OF OBS      
   G27   834   834   834   834                              PRN / # OF OBS      
   G28   905   905   905   905                              PRN / # OF OBS      
   G29   735   735   735   735                              PRN / # OF OBS      
   G30   695   695   695   695                              PRN / # OF OBS      
   G31   786   786   786   786                              PRN / # OF OBS      
   G32   743   743   743   743                              PRN / # OF OBS      
BIT 2 OF LLI FLAGS DATA COLLECTED UNDER A/S CONDITION       COMMENT             
SNR is mapped to RINEX snr flag value [2-9]                 COMMENT             
Lx:     = 25dBHz -> 1; 26-27dBHz -> 2; 28-31dBHz -> 3       COMMENT             
       32-35dBHz -> 4; 36-38dBHz -> 5; 39-41dBHz -> 6       COMMENT             
       42-44dBHz -> 7; 45-48dBHz -> 8; >=49dBHz -> 9        COMMENT             
                                                            END OF HEADER       
 15 03 05 00 00  0.0000000  0  7G16G18G19G21G22G27G31
  21121515.852   110994337.01309  21121514.229    86489086.72048
  22308313.057   117231018.26608  22308312.273    91348878.07047
  24348809.598   127953856.24306  24348808.688    99704299.18945
  21804356.257   114582675.47109  21804354.709    89285200.40048
  23193983.483   121885249.39308  23193981.430    94975534.18146
  22209362.753   116711018.28308  22209364.306    90943675.05848
  23526221.153   123631103.25607  23526221.300    96335912.09446
 15 03 05 00 00 30.0000000  0  7G16G18G19G21G22G27G31
  21110852.926   110938303.11709  21110851.259    86445423.95448
  22299867.049   117186634.00708  22299865.975    91314292.95447
  24334162.209   127876884.03806  24334160.972    99644320.92645
  21814744.481   114637266.32809  21814742.935    89327738.73248
  23177092.486   121796485.63308  23177090.391    94906367.66946
  22198773.250   116655370.97508  22198774.798    90900313.54248
  23544618.286   123727781.87507  23544618.670    96411246.02946
 15 03 05 00 01  0.0000000  0  7G16G18G19G21G22G27G31
  21100255.273   110882612.13709  21100253.749    86402028.39248
  22291492.975   117142628.47908  22291492.031    91280002.95747
  24319530.783   127799995.03206  24319529.533    99584407.50745
  21825180.552   114692108.56609  21825179.058    89370472.94348
  23160222.904   121707837.53907  23160221.205    94837291.29746
  22188206.089   116599840.01508  22188207.501    90857042.70048
  23563029.777   123824535.13207  23563030.290    96486638.09846
 15 03 05 00 01 30.0000000  0  7G16G18G19G21G22G27G31
  21089723.866   110827269.56109  21089722.440    86358904.31548
  22283192.003   117099006.55008  22283191.014    91246011.86747
  24304915.496   127723192.55406  24304914.331    99524561.51045
  21835665.104   114747204.00809  21835663.495    89413404.45948
  23143376.861   121619311.23508  23143375.149    94768309.82346
  22177661.460   116544428.67408  22177663.197    90813865.06548
  23581455.828   123921363.05707  23581455.826    96562088.40146
 15 03 05 00 02  0.0000000  0  7G16G18G19G21G22G27G31
  21079259.053   110772276.19509  21079257.591    86316052.35348
  22274964.256   117055769.19408  22274963.201    91212320.44547
  24290316.647   127646475.30606  24290315.249    99464781.89845
  21846197.036   114802549.11909  21846195.290    89456530.52448
  23126554.464   121530908.16308  23126552.303    94699424.33146
  22167139.474   116489135.61208  22167141.080    90770779.60048
  23599894.917   124018261.40807  23599895.184    96637593.55446
 15 03 05 00 02 30.0000000  0  7G16G18G19G21G22G27G31
  21068860.461   110717631.78809  21068859.124    86273472.30748
  22266809.380   117012915.59408  22266808.414    91178928.04847
  24275733.416   127569840.81506  24275732.396    99405066.80346
  21856775.671   114858140.00709  21856773.999    89499848.10048
  23109755.209   121442628.73208  23109753.265    94630635.23846
  22156639.512   116433958.49708  22156641.176    90727784.46948
  23618346.462   124115225.08607  23618347.106    96713149.55746
 15 03 05 00 03  0.0000000  0  7G16G18G19G21G22G27G31
  21058529.580   110663342.23209  21058528.030    86231168.76548
  22258728.713   116970451.81009  22258727.725    91145839.41247
  24261166.917   127493292.90906  24261165.921    99345419.14845
  21867401.238   114913978.51809  21867399.517    89543358.63348
  23092981.082   121354479.85008  23092978.703    94561947.83446
  22146162.546   116378901.45308  22146163.942    90684882.91448
  23636810.779   124212255.22607  23636811.502    96788757.39046
 15 03 05 00 03 30.0000000  0  7G16G18G19G21G22G27G31
  21048266.803   110609411.57109  21048265.308    86189144.88348
  22250723.125   116928381.60109  22250722.005    91113057.45447
  24246617.035   127416833.35406  24246615.981    99285840.38745
  21878074.135   114970065.21809  21878072.416    89587062.55548
  23076232.470   121266465.70408  23076230.484    94493365.45746
  22135708.743   116323966.09808  22135710.213    90642076.17248
  23655287.600   124309350.35507  23655287.676    96864415.89045
 15 03 05 00 04  0.0000000  0  7G16G18G19G21G22G27G31
  21038071.204   110555833.68209  21038069.745    86147395.88348
  22242791.136   116886698.18509  22242789.858    91080576.88947
  24232082.509   127340454.06105  24232081.869    99226324.09946
  21888792.094   115026389.72209  21888790.521    89630951.77848
  23059508.604   121178580.79208  23059506.316    94424883.75546
  22125276.424   116269144.29708  22125277.804    90599357.92048
  23673774.556   124406499.56207  23673774.528    96940116.52246
 15 03 05 00 04 30.0000000  0  7G16G18G19G21G22G27G31
  21027945.079   110502620.56509  21027943.818    86105931.12348
  22234934.853   116845413.82709  22234933.894    91048407.27747
  24217564.786   127264164.66406  24217564.276    99166877.91746
  21899557.011   115082959.49709  21899555.513    89675032.12148
  23042811.984   121090837.86608  23042809.112    94356512.65246
  22114867.530   116214445.97308  22114869.082    90556735.88048
  23692272.976   124503709.82307  23692273.168    97015864.70346
 15 03 05 00 05  0.0000000  0  7G16G18G19G21G22G27G31
  21017886.706   110449763.20809  21017885.300    86064743.58248
  22227152.671   116804518.96609  22227151.929    91016541.18447
  24203062.627   127187954.21106  24203061.957    99107493.21946
  21910366.221   115139761.77609  21910364.552    89719293.64348
  23026140.312   121003228.45008  23026137.719    94288245.64946
  22104480.361   116159860.12608  22104481.872    90514201.49248
  23710780.452   124600967.26107  23710780.757    97091649.62746
 15 03 05 00 05 30.0000000  0  7G16G18G19G21G22G27G31
  21007899.144   110397278.49509  21007897.802    86023846.41649
  22219447.998   116764030.57208  22219447.034    90984991.80247
  24188577.969   127111837.16406  24188577.095    99048181.28945
  21921222.254   115196809.83409  21921220.491    89763746.67848
  23009497.392   120915770.15708  23009495.089    94220096.39246
  22094117.143   116105401.63808  22094118.751    90471766.33748
  23729299.235   124698283.49707  23729299.625    97167480.38846
 15 03 05 00 06  0.0000000  0  7G16G18G19G21G22G27G31
  20997979.884   110345152.46509  20997978.413    85983228.73849
  22211817.893   116723934.12908  22211816.933    90953747.84347
  24174108.046   127035797.79706  24174106.779    98988929.85646
  21932121.585   115254085.61109  21932119.864    89808377.16548
  22992880.888   120828449.56208  22992878.774    94152054.41947
  22083775.322   116051054.40708  22083776.680    90429417.88048
  23747825.774   124795639.52707  23747825.871    97243342.20745
 15 03 05 00 06 30.0000000  0  7G16G18G19G21G22G27G31
  20988130.465   110293393.63709  20988129.169    85942897.19749
  22204263.759   116684237.76409  22204262.955    90922815.62947
  24159654.463   126959842.17406  24159652.718    98929743.70546
  21943064.933   115311593.85509  21943063.205    89853188.78448
  22976292.210   120741275.93708  22976289.978    94084126.97946
  22073455.684   115996824.93908  22073457.282    90387161.17348
  23766360.297   124893039.16107  23766360.169    97319237.93145
 15 03 05 00 07  0.0000000  0  7G16G18G19G21G22G27G31
  20978352.800   110242011.03609  20978351.227    85902858.81549
  22196787.690   116644950.28909  22196786.840    90892202.03347
  24145217.672   126883977.44906  24145216.105    98870628.43945
  21954053.449   115369339.49009  21954051.880    89898185.38548
  22959733.424   120654259.27308  22959730.978    94016321.83046
  22063160.066   115942720.35008  22063161.359    90345001.77348
  23784903.796   124990486.44207  23784904.004    97395170.77346
 15 03 05 00 07 30.0000000  0  7G16G18G19G21G22G27G31
  20968645.704   110191000.34009  20968644.354    85863110.23049
  22189388.479   116606067.23309  22189387.462    90861903.56547
  24130797.087   126808197.26706  24130795.690    98811579.03445
  21965085.588   115427314.20909  21965084.018    89943360.49148
  22943203.684   120567395.65108  22943201.285    93948635.94046
  22052886.888   115888734.31108  22052888.141    90302934.76048
  23803454.748   125087971.88107  23803455.092    97471133.37946
 15 03 05 00 08  0.0000000  0  7G16G18G19G21G22G27G31
  20959009.839   110140363.08809  20959008.293    85823652.64249
  22182066.365   116567589.54309  22182065.314    90831920.97047
  24116392.667   126732501.12006  24116390.971    98752595.05245
  21976160.890   115485515.53409  21976159.430    89988712.17148
  22926703.782   120480687.17608  22926701.543    93881070.94247
  22042636.062   115834866.26308  22042637.370    90260959.68948
  23822012.326   125185491.95807  23822012.452    97547122.97745
 15 03 05 00 08 30.0000000  0  7G16G18G19G21G22G27G31
  20949445.306   110090101.62909  20949443.783    85784487.88449
  22174821.887   116529519.59009  22174821.161    90802256.09347
  24102003.956   126656888.90406  24102002.317    98693676.51545
  21987279.117   115543941.92709  21987277.542    90034239.23148
  22910233.444   120394136.84208  22910232.009    93813629.20347
  22032407.761   115781116.64908  22032409.160    90219076.90948
  23840575.978   125283044.66606  23840576.132    97623137.98945
 15 03 05 00 09  0.0000000  0  7G16G18G19G21G22G27G31
  20939953.062   110040219.33109  20939951.544    85745618.56749
  22167655.603   116491860.29209  22167654.832    90772911.20547
  24087631.771   126581362.24706  24087630.233    98634824.60745
  21998440.152   115602592.87909  21998438.409    90079941.27148
  22893794.409   120307749.09908  22893792.633    93746314.11146
  22022202.504   115727487.00708  22022203.722    90177287.59848
  23859145.659   125380628.12507  23859145.552    97699176.97045
 15 03 05 00 09 30.0000000  0  7G16G18G19G21G22G27G31
  20930533.137   109990717.32309  20930531.552    85707045.58449
  22160567.546   116454612.17709  22160566.648    90743886.71547
  24073275.318   126505919.95406  24073274.061    98576038.45345
  22009643.300   115661465.69309  22009641.588    90125816.19748
  22877386.478   120221525.27608  22877384.397    93679126.75446
  22012019.677   115673976.26408  22012020.769    90135590.95048
  23877720.304   125478238.69807  23877720.711    97775237.08046
 15 03 05 00 10  0.0000000  0  7G16G18G19G21G22G27G31
  20921187.013   109941603.14209  20921185.375    85668774.80249
  22153558.972   116417782.08809  22153558.006    90715187.96447
  24058936.181   126430567.31306  24058934.855    98517322.20545
  22020889.349   115720564.04709  22020887.507    90171866.85648
  22861011.488   120135473.34108  22861009.583    93612073.34547
  22001860.425   115620589.75308  22001861.789    90093991.09548
  23896300.579   125575878.29907  23896300.937    97851319.77946
 15 03 05 00 10 30.0000000  0  7G16G18G19G21G22G27G31
  20911913.230   109892869.14309  20911911.750    85630800.26649
  22146628.465   116381362.96909  22146627.682    90686809.44747
  24044612.310   126355294.86007  24044610.902    98458668.39045
  22032175.935   115779876.42509  22032174.467    90218084.28948
  22844667.733   120049586.89108  22844665.823    93545148.88447
  21991723.255   115567318.28108  21991724.388    90052480.88248
  23914884.140   125673535.13107  23914884.442    97927415.90945
 15 03 05 00 11  0.0000000  0  7G16G18G19G21G22G27G31
  20902713.694   109844525.69509  20902712.361    85593130.05449
  22139778.136   116345363.99509  22139777.224    90658758.31047
  24030305.534   126280111.30806  24030303.788    98400083.83645
  22043504.515   115839408.26709  22043502.879    90264472.74048
  22828357.512   119963876.85408  22828355.705    93478361.89447
  21981609.391   115514170.19408  21981610.659    90011066.82148
  23933471.633   125771214.28606  23933472.318    98003529.43645
 15 03 05 00 11 30.0000000  0  7G16G18G19G21G22G27G31
  20893587.644   109796567.75809  20893586.240    85555760.24049
  22133006.988   116309780.09009  22133005.676    90631030.60847
  24016014.025   126205009.07606  24016012.409    98341562.68545
  22054873.309   115899151.96309  22054871.810    90311026.27148
  22812080.404   119878339.00808  22812078.675    93411709.08347
  21971517.711   115461138.61808  21971519.064    89969743.55148
  23952061.911   125868905.91907  23952062.255    98079652.71445
 15 03 05 00 12  0.0000000  0  7G16G18G19G21G22G27G31
  20884536.725   109749004.32709  20884535.115    85518697.83449
  22126316.061   116274619.47309  22126314.714    90603632.73747
  24001739.278   126129995.05907  24001737.803    98283110.27845
  22066283.566   115959112.36309  22066281.797    90357748.66648
  22795837.453   119792982.78708  22795835.570    93345197.78247
  21961449.661   115408230.53708  21961451.025    89928516.49248
  23970655.620   125966614.39407  23970655.871    98155789.11746
 15 03 05 00 12 30.0000000  0  7G16G18G19G21G22G27G31
  20875560.013   109701831.82409  20875558.687    85481940.04749
  22119705.071   116239878.82809  22119703.991    90576562.12047
  23987480.209   126055063.76906  23987478.596    98224722.30345
  22077733.536   116019282.39209  22077731.782    90404634.40748
  22779628.726   119707805.57508  22779626.606    93278825.97447
  21951403.989   115355440.58108  21951405.408    89887381.49348
  23989250.467   126064331.03606  23989250.693    98231931.83845
 15 03 05 00 13  0.0000000  0  7G16G18G19G21G22G27G31
  20866659.750   109655060.93909  20866658.432    85445495.21349
  22113175.863   116205567.92109  22113174.900    90549826.36647
  23973238.578   125980223.74306  23973236.974    98166405.46245
  22089224.350   116079667.84009  22089222.850    90451688.00548
  22763456.469   119622818.35208  22763454.228    93212602.19647
  21941382.496   115302777.18108  21941383.986    89846345.10148
  24007847.381   126162061.76006  24007848.316    98308085.49446
 15 03 05 00 13 30.0000000  0  7G16G18G19G21G22G27G31
  20857834.652   109608684.17609  20857833.145    85409357.48049
  22106727.149   116171679.13509  22106726.121    90523419.53747
  23959012.472   125905465.52206  23959010.881    98108152.36445
  22100754.165   116140257.92809  22100752.851    90498901.05748
  22747318.542   119538014.65708  22747316.518    93146521.43947
  21931383.338   115250231.19208  21931384.805    89805400.19148
  24026445.696   126259794.22207  24026446.263    98384240.57345
 15 03 05 00 14  0.0000000  0  7G16G18G19G21G22G27G31
  20849085.112   109562705.62509  20849083.819    85373530.04749
  22100359.173   116138215.97909  22100358.345    90497344.37247
  23944802.354   125830791.22206  23944800.795    98049964.65345
  22112323.057   116201052.73809  22112321.665    90546273.63348
  22731216.731   119453399.47808  22731214.814    93080587.59047
  21921406.865   115197804.90808  21921408.323    89764548.57148
  24045044.129   126357527.43107  24045044.413    98460396.26345
 15 03 05 00 14 30.0000000  0  7G16G18G19G21G22G27G31
  20840412.608   109517131.65509  20840411.132    85338017.87349
  22094073.553   116105184.32209  22094072.642    90471605.43647
  23930609.196   125756205.42007  23930607.437    97991845.91245
  22123931.632   116262055.05509  22123930.021    90593807.91148
  22715152.200   119368979.64408  22715149.901    93014805.92447
  21911454.111   115145502.77408  21911455.534    89723793.68748
  24063642.756   126455263.24906  24063642.924    98536553.93145
 15 03 05 00 15  0.0000000  0  7G16G18G19G21G22G27G31
  20831816.273   109471957.45309  20831814.860    85302817.20349
  22087868.899   116072578.98809  22087867.920    90446198.70147
  23916431.239   125681700.91207  23916429.757    97933790.49745
  22135577.860   116323256.05409  22135576.444    90641497.00548
  22699124.059   119284751.12908  22699121.863    92949173.35147
  21901523.804   115093318.18708  21901525.189    89683130.39948
  24082239.840   126552992.11406  24082240.296    98612706.15545
 15 03 05 00 15 30.0000000  0  7G16G18G19G21G22G27G31
  20823297.043   109427188.03309  20823295.280    85267931.94849
  22081746.397   116040404.49409  22081745.207    90421127.68247
  23902269.829   125607274.82317  23902267.197    97875791.86955
  22147262.092   116384657.38709  22147260.594    90689342.20748
  22683133.250   119200719.54808  22683131.182    92883694.25147
  21891616.320   115041254.25508  21891617.782    89642561.12748
  24100835.650   126650713.97407  24100836.184    98688852.92645
 15 03 05 00 16  0.0000000  0  7G16G18G19G21G22G27G31
  20814856.584   109382833.99809  20814855.104    85233370.36749
  22075707.742   116008671.08609  22075706.561    90396400.37447
  23888125.730   125532947.92407  23888123.477    97817874.85645
  22158985.617   116446265.49208  22158984.128    90737348.52648
  22667182.448   119116896.51608  22667180.014    92818377.63347
  21881733.441   114989319.84808  21881734.768    89602092.77648
  24119431.488   126748434.91807  24119432.062    98764999.00145
 15 03 05 00 16 30.0000000  0  7G16G18G19G21G22G27G31
  20806494.321   109338889.19509  20806492.596    85199127.67049
  22069751.457   115977371.43909  22069750.492    90372011.04747
  23873997.701   125458706.03706  23873996.042    97760024.08845
  22170746.625   116508070.53408  22170745.275    90785508.30048
  22651270.052   119033276.56308  22651267.707    92753219.27147
  21871873.689   114937506.81408  21871875.264    89561719.00748
  24138024.934   126846143.82507  24138025.498    98841135.66845
 15 03 05 00 17  0.0000000  0  7G16G18G19G21G22G27G31
  20798209.484   109295352.74209  20798208.015    85165203.16749
  22063877.597   115946504.81309  22063876.704    90347959.14947
  23859885.521   125384546.22106  23859883.944    97702237.28145
  22182544.281   116570067.41509  22182542.796    90833817.55448
  22635396.345   118949859.48208  22635393.769    92688218.99047
  21862036.590   114885812.56908  21862037.923    89521437.80148
  24156615.104   126943834.95207  24156615.385    98917258.52544
 15 03 05 00 17 30.0000000  0  7G16G18G19G21G22G27G31
  20790004.203   109252233.63209  20790002.563    85131603.86849
  22058087.857   115916079.18209  22058086.719    90324250.88047
  23845790.210   125310475.14106  23845788.613    97644519.60246
  22194379.467   116632261.23809  22194377.972    90882280.27548
  22619562.927   118866654.65508  22619560.448    92623384.09747
  21852223.569   114834244.10808  21852224.789    89481254.59648
  24175202.806   127041512.32806  24175202.781    98993370.70945
 15 03 05 00 18  0.0000000  0  7G16G18G19G21G22G27G31
  20781877.134   109209525.94009  20781875.737    85098325.15549
  22052380.802   115886088.21909  22052379.747    90300881.31247
  23831710.283   125236484.99907  23831708.679    97586865.00045
  22206250.444   116694643.17308  22206248.874    90930889.57148
  22603769.261   118783657.43908  22603766.429    92558710.97747
  21842432.976   114782794.01008  21842434.150    89441163.62948
  24193785.398   127139165.76106  24193786.100    99069464.10446
 15 03 05 00 18 30.0000000  0  7G16G18G19G21G22G27G31
  20773830.156   109167238.38309  20773828.562    85065373.81949
  22046758.020   115856540.58209  22046757.067    90277857.19347
  23817647.291   125162583.35306  23817645.768    97529279.35845
  22218158.077   116757218.17709  22218156.622    90979649.30948
  22588016.760   118700877.48808  22588014.320    92494207.16347
  21832666.099   114731469.44208  21832667.412    89401170.47048
  24212364.659   127236799.37307  24212365.673    99145542.03846
 15 03 05 00 19  0.0000000  0  7G16G18G19G21G22G27G31
  20765862.737   109125369.59409  20765861.222    85032748.79949
  22041219.405   115827434.30509  22041218.132    90255176.98947
  23803600.388   125088766.28506  23803598.760    97471759.61546
  22230101.260   116819980.37508  22230099.726    91028554.91748
  22572305.244   118618313.72808  22572302.810    92429871.81147
  21822922.539   114680266.90809  21822923.867    89361272.40348
  24230939.173   127334406.73007  24230939.807    99221599.57646
 15 03 05 00 19 30.0000000  0  7G16G18G19G21G22G27G31
  20757975.654   109083922.75309  20757974.228    85000452.56649
  22035764.985   115798771.63609  22035763.964    90232842.45847
  23789569.827   125015035.47406  23789568.263    97414307.07346
  22242079.973   116882929.71708  22242078.624    91077606.34948
  22556635.814   118535970.41308  22556633.332    92365708.23047
  21813202.789   114629188.12308  21813203.771    89321470.76848
  24249508.388   127431986.60907  24249508.549    99297635.72144
 15 03 05 00 20  0.0000000  0  7G16G18G19G21G22G27G31
  20750169.821   109042902.48209  20750168.278    84968488.72449
  22030395.926   115770557.16409  22030394.999    90210857.16647
  23775556.118   124941393.15506  23775554.586    97356923.50345
  22254094.572   116946066.54608  22254093.004    91126803.88048
  22541009.366   118453852.62208  22541006.690    92301720.36847
  21803506.711   114578235.76308  21803507.886    89281767.64848
  24268071.801   127529538.75505  24268072.005    99373650.21743
 15 03 05 00 20 30.0000000  0  7G16G18G19G21G22G27G31
  20742444.668   109002306.50009  20742443.152    84936855.49649
  22025111.271   115742787.86609  22025110.514    90189218.77047
  23761558.559   124867835.64206  23761557.040    97299606.01545
  22266143.846   117009385.93908  22266142.283    91176143.66648
  22525425.600   118371959.03408  22525422.938    92237907.22847
  21793834.184   114527406.07208  21793835.407    89242160.11848
  24286628.535   127627056.39506  24286628.540    99449637.87845
 15 03 05 00 21  0.0000000  0  7G16G18G19G21G22G27G31
  20734800.395   108962135.72609  20734798.887    84905553.60349
  22019911.596   115715463.95309  22019910.979    90167927.41647
  23747576.882   124794361.30907  23747575.260    97242353.33945
  22278227.426   117072884.42508  22278225.781    91225623.00748
  22509884.726   118290291.53608  22509882.224    92174270.26047
  21784184.736   114476698.00308  21784185.879    89202647.35248
  24305178.526   127724535.38307  24305179.206    99525595.37745
 15 03 05 00 21 30.0000000  0  7G16G18G19G21G22G27G31
  20727238.290   108922396.38209  20727236.657    84874587.88349
  22014797.794   115688590.83309  22014797.204    90146987.33347
  23733611.771   124720974.96706  23733610.393    97185169.22946
  22290345.386   117136564.48608  22290343.509    91275243.82848
  22494388.039   118208856.95908  22494385.606    92110814.79247
  21774559.179   114426116.32908  21774560.590    89163233.08848
  24323721.420   127821977.66707  24323722.393    99601524.28746
 15 03 05 00 22  0.0000000  0  7G16G18G19G21G22G27G31
  20719758.008   108883087.17109  20719756.494    84843957.33449
  22009769.529   115662166.87209  22009768.757    90126397.24447
  23719662.856   124647673.11206  23719661.256    97128050.93845
  22302496.716   117200420.90708  22302495.143    91325002.08148
  22478935.748   118127654.59008  22478933.064    92047540.24647
  21764957.134   114375657.99108  21764958.485    89123914.91948
  24342256.136   127919377.44406  24342257.195    99677419.98346
 15 03 05 00 22 30.0000000  0  7G16G18G19G21G22G27G31
  20712360.884   108844215.26909  20712359.327    84813667.54449
  22004828.105   115636198.48409  22004827.139    90106162.14547
  23705730.904   124574461.30106  23705729.386    97071002.82546
  22314682.594   117264458.09508  22314680.991    91374901.18348
  22463529.296   118046692.85808  22463526.595    91984453.20747
  21755379.899   114325328.56508  21755381.291    89084697.19248
  24360782.612   128016736.98205  24360784.347    99753284.32544
 15 03 05 00 23  0.0000000  0  7G16G18G19G21G22G27G31
  20705046.800   108805779.31409  20705045.216    84783717.45449
  21999973.081   115610684.22409  21999971.696    90086280.91847
  23691815.689   124501336.38406  23691814.250    97014022.41945
  22326901.699   117328670.89308  22326900.371    91424937.12948
  22448168.556   117965971.12408  22448165.682    91921553.18247
  21745826.594   114275125.11009  21745827.765    89045577.63148
  24379300.809   128114050.54206  24379302.170    99829112.83744
 15 03 05 00 23 30.0000000  0  7G16G18G19G21G22G27G31
  20697814.675   108767774.30309  20697813.151    84754103.16749
  21995203.036   115585617.59209  21995201.754    90066748.49147
  23677915.746   124428291.47507  23677914.223    96957104.35246
  22339152.877   117393050.08308  22339151.178    91475102.72948
  22432852.155   117885484.86008  22432849.691    91858836.66247
  21736295.732   114225040.87209  21736296.978    89006550.96348
  24397808.813   128211308.45107  24397809.569    99904898.16743
 15 03 05 00 24  0.0000000  0  7G16G18G19G21G22G27G31
  20690666.692   108730211.23909  20690665.099    84724833.24749
  21990520.347   115561009.58609  21990519.086    90047573.43347
  23664032.778   124355335.51607  23664031.015    96900255.58946
  22351437.031   117457603.15208  22351435.120    91525403.82248
  22417583.342   117805246.42408  22417580.924    91796313.24147
  21726789.619   114175085.28609  21726790.840    88967624.54448
  24416307.469   128308517.01007  24416307.878    99980644.93445
 15 03 05 00 24 30.0000000  0  7G16G18G19G21G22G27G31
  20683603.157   108693092.42709  20683601.573    84695909.50449
  21985925.142   115536861.83809  21985924.123    90028757.01847
  23650166.816   124282469.17207  23650164.991    96843476.66546
  22363754.046   117522329.00508  22363752.131    91575839.55147
  22402362.079   117725258.61708  22402359.743    91733985.11147
  21717308.116   114125259.18109  21717309.420    88928799.02448
  24434795.971   128405674.27406  24434796.928   100056351.65745
 15 03 05 00 25  0.0000000  0  7G16G18G19G21G22G27G31
  20676623.727   108656415.49109  20676622.322    84667330.07849
  21981417.019   115513171.05309  21981415.906    90010296.68547
  23636317.060   124209688.12207  23636315.298    96786764.20846
  22376102.500   117587221.56808  22376100.859    91626405.18248
  22387188.122   117645519.71908  22387185.554    91671850.93647
  21707850.370   114075558.45309  21707851.649    88890071.19148
  24453272.879   128502772.86305  24453274.694   100132012.61446
 15 03 05 00 25 30.0000000  0  7G16G18G19G21G22G27G31
  20669728.990   108620183.59109  20669727.530    84639097.43249
  21976996.054   115489939.91309  21976995.215    89992194.50647
  23622483.669   124136993.84707  23622482.000    96730119.35146
  22388482.734   117652280.79508  22388481.057    91677100.68248
  22372062.553   117566034.09908  22372060.009    91609914.10847
  21698416.730   114025984.84009  21698418.024    88851442.41648
  24471738.939   128599811.94806  24471741.017   100207627.21546
 15 03 05 00 26  0.0000000  0  7G16G18G19G21G22G27G31
  20662919.294   108584398.49509  20662917.747    84611212.94549
  21972662.945   115467169.36409  21972662.227    89974451.23947
  23608666.821   124064386.51207  23608665.189    96673542.25846
  22400894.364   117717504.22208  22400892.860    91727924.12647
  22356985.504   117486804.41708  22356982.983    91548176.73847
  21689007.404   113976538.46709  21689008.589    88812912.79248
  24490193.217   128696788.55006  24490195.154   100283193.19544
 15 03 05 00 26 30.0000000  0  7G16G18G19G21G22G27G31
  20656194.875   108549061.43409  20656193.420    84583677.57549
  21968417.642   115444860.64609  21968416.802    89957067.84047
  23594866.453   123991865.99407  23594864.818    96617032.79745
  22413336.870   117782890.15808  22413335.344    91778874.20648
  22341957.662   117407832.82808  22341955.203    91486640.46147
  21679622.282   113927219.25809  21679623.559    88774482.25548
  24508635.075   128793699.73206  24508636.993   100358708.19444
 15 03 05 00 27  0.0000000  0  7G16G18G19G21G22G27G31
  20649556.124   108514174.62309  20649554.804    84556493.05249
  21964260.568   115423014.92109  21964259.764    89940045.21347
  23581082.770   123919432.47107  23581081.341    96560591.13746
  22425810.040   117848437.42408  22425808.330    91829949.99847
  22326979.629   117329122.13808  22326977.012    91425307.49247
  21670261.305   113878027.95809  21670262.714    88736151.37848
  24527064.015   128890543.15306  24527065.461   100434170.37444
 15 03 05 00 27 30.0000000  0  7G16G18G19G21G22G27G31
  20643003.371   108479739.33009  20643001.902    84529660.35949
  21960191.690   115401632.22909  21960190.738    89923383.38747
  23567315.558   123847085.03107  23567313.921    96504216.54146
  22438313.469   117914143.44708  22438311.847    91881149.49947
  22312051.508   117250674.70908  22312048.607    91364179.63547
  21660924.943   113828964.20109  21660925.996    88697919.89348
  24545479.188   128987315.41206  24545480.875   100509577.07545
 15 03 05 00 28  0.0000000  0  7G16G18G19G21G22G27G31
  20636536.853   108445757.32809  20636535.182    84503180.87649
  21956211.150   115380714.28409  21956209.991    89907083.70947
  23553564.574   123774823.87007  23553563.143    96447909.18545
  22450846.765   117980006.42308  22450845.169    91932471.29547
  22297174.102   117172493.06608  22297171.104    91303258.90447
  21651612.703   113780028.08009  21651613.719    88659787.86248
  24563880.418   129084013.99806  24563882.305   100584926.35245
 15 03 05 00 28 30.0000000  0  7G16G18G19G21G22G27G31
  20630157.087   108412231.33709  20630155.413    84477056.72849
  21952319.469   115360263.11509  21952318.092    89891147.75247
  23539830.601   123702650.17007  23539828.660    96391669.98946
  22463409.806   118046025.80508  22463408.102    91983914.96748
  22282347.702   117094580.87308  22282345.205    91242548.14247
  21642325.044   113731221.22609  21642326.139    88621756.55548
  24582267.687   129180637.40606  24582269.496   100660217.04644
 15 03 05 00 29  0.0000000  0  7G16G18G19G21G22G27G31
  20623864.112   108379161.40709  20623862.346    84451287.95249
  21948516.246   115340277.95109  21948515.008    89875574.91447
  23526112.672   123630562.09207  23526110.918    96335497.50646
  22476002.124   118112198.35408  22476000.373    92035477.99147
  22267573.215   117016939.16908  22267570.395    91182048.13747
  21633061.816   113682542.26409  21633062.697    88583824.90148
  24600639.640   129277181.26406  24600641.295   100735445.74344
 15 03 05 00 29 30.0000000  0  7G16G18G19G21G22G27G31
  20617659.018   108346553.85409  20617657.427    84425879.47149
  21944803.000   115320764.05209  21944801.817    89860369.29847
  23512411.913   123558564.52407  23512410.196    96279395.55846
  22488623.964   118178526.57208  22488622.395    92087162.31147
  22252851.004   116939574.58408  22252848.460    91121764.09047
  21623823.565   113633995.86009  21623824.633    88545996.54448
  24618996.823   129373647.22206  24618998.744   100810613.77244
 15 03 05 00 30  0.0000000  0  7G16G18G19G21G22G27G31
  20611541.439   108314405.07609  20611539.710    84400828.47349
  21941178.490   115301717.34209  21941177.222    89845527.72047
  23498727.547   123486652.19307  23498725.404    96223359.99646
  22501274.152   118245003.69208  22501272.432    92138962.66447
  22238181.182   116862484.64808  22238178.712    91061694.04847
  21614609.897   113585577.17909  21614610.852    88508267.71348
  24637337.650   129470027.60706  24637339.311   100885715.07844
 15 03 05 00 30 30.0000000  0  7G16G18G19G21G22G27G31
  20605511.937   108282720.16909  20605510.159    84376138.93749
  21937643.774   115283142.34809  21937642.515    89831053.71747
  23485059.856   123414828.46507  23485057.803    96167393.48946
  22513953.002   118311631.22108  22513951.342    92190880.21247
  22223564.840   116785675.56508  22223562.071    91001842.84747
  21605420.949   113537289.90209  21605422.230    88470641.27948
  24655662.259   129566322.64306  24655663.833   100960749.83745
 15 03 05 00 31  0.0000000  0  7G16G18G19G21G22G27G31
  20599570.715   108251499.52709  20599569.244    84351811.16449
  21934198.698   115265038.38109  21934197.457    89816946.74747
  23471408.976   123343092.10307  23471406.988    96111495.05846
  22526659.738   118378405.82008  22526658.079    92242912.36047
  22209002.518   116709149.07808  22208999.407    90942211.82847
  21596256.962   113489132.98109  21596258.246    88433116.42148
  24673969.981   129662528.77506  24673971.724   101035715.33944
 15 03 05 00 31 30.0000000  0  7G16G18G19G21G22G27G31
  20593718.613   108220746.02309  20593716.985    84327847.39249
  21930843.755   115247408.13109  21930842.475    89803208.90747
  23457774.728   123271444.55507  23457772.649    96055665.84346
  22539394.591   118445327.79608  22539392.853    92295059.35247
  22194494.284   116632908.67008  22194491.456    90882803.75447
  21587118.044   113441107.98609  21587119.434    88395694.35848
  24692260.777   129758645.06006  24692262.458   101110610.80945
 15 03 05 00 32  0.0000000  0  6G16G18G19G21G22G27
  20587953.090   108190448.37109  20587951.450    84304238.83549
  21927576.346   115230238.94009  21927575.451    89789830.33347
  23444154.927   123199872.48507  23444153.039    95999895.44046
  22552154.779   118512382.10008  22552152.878    92347309.45947
  22180038.508   116556943.67808  22180035.929    90823610.29047
  21578002.035   113393202.34809  21578003.306    88358365.30548
 15 03 05 00 32 30.0000000  0  6G16G18G19G21G22G27
  20582279.278   108160632.72509  20582277.728    84281005.86249
  21924401.863   115213556.19609  21924400.735    89776830.81047
  23430554.189   123128400.49907  23430552.451    95944203.02546
  22564944.201   118579591.62008  22564942.447    92399680.51147
  22165640.470   116481280.94808  22165637.849    90764652.34147
  21568913.215   113345440.87009  21568914.502    88321148.58148
 15 03 05 00 33  0.0000000  0  6G16G18G19G21G22G27
  20576695.670   108131290.32309  20576694.115    84258141.64849
  21921318.161   115197351.05009  21921317.131    89764203.43648
  23416970.580   123057018.43507  23416968.691    95888580.67546
  22577761.011   118646944.09908  22577759.128    92452162.95947
  22151298.532   116405913.27108  22151295.683    90705924.31647
  21559850.197   113297813.57409  21559851.438    88284036.41148
 15 03 05 00 33 30.0000000  0  6G16G18G19G21G22G27
  20571201.299   108102417.05209  20571199.667    84235642.99149
  21918324.085   115181617.94809  21918323.103    89751943.89047
  23403403.066   122985720.91707  23403401.254    95833024.19546
  22590603.514   118714432.12808  22590601.969    92504751.02947
  22137012.094   116330837.66008  22137009.076    90647423.86347
  21550811.712   113250315.04509  21550812.725    88247024.57848
 15 03 05 00 34  0.0000000  0  6G16G18G19G21G22G27
  20565797.549   108074020.18509  20565796.060    84213515.56049
  21915421.591   115166364.11409  21915420.353    89740057.80247
  23389852.708   122914513.30507  23389850.708    95777537.78846
  22603472.451   118782059.57008  22603470.813    92557447.73047
  22122782.663   116256061.83908  22122779.890    90589157.00748
  21541798.602   113202951.27209  21541799.638    88210117.74648
 15 03 05 00 34 30.0000000  0  6G16G18G19G21G22G27
  20560483.983   108046097.55009  20560482.543    84191757.65949
  21912609.278   115151585.99809  21912608.274    89728542.40447
  23376318.853   122843392.19607  23376316.797    95722118.77746
  22616367.204   118849821.48308  22616365.568    92610249.22047
  22108610.158   116181584.63508  22108607.280    90531122.84947
  21532810.428   113155718.94509  21532811.720    88173313.34748
 15 03 05 00 35  0.0000000  0  6G16G18G19G21G22G27
  20555261.960   108018655.60209  20555260.581    84170374.31949
  21909888.834   115137289.52709  21909887.749    89717402.30947
  23362802.446   122772362.46807  23362800.276    95666770.94646
  22629287.932   118917720.96208  22629286.202    92663157.89947
  22094495.972   116107413.40109  22094493.153    90473327.10847
  21523848.519   113108623.26109  21523849.659    88136615.42748
 15 03 05 00 35 30.0000000  0  6G16G18G19G21G22G27
  20550130.698   107991690.79409  20550129.250    84149362.78049
  21907259.149   115123470.37709  21907258.080    89706634.15948
  23349302.194   122701418.85007  23349300.370    95611490.24546
  22642233.845   118985751.03808  22642232.076    92716168.33947
  22080439.380   116033545.82009  22080436.357    90415767.97247
  21514911.548   113061659.50709  21514912.719    88100020.30648
 15 03 05 00 36  0.0000000  0  6G16G18G19G21G22G27
  20545092.148   107965212.47709  20545090.738    84128730.32449
  21904721.800   115110136.95709  21904720.733    89696244.49048
  23335820.013   122630569.51207  23335818.321    95556283.00546
  22655205.453   119053917.92208  22655203.871    92769285.39047
  22066442.659   115959992.09008  22066439.544    90358453.39547
  21506001.154   113014835.85209  21506002.422    88063534.34848
 15 03 05 00 36 30.0000000  0  6G16G18G19G21G22G27
  20540144.152   107939210.60909  20540142.808    84108469.12549
  21902274.936   115097278.72409  21902273.964    89686225.10148
  23322353.645   122559803.36607  23322351.786    95501140.57946
  22668200.824   119122208.27708  22668199.052    92822498.64147
  22052503.800   115886743.57509  22052500.752    90301376.65147
  21497115.578   112968141.33309  21497116.828    88027149.01548
 15 03 05 00 37  0.0000000  0  6G16G18G19G21G22G27
  20535288.636   107913694.88909  20535287.204    84088586.74149
  21899920.071   115084904.35909  21899918.977    89676582.75948
  23308904.706   122489128.02407  23308902.560    95446068.90446
  22681220.707   119190628.75308  22681219.105    92875813.29947
  22038625.131   115813810.52509  22038622.005    90244545.72347
  21488256.093   112921584.39309  21488257.097    87990870.89448
 15 03 05 00 37 30.0000000  0  6G16G18G19G21G22G27
  20530525.559   107888664.46809  20530524.134    84069082.51349
  21897657.044   115073012.22509  21897656.058    89667316.17447
  23295472.423   122418541.09007  23295470.433    95391066.11746
  22694264.761   119259175.78208  22694263.140    92929226.56747
  22024806.571   115741193.24809  22024803.435    90187960.86448
  21479422.303   112875162.95109  21479423.470    87954698.35948
 15 03 05 00 38  0.0000000  0  6G16G18G19G21G22G27
  20525855.774   107864124.49109  20525854.384    84049960.44949
  21895486.328   115061605.91209  21895485.489    89658428.14848
  23282057.629   122348046.43407  23282055.584    95336135.24246
  22707333.164   119327850.26908  22707331.594    92982739.14247
  22011049.189   115668897.78209  22011046.078    90131626.75448
  21470615.143   112828880.83009  21470616.280    87918634.38648
 15 03 05 00 38 30.0000000  0  6G16G18G19G21G22G27
  20521278.998   107840073.49609  20521277.654    84031219.41049
  21893408.113   115050684.16109  21893406.984    89649917.70448
  23268659.977   122277641.39007  23268657.962    95281274.18946
  22720425.057   119396648.53608  22720423.478    93036348.18447
  21997352.938   115596923.68309  21997349.981    90075543.06048
  21461834.070   112782735.78809  21461835.217    87882677.21448
 15 03 05 00 39  0.0000000  0  6G16G18G19G21G22G27
  20516795.292   107816511.33409  20516793.923    84012859.28249
  21891421.656   115040245.66609  21891420.531    89641783.82347
  23255279.063   122207324.40007  23255276.983    95226481.75246
  22733539.750   119465566.93008  22733538.078    93090050.81247
  21983717.948   115525271.70609  21983714.947    90019710.37348
  21453078.785   112736726.58209  21453079.814    87846825.89748
 15 03 05 00 39 30.0000000  0  6G16G18G19G21G22G27
  20512404.453   107793437.78909  20512402.997    83994879.89249
  21889527.095   115030289.52409  21889525.919    89634025.80048
  23241914.759   122137094.13407  23241912.574    95171756.88946
  22746676.893   119534602.39608  22746675.225    93143844.67147
  21970144.326   115453942.80809  21970141.553    89964129.43748
  21444349.196   112690852.22109  21444350.284    87811079.64748
 15 03 05 00 40  0.0000000  0  6G16G18G19G21G22G27
  20508108.784   107770863.45709  20508107.312    83977289.50249
  21887726.161   115020825.14409  21887724.863    89626650.96548
  23228568.586   122066959.86407  23228566.472    95117106.83146
  22759837.676   119603762.87008  22759835.916    93197735.93547
  21956634.597   115382948.70509  21956631.722    89908809.37648
  21435647.045   112645122.20109  21435648.060    87775445.87148
 15 03 05 00 40 30.0000000  0  6G16G18G19G21G22G27
  20503906.541   107748780.42809  20503904.936    83960081.94349
  21886017.066   115011844.04409  21886015.820    89619652.71848
  23215239.220   121996912.19907  23215236.863    95062524.24946
  22773020.251   119673037.11608  22773018.357    93251715.86247
  21943187.282   115312282.52109  21943184.370    89853744.84448
  21426970.606   112599527.42209  21426971.779    87739917.48248
 15 03 05 00 41  0.0000000  0  6G16G18G19G21G22G27
  20499798.864   107727194.87909  20499797.555    83943262.02949
  21884400.879   115003351.39109  21884399.876    89613035.07348
  23201926.998   121926956.21907  23201924.745    95008013.10247
  22786224.857   119742428.13308  22786222.996    93305786.77447
  21929803.734   115241951.34809  21929800.883    89798941.35548
  21418321.080   112554073.26409  21418322.082    87704498.67049
 15 03 05 00 41 30.0000000  0  6G16G18G19G21G22G27
  20495786.140   107706107.24509  20495784.711    83926830.10449
  21882877.557   114995346.87109  21882876.539    89606797.79448
  23188632.077   121857091.12407  23188629.820    94953572.79246
  22799451.246   119811933.61708  22799449.377    93359946.87747
  21916484.314   115171957.04109  21916481.405    89744400.35448
  21409698.149   112508759.42409  21409699.309    87669189.19849
 15 03 05 00 42  0.0000000  0  6G16G18G19G21G22G27
  20491868.400   107685519.54209  20491866.847    83910787.73049
  21881447.483   114987831.53409  21881446.427    89600941.69448
  23175354.474   121787317.06907  23175352.319    94899203.42946
  22812699.159   119881551.83808  22812697.291    93414194.83947
  21903229.109   115102301.97009  21903226.423    89690123.69948
  21401101.950   112463586.50109  21401103.083    87633989.52748
 15 03 05 00 42 30.0000000  0  6G16G18G19G21G22G27
  20488046.176   107665433.49309  20488044.712    83895136.25649
  21880110.675   114980806.34009  21880109.595    89595467.52848
  23162094.391   121717634.83207  23162092.136    94844905.60247
  22825968.512   119951282.26008  22825966.751    93468530.21647
  21890039.375   115032989.41809  21890036.535    89636113.93648
  21392532.814   112418555.54409  21392533.934    87598900.48149
 15 03 05 00 43  0.0000000  0  6G16G18G19G21G22G27
  20484319.080   107645847.97109  20484317.580    83879874.80449
  21878866.775   114974269.41509  21878865.586    89590373.83247
  23148851.376   121648042.04007  23148849.058    94790677.47346
  22839258.331   120021121.04108  22839256.717    93522950.02847
  21876914.823   114964019.30909  21876912.238    89582371.01148
  21383990.332   112373664.65409  21383991.409    87563920.58349
 15 03 05 00 43 30.0000000  0  6G16G18G19G21G22G27
  20480688.092   107626766.75009  20480686.665    83865006.31449
  21877716.329   114968223.62609  21877715.091    89585662.84047
  23135625.661   121578541.81007  23135623.542    94736521.47747
  22852568.751   120091068.99008  22852567.161    93577454.91547
  21863856.325   114895396.62309  21863853.574    89528898.80548
  21375475.082   112328916.96209  21375476.314    87529052.25749
 15 03 05 00 44  0.0000000  0  6G16G18G19G21G22G27
  20477153.197   107608190.06209  20477151.484    83850530.96549
  21876659.308   114962668.13109  21876657.864    89581333.89248
  23122417.746   121509133.06007  23122415.437    94682436.74546
  22865899.709   120161123.08708  22865898.107    93632042.50547
  21850864.312   114827122.32209  21850861.546    89475698.06248
  21366986.997   112284311.52709  21366988.009    87494294.78449
 15 03 05 00 44 30.0000000  0  6G16G18G19G21G22G27
  20473714.216   107590118.38009  20473712.747    83836449.13049
  21875695.325   114957602.83409  21875693.920    89577386.91948
  23109226.677   121439814.90107  23109224.572    94628422.61046
  22879250.320   120231281.20908  22879248.841    93686711.15447
  21837938.701   114759198.40309  21837935.891    89422770.35348
  21358525.980   112239848.24009  21358527.042    87459648.07149
 15 03 05 00 45  0.0000000  0  6G16G18G19G21G22G27
  20470372.255   107572556.00309  20470370.705    83822764.15449
  21874825.309   114953030.92909  21874823.979    89573824.40848
  23096053.775   121370590.43007  23096051.682    94574481.48347
  22892620.981   120301544.78508  22892619.332    93741461.98447
  21825080.679   114691629.51209  21825077.995    89370119.29148
  21350092.530   112195530.34609  21350093.408    87425114.65349
 15 03 05 00 45 30.0000000  0  6G16G18G19G21G22G27
  20467126.205   107555498.17709  20467124.669    83809472.33449
  21874048.380   114948947.04809  21874046.899    89570642.17448
  23082897.580   121301453.96907  23082895.263    94520608.92846
  22906010.458   120371906.37108  22906008.883    93796289.17847
  21812289.706   114624412.83809  21812286.930    89317742.67848
  21341685.704   112151352.64609  21341686.726    87390690.48049
 15 03 05 00 46  0.0000000  0  6G16G18G19G21G22G27
  20463978.431   107538956.64109  20463976.834    83796582.81849
  21873366.001   114945361.62009  21873364.678    89567848.34448
  23069760.173   121232416.02407  23069757.929    94466813.14747
  22919420.085   120442374.74708  22919418.566    93851199.58647
  21799568.121   114557560.74009  21799565.589    89265650.15948
  21333307.573   112107325.95809  21333308.651    87356383.97549
 15 03 05 00 46 30.0000000  0  6G16G18G19G21G22G27
  20460927.855   107522925.78609  20460926.437    83784091.23549
  21872777.203   114942267.96709  21872775.932    89565437.71748
  23056639.844   121163469.63607  23056637.650    94413088.70446
  22932848.504   120512941.47308  22932846.939    93906186.62447
  21786915.087   114491068.87609  21786912.468    89213838.33948
  21324957.059   112063443.86909  21324958.374    87322190.14249
 15 03 05 00 47  0.0000000  0  6G16G18G19G21G22G27
  20457974.709   107507406.30609  20457973.237    83771998.12549
  21872282.269   114939666.35309  21872280.909    89563410.49248
  23043537.086   121094614.83107  23043535.062    94359435.63846
  22946295.298   120583604.13208  22946293.631    93961248.42247
  21774331.050   114424938.81309  21774328.324    89162308.43648
  21316634.229   112019706.53709  21316635.468    87288109.10949
 15 03 05 00 47 30.0000000  0  6G16G18G19G21G22G27
  20455118.772   107492398.40909  20455117.214    83760303.65649
  21871880.681   114937556.14809  21871879.475    89561766.18548
  23030451.972   121025851.03407  23030449.820    94305853.47847
  22959759.958   120654361.80408  22959758.455    94016384.25247
  21761816.154   114359172.46909  21761813.349    89111061.95648
  21308338.809   111976113.65409  21308339.911    87254140.62749
 15 03 05 00 48  0.0000000  0  6G16G18G19G21G22G27
  20452361.805   107477910.45009  20452360.344    83749014.32949
  21871573.909   114935944.83109  21871572.776    89560510.61947
  23017385.109   120957185.60807  23017383.067    94252347.96947
  22973243.844   120725219.38208  22973242.123    94071597.93147
  21749372.167   114293779.34209  21749369.578    89060106.29248
  21300072.279   111932672.99809  21300073.411    87220290.78549
 15 03 05 00 48 30.0000000  0  6G16G18G19G21G22G27
  20449702.457   107463935.32909  20449700.912    83738124.61849
  21871360.750   114934824.08309  21871359.553    89559637.31748
  23004335.782   120888610.18407  23004333.778    94198912.59147
  22986744.604   120796166.16908  22986742.981    94126881.12647
  21736998.055   114228753.00709  21736995.536    89009436.44348
  21291833.373   111889376.69109  21291834.515    87186553.41349
 15 03 05 00 49  0.0000000  0  6G16G18G19G21G22G27
  20447141.869   107450479.40709  20447140.356    83727639.47549
  21871241.789   114934199.46709  21871240.618    89559150.60948
  22991304.401   120820130.40907  22991302.494    94145551.75447
  23000263.080   120867206.61308  23000261.561    94182237.29547
  21724695.132   114164101.05809  21724692.600    88959058.31948
  21283622.956   111846230.40709  21283623.897    87152932.93349
 15 03 05 00 49 30.0000000  0  6G16G18G19G21G22G27
  20444679.277   107437538.64909  20444677.749    83717555.76449
  21871216.417   114934066.13909  21871215.264    89559046.72848
  22978290.257   120751740.89908  22978288.537    94092261.24746
  23013798.305   120938334.23608  23013796.831    94237661.39947
  21712462.900   114099820.77409  21712460.236    88908969.80148
  21275440.116   111803229.63909  21275441.124    87119425.84549
 15 03 05 00 50  0.0000000  0  6G16G18G19G21G22G27
  20442316.215   107425120.86409  20442314.767    83707879.55949
  21871285.641   114934430.84909  21871284.638    89559330.92948
  22965294.862   120683448.60708  22965292.821    94039046.49246
  23027350.824   121009553.88908  23027349.537    94293157.21347
  21700303.234   114035920.89309  21700300.520    88859177.70448
  21267286.367   111760381.52109  21267287.410    87086037.71549
 15 03 05 00 50 30.0000000  0  7G04G16G18G19G21G22G27
  24591189.908   129227573.08616  24591192.333   100696820.22952
  20440051.933   107413221.70209  20440050.454    83698607.48049
  21871448.913   114935288.66109  21871447.960    89559999.36148
  22952317.028   120615248.69208  22952314.667    93985903.71546
  23040919.941   121080859.20508  23040918.401    94348719.78647
  21688215.428   113972398.57609  21688212.675    88809679.81348
  21259160.787   111717681.46609  21259161.761    87052764.95049
 15 03 05 00 51  0.0000000  0  7G04G16G18G19G21G22G27
  24572106.042   129127288.38206  24572108.938   100618676.50941
  20437891.727   107401869.21009  20437890.191    83689761.37649
  21871710.968   114936665.73809  21871709.949    89561072.41248
  22939361.816   120547168.40908  22939359.485    93932854.15947
  23054509.857   121152275.29208  23054508.539    94404368.66247
  21676204.739   113909282.35409  21676202.178    88760498.36548
  21251068.510   111675156.73409  21251069.606    87019628.80049
 15 03 05 00 51 30.0000000  0  7G04G16G18G19G21G22G27
  24553045.492   129027126.48205  24553048.575   100540628.50943
  20435826.310   107391015.43109  20435824.684    83681303.87849
  21872062.816   114938514.21209  21872061.544    89562512.79148
  22926419.867   120479158.10008  22926417.461    93879859.14447
  23068111.321   121223751.40408  23068110.025    94460064.31946
  21664262.625   113846526.15009  21664259.951    88711597.44348
  21243000.414   111632758.88309  21243001.611    86986591.52249
 15 03 05 00 52  0.0000000  0  7G04G16G18G19G21G22G27
  24534014.502   128927119.30306  24534017.853   100462701.03944
  20433861.890   107380692.11509  20433860.274    83673259.72949
  21872509.949   114940864.69109  21872508.874    89564344.34348
  22913497.107   120411249.88208  22913494.765    93826943.67346
  23081729.972   121295317.24308  23081728.357    94515829.89147
  21652395.158   113784162.84609  21652392.454    88663002.68348
  21234962.607   111590519.54909  21234963.606    86953677.76849
 15 03 05 00 52 30.0000000  0  7G04G16G18G19G21G22G27
  24515011.289   128827256.80706  24515014.398   100384886.28845
  20431996.449   107370889.00409  20431994.764    83665620.93449
  21873050.532   114943705.94509  21873049.487    89566558.31548
  22900591.738   120343431.92608  22900589.473    93774098.53647
  23095363.012   121366959.88408  23095361.657    94571655.31946
  21640601.033   113722183.42809  21640598.250    88614707.04648
  21226952.770   111548427.91509  21226954.004    86920879.10149
 15 03 05 00 53  0.0000000  0  7G04G16G18G19G21G22G27
  24496037.166   128727546.27106  24496039.592   100307189.90843
  20430231.299   107361613.51409  20430229.886    83658393.27349
  21873685.834   114947044.63709  21873684.591    89569159.89748
  22887705.028   120275711.31008  22887702.621    93721329.24947
  23109011.547   121438683.94608  23109010.365    94627544.18447
  21628881.499   113660596.11109  21628878.447    88566716.94348
  21218972.601   111506491.03309  21218973.745    86888201.02249
 15 03 05 00 53 30.0000000  0  7G04G16G18G19G21G22G27
  24477091.531   128627986.97706  24477094.108   100229611.35243
  20428566.440   107352864.77509  20428565.139    83651576.06949
  21874415.366   114950878.41409  21874414.251    89572147.26648
  22874836.229   120208085.97208  22874833.990    93668634.20247
  23122675.361   121510487.05408  23122673.885    94683494.64146
  21617236.484   113599401.77109  21617233.693    88519033.06048
  21211021.444   111464707.57709  21211022.498    86855642.49749
 15 03 05 00 54  0.0000000  0  7G04G16G18G19G21G22G27
  24458175.236   128528581.98706  24458177.731   100152153.07443
  20427002.359   107344645.50709  20427000.972    83645171.43849
  21875239.565   114955209.48309  21875238.497    89575522.13148
  22861986.282   120140558.38708  22861983.916    93616015.32947
  23136354.037   121582369.42208  23136352.663    94739506.85547
  21605667.125   113538604.18809  21605664.149    88471658.33348
  21203100.113   111423080.07609  21203101.043    86823205.49349
 15 03 05 00 54 30.0000000  0  7G04G16G18G19G21G22G27
  24439288.317   128429331.05705  24439290.318   100074814.84044
  20425539.004   107336955.36809  20425537.661    83639179.11549
  21876158.162   114960036.59009  21876157.058    89579283.51948
  22849154.536   120073127.07408  22849152.134    93563471.48247
  23150047.232   121654327.83308  23150046.072    94795578.32547
  21594173.138   113478203.75409  21594170.402    88424593.08148
  21195208.084   111381607.71209  21195209.146    86790889.36649
 15 03 05 00 55  0.0000000  0  7G04G16G18G19G21G22G27
  24420430.984   128330236.75906  24420433.495    99997598.67544
  20424176.690   107329796.98709  20424175.443    83633601.15449
  21877171.491   114965361.32509  21877170.278    89583432.67248
  22836341.240   120005793.96808  22836339.174    93511004.14847
  23163755.098   121726362.72008  23163753.781    94851709.38447
  21582755.766   113418204.84009  21582752.799    88377840.68848
  21187346.102   111340292.81409  21187347.036    86758695.93749
 15 03 05 00 55 30.0000000  0  7G04G16G18G19G21G22G27
  24401603.443   128231297.76806  24401605.822    99920503.53344
  20422915.415   107323168.59509  20422914.077    83628436.16549
  21878279.053   114971181.38409  21878277.723    89587967.78548
  22823546.678   119938557.12208  22823544.259    93458611.82647
  23177476.841   121798470.18208  23177475.372    94907897.00846
  21571414.694   113358606.98109  21571411.747    88331400.81748
  21179513.775   111299133.62609  21179514.728    86726623.84849
 15 03 05 00 56  0.0000000  0  7G04G16G18G19G21G22G27
  24382805.976   128132515.63206  24382808.260    99843530.56544
  20421755.206   107317071.34309  20421753.816    83623685.05649
  21879480.862   114977496.43109  21879479.499    89592888.60648
  22810770.261   119871417.19108  22810768.108    93406295.03047
  23191212.029   121870649.01908  23191210.590    94964140.23946
  21560150.405   113299412.18209  21560147.492    88285275.01548
  21171711.110   111258130.87509  21171712.203    86694673.65949
 15 03 05 00 56 30.0000000  0  7G04G16G18G19G21G22G27
  24364038.732   128033893.19506  24364040.957    99766682.03444
  20420696.607   107311508.21109  20420695.147    83619350.14149
  21880777.130   114984308.58809  21880775.764    89598196.78548
  22798012.531   119804375.99608  22798010.608    93354055.17147
  23204960.828   121942899.85508  23204959.416    95020439.57146
  21548963.393   113240624.84709  21548960.386    88239466.71748
  21163938.920   111217287.18109  21163939.977    86662847.41249
 15 03 05 00 57  0.0000000  0  7G04G16G18G19G21G22G27
  24345301.617   127935430.33305  24345303.652    99689957.87144
  20419739.424   107306478.89809  20419738.060    83615431.18749
  21882167.760   114991616.95709  21882166.494    89603891.62348
