     2.11           OBSERVATION DATA    G                   RINEX VERSION / TYPE
SPIDER V4,0,0,3554                      2015 03 12 00:08    PGM / RUN BY / DATE 
EECH                                                        MARKER NAME         
EECH                                                        MARKER NUMBER       
                                                            OBSERVER / AGENCY   
462240              LEICA GRX1200PRO    8.20/2.127          REC # / TYPE / VERS 
103299              LEIAT504                                ANT # / TYPE        
  5154282.7593   121017.3605  3742656.9418                  APPROX POSITION XYZ 
        0.0590        0.0000        0.0000                  ANTENNA: DELTA H/E/N
     1     1                                                WAVELENGTH FACT L1/2
     4    C1    L1    P2    L2                              # / TYPES OF OBSERV 
    30.000                                                  INTERVAL            
  2015    03    05    00    00    0.0000000     GPS         TIME OF FIRST OBS   
  2015    03    05    23    59   30.0000000     GPS         TIME OF LAST OBS    
    16                                                      LEAP SECONDS        
    30                                                      # OF SATELLITES     
   G 1   821   821   820   820                              PRN / # OF OBS      
   G 2   896   896   894   894                              PRN / # OF OBS      
   G 3   798   798   798   798                              PRN / # OF OBS      
   G 4   836   836   833   833                              PRN / # OF OBS      
   G 5   670   670   670   670                              PRN / # OF OBS      
   G 6   659   659   657   657                              PRN / # OF OBS      
   G 7   690   690   690   690                              PRN / # OF OBS      
   G 9   782   782   782   782                              PRN / # OF OBS      
   G10   776   776   776   776                              PRN / # OF OBS      
   G11   784   784   784   784                              PRN / # OF OBS      
   G12   807   807   807   807                              PRN / # OF OBS      
   G13   811   811   811   811                              PRN / # OF OBS      
   G14   376   376   376   376                              PRN / # OF OBS      
   G15   726   726   726   726                              PRN / # OF OBS      
   G16   689   689   689   689                              PRN / # OF OBS      
   G17   911   911   911   911                              PRN / # OF OBS      
   G18   884   884   883   883                              PRN / # OF OBS      
   G19   784   784   784   784                              PRN / # OF OBS      
   G20   786   786   785   785                              PRN / # OF OBS      
   G21   651   651   650   650                              PRN / # OF OBS      
   G22   761   761   759   759                              PRN / # OF OBS      
   G23   689   689   687   687                              PRN / # OF OBS      
   G24   803   803   802   802                              PRN / # OF OBS      
   G25   822   822   822   822                              PRN / # OF OBS      
   G27   818   818   818   818                              PRN / # OF OBS      
   G28   877   877   877   877                              PRN / # OF OBS      
   G29   725   725   725   725                              PRN / # OF OBS      
   G30   660   660   660   660                              PRN / # OF OBS      
   G31   696   696   696   696                              PRN / # OF OBS      
   G32   729   729   729   729                              PRN / # OF OBS      
BIT 2 OF LLI FLAGS DATA COLLECTED UNDER A/S CONDITION       COMMENT             
SNR is mapped to RINEX snr flag value [2-9]                 COMMENT             
Lx:     = 25dBHz -> 1; 26-27dBHz -> 2; 28-31dBHz -> 3       COMMENT             
       32-35dBHz -> 4; 36-38dBHz -> 5; 39-41dBHz -> 6       COMMENT             
       42-44dBHz -> 7; 45-48dBHz -> 8; >=49dBHz -> 9        COMMENT             
                                                            END OF HEADER       
 15 03 05 00 00  0.0000000  0  7G16G18G19G21G22G27G31
  21053068.800   110634639.96709  21053068.820    86208820.76948
  22378492.720   117599774.24808  22378493.040    91636211.36146
  24316533.620   127784251.81706  24316533.300    99572164.67945
  21758229.240   114340275.36008  21758228.440    89096321.16748
  23324631.000   122571803.52107  23324630.240    95510508.99946
  22148745.980   116392484.82208  22148748.740    90695464.22748
  23649317.280   124277975.20907  23649318.140    96839973.92846
 15 03 05 00 00 30.0000000  0  7G16G18G19G21G22G27G31
  21042836.160   110580867.30409  21042836.280    86166919.99948
  22369533.560   117552692.98008  22369533.780    91599524.68347
  24301480.680   127705145.23806  24301479.880    99510523.28545
  21768280.240   114393093.80808  21768279.540    89137478.40748
  23307486.680   122481709.34007  23307485.720    95440305.79346
  22137898.060   116335478.19508  22137900.640    90651043.49948
  23667977.140   124376033.13107  23667977.980    96916382.66746
 15 03 05 00 01  0.0000000  0  7G16G18G19G21G22G27G31
  21032674.360   110527466.81309  21032674.520    86125309.23548
  22360647.920   117505998.26908  22360648.060    91563139.21146
  24286446.580   127626140.63506  24286445.840    99448961.33945
  21778384.400   114446191.86108  21778383.840    89178853.52048
  23290364.840   122391734.17607  23290363.900    95370195.31846
  22127077.300   116278614.53108  22127079.860    90606734.17948
  23686652.040   124474170.11907  23686652.920    96992852.98046
 15 03 05 00 01 30.0000000  0  7G16G18G19G21G22G27G31
  21022582.400   110474433.06409  21022582.460    86083984.24748
  22351834.660   117459684.14908  22351834.700    91527050.29246
  24271429.900   127547230.59405  24271429.960    99387473.06546
  21788540.040   114499560.47708  21788539.620    89220439.46548
  23273264.580   122301873.24007  23273263.780    95300173.84146
  22116282.180   116221886.38408  22116284.940    90562530.45848
  23705339.980   124572375.47607  23705340.900    97069376.57146
 15 03 05 00 02  0.0000000  0  7G16G18G19G21G22G27G31
  21012558.220   110421755.66309  21012558.160    86042936.92948
  22343091.920   117413740.52208  22343091.800    91491250.06446
  24256428.820   127468402.76306  24256429.660    99326048.82446
  21798744.420   114553185.01108  21798744.080    89262224.81448
  23256184.280   122212116.83807  23256183.460    95230233.82346
  22105510.360   116165281.28808  22105513.360    90518422.62548
  23724037.940   124670633.72707  23724038.880    97145941.39146
 15 03 05 00 02 30.0000000  0  7G16G18G19G21G22G27G31
  21002602.940   110369440.31409  21002602.840    86002171.73148
  22334420.560   117368172.62508  22334420.460    91455742.62646
  24241444.320   127389660.67306  24241445.480    99264691.42946
  21808997.880   114607067.59608  21808997.640    89304211.23748
  23239125.340   122122471.30307  23239124.200    95160380.23245
  22094762.740   116108803.00008  22094765.840    90474413.60948
  23742746.120   124768945.77707  23742747.140    97222548.11846
 15 03 05 00 03  0.0000000  0  7G16G18G19G21G22G27G31
  20992716.880   110317488.62109  20992716.820    85961689.90349
  22325820.900   117322982.32108  22325821.080    91420529.43047
  24226476.640   127311004.03006  24226477.360    99203400.63145
  21819300.000   114661205.89608  21819299.820    89346396.92848
  23222087.940   122032939.33307  23222086.880    95090615.10746
  22084039.340   116052451.43308  22084042.340    90430503.33348
  23761464.040   124867308.62907  23761464.980    97299194.44746
 15 03 05 00 03 30.0000000  0  7G16G18G19G21G22G27G31
  20982901.100   110265906.01709  20982901.020    85921495.67949
  22317294.260   117278174.91908  22317294.660    91385614.58047
  24211526.020   127232436.15006  24211525.960    99142178.98645
  21829651.180   114715601.95908  21829651.040    89388783.48048
  23205073.260   121943526.54907  23205072.260    95020942.85746
  22073340.800   115996229.72708  22073343.540    90386694.24048
  23780191.640   124965722.19807  23780192.380    97375880.26745
 15 03 05 00 04  0.0000000  0  7G16G18G19G21G22G27G31
  20973156.680   110214698.63709  20973156.580    85881593.83849
  22308841.620   117233755.95208  22308842.060    91351002.41447
  24196592.780   127153961.33106  24196592.220    99081029.81345
  21840051.760   114770257.71708  21840051.640    89431372.38348
  23188082.580   121854239.78607  23188081.780    94951368.81646
  22062667.740   115940142.11108  22062670.260    90342989.62648
  23798929.180   125064188.00807  23798929.580    97452606.82745
 15 03 05 00 04 30.0000000  0  7G16G18G19G21G22G27G31
  20963483.280   110163864.46109  20963483.120    85841982.80749
  22300462.520   117189723.82308  22300463.060    91316691.68047
  24181676.360   127075575.25406  24181675.780    99019949.81046
  21850500.560   114825166.71308  21850500.380    89474158.62048
  23171115.660   121765077.76207  23171114.880    94881891.98046
  22052019.400   115884184.64808  22052021.760    90299386.43348
  23817675.240   125162699.01007  23817675.440    97529368.59045
 15 03 05 00 05  0.0000000  0  7G16G18G19G21G22G27G31
  20953881.200   110113405.15909  20953881.040    85802663.88449
  22292157.260   117146079.76808  22292157.900    91282683.35347
  24166776.820   126997277.84206  24166776.620    98958938.90446
  21860997.200   114880326.93408  21860996.980    89517140.61448
  23154172.800   121676042.81807  23154172.040    94812514.16946
  22041395.660   115828357.05708  22041398.080    90255884.43848
  23836429.240   125261252.00107  23836429.260    97606163.08145
 15 03 05 00 05 30.0000000  0  7G16G18G19G21G22G27G31
  20944351.040   110063324.09309  20944350.960    85763639.68949
  22283926.580   117102827.36308  22283927.260    91248980.19647
  24151894.380   126919070.24206  24151894.540    98897997.94346
  21871541.740   114935738.22408  21871541.380    89560318.24148
  23137254.800   121587139.02207  23137254.220    94743238.51246
  22030796.960   115772660.90408  22030799.420    90212484.85748
  23855190.900   125359845.38907  23855190.960    97682989.04945
 15 03 05 00 06  0.0000000  0  7G16G18G19G21G22G27G31
  20934892.380   110013618.61509  20934892.320    85724908.16049
  22275769.960   117059963.49208  22275770.560    91215579.80247
  24137028.440   126840947.97807  24137028.280    98837123.51845
  21882132.740   114991393.92108  21882132.280    89603686.32748
  23120361.540   121498364.33607  23120361.040    94674063.48346
  22020222.520   115717091.47608  22020224.920    90169184.02748
  23873958.740   125458471.47907  23873958.940    97759840.48046
 15 03 05 00 06 30.0000000  0  7G16G18G19G21G22G27G31
  20925506.900   109964297.45809  20925506.800    85686476.10449
  22267688.900   117017496.69108  22267689.380    91182488.79647
  24122180.020   126762917.62207  24122179.120    98776320.71344
  21892771.180   115047299.10908  21892770.700    89647248.81548
  23103494.720   121409728.33307  23103494.260    94604996.51546
  22009673.560   115661655.68908  22009675.860    90125987.34048
  23892733.620   125557134.31306  23892734.020    97836720.52646
 15 03 05 00 07  0.0000000  0  7G16G18G19G21G22G27G31
  20916195.320   109915364.61709  20916195.140    85648346.62649
  22259683.960   116975430.76308  22259684.420    91149710.16947
  24107349.260   126684981.42106  24107347.800    98715591.27545
  21903457.020   115103453.72208  21903456.620    89691005.66048
  23086655.200   121321235.99308  23086654.660    94536041.48446
  21999150.340   115606355.59508  21999152.640    90082896.38348
  23911515.280   125655833.02006  23911515.980    97913628.54046
 15 03 05 00 07 30.0000000  0  7G16G18G19G21G22G27G31
  20906957.220   109866818.01409  20906956.960    85610518.11249
  22251754.880   116933763.68608  22251755.360    91117242.33247
  24092535.500   126607135.36506  24092533.840    98654932.04145
  21914189.240   115159851.79008  21914188.860    89734952.20748
  23069842.740   121232885.68807  23069842.020    94467197.13947
  21988652.080   115551187.30808  21988654.520    90039908.13648
  23930302.400   125754560.44406  23930303.480    97990558.90446
 15 03 05 00 08  0.0000000  0  7G16G18G19G21G22G27G31
  20897792.260   109818655.86309  20897791.940    85572989.16849
  22243901.360   116892493.21508  22243901.780    91085083.53847
  24077738.220   126529375.76106  24077736.860    98594340.17745
  21924966.800   115216487.63808  21924966.240    89779084.04848
  23053057.140   121144676.20208  23053056.240    94398462.54546
  21978178.120   115496147.05708  21978180.820    89997019.67348
  23949093.780   125853309.83606  23949095.060    98067506.41945
 15 03 05 00 08 30.0000000  0  7G16G18G19G21G22G27G31
  20888701.080   109770881.37909  20888700.680    85535762.30749
  22236124.000   116851622.66008  22236124.380    91053236.37647
  24062957.840   126451703.50707  24062956.740    98533816.40845
  21935789.520   115273360.64508  21935788.700    89823400.68648
  23036298.740   121056611.56107  23036297.920    94329840.79446
  21967728.880   115441236.27408  21967731.660    89954232.09148
  23967889.160   125952080.10106  23967890.560    98144470.18446
 15 03 05 00 09  0.0000000  0  7G16G18G19G21G22G27G31
  20879685.160   109723502.50009  20879684.780    85498843.72249
  22228424.220   116811159.72008  22228424.540    91021706.82547
  24048195.180   126374124.95806  24048194.300    98473365.67045
  21946658.040   115330474.93808  21946657.100    89867905.34248
  23019569.660   120968700.80607  23019568.940    94261338.94746
  21957305.480   115386461.20308  21957308.240    89911550.24648
  23986689.020   126050874.03206  23986690.420    98221452.38045
 15 03 05 00 09 30.0000000  0  7G16G18G19G21G22G27G31
  20870746.420   109676529.26409  20870746.140    85462241.21149
  22220803.760   116771113.80908  22220804.020    90990502.23547
  24033451.180   126296647.90305  24033450.820    98412994.02745
  21957573.600   115387836.80808  21957572.660    89912602.90948
  23002872.080   120880954.22308  23002871.140    94192965.03446
  21946909.540   115331829.76508  21946912.120    89868980.31948
  24005494.320   126149696.96006  24005495.640    98298457.21046
 15 03 05 00 10  0.0000000  0  7G16G18G19G21G22G27G31
  20861882.760   109629950.50909  20861882.540    85425946.08349
  22213260.400   116731473.32408  22213260.620    90959613.54847
  24018723.820   126219259.30006  24018724.180    98352691.23545
  21968533.360   115445431.36108  21968532.560    89957481.78448
  22986203.840   120793361.16908  22986202.500    94124710.76746
  21936538.440   115277328.75908  21936540.700    89826512.03048
  24024301.960   126248532.25106  24024303.200    98375471.64446
 15 03 05 00 10 30.0000000  0  7G16G18G19G21G22G27G31
  20853092.240   109583756.52109  20853092.120    85389950.77749
  22205792.560   116692229.23908  22205792.620    90929033.75447
  24004011.800   126141947.55406  24004012.360    98292448.36845
  21979534.840   115503245.08108  21979534.200    90002531.44348
  22969563.020   120705913.22707  22969561.580    94056569.53947
  21926189.960   115222947.00908  21926192.060    89784136.65848
  24043109.360   126347366.12606  24043110.600    98452484.93445
 15 03 05 00 11  0.0000000  0  7G16G18G19G21G22G27G31
  20844377.680   109537961.57309  20844377.620    85354266.41349
  22198402.640   116653394.78208  22198402.540    90898773.15047
  23989317.320   126064725.35407  23989317.540    98232275.30345
  21990579.820   115561287.43308  21990579.400    90047759.25548
  22952952.580   120618625.28808  22952951.240    93988553.01246
  21915866.460   115168696.86808  21915868.480    89741863.84448
  24061918.340   126446207.58906  24061919.640    98529504.19746
 15 03 05 00 11 30.0000000  0  7G16G18G19G21G22G27G31
  20835741.360   109492577.31809  20835741.260    85318902.06349
  22191092.840   116614981.69508  22191092.600    90868840.88047
  23974641.500   125987602.13306  23974641.260    98172179.34845
  22001670.080   115619567.47908  22001669.760    90093172.28248
  22936375.080   120531509.86408  22936373.760    93920670.90246
  21905569.840   115114588.32508  21905571.960    89699701.36348
  24080730.160   126545063.67406  24080731.620    98606534.82245
 15 03 05 00 12  0.0000000  0  7G16G18G19G21G22G27G31
  20827183.300   109447604.18309  20827183.200    85283858.07649
  22183863.240   116576989.80908  22183862.800    90839236.83046
  23959983.520   125910576.32506  23959983.360    98112159.30345
  22012804.920   115678081.69808  22012804.620    90138767.78048
  22919830.580   120444567.91207  22919829.320    93852923.96546
  21895299.840   115060619.88808  21895302.180    89657648.06348
  24099544.000   126643930.29006  24099545.640    98683573.67245
 15 03 05 00 12 30.0000000  0  7G16G18G19G21G22G27G31
  20818701.840   109403033.57909  20818701.640    85249127.73549
  22176712.240   116539410.86608  22176711.640    90809954.56146
  23945342.000   125833637.60506  23945342.020    98052207.11046
  22023982.060   115736818.08608  22023981.720    90184536.40548
  22903317.600   120357791.90008  22903316.600    93785306.33047
  21885054.520   115006781.31908  21885057.160    89615695.95648
  24118357.420   126742793.80607  24118359.020    98760610.07846
 15 03 05 00 13  0.0000000  0  7G16G18G19G21G22G27G31
  20810296.100   109358861.28809  20810295.800    85214707.77249
  22169638.800   116502239.93008  22169638.240    90780990.21247
  23930716.460   125756779.64307  23930716.440    97992317.86046
  22035199.820   115795767.55208  22035199.360    90230471.05848
  22886835.580   120271177.87208  22886834.700    93717814.93547
  21874832.760   114953066.27808  21874835.660    89573840.11448
  24137168.760   126841645.16407  24137169.880    98837637.03446
 15 03 05 00 13 30.0000000  0  7G16G18G19G21G22G27G31
  20801968.160   109315097.43109  20801967.800    85180606.07649
  22162644.960   116465487.10008  22162644.560    90752351.67647
  23916108.460   125680010.80007  23916107.920    97932498.05045
  22046459.500   115854937.07308  22046458.920    90276577.17848
  22870386.500   120184737.16008  22870385.700    93650458.58647
  21864636.220   114899483.32508  21864639.260    89532087.19648
  24155978.840   126940489.98207  24155979.520    98914658.88946
 15 03 05 00 14  0.0000000  0  7G16G18G19G21G22G27G31
  20793719.680   109271751.24509  20793719.340    85146829.83149
  22155732.340   116429161.18108  22155732.160    90724045.79447
  23901518.680   125603338.47706  23901517.680    97872753.46646
  22057762.060   115914331.92008  22057761.440    90322858.88548
  22853972.300   120098479.93908  22853971.560    93583245.22147
  21854466.380   114846040.00308  21854469.380    89490443.07848
  24174788.220   127039332.47207  24174788.760    98991678.91945
 15 03 05 00 14 30.0000000  0  7G16G18G19G21G22G27G31
  20785551.080   109228825.28809  20785550.800    85113381.03849
  22148901.340   116393264.39608  22148901.300    90696074.28947
  23886946.820   125526763.57406  23886945.760    97813084.77245
  22069107.260   115973951.17708  22069106.680    90369315.45248
  22837593.520   120012409.26508  22837592.820    93516177.20347
  21844323.280   114792737.12508  21844326.120    89448908.38648
  24193596.580   127138170.59807  24193597.260    99068695.55045
 15 03 05 00 15  0.0000000  0  7G16G18G19G21G22G27G31
  20777461.580   109186315.19409  20777461.300    85080256.29349
  22142151.160   116357792.13708  22142151.100    90668433.58847
  23872392.120   125450279.49107  23872391.000    97753486.85446
  22080493.540   116033786.56708  22080493.080    90415940.43548
  22821249.620   119926521.67308  22821248.820    93449251.84947
  21834205.680   114739568.62508  21834208.380    89407478.40748
  24212402.260   127236995.46607  24212403.220    99145701.83846
 15 03 05 00 15 30.0000000  0  7G16G18G19G21G22G27G31
  20769450.800   109144218.39709  20769450.420    85047453.60149
  22135481.200   116322741.50808  22135481.180    90641121.42247
  23857854.200   125373881.98307  23857853.060    97693956.36046
  22091919.880   116093832.28908  22091919.420    90462729.31748
  22804940.260   119840815.26808  22804939.240    93382467.69147
  21824112.720   114686530.20708  21824115.340    89366149.78948
  24231203.960   127335799.55207  24231205.180    99222691.94945
 15 03 05 00 16  0.0000000  0  7G16G18G19G21G22G27G31
  20761520.620   109102544.80709  20761520.220    85014980.67349
  22128893.260   116288122.17508  22128893.380    90614145.34147
  23843334.280   125297579.22507  23843333.120    97634499.68846
  22103387.340   116154094.09608  22103386.880    90509686.56748
  22788667.440   119755301.02708  22788666.160    93315833.24846
  21814046.060   114633630.08708  21814048.620    89324928.94648
  24250002.820   127434588.39407  24250004.180    99299670.14545
 15 03 05 00 16 30.0000000  0  7G16G18G19G21G22G27G31
  20753671.120   109061295.08609  20753670.720    84982838.03149
  22122387.300   116253933.80808  22122387.600    90587505.08347
  23828831.900   125221370.01006  23828831.060    97575115.90545
  22114895.380   116214569.07808  22114894.860    90556809.92848
  22772431.320   119669980.43408  22772429.920    93249349.70846
  21804005.620   114580867.14008  21804008.080    89283814.98448
  24268797.980   127533357.69507  24268799.280    99376633.11945
 15 03 05 00 17  0.0000000  0  7G16G18G19G21G22G27G31
  20745902.380   109020470.05509  20745901.940    84951026.32949
  22115963.580   116220177.52208  22115963.960    90561201.50747
  23814347.000   125145253.27206  23814346.480    97515804.20645
  22126443.340   116275253.98308  22126442.780    90604096.86748
  22756232.320   119584854.96808  22756230.820    93183018.22646
  21793991.200   114528240.57408  21793993.600    89242807.27648
  24287588.740   127632103.55307  24287589.840    99453577.84445
 15 03 05 00 17 30.0000000  0  7G16G18G19G21G22G27G31
  20738214.260   108980068.57509  20738213.720    84919544.66549
  22109621.760   116186851.32508  22109622.180    90535233.06647
  23799879.240   125069225.71306  23799878.700    97456561.99746
  22138030.360   116336143.83208  22138029.660    90651543.50948
  22740070.380   119499923.99708  22740068.940    93116838.29746
  21784002.220   114475747.42308  21784004.540    89201903.53648
  24306373.760   127730820.00607  24306374.740    99530499.63244
 15 03 05 00 18  0.0000000  0  7G16G18G19G21G22G27G31
  20730607.680   108940095.56209  20730607.100    84888396.85649
  22103362.680   116153959.82908  22103363.160    90509603.36847
  23785429.220   124993290.43006  23785428.800    97397391.71045
  22149656.720   116397240.71908  22149655.940    90699151.47048
  22723946.700   119415193.84908  22723945.380    93050814.83247
  21774039.180   114423391.16608  21774041.580    89161106.47548
  24325153.280   127829507.66206  24325154.280    99607398.99445
 15 03 05 00 18 30.0000000  0  7G16G18G19G21G22G27G31
  20723082.440   108900550.12209  20723081.980    84857582.23249
  22097186.220   116121502.27108  22097186.760    90484311.80947
  23770996.480   124917445.64806  23770995.940    97338291.91946
  22161321.580   116458540.09008  22161320.780    90746917.21248
  22707861.180   119330664.60408  22707860.060    92984947.91747
  21764101.660   114371169.51908  21764104.200    89120414.30348
  24343926.280   127928161.29406  24343927.500    99684271.83745
 15 03 05 00 19  0.0000000  0  7G16G18G19G21G22G27G31
  20715640.340   108861441.46509  20715639.920    84827107.94949
  22091094.060   116089487.40208  22091094.580    90459365.19347
  23756582.000   124841698.10106  23756581.720    97279267.89146
  22173025.900   116520046.74108  22173025.060    90794844.47548
  22691815.700   119246345.87808  22691814.720    92919245.05247
  21754191.120   114319089.69708  21754193.740    89079832.65748
  24362693.700   128026785.21206  24362695.280    99761121.50645
 15 03 05 00 19 30.0000000  0  7G16G18G19G21G22G27G31
  20708279.780   108822761.90509  20708279.360    84796968.04149
  22085084.520   116057906.78008  22085084.940    90434756.94747
  23742184.440   124766038.82806  23742184.080    97220312.66945
  22184767.540   116581749.84908  22184766.780    90842924.81848
  22675809.140   119162231.15108  22675808.140    92853701.14847
  21744305.940   114267142.64708  21744308.540    89039354.45948
  24381453.280   128125367.30406  24381455.160    99837938.55545
 15 03 05 00 20  0.0000000  0  7G16G18G19G21G22G27G31
  20701001.940   108784516.98109  20701001.560    84767166.80449
  22079158.660   116026766.04708  22079158.960    90410491.45547
  23727804.480   124690471.05007  23727803.640    97161428.73945
  22196546.800   116643650.73008  22196546.200    90891159.27148
  22659842.580   119078326.42708  22659841.540    92788320.87647
  21734446.820   114215332.09609  21734449.200    88998982.61548
  24400205.160   128223908.27106  24400207.120    99914723.58346
 15 03 05 00 20 30.0000000  0  7G16G18G19G21G22G27G31
  20693807.220   108746708.51709  20693806.840    84737705.67349
  22073316.760   115996066.47408  22073316.940    90386569.72847
  23713442.240   124614995.42107  23713441.120    97102616.60246
  22208363.620   116705748.70408  22208363.100    90939547.29848
  22643916.620   118994634.65908  22643915.440    92723106.55447
  21724613.680   114163658.56308  21724615.960    88958717.54648
  24418948.860   128322405.59206  24418950.780    99991474.60545
 15 03 05 00 21  0.0000000  0  7G16G18G19G21G22G27G31
  20686696.980   108709343.84609  20686696.600    84708590.33949
  22067560.040   115965814.78008  22067560.200    90362996.99447
  23699098.240   124539616.88807  23699097.240    97043880.09546
  22220218.500   116768046.75808  22220218.040    90988091.23948
  22628032.800   118911164.17508  22628031.420    92658064.66447
  21714807.560   114112127.49308  21714809.840    88918563.47248
  24437684.760   128420861.80306  24437686.520   100068193.57944
 15 03 05 00 21 30.0000000  0  7G16G18G19G21G22G27G31
  20679670.360   108672418.77209  20679669.940    84679817.55649
  22061887.600   115936006.18008  22061887.760    90339769.53347
  23684771.640   124464329.91507  23684771.040    96985214.94646
  22232109.940   116830537.08508  22232109.580    91036785.00148
  22612190.400   118827911.54808  22612188.940    92593192.53247
  21705027.540   114060733.40709  21705029.880    88878516.15148
  24456411.280   128519268.45906  24456412.740   100144873.94145
 15 03 05 00 22  0.0000000  0  7G16G18G19G21G22G27G31
  20672728.160   108635937.30909  20672727.700    84651390.44449
  22056300.180   115906644.49408  22056300.340    90316890.31047
  23670462.740   124389136.54607  23670462.400    96926622.73245
  22244038.040   116893219.85508  22244037.720    91085628.70547
  22596390.220   118744881.42008  22596388.880    92528493.76447
  21695274.120   114009478.67609  21695276.480    88838577.40948
  24475128.200   128617625.09006  24475129.500   100221515.29345
 15 03 05 00 22 30.0000000  0  7G16G18G19G21G22G27G31
  20665870.820   108599902.08109  20665870.500    84623311.05149
  22050798.240   115877731.76208  22050798.420    90294360.92347
  23656171.660   124314037.85906  23656171.460    96868104.33446
  22256002.780   116956095.03308  22256002.520    91134622.34447
  22580633.060   118662077.78208  22580631.940    92463971.47547
  21685547.460   113958364.43809  21685549.820    88798748.14848
  24493835.060   128715929.53006  24493836.400   100298115.98846
 15 03 05 00 23  0.0000000  0  7G16G18G19G21G22G27G31
  20659098.420   108564313.09709  20659098.220    84595579.36949
  22045381.780   115849268.09108  22045381.980    90272181.44947
  23641898.400   124239032.41207  23641898.140    96809658.56646
  22268003.480   117019158.92208  22268003.180    91183763.03247
  22564919.320   118579501.47908  22564918.300    92399626.33547
  21675847.200   113907389.28808  21675849.540    88759027.25448
  24512531.020   128814177.58406  24512532.640   100374672.74545
 15 03 05 00 23 30.0000000  0  7G16G18G19G21G22G27G31
  20652411.220   108529171.35509  20652411.000    84568196.20249
  22040050.720   115821253.11808  22040050.960    90250351.61547
  23627642.880   124164119.33507  23627642.360    96751284.78346
  22280039.520   117082408.38408  22280039.120    91233048.32648
  22549249.160   118497154.07208  22549248.140    92335459.55947
  21666173.220   113856552.59808  21666175.600    88719414.25548
  24531215.520   128912365.84606  24531217.500   100451182.90344
 15 03 05 00 24  0.0000000  0  7G16G18G19G21G22G27G31
  20645809.060   108494476.43409  20645808.700    84541161.20149
  22034805.000   115793686.60508  22034805.260    90228871.23847
  23613404.800   124089296.35807  23613403.980    96692981.21046
  22292110.140   117145839.60808  22292109.660    91282475.24747
  22533622.760   118415036.55208  22533621.640    92271471.91447
  21656525.160   113805852.52808  21656527.640    88679907.71748
  24549887.800   129010489.16906  24549890.040   100527642.44544
 15 03 05 00 24 30.0000000  0  7G16G18G19G21G22G27G31
  20639293.120   108460234.94909  20639292.740    84514479.52049
  22029645.700   115766574.58708  22029645.980    90207745.01847
  23599185.000   124014568.50607  23599183.720    96634751.73946
  22304215.940   117209455.85808  22304215.440    91332046.35447
  22518041.540   118333156.17008  22518040.340    92207669.05047
  21646904.100   113755294.29208  21646906.680    88640511.70548
  24568548.260   129108549.94106  24568550.640   100604053.25244
 15 03 05 00 25  0.0000000  0  7G16G18G19G21G22G27G31
  20632863.760   108426448.76009  20632863.560    84488152.62149
  22024573.160   115739918.26208  22024573.360    90186973.86847
  23584983.140   123939935.98007  23584981.440    96576596.58246
  22316356.640   117273255.41808  22316356.140    91381760.29048
  22502505.880   118251515.52608  22502504.740    92144052.98047
  21637310.200   113704878.17508  21637312.820    88601226.43648
  24587196.180   129206545.15205  24587198.780   100680412.95545
 15 03 05 00 25 30.0000000  0  7G16G18G19G21G22G27G31
  20626521.840   108393121.67709  20626521.660    84462183.47049
  22019588.040   115713721.12008  22019588.180    90166560.52947
  23570799.460   123865401.08707  23570797.680    96518517.46746
  22328532.340   117337238.98008  22328531.840    91431617.60347
  22487016.720   118170119.74308  22487015.600    92080627.72147
  21627743.900   113654606.73709  21627746.540    88562053.89348
  24605831.640   129304474.85805  24605834.480   100756721.62544
 15 03 05 00 26  0.0000000  0  7G16G18G19G21G22G27G31
  20620266.780   108360251.29609  20620266.600    84436570.18849
  22014689.680   115687980.12408  22014689.840    90146502.62947
  23556633.440   123790959.95707  23556631.840    96460511.43746
  22340741.840   117401399.97308  22340741.240    91481613.18247
  22471573.840   118088967.42908  22471572.760    92017392.18647
  21618204.420   113604476.00609  21618207.000    88522990.98348
  24624453.280   129402332.01105  24624456.320   100832973.73345
 15 03 05 00 26 30.0000000  0  7G16G18G19G21G22G27G31
  20614099.440   108327841.76409  20614099.200    84411316.00549
  22009878.880   115662699.50708  22009879.120    90126803.46347
  23542485.700   123716615.51206  23542484.860    96402580.74346
  22352985.280   117465739.77108  22352984.620    91531748.08747
  22456178.340   118008063.75108  22456177.260    91954350.38247
  21608692.280   113554488.97609  21608694.740    88484040.05548
  24643061.200   129500116.65206  24643064.320   100909169.34445
 15 03 05 00 27  0.0000000  0  7G16G18G19G21G22G27G31
  20608019.620   108295891.87609  20608019.340    84386419.99049
  22005155.240   115637877.27408  22005155.600    90107461.48747
  23528355.860   123642364.70907  23528355.920    96344723.02447
  22365261.800   117530253.81008  22365261.160    91582018.76947
  22440830.060   117927408.17108  22440828.900    91891501.91747
  21599206.960   113504643.13109  21599209.300    88445199.15148
  24661654.300   129597823.13005  24661657.240   100985304.06945
 15 03 05 00 27 30.0000000  0  7G16G18G19G21G22G27G31
  20602027.260   108264401.53009  20602026.900    84361882.05549
  22000518.660   115613512.24108  22000519.000    90088475.77047
  23514243.780   123568205.39407  23514244.520    96286936.57546
  22377570.720   117594938.25508  22377570.140    91632422.21647
  22425529.300   117847001.81908  22425528.000    91828847.64547
  21589748.140   113454936.85908  21589750.400    88406467.00148
  24680231.600   129695446.82705  24680234.560   101061374.22945
 15 03 05 00 28  0.0000000  0  7G16G18G19G21G22G27G31
  20596122.860   108233373.74909  20596122.440    84337704.55549
  21995969.780   115589607.57408  21995969.940    90069848.76947
  23500149.720   123494139.19007  23500150.520    96229222.70546
  22389912.040   117659792.68408  22389911.500    91682958.12947
  22410276.740   117766848.56308  22410275.280    91766390.58947
  21580316.120   113405371.62508  21580318.400    88367844.75948
  24698792.880   129792986.60505  24698795.760   101137378.96643
 15 03 05 00 28 30.0000000  0  6G16G18G19G21G22G27
  20590305.040   108202800.97409  20590304.600    84313881.61849
  21991506.960   115566155.19608  21991507.020    90051574.20447
  23486071.760   123420157.16907  23486071.920    96171574.42046
  22402283.700   117724806.36108  22402283.260    91733618.12947
  22395071.000   117686941.95208  22395069.440    91704125.72247
  21570909.320   113355938.92508  21570911.720    88329325.78348
 15 03 05 00 29  0.0000000  0  6G16G18G19G21G22G27
  20584579.340   108172711.97909  20584578.880    84290435.65149
  21987135.500   115543183.22108  21987135.580    90033673.97847
  23472014.680   123346286.40007  23472014.080    96114012.83346
  22414690.580   117790004.84308  22414690.220    91784422.13947
  22379917.820   117607311.75908  22379916.240    91642076.24547
  21561532.980   113306666.21208  21561535.500    88290931.46148
 15 03 05 00 29 30.0000000  0  6G16G18G19G21G22G27
  20578943.000   108143092.38709  20578942.500    84267355.44349
  21982852.600   115520676.41408  21982852.660    90016136.21247
  23457975.600   123272511.28806  23457974.340    96056525.76746
  22427129.260   117855370.04608  22427129.000    91835356.05247
  22364814.620   117527944.09908  22364812.980    91580231.34647
  21552184.140   113257537.61309  21552186.680    88252649.44248
 15 03 05 00 30  0.0000000  0  6G16G18G19G21G22G27
  20573395.980   108113942.32909  20573395.460    84244641.11349
  21978658.200   115498634.59108  21978658.260    89998960.79047
  23443954.360   123198830.35607  23443952.940    95999112.12046
  22439599.080   117920899.02908  22439598.900    91886417.59047
  22349761.580   117448840.34408  22349760.000    91518592.08347
  21542862.520   113208552.18009  21542865.080    88214478.98148
 15 03 05 00 30 30.0000000  0  6G16G18G19G21G22G27
  20567938.720   108085264.06309  20567938.180    84222294.41049
  21974552.600   115477059.64108  21974552.720    89982149.16747
  23429951.220   123125244.38907  23429950.020    95941772.43046
  22452099.780   117986590.55408  22452099.660    91937605.78347
  22334759.460   117370003.98408  22334757.940    91457161.16647
  21533568.340   113159710.88209  21533570.920    88176420.83448
 15 03 05 00 31  0.0000000  0  6G16G18G19G21G22G27
  20562571.900   108057061.16609  20562571.380    84200318.12249
  21970536.380   115455954.23108  21970536.500    89965703.42047
  23415966.440   123051755.48006  23415965.820    95884508.37346
  22464631.400   118052444.56208  22464631.260    91988920.58447
  22319809.220   117291440.03508  22319807.760    91395942.53547
  21524302.000   113111015.99209  21524304.540    88138476.77448
 15 03 05 00 31 30.0000000  0  6G16G18G19G21G22G27
  20557295.240   108029332.31909  20557294.780    84178711.22749
  21966609.300   115435317.05708  21966609.380    89949622.52447
  23401999.800   122978361.02907  23401999.760    95827317.92846
  22477193.180   118118457.23508  22477192.960    92040359.02447
  22304910.720   117213147.92508  22304909.320    91334935.72547
  21515063.040   113062465.01809  21515065.580    88100644.86048
 15 03 05 00 32  0.0000000  0  6G16G18G19G21G22G27
  20552108.840   108002077.79809  20552108.380    84157473.92949
  21962771.200   115415147.22208  21962771.120    89933905.78147
  23388051.180   122905059.53807  23388051.140    95770199.91347
  22489784.520   118184625.24108  22489784.200    92091918.50647
  22290064.140   117135128.65008  22290062.780    91274141.52147
  21505851.320   113014057.06409  21505853.860    88062924.37548
 15 03 05 00 32 30.0000000  0  6G16G18G19G21G22G27
  20547014.240   107975305.29409  20547013.720    84136612.23849
  21959023.360   115395451.82208  21959023.100    89918558.72747
  23374121.480   122831857.14407  23374121.140    95713159.12146
  22502406.220   118250953.06708  22502405.800    92143602.52247
  22275271.100   117057390.70808  22275269.760    91213566.52847
  21496668.100   112965798.67309  21496670.620    88025320.43648
 15 03 05 00 33  0.0000000  0  6G16G18G19G21G22G27
  20542011.200   107949014.12309  20542010.700    84116125.61149
  21955365.620   115376230.26108  21955365.280    89903580.90347
  23360210.180   122758752.02207  23360209.300    95656194.13946
  22515057.600   118317436.63008  22515056.980    92195407.88847
  22260531.860   116979935.16908  22260530.480    91153211.58947
  21487512.960   112917688.04809  21487515.500    87987831.64448
 15 03 05 00 33 30.0000000  0  6G16G18G19G21G22G27
  20537099.420   107923202.68509  20537098.960    84096012.80049
  21951797.400   115357479.67208  21951797.140    89888970.07947
  23346316.920   122685741.45007  23346315.260    95599302.81646
  22527737.720   118384071.13708  22527737.000    92247330.87647
  22245846.320   116902761.58608  22245844.900    91093076.35047
  21478385.420   112869722.39109  21478387.920    87950455.82248
 15 03 05 00 34  0.0000000  0  6G16G18G19G21G22G27
  20532280.540   107897879.29409  20532280.100    84076280.28449
  21948320.460   115339208.51009  21948320.380    89874732.83747
  23332442.820   122612832.06007  23332440.700    95542490.35446
  22540447.520   118450861.56608  22540446.760    92299375.35747
  22231216.040   116825878.85408  22231214.660    91033167.74448
  21469286.840   112821908.89609  21469289.260    87913198.56148
 15 03 05 00 34 30.0000000  0  6G16G18G19G21G22G27
  20527554.020   107873041.30009  20527553.580    84056926.00149
  21944934.140   115321412.99708  21944934.100    89860866.21847
  23318586.960   122540020.16007  23318585.060    95485753.83546
  22553186.020   118517802.63308  22553185.260    92351537.22447
  22216640.820   116749285.50608  22216639.480    90973484.63047
  21460216.500   112774243.90609  21460218.840    87876057.01348
 15 03 05 00 35  0.0000000  0  6G16G18G19G21G22G27
  20522919.940   107848689.27709  20522919.540    84037950.39449
  21941638.300   115304093.30908  21941638.200    89847370.36947
  23304749.560   122467304.80207  23304748.020    95429092.53346
  22565952.660   118584891.65008  22565951.940    92403814.38047
  22202120.940   116672983.12408  22202119.620    90914028.25147
  21451174.340   112726726.90909  21451176.600    87839030.79748
 15 03 05 00 35 30.0000000  0  6G16G18G19G21G22G27
  20518378.800   107824825.74609  20518378.500    84019355.43549
  21938433.320   115287251.38808  21938433.220    89834246.80347
  23290930.760   122394687.11407  23290929.700    95372507.35146
  22578747.300   118652127.80808  22578746.640    92456206.19047
  22187657.060   116596975.54208  22187655.800    90854801.58647
  21442160.600   112679359.35109  21442162.820    87802121.02048
 15 03 05 00 36  0.0000000  0  6G16G18G19G21G22G27
  20513931.320   107801454.28009  20513931.080    84001143.89549
  21935319.760   115270890.04808  21935319.780    89821497.72747
  23277130.880   122322169.55407  23277130.380    95316000.18546
  22591570.040   118719511.63608  22591569.440    92508713.05647
  22173250.200   116521267.37008  22173248.920    90795808.22647
  21433175.800   112632143.79309  21433177.920    87765329.69348
 15 03 05 00 36 30.0000000  0  6G16G18G19G21G22G27
  20509576.960   107778572.15809  20509576.740    83983313.66249
  21932297.020   115255006.32008  21932297.300    89809120.81647
  23263349.460   122249748.54907  23263349.220    95259568.26646
  22604419.760   118787037.18608  22604419.220    92561330.35847
  22158900.100   116445857.35908  22158898.820    90737047.19747
  21424219.220   112585076.70209  21424221.300    87728654.04248
 15 03 05 00 37  0.0000000  0  6G16G18G19G21G22G27
  20505316.260   107756181.97609  20505316.080    83965866.76749
  21929365.580   115239601.95808  21929365.960    89797117.43247
  23249586.720   122177424.78007  23249586.420    95203212.11246
  22617296.420   118854704.13408  22617295.900    92614057.84947
  22144607.320   116370748.84808  22144606.080    90678521.10347
  21415291.140   112538159.57509  21415293.260    87692095.24548
 15 03 05 00 37 30.0000000  0  6G16G18G19G21G22G27
  20501149.660   107734285.82509  20501149.480    83948804.82949
  21926525.740   115224678.44908  21926526.100    89785488.73147
  23235842.760   122105198.96907  23235842.220    95146932.27947
  22630199.860   118922511.91908  22630199.360    92666895.07047
  22130372.620   116295945.18108  22130371.420    90620232.55448
  21406391.800   112491393.34309  21406393.940    87655654.03248
 15 03 05 00 38  0.0000000  0  6G16G18G19G21G22G27
  20497077.200   107712884.43809  20497076.920    83932128.41749
  21923777.340   115210235.12608  21923777.540    89774234.20447
  23222117.500   122033070.79507  23222116.600    95090728.54046
  22643129.380   118990457.15208  22643128.960    92719839.39647
  22116196.260   116221448.15008  22116195.120    90562182.93647
  21397521.180   112444777.65009  21397523.320    87619330.12348
 15 03 05 00 38 30.0000000  0  6G16G18G19G21G22G27
  20493099.580   107691981.89609  20493099.280    83915840.72449
  21921121.160   115196276.54508  21921121.240    89763357.40147
  23208411.360   121961043.25907  23208410.140    95034603.20346
  22656085.380   119058541.83608  22656085.080    92772892.39047
  22102079.300   116147263.00708  22102078.120    90504376.34348
  21388679.860   112398315.92609  21388681.980    87583126.19548
 15 03 05 00 39  0.0000000  0  6G16G18G19G21G22G27
  20489217.320   107671580.52209  20489217.040    83899943.54749
  21918557.460   115182803.99508  21918557.480    89752859.32447
  23194724.340   121889117.40407  23194723.060    94978557.09746
  22669067.720   119126764.82408  22669067.500    92826053.16047
  22088022.300   116073393.02808  22088021.080    90446815.33547
  21379868.020   112352009.50509  21379870.120    87547043.27848
 15 03 05 00 39 30.0000000  0  6G16G18G19G21G22G27
  20485430.500   107651680.53809  20485430.240    83884437.05849
  21916086.280   115169817.25509  21916086.200    89742739.79647
  23181056.220   121817292.57307  23181055.300    94922589.73746
  22682075.940   119195123.64208  22682075.760    92879319.76547
  22074025.540   115999839.82608  22074024.260    90389501.17447
  21371085.620   112305857.97609  21371087.680    87511081.04948
 15 03 05 00 40  0.0000000  0  6G16G18G19G21G22G27
  20481738.860   107632280.88909  20481738.660    83869320.44249
  21913707.120   115157314.30408  21913707.040    89732997.24547
  23167406.880   121745566.62807  23167406.320    94866699.41746
  22695109.340   119263614.66908  22695109.100    92932689.39247
  22060089.180   115926603.57608  22060087.740    90332433.98448
  21362332.360   112259859.35209  21362334.340    87475237.97248
 15 03 05 00 40 30.0000000  0  6G16G18G19G21G22G27
  20478142.560   107613382.18109  20478142.360    83854594.17349
  21911419.980   115145295.31808  21911419.940    89723631.82447
  23153776.380   121673938.79907  23153776.080    94810885.53146
  22708167.400   119332235.25808  22708167.060    92986159.97147
  22046213.400   115853686.04408  22046211.900    90275615.15748
  21353608.020   112214013.14309  21353610.080    87439513.66648
 15 03 05 00 41  0.0000000  0  6G16G18G19G21G22G27
  20474641.580   107594984.48309  20474641.360    83840258.29849
  21909224.800   115133759.62209  21909224.760    89714642.97847
  23140164.700   121602408.25007  23140164.380    94755147.47946
  22721249.600   119400982.39908  22721249.100    93039729.16847
  22032398.460   115781088.39908  22032396.980    90219045.59248
  21344912.580   112168318.77109  21344914.740    87403907.66548
 15 03 05 00 41 30.0000000  0  6G16G18G19G21G22G27
  20471236.560   107577091.19009  20471236.380    83826315.46649
  21907122.100   115122710.01409  21907122.060    89706032.90647
  23126572.140   121530977.33307  23126571.580    94699487.02946
  22734356.040   119469856.86008  22734355.380    93093397.56847
  22018645.280   115708815.55408  22018643.800    90162729.10648
  21336246.640   112122779.03009  21336248.820    87368422.15948
 15 03 05 00 42  0.0000000  0  6G16G18G19G21G22G27
  20467928.780   107559708.89909  20467928.640    83812770.80949
  21905112.980   115112152.29309  21905112.920    89697806.12547
  23112999.340   121459650.91807  23112998.580    94643908.04346
  22747487.300   119538861.63708  22747486.560    93147167.50247
  22004955.220   115636874.64408  22004953.820    90106671.28148
  21327611.180   112077399.25509  21327613.380    87333061.30648
 15 03 05 00 42 30.0000000  0  6G16G18G19G21G22G27
  20464718.200   107542837.06109  20464718.040    83799623.91449
  21903197.260   115102085.45009  21903197.140    89689961.83647
  23099446.000   121388427.71407  23099445.020    94588409.46346
  22760642.840   119607993.93808  22760642.040    93201036.81147
  21991328.580   115565266.77208  21991327.200    90050872.96248
  21319005.920   112032178.34609  21319008.200    87297824.23749
 15 03 05 00 43  0.0000000  0  6G16G18G19G21G22G27
  20461604.380   107526473.68709  20461604.200    83786873.22749
  21901374.540   115092506.92109  21901374.260    89682498.06147
  23085911.600   121317304.68007  23085910.480    94532988.94747
  22773821.720   119677249.23908  22773820.920    93255001.96247
  21977765.280   115493991.19408  21977763.820    89995333.55648
  21310430.400   111987113.68909  21310432.760    87262708.92749
 15 03 05 00 43 30.0000000  0  6G16G18G19G21G22G27
  20458587.760   107510620.90809  20458587.500    83774520.41549
  21899645.060   115083418.10009  21899644.660    89675415.87247
  23072396.500   121246283.43007  23072395.320    94477647.75546
  22787023.700   119746626.71108  22787023.080    93309062.31147
  21964265.940   115423051.37908  21964264.420    89940055.80148
  21301884.940   111942206.91809  21301887.360    87227716.63749
 15 03 05 00 44  0.0000000  0  6G16G18G19G21G22G27
  20455668.540   107495279.92509  20455668.180    83762566.39049
  21898008.820   115074819.30709  21898008.360    89668715.51747
  23058900.880   121175364.09907  23058899.560    94422385.96946
  22800248.600   119816124.49708  22800248.100    93363216.41847
  21950830.900   115352449.41008  21950829.360    89885041.29247
  21293369.560   111897458.19109  21293371.960    87192847.51049
 15 03 05 00 44 30.0000000  0  6G16G18G19G21G22G27
  20452846.760   107480451.20609  20452846.360    83751011.54349
  21896465.800   115066710.70808  21896465.320    89662397.14347
  23045424.420   121104545.96407  23045423.280    94367203.02346
  22813496.000   119885740.56908  22813495.600    93417462.69647
  21937460.660   115282187.48408  21937458.980    89830291.75547
  21284884.280   111852867.58109  21284886.600    87158101.58849
 15 03 05 00 45  0.0000000  0  6G16G18G19G21G22G27
  20450122.660   107466135.88509  20450122.240    83739856.74049
  21895016.040   115059092.49908  21895015.620    89656460.87447
  23031967.380   121033829.10407  23031966.460    94312098.97846
  22826765.580   119955473.26008  22826765.300    93471799.84847
  21924155.380   115212267.17408  21924153.660    89775808.41547
  21276429.080   111808435.25009  21276431.320    87123478.99449
 15 03 05 00 45 30.0000000  0  6G16G18G19G21G22G27
  20447496.420   107452334.92209  20447496.000    83729102.73649
  21893659.700   115051965.23408  21893659.380    89650907.17147
  23018529.820   120963213.71307  23018528.860    94257074.01146
  22840057.140   120025320.92708  22840056.880    93526226.58947
  21910915.620   115142691.48508  21910913.860    89721593.61747
  21268004.120   111764161.82009  21268006.240    87088980.22249
 15 03 05 00 46  0.0000000  0  6G16G18G19G21G22G27
  20444968.440   107439050.56509  20444968.100    83718751.28549
  21892397.040   115045330.10008  21892396.840    89645736.95147
  23005111.840   120892701.01408  23005110.780    94202129.08346
  22853370.560   120095283.00108  22853370.260    93580742.47247
  21897742.000   115073463.49508  21897740.180    89667649.75548
  21259609.760   111720048.86109  21259611.720    87054606.50048
 15 03 05 00 46 30.0000000  0  6G16G18G19G21G22G27
  20442539.320   107426285.88409  20442539.060    83708804.76849
  21891228.400   115039189.23408  21891228.380    89640951.87147
  22991713.700   120822292.85607  22991712.760    94147265.59847
  22866705.860   120165359.74008  22866705.380    93635347.70546
  21884635.320   115004587.67808  21884633.460    89613980.30747
  21251246.360   111676098.68209  21251248.220    87020359.62249
 15 03 05 00 47  0.0000000  0  6G16G18G19G21G22G27
  20440209.320   107414041.52809  20440209.060    83699263.70349
  21890153.920   115033543.13108  21890154.000    89636552.32547
  22978335.440   120751989.45708  22978334.700    94092483.74947
  22880062.580   120235548.84408  22880061.900    93690040.50746
  21871595.960   114936065.74208  21871594.100    89560586.61048
  21242913.960   111632311.56909  21242915.860    86986239.80249
 15 03 05 00 47 30.0000000  0  6G16G18G19G21G22G27
  20437978.360   107402317.63909  20437978.120    83690128.19949
  21889173.480   115028391.30508  21889173.620    89632537.92547
  22964976.980   120681790.40208  22964976.380    94037783.21947
  22893440.380   120305849.42108  22893439.620    93744820.15546
  21858624.260   114867899.72608  21858622.480    89507470.25147
  21234612.500   111588687.31809  21234614.540    86952246.88149
 15 03 05 00 48  0.0000000  0  6G16G18G19G21G22G27
  20435846.180   107391112.93909  20435845.940    83681397.26049
  21888286.720   115023731.80708  21888286.920    89628907.15047
  22951637.960   120611693.57908  22951637.300    93983162.34347
  22906838.540   120376256.86208  22906837.660    93799683.09046
  21845720.360   114800089.62608  21845718.700    89454631.23448
  21226341.640   111545224.16009  21226343.880    86918379.48749
 15 03 05 00 48 30.0000000  0  6G16G18G19G21G22G27
  20433813.480   107380430.82009  20433813.180    83673073.52549
  21887494.140   115019566.95008  21887494.360    89625661.81847
  22938318.840   120541701.19907  22938318.080    93928622.86347
  22920256.980   120446770.97708  22920256.040    93854629.14547
  21832885.040   114732639.63508  21832883.460    89402072.82448
  21218101.960   111501924.85609  21218104.360    86884639.78449
 15 03 05 00 49  0.0000000  0  6G16G18G19G21G22G27
  20431880.280   107370271.76209  20431880.020    83665157.36849
  21886795.740   115015896.68009  21886795.980    89622801.87947
  22925019.660   120471813.27907  22925018.660    93874164.76047
  22933695.420   120517390.48308  22933694.540    93909657.31747
  21820118.660   114665551.65308  21820117.100    89349796.49348
  21209893.540   111458789.38109  21209895.980    86851027.74049
 15 03 05 00 49 30.0000000  0  6G16G18G19G21G22G27
  20430046.760   107360636.97809  20430046.580    83657649.73349
  21886191.620   115012721.63808  21886191.840    89620327.82647
  22911740.360   120402029.90507  22911739.060    93819788.11946
  22947153.620   120588114.27408  22947152.960    93964766.75246
  21807421.700   114598828.37008  21807420.120    89297804.34948
  21201716.560   111415818.60109  21201718.900    86817544.02449
 15 03 05 00 50  0.0000000  0  6G16G18G19G21G22G27
  20428313.780   107351530.35409  20428313.620    83650553.65449
  21885682.340   115010044.80709  21885682.420    89618241.98347
  22898481.480   120332354.21008  22898479.980    93765495.38847
  22960631.840   120658943.37108  22960631.360    94019958.24047
  21794795.100   114532474.74308  21794793.400    89246100.23648
  21193571.540   111373015.81509  21193573.800    86784191.21349
 15 03 05 00 50 30.0000000  0  6G16G18G19G21G22G27
  20426681.100   107342950.29709  20426680.920    83643867.89449
  21885267.500   115007864.28809  21885267.360    89616542.88047
  22885242.660   120262784.35308  22885241.100    93711285.13346
  22974129.420   120729874.25308  22974129.080    94075229.05146
  21782238.900   114466490.88809  21782237.000    89194684.25848
  21185458.140   111330379.40209  21185460.300    86750968.04549
 15 03 05 00 51  0.0000000  0  6G16G18G19G21G22G27
  20425148.760   107334897.55109  20425148.580    83637593.01949
  21884946.840   115006179.12109  21884946.620    89615229.76147
  22872023.980   120193320.46707  22872022.520    93657157.42947
  22987645.960   120800904.83808  22987645.800    94130577.53947
  21769753.280   114400878.19709  21769751.280    89143557.49448
  21177376.360   111287909.43009  21177378.420    86717874.57849
 15 03 05 00 51 30.0000000  0  6G16G18G19G21G22G27
  20423717.020   107327373.61209  20423716.880    83631730.20349
  21884720.760   115004991.07309  21884720.560    89614304.01548
  22858825.540   120123962.44908  22858824.300    93603112.23047
  23001181.280   120872033.88708  23001181.240    94186002.75146
  21757338.880   114335640.16408  21757336.920    89092722.67948
  21169326.440   111245607.01709  21169328.380    86684911.67849
 15 03 05 00 52  0.0000000  0  7G04G16G18G19G21G22G27
  24595174.640   129248519.59006  24595177.440   100713136.62444
  20422385.940   107320378.86109  20422385.780    83626279.74149
  21884589.160   115004299.61309  21884589.080    89613765.23247
  22845647.540   120054711.30008  22845646.500    93549150.31547
  23014735.200   120943259.88608  23014735.120    94241503.51846
  21744996.020   114270778.50608  21744994.200    89042181.15248
  21161308.520   111203472.57609  21161310.360    86652079.65849
 15 03 05 00 52 30.0000000  0  7G04G16G18G19G21G22G27
  24575844.700   129146941.56505  24575847.660   100633985.06944
  20421159.260   107313932.66909  20421159.060    83621256.72649
  21884555.580   115004123.40708  21884555.580    89613627.94447
  22832493.360   119985584.98208  22832492.460    93495285.67547
  23028310.860   121014599.62008  23028310.640    94297092.91147
  21732728.760   114206314.01908  21732727.060    88991949.11948
  21153326.160   111161525.05509  21153328.020    86619393.28649
 15 03 05 00 53  0.0000000  0  7G04G16G18G19G21G22G27
  24556537.620   129045484.54406  24556541.500   100554927.78244
  20420029.740   107307997.08009  20420029.600    83616631.58649
  21884612.760   115004423.93908  21884612.680    89613862.13447
  22819355.640   119916545.44008  22819354.840    93441488.64647
  23041900.400   121086012.48108  23041900.120    94352739.28146
  21720530.040   114142209.70508  21720528.360    88941997.72448
  21145372.060   111119726.30309  21145374.080    86586822.83649
 15 03 05 00 53 30.0000000  0  7G04G16G18G19G21G22G27
  24537258.560   128944171.99606  24537262.560   100475983.08243
  20419001.800   107302595.15609  20419001.660    83612422.28449
  21884764.820   115005222.96008  21884764.680    89614484.74947
  22806238.460   119847614.68007  22806237.740    93387776.39847
  23055507.940   121157520.06108  23055507.640    94408459.46746
  21708404.620   114078490.56308  21708402.920    88892346.45748
  21137450.600   111078099.01709  21137452.840    86554385.98449
 15 03 05 00 54  0.0000000  0  7G04G16G18G19G21G22G27
  24518007.320   128843004.89806  24518011.360   100397151.69244
  20418075.500   107297727.36109  20418075.340    83608629.18949
  21885011.720   115006520.64608  21885011.640    89615495.94147
  22793141.900   119778793.10307  22793141.340    93334149.21947
  23069133.100   121229120.46308  23069132.860    94464251.97446
  21696352.800   114015158.25708  21696351.060    88842996.61748
  21129561.880   111036643.68009  21129564.260    86522083.12749
 15 03 05 00 54 30.0000000  0  7G04G16G18G19G21G22G27
  24498783.940   128741984.30406  24498787.680   100318434.50144
  20417251.040   107293394.50009  20417250.760    83605252.92449
  21885353.520   115008317.13808  21885353.520    89616895.81947
  22780066.120   119710080.53208  22780065.640    93280606.98247
  23082775.440   121300811.66707  23082775.320    94520115.24147
  21684374.860   113952214.49408  21684373.240    88793949.54648
  21121705.980   110995360.67809  21121708.380    86489914.55949
 15 03 05 00 55  0.0000000  0  7G04G16G18G19G21G22G27
  24479588.260   128641110.61905  24479591.740   100239831.75343
  20416528.320   107289596.71509  20416528.060    83602293.60149
  21885790.120   115010611.76209  21885790.100    89618683.84547
  22767011.220   119641476.68008  22767010.660    93227149.46047
  23096434.620   121372591.75407  23096434.640    94576047.75746
  21672471.320   113889661.35208  21672469.720    88745206.86148
  21113882.860   110954250.04409  21113885.200    86457880.30949
 15 03 05 00 55 30.0000000  0  7G04G16G18G19G21G22G27
  24460420.460   128540385.89305  24460424.260   100161345.09744
  20415907.780   107286335.65009  20415907.500    83599752.50349
  21886321.840   115013405.82509  21886321.700    89620861.03447
  22753977.580   119572983.08108  22753976.740    93173777.84547
  23110110.600   121444460.35507  23110110.760    94632049.24746
  21660642.780   113827501.97108  21660641.120    88696771.00448
  21106092.920   110913313.54609  21106095.180    86425981.75049
 15 03 05 00 56  0.0000000  0  7G04G16G18G19G21G22G27
  24441281.040   128439810.25805  24441285.220   100082974.56241
  20415389.300   107283610.85709  20415389.020    83597629.28349
  21886948.280   115016697.57708  21886947.980    89623426.04047
  22740964.860   119504599.06308  22740963.580    93120491.61347
  23123802.880   121516414.72107  23123803.240    94688117.57046
  21648889.300   113765736.90108  21648887.560    88648642.39948
  21098335.940   110872550.46009  21098338.200    86394218.31849
 15 03 05 00 56 30.0000000  0  7G04G16G18G19G21G22G27
  24422170.100   128339382.83105  24422174.160   100004719.56744
  20414972.680   107281421.36509  20414972.420    83595923.17749
  21887669.040   115020485.42708  21887668.740    89626377.61847
  22727972.520   119436322.65208  22727970.740    93067289.23347
  23137510.980   121588451.67407  23137511.460    94744250.24547
  21637211.000   113704366.77908  21637209.180    88600821.54148
  21090611.740   110831959.56709  21090614.020    86362589.04949
 15 03 05 00 57  0.0000000  0  7G04G16G18G19G21G22G27
  24403088.220   128239107.43405  24403092.080    99926583.03245
  20414658.540   107279770.70809  20414658.380    83594636.93749
  21888484.700   115024772.54308  21888484.540    89629718.23847
  22715001.080   119368157.29808  22714998.960    93014173.39047
  23151235.160   121660572.85307  23151235.800    94800448.54746
  21625608.860   113643396.88209  21625607.020    88553312.54948
  21082921.020   110791544.55609  21082923.320    86331096.83249
 15 03 05 00 57 30.0000000  0  7G04G16G18G19G21G22G27
  24384035.340   128138984.03405  24384039.040    99848564.85845
  20414446.760   107278657.87509  20414446.680    83593769.79349
  21889395.140   115029557.06408  21889394.980    89633446.43647
  22702050.300   119300101.62008  22702048.100    92961143.01847
  23164974.880   121732775.01708  23164975.520    94856709.94946
  21614082.900   113582827.26709  21614081.060    88506115.45448
