     2.11           OBSERVATION DATA    G                   RINEX VERSION / TYPE
SPIDER V4,0,0,3554                      2015 03 13 03:37    PGM / RUN BY / DATE 
EMHD                                                        MARKER NAME         
EMHD                                                        MARKER NUMBER       
                                                            OBSERVER / AGENCY   
462397              LEICA GRX1200PRO    8.20/2.127          REC # / TYPE / VERS 
103297              LEIAT504                                ANT # / TYPE        
  5146535.6892   265261.6083  3747697.6292                  APPROX POSITION XYZ 
        0.0470        0.0000        0.0000                  ANTENNA: DELTA H/E/N
     1     1                                                WAVELENGTH FACT L1/2
     4    C1    L1    P2    L2                              # / TYPES OF OBSERV 
    30.000                                                  INTERVAL            
  2015    03    05    00    00    0.0000000     GPS         TIME OF FIRST OBS   
  2015    03    05    23    59   30.0000000     GPS         TIME OF LAST OBS    
    16                                                      LEAP SECONDS        
    30                                                      # OF SATELLITES     
   G 1   691   691   691   691                              PRN / # OF OBS      
   G 2   744   744   743   743                              PRN / # OF OBS      
   G 3   711   711   711   711                              PRN / # OF OBS      
   G 4   731   731   731   731                              PRN / # OF OBS      
   G 5   592   592   592   592                              PRN / # OF OBS      
   G 6   516   516   516   516                              PRN / # OF OBS      
   G 7   574   574   574   574                              PRN / # OF OBS      
   G 9   674   674   674   674                              PRN / # OF OBS      
   G10   652   652   652   652                              PRN / # OF OBS      
   G11   682   682   682   682                              PRN / # OF OBS      
   G12   732   732   732   732                              PRN / # OF OBS      
   G13   695   695   695   695                              PRN / # OF OBS      
   G14   252   252   251   251                              PRN / # OF OBS      
   G15   639   639   639   639                              PRN / # OF OBS      
   G16   588   588   587   587                              PRN / # OF OBS      
   G17   782   782   782   782                              PRN / # OF OBS      
   G18   646   646   646   646                              PRN / # OF OBS      
   G19   660   660   660   660                              PRN / # OF OBS      
   G20   650   650   649   649                              PRN / # OF OBS      
   G21   525   525   525   525                              PRN / # OF OBS      
   G22   569   569   569   569                              PRN / # OF OBS      
   G23   665   665   665   665                              PRN / # OF OBS      
   G24   669   669   669   669                              PRN / # OF OBS      
   G25   676   676   675   675                              PRN / # OF OBS      
   G27   715   715   715   715                              PRN / # OF OBS      
   G28   625   625   625   625                              PRN / # OF OBS      
   G29   623   623   623   623                              PRN / # OF OBS      
   G30   586   586   586   586                              PRN / # OF OBS      
   G31   549   549   549   549                              PRN / # OF OBS      
   G32   629   629   629   629                              PRN / # OF OBS      
BIT 2 OF LLI FLAGS DATA COLLECTED UNDER A/S CONDITION       COMMENT             
SNR is mapped to RINEX snr flag value [2-9]                 COMMENT             
Lx:     = 25dBHz -> 1; 26-27dBHz -> 2; 28-31dBHz -> 3       COMMENT             
       32-35dBHz -> 4; 36-38dBHz -> 5; 39-41dBHz -> 6       COMMENT             
       42-44dBHz -> 7; 45-48dBHz -> 8; >=49dBHz -> 9        COMMENT             
                                                            END OF HEADER       
 15 03 05 00 00  0.0000000  0  6G16G18G21G22G27G31
  21101457.540   110888912.22806  21101455.120    86406944.38248
  22281131.700   117088143.59305  22281129.700    91237512.28547
  21696536.460   114016080.35605  21696534.200    88843694.64848
  23285214.900   122364632.28204  23285212.240    95349052.97447
  22252474.620   116937556.43205  22252475.100    91120182.55148
  23695981.120   124523198.06304  23695980.160    97031046.91747
 15 03 05 00 00 30.0000000  0  6G16G18G21G22G27G31
  21090956.140   110833726.85906  21090953.640    86363942.80748
  22272098.800   117040676.33205  22272096.980    91200524.82745
  21706327.960   114067534.88906  21706325.780    88883789.08148
  23267883.960   122273556.30804  23267881.100    95278084.72846
  22241236.360   116878498.80605  22241236.820    91074163.64047
  23714495.300   124620491.02204  23714494.420    97106859.54746
 15 03 05 00 01  0.0000000  0  6G16G18G21G22G27G31
  21080524.400   110778907.81906  21080521.900    86321226.68248
  22263138.580   116993590.42305  22263136.780    91163834.53347
  21716170.040   114119255.07605  21716167.820    88924090.53048
  23250574.400   122182592.92404  23250571.440    95207204.19546
  22230021.480   116819564.00905  22230021.920    91028240.44248
  23733021.380   124717846.34503  23733020.580    97182720.79744
 15 03 05 00 01 30.0000000  0  6G16G18G21G22G27G31
  21070163.080   110724458.75206  21070160.620    86278798.85148
  22254251.580   116946888.89905  22254249.740    91127443.75246
  21726062.580   114171240.93505  21726060.360    88964598.99648
  23233286.760   122091746.40104  23233283.920    95136414.76446
  22218830.280   116760753.64105  22218830.660    90982414.20348
  23751558.960   124815262.11403  23751558.200    97258629.13547
 15 03 05 00 02  0.0000000  0  6G16G18G21G22G27G31
  21059872.640   110670382.02206  21059870.160    86236661.14248
  22245438.100   116900574.34305  22245436.420    91091354.51847
  21736005.320   114223490.60505  21736003.080    89005313.03248
  23216021.800   122001019.71904  23216019.100    95065718.68947
  22207662.740   116702068.00805  22207663.140    90936685.16847
  23770107.600   124912735.74103  23770106.840    97334582.56846
 15 03 05 00 02 30.0000000  0  6G16G18G21G22G27G31
  21049653.020   110616677.44606  21049650.480    86194813.42948
  22236698.000   116854646.02405  22236696.580    91055566.23845
  21745997.680   114276000.29806  21745995.340    89046229.67748
  23198779.860   121910413.33304  23198777.260    94995116.37647
  22196518.420   116643504.95305  22196518.920    90891051.64048
  23788666.240   125010262.11104  23788665.420    97410577.08246
 15 03 05 00 03  0.0000000  0  6G16G18G21G22G27G31
  21039502.700   110563337.51706  21039500.220    86153249.85248
  22228030.180   116809096.76905  22228028.900    91020073.31846
  21756037.340   114328758.57106  21756034.940    89087340.02148
  23181559.500   121819920.75004  23181557.040    94924602.73045
  22185395.640   116585055.39005  22185396.340    90845506.54148
  23807232.620   125107829.17503  23807231.880    97486603.29246
 15 03 05 00 03 30.0000000  0  5G16G18G21G22G27
  21029423.980   110510373.60406  21029421.540    86111979.28048
  22219436.800   116763937.59305  22219435.460    90984884.36646
  21766125.800   114381773.36106  21766123.360    89128650.24948
  23164363.000   121729553.54904  23164360.940    94854186.78346
  22174296.300   116526728.34305  22174297.060    90800056.91848
 15 03 05 00 04  0.0000000  0  5G16G18G21G22G27
  21019416.060   110457781.79006  21019413.700    86070998.65848
  22210916.760   116719164.04505  22210915.300    90949995.90746
  21776261.540   114435036.56106  21776259.040    89170154.03948
  23147189.880   121639308.36804  23147187.880    94783865.90446
  22163219.220   116468518.03105  22163220.000    90754698.27148
 15 03 05 00 04 30.0000000  0  6G16G18G21G22G27G31
  21009480.640   110405570.94006  21009478.300    86030314.88748
  22202471.860   116674785.30405  22202470.140    90915415.08547
  21786445.360   114488552.58606  21786442.720    89211854.85648
  23130041.820   121549194.89904  23130039.820    94713647.65346
  22152165.680   116410431.34705  22152166.440    90709435.94647
  23862981.020   125400811.10703  23862979.660    97714913.02145
 15 03 05 00 05  0.0000000  0  6G16G18G21G22G27G31
  20999619.140   110353748.65206  20999616.860    85989933.89148
  22194103.340   116630808.47405  22194101.580    90881147.45246
  21796677.940   114542325.36706  21796675.260    89253755.72548
  23112920.580   121459221.21404  23112918.020    94643538.34346
  22141136.700   116352474.03105  22141137.500    90664274.42047
  23881579.760   125498548.50003  23881578.500    97791071.95845
 15 03 05 00 05 30.0000000  0  5G16G18G21G22G27
  20989830.420   110302308.46306  20989828.100    85949850.64248
  22185810.120   116587227.25105  22185808.280    90847188.05347
  21806957.400   114596344.92506  21806954.880    89295848.89548
  23095824.740   121369381.63204  23095821.900    94573533.53146
  22130130.800   116294637.81505  22130131.600    90619207.26748
 15 03 05 00 06  0.0000000  0  5G16G18G21G22G27
  20980113.620   110251246.16306  20980111.260    85910061.84748
  22177591.220   116544036.88705  22177589.520    90813533.24347
  21817282.280   114650603.00306  21817279.900    89338127.91548
  23078753.680   121279672.43304  23078750.580    94503630.30846
  22119146.720   116236916.35805  22119147.500    90574229.53948
 15 03 05 00 06 30.0000000  0  6G16G18G21G22G27G31
  20970471.320   110200575.67406  20970468.960    85870578.35348
  22169449.200   116501251.00805  22169447.720    90780193.60947
  21827654.560   114705109.82105  21827652.200    89380600.76648
  23061710.220   121190108.31704  23061706.980    94433840.14847
  22108186.860   116179321.81005  22108187.540    90529350.69948
  23937411.360   125791945.31303  23937410.020    98019689.00646
 15 03 05 00 07  0.0000000  0  6G16G18G21G22G27G31
  20960903.280   110150295.21306  20960900.920    85831398.78848
  22161383.880   116458867.70205  22161382.420    90747167.67347
  21838072.980   114759859.61505  21838070.660    89423262.95448
  23044694.120   121100688.54404  23044690.940    94364162.46646
  22097250.520   116121850.57705  22097251.020    90484567.95748
  23956031.960   125889798.16203  23956030.660    98095937.92844
 15 03 05 00 07 30.0000000  0  6G16G18G21G22G27G31
  20951407.980   110100397.09406  20951405.640    85792517.14448
  22153393.720   116416879.13905  22153392.300    90714449.33847
  21848535.440   114814840.75205  21848533.100    89466105.40648
  23027704.100   121011405.74404  23027700.940    94294591.50046
  22086335.800   116064493.04205  22086336.220    90439873.81148
  23974654.860   125987661.23113  23974653.880    98172199.16356
 15 03 05 00 08  0.0000000  0  6G16G18G21G22G27G31
  20941990.900   110050909.76206  20941988.540    85753955.59648
  22145484.060   116375313.35305  22145482.560    90682060.42646
  21859046.720   114870077.82305  21859044.360    89509147.27747
  23010745.600   120922289.02404  23010742.500    94225149.95146
  22075447.680   116007275.75905  22075448.140    90395288.94247
  23993285.020   126085564.08703  23993284.420    98248487.01544
 15 03 05 00 08 30.0000000  0  6G16G18G21G22G27G31
  20932647.780   110001811.25106  20932645.440    85715697.02848
  22137650.740   116334148.30605  22137649.100    90649983.76847
  21869601.840   114925544.96906  21869599.480    89552368.42048
  22993814.700   120833317.05904  22993811.660    94155821.19646
  22064581.680   115950174.98805  22064582.220    90350794.86948
  24011917.200   126183477.30603  24011916.920    98324782.97445
 15 03 05 00 09  0.0000000  0  5G16G18G21G22G27
  20923377.400   109953095.16006  20923375.060    85677736.44748
  22129892.280   116293377.42305  22129890.580    90618214.26246
  21880198.820   114981232.01806  21880196.480    89595760.94248
  22976910.480   120744484.56204  22976907.380    94086601.11446
  22053736.340   115893182.63005  22053736.860    90306385.27348
 15 03 05 00 09 30.0000000  0  6G16G18G21G22G27G31
  20914188.420   109904806.87006  20914186.100    85640109.22348
  22122217.280   116253045.38905  22122215.600    90586786.72746
  21890845.560   115037180.65406  21890843.100    89639357.29447
  22960041.380   120655837.07504  22960038.340    94017525.19746
  22042919.800   115836341.94905  22042920.420    90262093.85148
  24049187.980   126379338.14803  24049188.600    98477403.98846
 15 03 05 00 10  0.0000000  0  5G16G18G21G22G27
  20905069.960   109856889.21306  20905067.660    85602770.79748
  22114614.900   116213094.49605  22114613.140    90555656.17847
  21901530.440   115093329.86206  21901527.840    89683109.93248
  22943196.900   120567317.99604  22943193.680    93948549.35546
  22032121.020   115779593.80605  22032121.600    90217874.54248
 15 03 05 00 10 30.0000000  0  5G16G18G21G22G27
  20896031.100   109809389.73006  20896028.800    85565758.21748
  22107094.220   116173572.89605  22107092.360    90524860.14047
  21912261.840   115149723.46606  21912259.160    89727053.00848
  22926386.080   120478975.97104  22926382.680    93879711.44246
  22021348.660   115722984.24405  22021349.140    90173763.22148
 15 03 05 00 11  0.0000000  0  5G16G18G21G22G27
  20887069.800   109762297.82506  20887067.460    85529063.23248
  22099653.040   116134468.90005  22099651.140    90494389.51646
  21923036.780   115206345.99206  21923034.120    89771174.46148
  22909606.940   120390801.00304  22909603.480    93811003.73446
  22010600.280   115666500.79005  22010600.660    90129750.18748
 15 03 05 00 11 30.0000000  0  5G16G18G21G22G27
  20878186.620   109715616.49406  20878184.280    85492688.17348
  22092291.900   116095785.55905  22092290.000    90464246.65747
  21933855.360   115263197.89506  21933852.720    89815474.65448
  22892860.360   120302797.06804  22892856.940    93742429.29947
  21999876.080   115610144.84605  21999876.420    90085836.48747
 15 03 05 00 12  0.0000000  0  5G16G18G21G22G27
  20869381.280   109669344.13606  20869378.940    85456631.80048
  22085010.340   116057520.59005  22085008.500    90434429.81546
  21944716.500   115320273.67605  21944713.860    89859949.29247
  22876146.000   120214962.93604  22876142.680    93673987.16546
  21989175.480   115553912.87905  21989175.800    90042019.39448
 15 03 05 00 12 30.0000000  0  5G16G18G21G22G27
  20860654.580   109623484.90206  20860652.220    85420897.34348
  22077809.160   116019678.46805  22077807.360    90404942.47147
  21955620.340   115377573.93206  21955617.660    89904598.84848
  22859464.880   120127303.76604  22859461.700    93605681.34946
  21978498.940   115497807.40105  21978499.280    89998300.87348
 15 03 05 00 13  0.0000000  0  5G16G18G21G22G27
  20852006.540   109578039.00306  20852004.160    85385484.96448
  22070688.380   115982258.53205  22070686.460    90375784.10447
  21966566.080   115435094.09905  21966563.360    89949419.77047
  22842817.240   120039820.05604  22842813.940    93537512.26946
  21967846.100   115441826.53805  21967846.500    89954679.45448
 15 03 05 00 13 30.0000000  0  5G16G18G21G22G27
  20843437.880   109533010.27006  20843435.460    85350397.64448
  22063648.540   115945264.60905  22063646.640    90346957.68147
  21977553.740   115492834.86605  21977551.180    89994412.57548
  22826203.920   119952516.78004  22826200.560    93469483.78247
  21957217.420   115385972.61605  21957217.880    89911156.95448
 15 03 05 00 14  0.0000000  0  5G16G18G21G22G27
  20834949.080   109488401.34106  20834946.580    85315637.44548
  22056690.200   115908698.81305  22056688.360    90318464.86446
  21988583.120   115550794.89305  21988580.720    90039576.23547
  22809625.620   119865397.47004  22809622.260    93401598.66846
  21946613.020   115330246.53605  21946613.600    89867734.06348
 15 03 05 00 14 30.0000000  0  5G16G18G21G22G27
  20826539.700   109444209.69806  20826537.140    85281202.39948
  22049812.840   115872558.24505  22049811.060    90290303.38247
  21999653.060   115608968.17505  21999650.720    90084906.05348
  22793082.060   119778460.01604  22793078.580    93333855.22846
  21936032.100   115274644.07205  21936032.800    89824407.48848
 15 03 05 00 15  0.0000000  0  5G16G18G21G22G27
  20818211.480   109400444.48306  20818208.880    85247099.64449
  22043018.040   115836851.80005  22043016.360    90262480.19447
  22010764.640   115667360.00905  22010762.220    90130406.18947
  22776574.900   119691714.53004  22776571.440    93266261.38646
  21925476.200   115219172.74305  21925476.980    89781183.09948
 15 03 05 00 15 30.0000000  0  5G16G18G21G22G27
  20809963.120   109357099.08006  20809960.540    85213324.01048
  22036304.680   115801572.38305  22036302.920    90234989.75147
  22021915.920   115725960.43905  22021913.380    90176068.87447
  22760103.100   119605154.94204  22760099.700    93198812.40646
  21914943.640   115163824.17905  21914944.440    89738054.37648
 15 03 05 00 16  0.0000000  0  5G16G18G21G22G27
  20801795.880   109314179.96806  20801793.300    85179880.55448
  22029673.760   115766726.27705  22029671.920    90207836.95847
  22033107.280   115784771.88205  22033104.860    90221895.97748
  22743668.100   119518788.76504  22743664.800    93131514.13746
  21904435.460   115108603.27605  21904436.120    89695025.12148
 15 03 05 00 16 30.0000000  0  5G16G18G21G22G27
  20793710.480   109271691.24806  20793707.960    85146772.46348
  22023125.880   115732316.47005  22023123.920    90181024.12747
  22044338.800   115843794.86905  22044336.640    90267887.89847
  22727270.720   119432620.87404  22727267.460    93064370.38146
  21893951.980   115053512.24505  21893952.620    89652097.06248
 15 03 05 00 17  0.0000000  0  5G16G18G21G22G27
  20785706.240   109229629.00106  20785703.760    85113996.69048
  22016660.200   115698339.26805  22016658.300    90154548.40247
  22055609.200   115903021.39405  22055607.180    90314038.43147
  22710910.540   119346648.04905  22710907.340    92997378.59546
  21883492.240   114998545.71205  21883492.780    89609266.01648
 15 03 05 00 17 30.0000000  0  5G16G18G21G22G27
  20777784.440   109187999.84206  20777781.980    85081558.38848
  22010277.900   115664800.35206  22010276.040    90128414.18847
  22066919.020   115962454.20305  22066916.900    90360349.71147
  22694588.940   119260877.30805  22694585.640    92930544.29346
  21873057.040   114943708.34505  21873057.500    89566535.62648
 15 03 05 00 18  0.0000000  0  5G16G18G21G22G27
  20769945.620   109146806.77306  20769943.200    85049459.89948
  22003979.540   115631702.47006  22003977.740    90102623.63547
  22078268.160   116022093.56405  22078265.800    90406821.95247
  22678306.620   119175312.99404  22678303.140    92863870.83946
  21862646.720   114889001.88105  21862647.200    89523907.22348
 15 03 05 00 18 30.0000000  0  5G16G18G21G22G27
  20762189.960   109106050.69106  20762187.600    85017701.92148
  21997765.300   115599046.52405  21997763.580    90077177.46747
  22089655.920   116081936.63905  22089653.480    90453452.94247
  22662063.840   119089956.99204  22662060.420    92797359.71246
  21852261.140   114834425.84605  21852261.740    89481380.46348
 15 03 05 00 19  0.0000000  0  5G16G18G21G22G27
  20754517.640   109065732.25906  20754515.280    84986284.96149
  21991635.240   115566832.66506  21991633.460    90052075.78047
  22101081.600   116141979.72305  22101079.240    90500239.74548
  22645861.020   119004810.32305  22645857.480    92731011.69246
  21841900.200   114779978.83405  21841900.780    89438954.24248
 15 03 05 00 19 30.0000000  0  5G16G18G21G22G27
  20746928.520   109025851.06706  20746926.160    84955208.71448
  21985589.020   115535059.70406  21985587.280    90027317.66347
  22112544.820   116202219.26905  22112542.440    90547179.64947
  22629698.080   118919873.61504  22629694.540    92664827.29047
  21831563.580   114725659.19805  21831564.060    89396627.27648
 15 03 05 00 20  0.0000000  0  5G16G18G21G22G27
  20739423.560   108986412.30406  20739421.220    84924477.21248
  21979627.760   115503732.88405  21979625.880    90002907.17347
  22124045.700   116262656.28105  22124043.220    90594273.42248
  22613576.160   118835152.69805  22613572.640    92598811.02447
  21821251.800   114671470.34405  21821252.280    89354402.20748
 15 03 05 00 20 30.0000000  0  5G16G18G21G22G27
  20732003.180   108947418.03906  20732000.860    84894092.06849
  21973751.560   115472853.65006  21973749.680    89978845.45846
  22135584.080   116323290.31005  22135581.560    90641520.71547
  22597495.860   118750650.57405  22597492.420    92532965.26447
  21810965.000   114617413.00005  21810965.480    89312279.62048
 15 03 05 00 21  0.0000000  0  5G16G18G21G22G27
  20724667.860   108908870.69806  20724665.540    84864055.18248
  21967960.900   115442423.75705  21967959.060    89955133.86847
  22147159.500   116384119.48705  22147157.000    90688920.07447
  22581457.900   118666370.66005  22581454.440    92467292.62846
  21800703.360   114563487.83905  21800703.800    89270260.03048
 15 03 05 00 21 30.0000000  0  5G16G18G21G22G27
  20717417.920   108870771.88806  20717415.600    84834367.79948
  21962255.940   115412444.16906  21962254.160    89931773.18447
  22158771.600   116445141.81005  22158769.080    90736469.94247
  22565462.480   118582315.28205  22565459.180    92401794.97046
  21790466.980   114509695.14405  21790467.320    89228343.65348
 15 03 05 00 22  0.0000000  0  5G16G18G21G22G27
  20710252.800   108833118.72406  20710250.420    84805027.66949
  21956636.100   115382911.72306  21956634.320    89908760.92447
  22170419.280   116506350.46305  22170416.660    90784165.00547
  22549509.600   118498482.20305  22549506.240    92336470.51846
  21780254.900   114456030.42505  21780255.220    89186526.99948
 15 03 05 00 22 30.0000000  0  5G16G18G21G22G27
  20703173.840   108795918.46106  20703171.420    84776040.45648
  21951102.500   115353833.04806  21951100.820    89886102.23447
  22182103.320   116567750.16105  22182100.640    90832008.93048
  22533600.660   118414879.92305  22533597.200    92271325.92746
  21770068.340   114402499.53905  21770068.620    89144814.63448
 15 03 05 00 23  0.0000000  0  5G16G18G21G22G27
  20696181.100   108759171.08906  20696178.580    84747406.13948
  21945655.260   115325208.19405  21945653.660    89863797.18447
  22193822.960   116629337.19005  22193820.380    90879998.81247
  22517735.780   118331509.28705  22517732.320    92206361.81747
  21759906.920   114349101.09205  21759907.200    89103205.47848
 15 03 05 00 23 30.0000000  0  5G16G18G21G22G27
  20689274.940   108722879.01506  20689272.420    84719126.59949
  21940294.620   115297038.14006  21940293.060    89841846.52247
  22205577.820   116691109.75705  22205575.400    90928133.26347
  22501915.480   118248373.17305  22501912.040    92141580.45446
  21749770.820   114295835.87105  21749771.140    89061700.12548
 15 03 05 00 24  0.0000000  0  5G16G18G21G22G27
  20682456.140   108687046.25506  20682453.660    84691204.97249
  21935021.420   115269327.00106  21935019.780    89820253.45147
  22217368.140   116753068.57405  22217365.800    90976412.86848
  22486140.760   118165477.07205  22486137.400    92076986.12347
  21739660.560   114242706.48306  21739660.940    89020300.60848
 15 03 05 00 24 30.0000000  0  5G16G18G21G22G27
  20675724.000   108651668.82006  20675721.580    84663638.14449
  21929834.700   115242070.26206  21929832.980    89799014.44947
  22229192.520   116815206.30205  22229190.140    91024831.87947
  22470411.120   118082817.53405  22470407.820    92012576.12047
  21729575.180   114189707.62606  21729575.540    88979002.81248
 15 03 05 00 25  0.0000000  0  5G16G18G21G22G27
  20669079.420   108616751.30906  20669077.000    84636429.69848
  21924735.100   115215271.70706  21924733.380    89778132.49347
  22241051.180   116877523.97405  22241048.760    91073391.11347
  22454727.600   118000399.83105  22454724.300    91948354.54947
  21719515.260   114136842.36405  21719515.620    88937809.10748
 15 03 05 00 25 30.0000000  0  5G16G18G21G22G27
  20662523.180   108582297.87206  20662520.740    84609582.86649
  21919723.440   115188935.14806  21919721.620    89757610.52647
  22252944.220   116940022.67805  22252941.840    91122091.38648
  22439091.040   117918229.44805  22439087.740    91884325.71047
  21709481.340   114084113.62406  21709481.640    88896721.78848
 15 03 05 00 26  0.0000000  0  5G16G18G21G22G27
  20656056.080   108548312.47306  20656053.520    84583100.72849
  21914800.340   115163063.80706  21914798.480    89737451.06847
  22264871.680   117002702.20005  22264869.340    91170932.56848
  22423502.440   117836311.31205  22423499.100    91820493.41947
  21699473.840   114031523.85705  21699474.080    88855742.76648
 15 03 05 00 26 30.0000000  0  5G16G18G21G22G27
  20649676.960   108514789.95806  20649674.420    84556979.29049
  21909964.840   115137652.69906  21909962.920    89717650.23047
  22276832.200   117065554.60305  22276829.800    91219908.44947
  22407960.960   117754641.24505  22407957.720    91756854.44247
  21689491.480   113979066.82606  21689491.740    88814867.16648
 15 03 05 00 27  0.0000000  0  5G16G18G21G22G27
  20643385.640   108481728.83006  20643383.160    84531217.37049
  21905216.380   115112699.34506  21905214.420    89698206.07647
  22288824.620   117128575.04805  22288822.160    91269015.29047
  22392466.700   117673218.41905  22392463.380    91693408.10947
  21679534.000   113926739.70006  21679534.260    88774092.78748
 15 03 05 00 27 30.0000000  0  6G16G18G19G21G22G27
  20637183.580   108449136.91006  20637181.160    84505821.07249
  21900556.320   115088210.49306  21900554.260    89679123.87446
  23643756.220   124248775.56504  23643752.100    96817210.90845
  22300849.820   117191767.67705  22300847.240    91318256.32047
  22377021.280   117592051.76405  22377017.840    91630161.39547
  21669602.520   113874548.84806  21669602.680    88733424.60448
 15 03 05 00 28  0.0000000  0  5G16G18G21G22G27
  20631072.240   108417021.55706  20631069.840    84480796.12549
  21895986.060   115064193.61206  21895983.920    89660409.44647
  22312908.500   117255136.41305  22312905.940    91367634.54047
  22361626.060   117511149.62005  22361622.580    91567120.79547
  21659698.020   113822500.19106  21659698.160    88692867.22848
 15 03 05 00 28 30.0000000  0  6G16G18G19G21G22G27
  20625047.680   108385362.36806  20625045.280    84456126.62349
  21891501.560   115040627.63906  21891499.400    89642046.36947
  23615079.500   124098079.35403  23615076.900    96699792.18045
  22324996.200   117318657.67105  22324993.760    91417131.60947
  22346277.540   117430492.40405  22346274.040    91504271.04247
  21649816.480   113770572.34606  21649816.660    88652403.97848
 15 03 05 00 29  0.0000000  0  5G16G18G21G22G27
  20619117.080   108354197.02506  20619114.660    84431841.94449
  21887109.940   115017549.64106  21887107.860    89624063.51947
  22337119.440   117382365.93705  22337117.120    91466774.40247
  22330983.060   117350118.98205  22330979.520    91441642.42347
  21639964.880   113718801.77006  21639965.040    88612063.27348
 15 03 05 00 29 30.0000000  0  5G16G18G21G22G27
  20613276.500   108323504.80106  20613274.080    84407925.92149
  21882806.980   114994937.91706  21882805.020    89606444.00247
  22349273.660   117446236.83705  22349271.420    91516543.92848
  22315738.680   117270009.00705  22315735.200    91379219.09647
  21630139.020   113667166.23506  21630139.160    88571827.80248
 15 03 05 00 30  0.0000000  0  5G16G18G21G22G27
  20607526.860   108293290.07906  20607524.400    84384381.98649
  21878593.560   114972796.54806  21878591.600    89589190.98747
  22361459.080   117510271.68805  22361456.820    91566441.21247
  22300545.460   117190168.04405  22300542.020    91317005.38847
  21620339.480   113615669.15006  21620339.620    88531700.22448
 15 03 05 00 30 30.0000000  0  6G16G18G19G21G22G27
  20601868.100   108263553.24406  20601865.700    84361210.42649
  21874469.620   114951125.45706  21874467.700    89572304.44747
  23557926.320   123797740.76604  23557923.740    96465761.29346
  22373675.120   117574467.36105  22373672.700    91616463.81547
  22285403.680   117110597.71105  22285400.240    91255002.56947
  21610565.980   113564309.61306  21610566.220    88491679.82148
 15 03 05 00 31  0.0000000  0  6G16G18G19G21G22G27
  20596301.160   108234298.76106  20596298.760    84338414.72149
  21870435.880   114929928.20206  21870433.940    89555787.11247
  23543678.520   123722868.69403  23543676.240    96407419.47447
  22385921.820   117638824.76605  22385919.360    91666612.44046
  22270314.500   117031303.92105  22270311.080    91193215.23147
  21600819.320   113513090.85006  21600819.640    88451769.10948
 15 03 05 00 31 30.0000000  0  6G16G18G19G21G22G27
  20590825.280   108205522.92306  20590822.880    84315991.98649
  21866491.540   114909200.99906  21866489.640    89539636.05547
  23529446.360   123648078.49404  23529444.180    96349141.42046
  22398198.220   117703337.70805  22398195.720    91716882.25047
  22255277.340   116952283.57705  22255273.940    91131640.94747
  21591098.540   113462008.06906  21591098.900    88411964.34948
 15 03 05 00 32  0.0000000  0  6G16G18G19G21G22G27
  20585440.700   108177226.95006  20585438.340    84293943.16849
  21862636.760   114888943.86806  21862634.880    89523851.28547
  23515230.020   123573369.43103  23515227.360    96290926.60146
  22410503.900   117768003.79105  22410501.340    91767271.41247
  22240292.700   116873538.67805  22240289.300    91070281.31347
  21581403.720   113411061.28006  21581404.080    88372265.55948
 15 03 05 00 32 30.0000000  0  6G16G18G19G21G22G27
  20580150.200   108149425.15106  20580147.860    84272279.42849
  21858874.040   114869170.44606  21858872.200    89508443.45147
  23501031.240   123498754.52704  23501028.640    96232785.15246
  22422840.740   117832834.18605  22422838.240    91817788.59547
  22225363.420   116795084.31205  22225359.940    91009148.06147
  21571737.260   113360263.76606  21571737.660    88332683.08548
 15 03 05 00 33  0.0000000  0  6G16G18G19G21G22G27
  20574952.800   108122112.59306  20574950.460    84250996.91649
  21855202.400   114849875.84206  21855200.520    89493408.70147
  23486848.980   123424227.58503  23486846.540    96174712.24746
  22435207.200   117897820.54005  22435204.820    91868427.29447
  22210488.740   116716917.15405  22210485.200    90948238.60247
  21562098.120   113309609.48906  21562098.460    88293212.22748
 15 03 05 00 33 30.0000000  0  6G16G18G19G21G22G27
  20569846.980   108095281.66406  20569844.720    84230089.69449
  21851620.160   114831051.17806  21851618.320    89478740.15847
  23472682.140   123349779.95004  23472679.720    96116701.15047
  22447601.320   117962952.12505  22447598.940    91919179.16047
  22195667.420   116639030.83105  22195663.900    90887547.96247
  21552484.560   113259089.76906  21552484.860    88253846.23348
 15 03 05 00 34  0.0000000  0  6G16G18G19G21G22G27
  20564835.400   108068945.78006  20564833.160    84209568.23149
  21848129.940   114812709.90606  21848128.000    89464448.26847
  23458532.440   123275423.23204  23458530.220    96058760.89746
  22460024.980   118028238.97805  22460022.580    91970052.03247
  22180902.240   116561439.27905  22180898.680    90827087.03347
  21542898.840   113208716.91706  21542899.160    88214594.67448
 15 03 05 00 34 30.0000000  0  6G16G18G19G21G22G27
  20559916.780   108043098.29706  20559914.520    84189427.33549
  21844730.240   114794844.18906  21844728.220    89450526.95747
  23444398.840   123201149.97604  23444396.560    96000885.66446
  22472476.520   118093671.92305  22472474.080    92021038.74147
  22166192.080   116484137.00305  22166188.500    90766851.51446
  21533339.620   113158483.30006  21533340.000    88175451.61048
 15 03 05 00 35  0.0000000  0  6G16G18G19G21G22G27
  20555092.780   108017748.01706  20555090.540    84169673.86749
  21841422.540   114777462.51006  21841420.580    89436982.80447
  23430282.420   123126967.38904  23430279.920    95943081.06546
  22484956.960   118159256.46805  22484954.440    92072143.57347
  22151538.820   116407133.80905  22151535.200    90706849.04247
  21523808.460   113108396.71106  21523808.840    88136423.10948
 15 03 05 00 35 30.0000000  0  6G16G18G19G21G22G27
  20550363.100   107992893.21206  20550360.860    84150306.48549
  21838206.440   114760562.37406  21838204.620    89423813.86847
  23416182.520   123052872.24304  23416179.740    95885344.59846
  22497465.180   118224987.60005  22497462.620    92123362.62347
  22136942.360   116330429.24405  22136938.820    90647079.27547
  21514304.780   113058454.39106  21514305.120    88097507.03248
 15 03 05 00 36  0.0000000  0  6G16G18G19G21G22G27
  20545727.560   107968533.51106  20545725.340    84131324.89649
  21835081.780   114744142.68406  21835080.160    89411019.30747
  23402099.020   122978863.29504  23402096.080    95827675.32946
  22510000.700   118290861.95305  22509998.060    92174693.27947
  22122402.780   116254023.98705  22122399.440    90587542.73547
  21504828.260   113008655.06606  21504828.540    88058702.36548
 15 03 05 00 36 30.0000000  0  6G16G18G19G21G22G27
  20541186.580   107944670.10306  20541184.280    84112730.02749
  21832048.840   114728204.28006  21832047.200    89398599.77947
  23388032.120   122904940.71904  23388029.080    95770073.33646
  22522563.100   118356877.47405  22522560.400    92226133.93547
  22107920.780   116177920.52405  22107917.420    90528241.35847
  21495379.040   112958999.11106  21495379.320    88020009.41848
 15 03 05 00 37  0.0000000  0  6G16G18G19G21G22G27
  20536741.080   107921308.85406  20536738.780    84094526.45749
  21829108.500   114712752.18706  21829106.760    89386559.19847
  23373982.340   122831108.56104  23373979.340    95712541.81145
  22535152.820   118423037.17505  22535150.200    92277686.93647
  22093497.540   116102125.54905  22093494.080    90469180.36047
  21485957.980   112909491.41906  21485958.320    87981432.01048
 15 03 05 00 37 30.0000000  0  6G16G18G19G21G22G27
  20532390.700   107898447.82306  20532388.480    84076712.66149
  21826260.180   114697783.78106  21826258.340    89374895.51547
  23359949.140   122757363.51904  23359946.100    95655078.16645
  22547769.100   118489336.49205  22547766.620    92329348.72547
  22079132.860   116026638.34705  22079129.260    90410359.18448
  21476564.640   112860128.89506  21476564.980    87942967.71348
 15 03 05 00 38  0.0000000  0  6G16G18G19G21G22G27
  20528136.040   107876089.52306  20528133.860    84059290.60949
  21823504.060   114683300.20206  21823502.160    89363609.61547
  23345932.880   122683707.15204  23345929.900    95597683.59745
  22560411.680   118555773.86905  22560409.340    92381118.10647
  22064827.420   115951462.41605  22064823.740    90351780.55747
  21467199.220   112810913.04206  21467199.460    87904617.70248
 15 03 05 00 38 30.0000000  0  6G16G18G19G21G22G27
  20523977.260   107854234.94206  20523975.080    84042261.06149
  21820840.500   114669302.80206  21820838.560    89352702.56547
  23331933.480   122610139.26504  23331930.500    95540358.01146
  22573080.480   118622348.23705  22573078.020    92432994.21847
  22050581.540   115876599.90905  22050577.900    90293446.16447
  21457861.800   112761844.22706  21457861.920    87866382.27048
 15 03 05 00 39  0.0000000  0  6G16G18G19G21G22G27
  20519915.340   107832889.12706  20519913.080    84025627.95549
  21818270.120   114655795.57706  21818268.200    89342177.46347
  23317951.600   122536663.78704  23317948.580    95483104.42747
  22585775.540   118689061.14605  22585773.040    92484978.29346
  22036396.260   115802056.81305  22036392.760    90235360.66347
  21448553.120   112712926.58106  21448553.200    87828264.63048
 15 03 05 00 39 30.0000000  0  6G16G18G19G21G22G27
  20515949.380   107812047.69306  20515947.100    84009387.87249
  21815792.100   114642773.61006  21815790.200    89332030.48547
  23303986.180   122463275.48504  23303983.140    95425918.78246
  22598495.680   118755905.61805  22598493.120    92537064.87446
  22022271.360   115727830.05205  22022267.800    90177521.63947
  21439272.220   112664155.18606  21439272.360    87790260.95548
 15 03 05 00 40  0.0000000  0  6G16G18G19G21G22G27
  20512080.520   107791716.98606  20512078.320    83993545.75949
  21813407.460   114630242.25806  21813405.460    89322265.80447
  23290038.180   122389979.50104  23290035.440    95368805.03446
  22611241.520   118822885.45105  22611238.920    92589256.94447
  22008208.100   115653927.24205  22008204.560    90119935.06547
  21430020.200   112615535.48706  21430020.380    87752375.47848
 15 03 05 00 40 30.0000000  0  6G16G18G19G21G22G27
  20508308.200   107771893.46806  20508306.040    83978098.85649
  21811115.400   114618197.53506  21811113.400    89312880.32247
  23276107.020   122316771.01104  23276104.160    95311759.47247
  22624011.760   118889993.85404  22624009.200    92641549.20447
  21994206.020   115580345.96205  21994202.460    90062599.00947
  21420796.160   112567062.91606  21420796.360    87714604.65048
 15 03 05 00 41  0.0000000  0  6G16G18G19G21G22G27
  20504633.140   107752580.89206  20504631.000    83963050.08949
  21808916.480   114606642.42406  21808914.500    89303876.36047
  23262193.040   122243652.89404  23262190.060    95254784.35146
  22636806.620   118957231.58104  22636804.200    92693942.21147
  21980266.100   115507091.02305  21980262.480    90005517.24647
  21411600.740   112518740.65806  21411600.940    87676950.94448
 15 03 05 00 41 30.0000000  0  6G16G18G19G21G22G27
  20501055.240   107733778.75606  20501053.100    83948399.06849
  21806810.500   114595575.76106  21806808.580    89295253.00847
  23248296.160   122170623.67404  23248293.120    95197878.50846
  22649625.620   119024595.47605  22649623.200    92746433.53147
  21966388.420   115434163.40605  21966384.780    89948690.55047
  21402433.740   112470567.64806  21402433.920    87639413.54648
 15 03 05 00 42  0.0000000  0  6G16G18G19G21G22G27
  20497575.460   107715492.04006  20497573.280    83934149.67649
  21804798.300   114585001.71506  21804796.380    89287013.50747
  23234416.720   122097686.58304  23234413.580    95141044.42346
  22662468.920   119092086.99505  22662466.440    92799024.32546
  21952574.120   115361568.63605  21952570.360    89892123.20747
  21393295.760   112422547.70706  21393296.080    87601995.42448
 15 03 05 00 42 30.0000000  0  6G16G18G19G21G22G27
  20494193.380   107697718.91606  20494191.140    83920300.48949
  21802879.420   114574917.89106  21802877.400    89279155.99547
  23220554.460   122024839.13404  23220551.280    95084280.16346
  22675335.700   119159702.13605  22675333.200    92851711.44247
  21938823.160   115289306.51705  21938819.360    89835815.07947
  21384186.460   112374678.50906  21384186.880    87564694.75548
 15 03 05 00 43  0.0000000  0  6G16G18G19G21G22G27
  20490909.920   107680464.00206  20490907.600    83906855.09549
  21801054.600   114565328.31306  21801052.560    89271683.62047
  23206709.820   121952084.90804  23206706.600    95027588.59746
  22688226.320   119227442.98305  22688223.840    92904496.49646
  21925136.580   115217382.91205  21925132.780    89779770.72747
  21375106.640   112326964.08706  21375107.100    87527514.69448
 15 03 05 00 43 30.0000000  0  6G16G18G19G21G22G27
  20487725.440   107663729.36206  20487723.080    83893815.11049
  21799324.040   114556234.24506  21799322.040    89264597.35247
  23192883.060   121879425.49504  23192879.880    94970970.88946
  22701140.600   119295308.67804  22701138.240    92957378.83247
  21911515.000   115145801.12005  21911511.280    89723992.72447
  21366056.640   112279406.12706  21366057.040    87490456.55748
 15 03 05 00 44  0.0000000  0  6G16G18G19G21G22G27
  20484638.980   107647510.03206  20484636.640    83881176.66649
  21797686.640   114547629.88406  21797684.700    89257892.67147
  23179073.120   121806854.89804  23179070.360    94914422.40747
  22714077.260   119363291.24305  22714074.940    93010352.25846
  21897957.660   115074557.10405  21897954.020    89668477.93148
  21357035.240   112231998.67006  21357035.620    87453515.70948
 15 03 05 00 44 30.0000000  0  6G16G18G19G21G22G27
  20481651.720   107631811.98206  20481649.420    83868944.41449
  21796143.520   114539520.79206  21796141.620    89251573.91247
  23165281.100   121734377.86904  23165278.520    94857946.81245
  22727036.740   119431394.09605  22727034.400    93063419.40346
  21884466.020   115003658.45205  21884462.400    89613232.24847
  21348043.580   112184747.28606  21348043.960    87416696.45848
 15 03 05 00 45  0.0000000  0  6G16G18G19G21G22G27
  20478763.500   107616633.83706  20478761.140    83857117.28649
  21794694.160   114531904.62406  21794692.240    89245639.25247
  23151506.500   121661992.07304  23151504.040    94801542.31847
  22740018.460   119499613.24005  22740016.100    93116577.17047
  21871040.120   114933104.31105  21871036.300    89558255.01947
  21339081.240   112137649.78706  21339081.620    87379997.12548
 15 03 05 00 45 30.0000000  0  6G16G18G19G21G22G27
  20475974.200   107601975.84006  20475971.820    83845695.46049
  21793338.540   114524781.18406  21793336.700    89240088.52847
  23137749.300   121589697.06504  23137746.820    94745208.59346
  22753021.880   119567946.26605  22753019.420    93169823.67546
  21857680.220   114862896.88505  21857676.180    89503547.94947
  21330148.220   112090706.11906  21330148.560    87343417.64648
 15 03 05 00 46  0.0000000  0  6G16G18G19G21G22G27
  20473284.900   107587843.59906  20473282.580    83834683.32049
  21792077.560   114518154.96306  21792075.800    89234925.24347
  23124010.180   121517497.39204  23124007.520    94688949.12245
  22766047.500   119636396.05705  22766044.960    93223161.15846
  21844387.280   114793042.61005  21844383.280    89449116.06847
  21321245.380   112043921.26406  21321245.680    87306961.93548
 15 03 05 00 46 30.0000000  0  6G16G18G19G21G22G27
  20470696.120   107574239.50006  20470693.840    83824082.71549
  21790911.540   114512027.47306  21790909.800    89230150.59047
  23110289.340   121445394.34804  23110286.600    94632764.96947
  22779095.260   119704962.28004  22779092.640    93276589.36047
  21831162.240   114723545.33105  21831158.340    89394962.35847
  21312373.120   111997297.01806  21312373.360    87270631.36849
 15 03 05 00 47  0.0000000  0  6G16G18G19G21G22G27
  20468207.100   107561159.56206  20468204.820    83813890.55149
  21789839.620   114506394.41206  21789837.820    89225761.20047
  23096585.940   121373383.50704  23096583.360    94576652.63747
  22792163.800   119773637.94504  22792161.260    93330102.84447
  21818004.700   114654401.94206  21818000.700    89341084.40747
  21303530.460   111950828.97006  21303530.760    87234422.51148
 15 03 05 00 47 30.0000000  0  6G16G18G19G21G22G27
  20465817.940   107548604.35706  20465815.620    83804107.26549
  21788861.820   114501255.76506  21788859.920    89221757.07147
  23082900.220   121301464.86504  23082897.660    94520612.15747
  22805253.020   119842422.64404  22805250.500    93383701.29245
  21804915.040   114585614.95206  21804910.920    89287484.17147
  21294717.660   111904517.48506  21294717.980    87198335.63848
 15 03 05 00 48  0.0000000  0  6G16G18G19G21G22G27
  20463529.140   107536576.54806  20463526.780    83794734.94049
  21787978.460   114496613.42706  21787976.460    89218139.66547
  23069232.480   121229640.37204  23069229.960    94464645.05547
  22818363.000   119911315.81204  22818360.380    93437384.27946
  21791894.000   114517188.31806  21791889.760    89234164.73647
  21285935.160   111858364.81806  21285935.440    87162372.52748
 15 03 05 00 48 30.0000000  0  6G16G18G19G21G22G27
  20461340.980   107525077.70006  20461338.620    83785774.79449
  21787189.660   114492467.93406  21787187.560    89214909.42847
  23055582.900   121157910.48604  23055580.200    94408751.63946
  22831493.140   119980315.43204  22831490.460    93491150.21446
  21778941.900   114449124.38906  21778937.720    89181127.93748
  21277183.060   111812371.97806  21277183.300    87126533.95948
 15 03 05 00 49  0.0000000  0  6G16G18G19G21G22G27
  20459253.720   107514109.51406  20459251.460    83777228.15249
  21786495.600   114488820.37506  21786493.460    89212067.17447
  23041951.500   121086276.32604  23041948.520    94352932.81946
  22844643.460   120049421.49204  22844640.820    93544999.07947
  21766059.280   114381426.22906  21766055.260    89128376.14147
  21268461.540   111766540.23606  21268461.760    87090820.92348
 15 03 05 00 49 30.0000000  0  6G16G18G19G21G22G27
  20457268.220   107503675.28106  20457265.880    83769097.57049
  21785896.700   114485673.37606  21785894.620    89209614.97947
  23028338.640   121014740.24804  23028335.560    94297190.45247
  22857814.380   120118634.99104  22857811.760    93598931.66647
  21753247.160   114314098.57306  21753243.260    89075913.05247
  21259771.200   111720872.55606  21259771.440    87055235.72448
 15 03 05 00 50  0.0000000  0  6G16G18G19G21G22G27
  20455384.220   107493774.30506  20455381.800    83761382.51049
  21785392.780   114483025.41306  21785390.720    89207551.64047
  23014744.020   120943300.75704  23014741.020    94241523.33946
  22871005.060   120187952.40404  22871002.560    93652945.21847
  21740505.740   114247141.85906  21740501.820    89023739.00848
  21251111.860   111675367.81206  21251112.160    87019777.49048
 15 03 05 00 50 30.0000000  0  6G16G18G19G21G22G27
  20453601.200   107484404.23506  20453598.740    83754081.15149
  21784983.360   114480873.71006  21784981.280    89205875.00247
  23001167.340   120871955.41404  23001164.460    94185929.58546
  22884214.740   120257369.51204  22884212.360    93707036.45946
  21727834.840   114180555.35406  21727830.780    88971853.43947
  21242483.040   111630023.67906  21242483.460    86984444.40448
 15 03 05 00 51  0.0000000  0  6G16G18G19G21G22G27
  20451919.720   107475567.99806  20451917.260    83747195.76549
  21784668.660   114479219.48306  21784666.440    89204586.01047
  22987608.940   120800706.46304  22987606.220    94130410.96547
  22897443.480   120326886.50304  22897441.120    93761205.52646
  21715235.000   114114342.60906  21715230.880    88920259.10048
  21233885.280   111584842.42706  21233885.740    86949238.23548
 15 03 05 00 51 30.0000000  0  6G16G18G19G21G22G27
  20450340.320   107467268.58706  20450337.920    83740728.67749
  21784449.220   114478065.98206  21784446.920    89203687.19247
  22974069.320   120729555.45304  22974066.640    94074968.61546
  22910691.200   120396503.66004  22910688.880    93815452.63946
  21702707.140   114048508.62506  21702703.160    88868959.90448
  21225319.140   111539826.84706  21225319.580    86914161.17649
 15 03 05 00 52  0.0000000  0  6G16G18G19G21G22G27
  20448862.700   107459504.05406  20448860.360    83734678.38349
  21784324.320   114477410.28706  21784322.140    89203176.27047
  22960548.180   120658501.11204  22960545.500    94019601.62347
  22923957.320   120466217.12604  22923954.900    93869774.81246
  21690251.220   113983052.79706  21690247.380    88817955.37747
  21216784.120   111494975.05606  21216784.480    86879211.73548
 15 03 05 00 52 30.0000000  0  6G16G18G19G21G22G27
  20447486.940   107452274.80106  20447484.720    83729045.19349
  21784294.080   114477252.06306  21784292.040    89203052.98747
  22947045.260   120587542.32604  22947042.520    93964309.08946
  22937241.340   120536024.83604  22937238.800    93924170.41046
  21677867.660   113917976.87906  21677863.840    88767246.89048
  21208280.280   111450287.12506  21208280.600    86844389.97949
 15 03 05 00 53  0.0000000  0  6G16G18G19G21G22G27
  20446214.260   107445586.96206  20446212.100    83723833.88049
  21784359.680   114477596.88806  21784357.680    89203321.68847
  22933561.640   120516685.32204  22933558.780    93909095.86046
  22950543.940   120605930.31504  22950541.400    93978642.20046
  21665557.740   113853288.02306  21665553.900    88716840.00948
  21199808.720   111405769.05306  21199809.120    86809700.57849
 15 03 05 00 53 30.0000000  0  6G16G18G19G21G22G27
  20445044.420   107439439.19906  20445042.260    83719043.41149
  21784520.540   114478442.03706  21784518.480    89203980.26047
  22920096.940   120445927.69404  22920093.920    93853960.04645
  22963864.540   120675930.78304  22963862.160    94033188.00846
  21653321.560   113788986.73906  21653317.680    88666735.12747
  21191369.260   111361419.27006  21191369.700    86775142.30648
 15 03 05 00 54  0.0000000  0  6G16G18G19G21G22G27
  20443977.020   107433829.46906  20443974.760    83714672.17749
  21784776.060   114479785.18006  21784774.040    89205026.86647
  22906650.780   120375267.37604  22906647.780    93798900.09047
  22977202.440   120746021.86504  22977200.100    94087804.41445
  21641158.940   113725072.17006  21641155.100    88616931.59647
  21182961.460   111317235.76206  21182961.860    86740713.60549
 15 03 05 00 54 30.0000000  0  6G16G18G19G21G22G27
  20443012.600   107428761.12706  20443010.280    83710722.80949
  21785126.740   114481628.91706  21785124.860    89206463.55247
  22893223.560   120304706.86404  22893220.520    93743917.90047
  22990557.700   120816204.18804  22990555.340    94142491.92847
  21629070.840   113661548.56806  21629066.960    88567432.70248
  21174585.880   111273221.58806  21174586.240    86706416.85348
 15 03 05 00 55  0.0000000  0  6G16G18G19G21G22G27
  20442151.340   107424235.07006  20442148.980    83707196.00549
  21785572.760   114483973.38206  21785571.020    89208290.41547
  22879815.320   120234246.60404  22879812.340    93689013.83846
  23003930.100   120886476.60104  23003927.700    94197249.62347
  21617057.680   113598418.79206  21617053.820    88518240.68648
  21166242.760   111229377.63606  21166243.020    86672252.73749
 15 03 05 00 55 30.0000000  0  6G16G18G19G21G22G27
  20441393.220   107420251.05706  20441390.840    83704091.56549
  21786114.080   114486817.91206  21786112.320    89210506.92847
  22866426.200   120163886.43004  22866423.140    93634187.73946
  23017319.260   120956836.95104  23017316.880    94252075.84647
  21605119.600   113535684.04206  21605115.780    88469356.48848
  21157931.920   111185703.83806  21157932.140    86638221.22148
 15 03 05 00 56  0.0000000  0  6G16G18G19G21G22G27
  20440738.140   107416808.68506  20440735.780    83701409.18949
  21786750.360   114490160.79806  21786748.400    89213111.78247
  22853055.940   120093625.57304  22853052.860    93579439.04247
  23030724.640   121027282.53004  23030722.200    94306968.48446
  21593256.900   113473344.94306  21593253.020    88420780.58048
  21149653.300   111142199.61406  21149653.560    86604321.83248
 15 03 05 00 56 30.0000000  0  6G16G18G19G21G22G27
  20440186.380   107413909.09306  20440184.000    83699149.75749
  21787481.460   114494002.56806  21787479.440    89216105.38147
  22839704.780   120023464.38104  22839701.640    93524768.02646
  23044146.080   121097812.36904  23044143.560    94361926.76946
  21581469.980   113411404.10806  21581466.060    88372515.01248
  21141407.180   111098865.94306  21141407.460    86570555.33449
 15 03 05 00 57  0.0000000  0  6G16G18G19G21G22G27
  20439738.500   107411555.42906  20439736.120    83697315.72649
  21788307.940   114498345.96006  21788305.920    89219489.84647
  22826373.220   119953405.91904  22826369.960    93470177.03947
  23057583.700   121168427.75404  23057581.260    94416951.74946
  21569759.800   113349866.57406  21569755.860    88324563.69548
  21133194.160   111055706.26606  21133194.480    86536924.42149
 15 03 05 00 57 30.0000000  0  6G16G18G19G21G22G27
  20439394.720   107409748.69806  20439392.320    83695907.86949
  21789229.900   114503191.06606  21789227.880    89223265.26047
  22813061.280   119883450.96004  22813057.920    93415666.70247
  23071037.300   121239127.48804  23071035.000    94472042.43446
  21558126.680   113288734.29906  21558122.780    88276928.16648
  21125014.500   111012721.63106  21125014.780    86503429.90749
 15 03 05 00 58  0.0000000  0  6G16G18G19G21G22G27
  20439155.260   107408490.17706  20439152.860    83694927.18949
  21790247.420   114508538.26906  21790245.400    89227431.91847
  22799768.980   119813599.98804  22799765.660    93361237.39847
  23084506.860   121309910.79204  23084504.620    94527198.24246
  21546571.080   113228009.92906  21546567.340    88229610.49648
  21116868.300   110969913.10606  21116868.580    86470072.61848
 15 03 05 00 58 30.0000000  0  6G16G18G19G21G22G27
  20439019.040   107407774.39106  20439016.640    83694369.42849
  21791359.320   114514381.21706  21791357.280    89231984.86847
  22786495.660   119743848.04204  22786492.360    93306885.25547
  23097990.900   121380770.06404  23097988.740    94582413.22547
  21535092.440   113167689.47606  21535088.760    88182607.56248
  21108754.620   110927275.40606  21108754.900    86436848.44549
 15 03 05 00 59  0.0000000  0  6G16G18G19G21G22G27
  20438987.840   107407610.45506  20438985.460    83694241.67449
  21792567.220   114520728.60306  21792565.220    89236930.89647
  22773242.640   119674203.29904  22773239.380    93252616.66447
  23111490.740   121451712.64604  23111488.740    94637693.13547
  21523692.720   113107783.73206  21523689.080    88135927.78048
  21100675.300   110884818.07206  21100675.540    86403764.80649
 15 03 05 00 59 30.0000000  0  6G16G18G19G21G22G27
  20439060.280   107407991.12506  20439057.920    83694538.28749
  21793869.620   114527572.58806  21793867.640    89242263.87547
  22760008.740   119604658.57504  22760005.260    93198425.97647
  23125004.840   121522729.64704  23125002.960    94693031.01946
  21512370.860   113048286.99806  21512367.240    88089566.70748
  21092628.920   110842534.14106  21092629.180    86370816.29748
 15 03 05 01 00  0.0000000  0  6G16G18G19G21G22G27
  20439237.220   107408921.07906  20439234.920    83695262.91749
  21795267.160   114534916.82406  21795265.180    89247986.66647
  22746794.780   119535218.48104  22746791.180    93144316.84747
  23138533.440   121593823.43004  23138531.560    94748428.76846
  21501127.920   112989205.09706  21501124.320    88043528.88448
  21084616.360   110800428.07006  21084616.680    86338006.37949
 15 03 05 01 00 30.0000000  0  6G16G18G19G21G22G27
  20439519.060   107410402.49506  20439516.820    83696417.25649
  21796760.020   114542762.42306  21796758.100    89254100.12747
  22733600.960   119465885.00904  22733597.520    93090290.80647
  23152076.780   121664994.43004  23152074.960    94803886.69045
  21489964.560   112930541.45506  21489961.000    87997816.96948
  21076638.140   110758502.31906  21076638.460    86305336.96549
 15 03 05 01 01  0.0000000  0  6G16G18G19G21G22G27
  20439905.680   107412434.05506  20439903.420    83698000.28449
  21798348.000   114551107.48306  21798346.120    89260602.77147
  22720427.080   119396656.54304  22720423.740    93036346.57447
  23165634.300   121736239.34404  23165632.340    94859402.20247
  21478881.020   112872297.06906  21478877.460    87952431.75148
  21068694.020   110716755.90806  21068694.320    86272807.29248
 15 03 05 01 01 30.0000000  0  6G16G18G19G21G22G27
  20440397.080   107415015.98006  20440394.740    83700012.16349
  21800031.300   114559952.58806  21800029.320    89267495.07647
  22707273.360   119327533.75904  22707270.120    92982484.67847
  23179205.660   121807557.13604  23179203.620    94914974.48846
  21467877.560   112814473.66706  21467873.960    87907374.57147
  21060784.220   110675189.74606  21060784.500    86240418.07549
 15 03 05 01 02  0.0000000  0  6G16G18G19G21G22G27
  20440993.320   107418149.07406  20440990.980    83702453.52549
  21801809.420   114569296.43506  21801807.360    89274776.01347
  22694139.780   119258516.66104  22694136.580    92928705.16747
  23192790.500   121878946.13104  23192788.520    94970602.26446
  21456954.460   112757072.62606  21456950.840    87862646.51548
  21052908.880   110633804.28206  21052909.140    86208169.65848
 15 03 05 01 02 30.0000000  0  6G16G18G19G21G22G27
  20441694.700   107421834.68306  20441692.380    83705325.41649
  21803682.580   114579140.33806  21803680.540    89282446.59747
  22681026.480   119189606.54604  22681023.480    92875008.97747
  23206389.040   121950406.05304  23206386.980    95026285.28746
  21446112.240   112700097.02706  21446108.660    87818249.95748
  21045068.200   110592601.23606  21045068.540    86176063.39249
 15 03 05 01 03  0.0000000  0  6G16G18G19G21G22G27
  20442500.460   107426069.16106  20442498.180    83708625.00149
  21805649.980   114589479.61006  21805648.020    89290503.17847
  22667933.120   119120800.34604  22667930.140    92821393.77647
  23219999.920   122021931.67004  23219998.040    95082019.50846
  21435350.720   112643545.25206  21435347.220    87774183.65348
  21037261.620   110551577.71706  21037262.020    86144097.01648
 15 03 05 01 03 30.0000000  0  6G16G18G19G21G22G27
  20443411.240   107430855.53206  20443408.980    83712354.62449
  21807712.140   114600316.53606  21807710.260    89298947.53547
  22654860.100   119052101.05404  22654857.080    92767861.87747
  23233623.580   122093524.34204  23233621.640    95137805.98846
  21424670.820   112587421.52806  21424667.260    87730450.88948
  21029489.860   110510736.94006  21029490.240    86112273.03248
 15 03 05 01 04  0.0000000  0  6G16G18G19G21G22G27
  20444427.780   107436197.47806  20444425.500    83716517.17149
  21809869.720   114611654.36706  21809867.800    89307782.21847
  22641808.080   118983512.16104  22641805.000    92714416.02347
  23247260.320   122165185.89704  23247258.320    95193646.13446
  21414073.420   112531731.13006  21414069.720    87687055.79248
  21021753.700   110470083.15806  21021754.020    86080594.76049
 15 03 05 01 04 30.0000000  0  6G16G18G19G21G22G27
  20445549.520   107442092.09306  20445547.220    83721110.37249
  21812121.880   114623489.05406  21812119.860    89317004.07147
  22628776.480   118915030.40404  22628773.460    92661053.64047
  23260909.380   122236911.68504  23260907.180    95249536.35445
  21403558.120   112476472.31406  21403554.240    87643996.98948
  21014052.580   110429613.44906  21014052.860    86049059.92649
 15 03 05 01 05  0.0000000  0  6G16G18G19G21G22G27
  20446777.180   107448543.29306  20446774.880    83726137.26849
  21814469.300   114635824.34606  21814467.160    89326615.99047
  22615766.100   118846660.34804  22615763.060    92607778.29447
  23274571.260   122308704.46604  23274568.800    95305478.77646
  21393125.920   112421650.96706  21393122.040    87601279.07048
  21006387.380   110389332.64406  21006387.660    86017672.28749
 15 03 05 01 05 30.0000000  0  6G16G18G19G21G22G27
  20448110.520   107455549.59506  20448108.160    83731596.71649
  21816911.480   114648657.78606  21816909.260    89336616.07647
  22602776.660   118778400.56704  22602773.720    92554588.88147
  23288245.200   122380560.73304  23288242.420    95361470.66545
  21382776.900   112367266.82006  21382773.100    87558901.82748
  20998757.900   110349239.56306  20998758.220    85986430.93249
 15 03 05 01 06  0.0000000  0  6G16G18G19G21G22G27
  20449549.300   107463110.04606  20449546.860    83737487.96949
  21819447.980   114661987.57806  21819445.860    89347002.93047
  22589807.980   118710250.17204  22589805.100    92501484.69947
  23301930.720   122452478.26304  23301927.840    95417510.30746
  21372511.300   112313320.80906  21372507.600    87516865.99348
  20991164.140   110309333.90606  20991164.440    85955335.62749
 15 03 05 01 06 30.0000000  0  6G16G18G19G21G22G27
  20451092.740   107471220.78106  20451090.280    83743808.01249
