     2.11           OBSERVATION DATA    M                   RINEX VERSION / TYPE
SPIDER V4,0,0,3554                      2015 03 16 00:41    PGM / RUN BY / DATE 
OBBL                                                        MARKER NAME         
OBBL                                                        MARKER NUMBER       
                                                            OBSERVER / AGENCY   
496644              LEICA GRX1200+GNSS  8.20/4.007          REC # / TYPE / VERS 
10321016            LEIAR25         NONE                    ANT # / TYPE        
  5247771.7331  -137806.0861  3611675.3627                  APPROX POSITION XYZ 
        0.1200        0.0000        0.0000                  ANTENNA: DELTA H/E/N
     1     1                                                WAVELENGTH FACT L1/2
     4    C1    L1    P2    L2                              # / TYPES OF OBSERV 
    30.000                                                  INTERVAL            
  2015    03    05    00    00    0.0000000     GPS         TIME OF FIRST OBS   
  2015    03    05    23    59   30.0000000     GPS         TIME OF LAST OBS    
    16                                                      LEAP SECONDS        
    38                                                      # OF SATELLITES     
   G 1   800   799   794   794                              PRN / # OF OBS      
   G 2   853   848   835   833                              PRN / # OF OBS      
   G 3   828   828   826   826                              PRN / # OF OBS      
   G 4   842   841   840   839                              PRN / # OF OBS      
   G 5   641   641   640   640                              PRN / # OF OBS      
   G 6   630   629   624   624                              PRN / # OF OBS      
   G 7   648   648   640   640                              PRN / # OF OBS      
   G 9   769   769   769   769                              PRN / # OF OBS      
   G10   729   726   725   723                              PRN / # OF OBS      
   G11   751   751   742   742                              PRN / # OF OBS      
   G12   796   795   794   794                              PRN / # OF OBS      
   G13   800   800   786   786                              PRN / # OF OBS      
   G14   393   393   392   392                              PRN / # OF OBS      
   G15   687   683   682   681                              PRN / # OF OBS      
   G16   661   659   656   656                              PRN / # OF OBS      
   G17   860   858   854   852                              PRN / # OF OBS      
   G18   854   842   816   815                              PRN / # OF OBS      
   G19   734   734   729   729                              PRN / # OF OBS      
   G20   744   743   737   737                              PRN / # OF OBS      
   G21   696   695   695   695                              PRN / # OF OBS      
   G22   657   656   640   640                              PRN / # OF OBS      
   G23   717   717   717   717                              PRN / # OF OBS      
   G24   811   809   806   805                              PRN / # OF OBS      
   G25   849   847   847   847                              PRN / # OF OBS      
   G27   794   790   786   783                              PRN / # OF OBS      
   G28   830   829   796   796                              PRN / # OF OBS      
   G29   726   726   726   726                              PRN / # OF OBS      
   G30   683   683   682   682                              PRN / # OF OBS      
   G31   684   683   681   680                              PRN / # OF OBS      
   G32   729   729   728   728                              PRN / # OF OBS      
   R 2    30    30    30    30                              PRN / # OF OBS      
   R 3    30    30    30    30                              PRN / # OF OBS      
   R 9    30    30    30    30                              PRN / # OF OBS      
   R15    30    30    30    30                              PRN / # OF OBS      
   R16    30    30    30    30                              PRN / # OF OBS      
   R17    30    30    30    30                              PRN / # OF OBS      
   R18    30    30    30    30                              PRN / # OF OBS      
   R19    30    30    30    30                              PRN / # OF OBS      
BIT 2 OF LLI FLAGS DATA COLLECTED UNDER A/S CONDITION       COMMENT             
SNR is mapped to RINEX snr flag value [2-9]                 COMMENT             
Lx:     = 25dBHz -> 1; 26-27dBHz -> 2; 28-31dBHz -> 3       COMMENT             
       32-35dBHz -> 4; 36-38dBHz -> 5; 39-41dBHz -> 6       COMMENT             
       42-44dBHz -> 7; 45-48dBHz -> 8; >=49dBHz -> 9        COMMENT             
                                                            END OF HEADER       
 15 03 05 00 00  0.0000000  0 14G16G18G21G22G27G31R02R03R09R15R16R17
                                R18R19
  21036053.400   110545227.05209  21036050.940    86139109.01648
  22503727.360   118257933.54109  22503724.680    92149065.77247
  21931994.080   115253416.51109  21931990.520    89807845.89648
  23276060.540   122316592.96508  23276058.060    95311651.33347
  22013723.720   115682910.51608  22013724.020    90142515.80348
  23439674.480   123176292.50508  23439673.180    95981510.28947
  22904495.600   122222770.40108  22904499.260    95062179.55707
  22797605.540   122037397.89107  22797604.840    94917968.71606
  21497239.100   114794055.10808  21497239.860    89284279.31704
  22352268.400   119443716.72908  22352272.440    92900679.18607
  19604772.040   104725173.27108  19604774.320    81452924.78008
  22935524.420   122732615.32907  22935526.100    95458702.85706
  20176132.360   107701618.58709  20176134.880    83767900.12608
  21471152.220   114856208.92808  21471153.060    89332616.42407
 15 03 05 00 00 30.0000000  0 15G16G18G19G21G22G27G31R02R03R09R15R16
                                R17R18R19
  21025931.520   110492035.29109  21025928.660    86097660.90148
  22495434.420   118214351.76309  22495431.360    92115105.98447
  24063984.580   126457081.56004                                
  21942866.340   115310549.46209  21942862.480    89852365.06648
  23259557.860   122229869.14108  23259555.600    95244074.40847
  22003920.500   115631394.49608  22003920.500    90102373.45347
  23458332.820   123274343.53708  23458331.020    96057913.62747
  22903374.340   122216788.50308  22903378.500    95057526.98607
  22781084.820   121948960.49307  22781083.740    94849184.11307
  21481745.380   114711319.33408  21481746.220    89219929.28604
  22376586.800   119573665.28508  22376590.240    93001750.20607
  19610751.880   104757117.32808  19610754.340    81477770.14908
  22951121.140   122816073.61707  22951122.480    95523614.86506
  20182861.920   107737541.20109  20182864.500    83795839.93808
  21461757.000   114805950.78508  21461758.000    89293526.81307
 15 03 05 00 01  0.0000000  0 14G16G18G21G22G27G31R02R03R09R15R16R17
                                R18R19
  21015874.360   110439184.05709  21015871.240    86056478.14148
  22487212.520   118171145.20609  22487209.480    92081438.53947
  21953788.860   115367947.17408  21953784.780    89897090.56048
  23243076.920   122143260.11608  23243074.620    95176586.92947
  21994144.120   115580020.49408  21994144.220    90062341.81648
  23477009.260   123372488.89708  23477006.860    96134390.43747
  22902386.580   122211517.95008  22902390.860    95053427.70607
  22764626.620   121860861.20806  22764626.460    94780662.47807
  21466364.920   114629188.95508  21466365.540    89156050.12904
  22400945.520   119703832.57707  22400948.800    93102991.35506
  19616886.840   104789888.75909  19616889.240    81503259.04808
  22966708.720   122899485.10107  22966709.880    95588490.44706
  20189629.200   107773665.43609  20189631.740    83823936.56508
  21452412.200   114755961.33408  21452412.860    89254646.19307
 15 03 05 00 01 30.0000000  0 14G16G18G21G22G27G31R02R03R09R15R16R17
                                R18R19
  21005880.620   110386666.52809  21005877.460    86015555.41448
  22479060.420   118128306.52509  22479057.140    92048057.76546
  21964759.780   115425599.26708  21964755.660    89942014.25547
  23226616.520   122056759.83609  23226614.240    95109184.14647
  21984392.880   115528779.57108  21984393.520    90022413.83648
  23495701.460   123470716.52508  23495698.260    96210931.33546
  22901530.820   122206950.81308  22901534.560    95049875.54506
  22748230.820   121773095.23108  22748231.820    94712400.07007
  21451096.800   114547658.59908  21451097.400    89092637.65605
  22425342.480   119834205.52408  22425345.300    93204392.48406
  19623174.820   104823476.85709  19623177.220    81529383.09208
  22982285.260   122982839.80106  22982287.020    95653321.89306
  20196432.080   107809980.52809  20196434.560    83852181.63308
  21443115.640   114706230.62408  21443116.340    89215966.81107
 15 03 05 00 02  0.0000000  0 15G16G18G19G21G22G27G31R02R03R09R15R16
                                R17R18R19
  20995951.120   110334486.08309  20995947.940    85974895.34648
  22470979.120   118085839.33509  22470975.760    92014966.47946
  24021024.400   126231339.27304                                
  21975778.720   115483504.70508  21975774.660    89987135.39048
  23210177.340   121970372.30508  23210175.180    95041869.23047
  21974667.480   115477672.80109  21974668.440    89982590.46748
  23514408.860   123569024.69108  23514405.600    96287535.01646
  22900807.320   122203089.22708  22900810.540    95046872.11006
  22731898.780   121685668.08708  22731900.260    94644401.24007
  21435942.060   114466732.94608  21435942.760    89029695.51505
  22449777.740   119964781.18507  22449780.520    93305951.21406
  19629615.580   104857881.35709  19629617.780    81556142.14308
  22997851.260   123066138.64707  22997854.080    95718109.90307
  20203270.740   107846485.94909  20203273.100    83880574.75308
  21433867.480   114656759.06708  21433867.980    89177488.97307
 15 03 05 00 02 30.0000000  0 14G16G18G21G22G27G31R02R03R09R15R16R17
                                R18R19
  20986085.180   110282639.68509  20986081.960    85934495.56748
  22462967.920   118043740.12609  22462964.680    91982161.93147
  21986844.640   115541656.88609  21986840.460    90032448.78147
  23193759.220   121884095.19609  23193756.960    94974640.38447
  21964966.980   115426695.17609  21964967.300    89942867.66347
  23533130.440   123667405.62608  23533127.940    96364195.42447
  22900215.200   122199929.09108  22900217.380    95044414.31006
  22715629.720   121598579.31907  22715631.080    94576665.57607
  21420900.360   114386410.53308  21420901.400    88967222.52705
  22474249.020   120095549.41807  22474252.160    93407659.74106
  19636207.900   104893095.70909  19636210.000    81583531.08908
  23013405.720   123149375.63607  23013408.640    95782849.80006
  20210143.800   107883175.03709  20210146.280    83909110.75108
  21424666.800   114607540.73508  21424667.140    89139208.05207
 15 03 05 00 03  0.0000000  0 14G16G18G21G22G27G31R02R03R09R15R16R17
                                R18R19
  20976284.340   110231135.71309  20976281.160    85894362.60448
  22455028.400   118002017.60409  22455025.700    91949650.89847
  21997958.380   115600060.18308  21997954.340    90077957.82448
  23177364.240   121797938.03309  23177361.300    94907504.97747
  21955292.300   115375853.21209  21955292.280    89903250.54847
  23551866.520   123765863.06408  23551864.880    96440915.46547
  22899755.980   122197478.02408  22899758.100    95042507.98407
  22699426.120   121511840.16108  22699427.080    94509201.82607
  21405973.520   114306701.61308  21405974.640    88905226.69205
  22498756.760   120226513.70107  22498761.340    93509520.76407
  19642952.720   104929124.81408  19642954.440    81611553.69108
  23028950.220   123232557.10407  23028951.660    95847546.45406
  20217052.240   107920052.91609  20217054.840    83937793.52608
  21415514.320   114558581.58808  21415514.880    89101128.72807
 15 03 05 00 03 30.0000000  0 14G16G18G21G22G27G31R02R03R09R15R16R17
                                R18R19
  20966548.640   110179974.61609  20966545.540    85854496.82748
  22447160.620   117960672.07509  22447158.340    91917433.60947
  22009119.200   115658711.53709  22009115.320    90123660.19647
  23160992.320   121711901.48809  23160988.300    94840463.58347
  21945642.960   115325144.84508  21945642.420    89863737.57447
  23570616.080   123864392.01808  23570614.880    96517691.21446
  22899429.380   122195734.90908  22899432.440    95041152.24007
  22683288.620   121425452.67307  22683288.660    94442011.64307
  21391161.780   114227607.61108  21391162.700    88843709.15905
  22523300.320   120357668.24107  22523306.340    93611529.82007
  19649849.020   104965965.02108  19649850.980    81640207.17908
  23044484.160   123315680.14706  23044484.440    95912197.71606
  20223995.300   107957115.77009  20223998.020    83966620.20008
  21406409.920   114509878.93808  21406410.800    89063248.94107
 15 03 05 00 04  0.0000000  0 14G16G18G21G22G27G31R02R03R09R15R16R17
                                R18R19
  20956878.840   110129161.24509  20956876.060    85814902.01948
  22439365.220   117919707.87108  22439363.160    91885513.44947
  22020327.400   115717611.61909  22020323.440    90169556.37847
  23144644.500   121625991.16209  23144639.260    94773520.52546
  21936019.400   115274573.11308  21936019.080    89824331.04847
  23589379.400   123962992.75308  23589377.640    96594522.87145
  22899236.080   122194703.48208  22899239.580    95040350.04607
  22667217.880   121339424.23007  22667218.060    94375100.69607
  21376466.340   114149135.13108  21376467.200    88782675.01005
  22547879.700   120489011.39508  22547886.360    93713685.50506
  19656897.360   105003617.92208  19656899.480    81669492.75208
  23060007.260   123398747.53007  23060007.860    95976805.72806
  20230973.480   107994365.08809  20230976.260    83995591.89208
  21397353.760   114461435.09408  21397354.640    89025570.40807
 15 03 05 00 04 30.0000000  0 14G16G18G21G22G27G31R02R03R09R15R16R17
                                R18R19
  20947276.540   110078702.58609  20947274.000    85775583.59448
  22431643.700   117879132.25709  22431641.520    91853896.12146
  22031583.540   115776762.84809  22031579.580    90215648.25747
  23128322.240   121540214.79209  23128315.900    94706681.84046
  21926422.820   115224142.72909  21926422.960    89785034.66848
  23608156.060   124061667.07407  23608154.540    96671411.91045
  22899177.100   122194389.51608  22899180.500    95040105.87607
  22651215.580   121253764.67007  22651216.000    94308476.63107
  21361888.660   114071292.33208  21361889.960    88722130.63505
  22572494.940   120620543.63308  22572500.980    93815988.27706
  19664098.540   105042086.15809  19664100.800    81699412.47708
  23075520.900   123481763.55207  23075521.700    96041373.72006
  20237987.100   108031804.19109  20237989.980    84024711.19008
  21388346.620   114413253.82708  21388347.200    88988096.12107
 15 03 05 00 05  0.0000000  0 15G16G18G19G21G22G27G31R02R03R09R15R16
                                R17R18R19
  20937741.220   110028594.44409  20937738.720    85736538.29848
  22423995.380   117838940.65009  22423992.980    91822578.00647
  23935659.140   125782738.89504                                
  22042886.000   115836157.34509  22042881.920    90261929.68347
  23112024.500   121454568.82109  23112017.860    94639944.81246
  21916852.100   115173847.45208  21916852.080    89745843.56947
  23626944.880   124160406.06607  23626944.320    96748351.33546
  22899251.620   122194787.72708  22899255.140    95040415.64107
  22635281.740   121168471.68007  22635282.600    94242137.64807
  21347428.360   113994076.63207  21347429.860    88662074.02905
  22597143.900   120752255.98308  22597148.700    93918431.10006
  19671451.060   105081361.97409  19671453.520    81729960.30708
  23091023.540   123564720.91707  23091024.160    96105896.12306
  20245034.560   108069425.07109  20245037.560    84053971.89308
  21379387.380   114365328.15108  21379387.940    88950820.57807
 15 03 05 00 05 30.0000000  0 14G16G18G21G22G27G31R02R03R09R15R16R17
                                R18R19
  20928273.920   109978842.53709  20928271.180    85697770.58948
  22416421.680   117799138.96409  22416419.060    91791563.72647
  22054235.120   115895797.16309  22054231.020    90308402.28948
  23095752.420   121369059.81608  23095746.040    94573314.47247
  21907307.740   115123691.05509  21907307.120    89706760.69147
  23645746.700   124259210.56308  23645746.500    96825341.77846
  22899460.160   122195902.39908  22899463.820    95041282.62007
  22619418.020   121083553.21107  22619418.740    94176090.02707
  21333086.760   113917495.16007  21333088.460    88602510.65405
  22621826.060   120884146.62008  22621829.100    94021012.54206
  19678955.420   105121447.25409  19678957.820    81761137.73408
  23106515.940   123647623.30907  23106516.380    96170375.72606
  20252116.800   108107230.04409  20252119.660    84083375.75708
  21370476.140   114317661.02908  21370477.360    88913746.17507
 15 03 05 00 06  0.0000000  0 15G16G18G19G21G22G27G31R02R03R09R15R16
                                R17R18R19
  20918873.480   109929441.84609  20918870.340    85659276.56048
  22408921.260   117759721.75009  22408918.220    91760849.03447
  23907369.640   125634076.02303                                
  22065629.160   115955673.29709  22065625.260    90355059.02547
  23079505.180   121283683.41708  23079499.540    94506787.43947
  21897788.440   115073666.36308  21897787.520    89667780.43247
  23664559.440   124358070.35508  23664558.600    96902375.23546
  22899802.180   122197726.89008  22899805.220    95042701.76906
  22603624.040   120999006.70307  22603624.220    94110331.65207
  21318863.460   113841544.11108  21318865.160    88543437.59905
  22646539.320   121016205.84807  22646542.320    94123725.13806
  19686609.460   105162332.56809  19686611.840    81792937.40608
  23121996.080   123730462.70706  23121997.420    96234806.38306
  20259231.740   108145210.25609  20259234.680    84112915.93008
  21361612.040   114270244.64108  21361613.760    88876866.81207
 15 03 05 00 06 30.0000000  0 15G16G18G19G21G22G27G31R02R03R09R15R16
                                R17R18R19
  20909540.220   109880394.71809  20909536.880    85621058.02748
  22401494.040   117720691.07509  22401490.920    91730435.55347
  23893252.760   125559892.58404  23893248.140    97838856.61253
  22077067.920   116015784.27408  22077064.200    90401898.76147
  23063283.900   121198442.73008  23063279.020    94440366.17147
  21888294.240   115023773.63708  21888293.280    89628903.02647
  23683382.220   124456983.07908  23683380.620    96979449.94446
  22900277.360   122200262.41908  22900280.720    95044673.87407
  22587900.560   120914836.87007  22587900.500    94044866.26607
  21304759.200   113766227.10308  21304760.740    88484857.71805
  22671282.620   121148429.14707  22671287.080    94226565.40406
  19694412.800   105204016.77508  19694415.360    81825358.44608
  23137464.500   123813239.28607  23137466.660    96299188.13207
  20266379.420   108183364.48609  20266382.140    84142591.41908
  21352795.080   114223078.37408  21352796.240    88840181.95007
 15 03 05 00 07  0.0000000  0 14G16G18G21G22G27G31R02R03R09R15R16R17
                                R18R19
  20900277.300   109831716.42109  20900273.800    85583126.90548
  22394142.940   117682062.13209  22394139.940    91700335.06847
  22088553.380   116076141.29308  22088549.660    90448930.21647
  23047091.980   121113354.09909  23047087.440    94374063.41647
  21878827.500   114974026.18708  21878826.260    89590138.77146
  23702217.000   124555959.23908  23702215.280    97056574.10147
  22900888.460   122203522.83508  22900891.900    95047209.78006
  22572251.020   120831061.47908  22572251.160    93979707.69107
  21290776.700   113691561.19908  21290778.140    88426784.23405
  22696058.380   121280824.76308  22696064.060    94329539.68506
  19702367.760   105246511.06708  19702370.180    81858409.56008
  23152923.860   123895965.79208  23152925.900    96363530.94706
  20273561.860   108221704.58009  20273564.420    84172411.49408
  21344027.180   114176174.65408  21344028.000    88803701.38907
 15 03 05 00 07 30.0000000  0 14G16G18G21G22G27G31R02R03R09R15R16R17
                                R18R19
  20891080.660   109783388.05909  20891077.260    85545468.46848
  22386864.660   117643815.94409  22386862.040    91670532.87247
  22100081.220   116136721.52608  22100077.620    90496135.59047
  23030925.900   121028399.12809  23030921.260    94307864.78847
  21869384.540   114924403.07608  21869383.420    89551471.45347
  23721059.440   124654974.76708  23721058.000    97133728.98047
  22901631.600   122207487.58508  22901634.920    95050293.53307
  22556671.600   120747663.40907  22556672.040    93914842.58607
  21276912.880   113617528.54908  21276913.900    88369203.33605
  22720862.280   121413368.62208  22720867.260    94432629.21006
  19710470.140   105289792.25409  19710472.320    81892072.70308
  23168370.260   123978620.59708  23168371.800    96427818.00807
  20280774.760   108260207.77809  20280777.220    84202358.43008
  21335304.180   114129511.75608  21335304.720    88767408.06207
 15 03 05 00 08  0.0000000  0 14G16G18G21G22G27G31R02R03R09R15R16R17
                                R18R19
  20881951.860   109735417.35509  20881948.520    85508088.72948
  22379660.880   117605959.84609  22379658.460    91641034.62447
  22111652.300   116197528.71408  22111649.000    90543517.81047
  23014786.880   120943586.17709  23014782.160    94241776.81347
  21859966.580   114874909.97509  21859965.500    89512905.43748
  23739910.120   124754032.48208  23739908.560    97210916.74147
  22902507.820   122212163.12708  22902511.820    95053930.06107
  22541163.840   120664653.22707  22541164.540    93850279.14406
  21263169.340   113544137.90508  21263170.140    88312121.75805
  22745694.280   121546062.37108  22745699.160    94535835.35706
  19718720.620   105333863.89709  19718722.480    81926350.61208
  23183804.180   124061208.75908  23183805.560    96492053.25507
  20288018.980   108298878.25509  20288021.840    84232435.47708
  21326627.000   114083094.39708  21326627.500    88731305.70307
 15 03 05 00 08 30.0000000  0 14G16G18G21G22G27G31R02R03R09R15R16R17
                                R18R19
  20872893.820   109687818.56009  20872890.500    85470998.76348
  22372534.360   117568508.10109  22372531.740    91611851.46147
  22123268.380   116258573.12608  22123265.460    90591084.88247
  22998677.480   120858930.19909  22998672.860    94175811.16747
  21850575.620   114825559.10408  21850574.620    89474450.24148
  23758770.560   124853142.22308  23758768.680    97288145.00846
  22903519.900   122217562.25608  22903523.140    95058129.45006
  22525731.720   120582047.40307  22525732.440    93786030.22807
  21249548.880   113471405.37608  21249549.980    88255552.02005
  22770555.980   121678914.12008  22770560.560    94639164.38506
  19727120.860   105378736.53008  19727122.580    81961251.51808
  23199227.780   124143742.46908  23199229.640    96556246.14007
  20295296.640   108337727.06909  20295299.840    84262651.22708
  21317998.140   114036934.22608  21317998.140    88695403.36207
 15 03 05 00 09  0.0000000  0 14G16G18G21G22G27G31R02R03R09R15R16R17
                                R18R19
  20863907.960   109640597.52309  20863904.500    85434203.14448
  22365485.760   117531466.28409  22365482.940    91582987.74447
  22134929.960   116319856.80608  22134927.200    90638838.39147
  22982598.840   120774438.21208  22982594.600    94109973.31447
  21841212.380   114776354.50709  21841211.480    89436109.01348
  23777640.540   124952304.70808  23777638.400    97365414.40546
  22904668.380   122223689.50408  22904671.180    95062895.13306
  22510377.420   120499854.15908  22510378.220    93722102.18107
  21236052.980   113399338.02108  21236054.100    88199499.65905
  22795447.420   121811924.16508  22795450.620    94742616.47906
  19735671.280   105424412.10809  19735673.480    81996776.97008
  23214641.680   124226225.30307  23214643.300    96620399.45706
  20302608.260   108376756.58009  20302611.140    84293007.50308
  21309417.760   113991034.50509  21309417.120    88659703.58907
 15 03 05 00 09 30.0000000  0 14G16G18G21G22G27G31R02R03R09R15R16R17
                                R18R19
  20854992.260   109593744.26009  20854988.680    85397694.10448
  22358512.940   117494823.92809  22358510.120    91554435.28347
  22146634.560   116381365.95608  22146631.900    90686767.57847
  22966549.380   120690100.54708  22966545.580    94044255.69447
  21831874.500   114727283.93708  21831873.860    89397872.25948
  23796517.720   125051505.33708  23796515.640    97442713.49046
  22905950.600   122230532.90308  22905953.080    95068217.76606
  22495099.120   120418065.82707  22495099.900    93658489.07107
  21222679.800   113327926.84808  21222681.000    88143957.70904
  22820365.000   121945075.52707  22820367.100    94846178.50806
  19744369.380   105470875.79409  19744371.720    82032915.39708
  23230043.840   124308644.26406  23230044.840    96684503.08206
  20309950.960   108415952.91309  20309953.900    84323493.58708
  21300883.660   113945381.92309  21300882.380    88624196.04407
 15 03 05 00 10  0.0000000  0 14G16G18G21G22G27G31R02R03R09R15R16R17
                                R18R19
  20846147.920   109547266.17809  20846144.420    85361477.43048
  22351617.300   117458587.86709  22351614.800    91526199.39847
  22158382.980   116443104.12808  22158380.420    90734875.23847
  22950530.900   120605925.07608  22950527.060    93978664.47647
  21822562.920   114678352.56208  21822562.820    89359743.95848
  23815402.120   125150745.92808  23815400.440    97520043.73246
  22907368.040   122238098.17908  22907369.280    95074101.95506
  22479898.140   120336691.50308  22479898.820    93595197.96307
  21209431.180   113257180.22008  21209432.360    88088932.58304
  22845309.020   122078369.47007  22845311.920    94949851.48307
  19753215.580   105518130.64409  19753218.060    82069669.14808
  23245434.540   124391004.33607  23245435.080    96748560.95106
  20317325.700   108455319.88009  20317328.480    84354112.34608
  21292396.340   113899981.03508  21292395.320    88588884.23607
 15 03 05 00 10 30.0000000  0 14G16G18G21G22G27G31R02R03R09R15R16R17
                                R18R19
  20837373.600   109501156.73109  20837370.240    85325548.00848
  22344797.560   117422752.21508  22344795.720    91498275.51347
  22170173.140   116505060.89608  22170170.600    90783153.23347
  22934542.380   120521906.57908  22934538.680    93913195.58447
  21813276.200   114629552.19008  21813276.440    89321717.72148
  23834291.880   125250015.77308  23834290.680    97597396.77345
  22908919.500   122246376.86908  22908920.820    95080540.98407
  22464773.600   120255727.55007  22464773.820    93532226.04007
  21196306.080   113187093.21508  21196307.220    88034420.42204
  22870277.720   122211794.00708  22870281.480    95053625.98807
  19762207.840   105566166.22508  19762210.440    82107030.14308
  23260812.740   124473296.79807  23260813.320    96812566.17006
  20324730.700   108494847.66409  20324733.020    84384856.15308
  21283954.600   113854822.57908  21283953.680    88553761.03408
 15 03 05 00 11  0.0000000  0 15G16G18G19G21G22G27G31R02R03R09R15R16
                                R17R18R19
  20828668.900   109455413.63609  20828665.580    85289904.05248
  22338053.520   117387313.64509  22338051.740    91470661.05046
  23767136.140   124897144.36603                                
  22182003.640   116567229.12209  22182000.640    90831596.01347
  22918583.460   120438043.45708  22918580.280    93847847.74647
  21804013.700   114580878.53608  21804013.840    89283790.21647
  23853186.620   125349307.50608  23853185.360    97674766.80245
  22910604.140   122255365.33508  22910605.720    95087532.05207
  22449725.560   120175173.83707  22449725.720    93469573.21007
  21183304.460   113117664.42509  21183304.780    87980420.26904
  22895269.580   122345340.72808  22895273.820    95157495.52207
  19771344.940   105614975.74008  19771347.760    82144993.09308
  23276177.520   124555516.62807  23276178.060    96876514.89306
  20332164.780   108534530.23409  20332167.160    84415720.37808
  21275556.880   113809901.24208  21275556.040    88518822.21408
 15 03 05 00 11 30.0000000  0 14G16G18G21G22G27G31R02R03R09R15R16R17
                                R18R19
  20820036.400   109410049.87109  20820032.900    85254555.68248
  22331387.920   117352285.23709  22331385.620    91443366.21047
  22193876.380   116629619.11009  22193872.720    90880211.59647
  22902656.900   120354349.56808  22902654.240    93782631.78247
  21794777.480   114532342.70708  21794777.160    89245970.14347
  23872087.360   125448629.38408  23872086.080    97752160.31045
  22912423.980   122265075.01608  22912425.940    95095084.02207
  22434756.800   120095045.55908  22434757.260    93407251.25107
  21170428.760   113048908.17908  21170429.080    87926943.20504
  22920285.380   122479016.50407  22920290.200    95261465.41706
  19780628.620   105664567.83908  19780631.580    82183564.69208
  23291530.900   124637674.77706  23291530.460    96940415.62606
  20339629.500   108574377.58709  20339632.000    84446712.79108
  21267205.620   113765227.50108  21267205.020    88484075.99208
 15 03 05 00 12  0.0000000  0 14G16G18G21G22G27G31R02R03R09R15R16R17
                                R18R19
  20811475.720   109365063.19709  20811472.200    85219501.13948
  22324799.960   117317664.03109  22324797.040    91416388.69047
  22205790.120   116692224.58109  22205786.140    90928995.09247
  22886762.260   120270823.19408  22886760.040    93717546.31647
  21785566.600   114483940.36508  21785566.480    89208254.06948
  23890992.280   125547974.53708  23890991.260    97829572.00145
  22914377.200   122275501.73906  22914380.080    95103193.65007
  22419867.520   120015342.72808  22419868.000    93345260.20607
  21157678.620   112980823.55608  21157679.320    87873988.53004
  22945323.360   122612812.61807  22945328.640    95365528.92206
  19790057.820   105714936.01709  19790060.440    82222739.94408
  23306871.320   124719766.40607  23306871.880    97004264.67507
  20347123.940   108614383.71009  20347126.480    84477828.64808
  21258899.620   113720795.77708  21258898.960    88449518.02008
 15 03 05 00 12 30.0000000  0 14G16G18G21G22G27G31R02R03R09R15R16R17
                                R18R19
  20802992.140   109320481.13909  20802988.540    85184761.87748
  22318294.820   117283477.95209  22318291.300    91389750.22647
  22217749.240   116755069.53208  22217745.400    90977965.19047
  22870905.000   120187492.85108  22870902.860    93652613.63947
  21776386.080   114435697.29008  21776386.580    89170662.08348
  23909905.620   125647365.40607  23909905.060    97907019.32545
  22916469.640   122286671.68806  22916472.840    95111881.43507
  22405063.200   119936095.78108  22405064.400    93283623.71307
  21145059.660   112913439.54308  21145060.380    87821578.76404
  22970388.180   122746752.29607  22970393.600    95469704.05806
  19799636.700   105766103.80408  19799639.020    82262537.09308
  23322204.280   124801817.51507  23322206.180    97068082.18507
  20354652.760   108654573.27609  20354655.520    84509087.20908
  21250643.680   113676631.79208  21250642.760    88415168.31407
 15 03 05 00 13  0.0000000  0 14G16G18G21G22G27G31R02R03R09R15R16R17
                                R18R19
  20794579.540   109276272.04909  20794575.820    85150313.24448
  22311866.360   117249694.55009  22311862.420    91363425.52647
  22229746.720   116818117.41908  22229743.060    91027093.42047
  22855079.160   120104327.26408  22855076.500    93587809.34547
  21767229.700   114387579.44709  21767230.320    89133167.65647
  23928820.360   125746765.54707  23928820.420    97984473.87045
  22918695.360   122298550.58908  22918698.700    95121120.56807
  22390338.640   119857274.39508  22390339.660    93222318.20107
  21132566.080   112846724.64808  21132567.240    87769689.42504
  22995472.440   122880795.99107  22995478.520    95573960.09106
  19809358.240   105818034.13308  19809360.500    82302927.33808
  23337523.400   124883793.07607  23337525.080    97131840.93007
  20362209.340   108694910.35709  20362212.140    84540460.49208
  21242431.040   113632699.99209  21242430.040    88380999.14507
 15 03 05 00 13 30.0000000  0 14G16G18G21G22G27G31R02R03R09R15R16R17
                                R18R19
  20786238.940   109232440.73109  20786235.140    85116158.97448
  22305515.240   117216318.60909  22305511.240    91337418.31447
  22241783.240   116881369.77409  22241779.520    91076380.96747
  22839285.980   120021332.45808  22839282.260    93523138.12247
  21758097.860   114339589.93009  21758097.780    89095773.23946
  23947737.360   125846175.25008  23947737.640    98061935.84546
  22921055.140   122311141.44508  22921058.240    95130913.50406
  22375695.160   119778885.78808  22375695.640    93161349.30907
  21120199.100   112780685.07208  21120200.420    87718325.29805
  23020576.080   123014942.55807  23020583.020    95678296.15406
  19819222.520   105870727.76608  19819224.780    82343911.24108
  23352829.260   124965695.57507  23352830.020    97195542.83806
  20369793.720   108735396.69009  20369796.460    84571949.84808
  21234262.100   113589002.46108  21234260.960    88347012.20307
 15 03 05 00 14  0.0000000  0 15G16G18G19G21G22G27G31R02R03R09R15R16
                                R17R18R19
  20777971.680   109188994.49409  20777967.860    85082304.77849
  22299242.680   117183356.98009  22299238.960    91311733.94347
  23683978.580   124460150.47804  23683977.320    96981931.49644
  22253859.360   116944829.89208  22253855.780    91125830.39647
  22823526.800   119938516.62509  22823522.080    93458606.35247
  21748991.440   114291734.21609  21748990.000    89058483.08746
  23966657.180   125945596.76908  23966657.080    98139407.01746
  22923549.480   122324449.96308  22923552.620    95141264.62406
  22361134.320   119700939.65008  22361134.160    93100724.59507
  21107960.200   112715329.39308  21107961.520    87667493.09704
  23045699.720   123149194.20107  23045706.280    95782713.92005
  19829230.180   105924187.61009  19829232.600    82385491.10408
  23368122.340   125047530.36707  23368122.440    97259192.13106
  20377406.800   108776036.25509  20377409.440    84603558.40108
  21226137.740   113545544.00609  21226137.060    88313211.17907
 15 03 05 00 14 30.0000000  0 14G16G18G21G22G27G31R02R03R09R15R16R17
                                R18R19
  20769778.840   109145939.76009  20769774.980    85048755.65348
  22293049.940   117150815.66609  22293047.000    91286377.09947
  22265975.400   117008500.62708  22265972.220    91175443.95847
  22807802.940   119855886.65709  22807797.680    93394219.43047
  21739911.280   114244016.79209  21739909.540    89021300.71347
  23985579.680   126045031.94108  23985578.700    98216888.84046
  22926179.200   122338480.67308  22926183.660    95152177.40407
  22346657.880   119623444.74108  22346657.500    93040450.83207
  21095850.520   112650664.99208  21095851.940    87617198.55005
  23070843.220   123283550.70007  23070848.240    95887213.15705
  19839381.700   105978415.39009  19839384.140    82427668.25508
  23383403.280   125129301.62208  23383403.700    97322791.97306
  20385049.200   108816831.92409  20385052.000    84635288.38808
  21218059.000   113502328.04509  21218058.620    88279598.83708
 15 03 05 00 15  0.0000000  0  6G16G18G21G22G27G31
  20761660.360   109103276.56009  20761656.340    85015511.60349
  22286937.160   117118694.48609  22286934.820    91261347.61147
  22278130.880   117072377.95109  22278127.680    91225218.50247
  22792114.460   119773443.54809  22792109.440    93329978.10347
  21730856.980   114196435.80608  21730855.660    88984224.62348
  24004503.680   126144476.03508  24004501.460    98294377.63245
 15 03 05 00 15 30.0000000  0  6G16G18G21G22G27G31
  20753617.680   109061011.41109  20753613.400    84982577.71649
  22280905.700   117086999.51409  22280903.320    91236650.25347
  22290326.420   117136465.05809  22290323.000    91275156.49747
  22776462.820   119691194.50208  22776458.760    93265887.96647
  21721829.100   114148995.79508  21721828.720    88947258.44148
  24023429.540   126243930.71108  24023425.980    98371874.59445
 15 03 05 00 16  0.0000000  0  6G16G18G21G22G27G31
  20745649.780   109019140.10309  20745645.680    84949950.72948
  22274954.780   117055726.39109  22274951.940    91212281.59047
  22302560.280   117200753.57208  22302556.600    91325251.43947
  22760847.600   119609136.35109  22760844.520    93201946.57847
  21712827.040   114101690.79309  21712827.240    88910397.45848
  24042355.400   126343387.29407  24042351.680    98449373.08745
 15 03 05 00 16 30.0000000  0  7G16G18G19G21G22G27G31
  20737750.700   108977631.92809  20737747.080    84917606.73248
  22269078.300   117024843.29109  22269074.820    91188216.88047
  23615240.980   124098919.32705  23615234.760    96700440.87043
  22314825.640   117265209.10508  22314821.840    91375476.53547
  22745263.240   119527239.21409  22745260.640    93138130.66047
  21703844.660   114054488.13609  21703844.960    88873616.19647
  24061274.720   126442810.11108  24061272.040    98526845.31345
 15 03 05 00 17  0.0000000  0  7G16G18G19G21G22G27G31
  20729926.200   108936515.08009  20729922.620    84885567.64648
  22263281.200   116994378.66809  22263277.320    91164478.23347
  23601548.800   124026961.45105  23601542.400    96644369.67244
  22327127.240   117329855.61008  22327123.800    91425850.44247
  22729715.120   119445531.93909  22729712.420    93074462.68047
  21694886.880   114007414.13009  21694886.600    88836935.13847
  24080192.440   126542222.55708  24080190.560    98604309.42846
 15 03 05 00 17 30.0000000  0  7G16G18G19G21G22G27G31
  20722199.100   108895908.66509  20722194.960    84853926.27548
  22257585.980   116964450.69509  22257582.100    91141157.76347
  23587895.820   123955219.83804  23587895.260    96588487.19843
  22339487.160   117394808.31108  22339484.360    91476462.93447
  22714225.840   119364134.10609  22714222.840    93011035.83747
  21685975.840   113960585.81509  21685975.020    88800445.55247
  24099130.340   126641739.01608  24099128.260    98681854.50846
 15 03 05 00 18  0.0000000  0  6G16G18G21G22G27G31
  20714536.480   108855641.75009  20714531.880    84822549.45548
  22251960.120   116934888.18509  22251956.560    91118122.05547
  22351872.340   117459893.36808  22351869.740    91527178.56547
  22698763.020   119282876.18409  22698759.280    92947718.01047
  21677078.600   113913830.76309  21677077.600    88764013.05547
  24118054.760   126741184.04908  24118052.400    98759343.93546
 15 03 05 00 18 30.0000000  0  6G16G18G21G22G27G31
  20706949.860   108815774.34209  20706945.300    84791483.93248
  22246415.220   116905751.11509  22246412.100    91095417.85847
  22364293.540   117525166.95408  22364290.560    91578041.08147
  22683338.220   119201819.11709  22683333.560    92884556.72247
  21668206.460   113867207.28209  21668205.080    88727683.07748
  24136975.980   126840613.18808  24136973.720    98836821.02446
 15 03 05 00 19  0.0000000  0  6G16G18G21G22G27G31
  20699441.480   108776317.93909  20699437.100    84760738.68248
  22240953.500   116877050.55809  22240950.800    91073053.80147
  22376752.020   117590636.11008  22376748.820    91629055.99947
  22667953.740   119120974.83708  22667948.480    92821561.24147
  21659361.040   113820724.76209  21659359.880    88691462.95248
  24155895.080   126940033.08608  24155892.660    98914290.88845
 15 03 05 00 19 30.0000000  0  6G16G18G21G22G27G31
  20692011.200   108737271.67709  20692007.020    84730313.03648
  22235574.840   116848784.82809  22235572.060    91051028.58047
  22389246.840   117656296.71408  22389243.560    91680220.11547
  22652609.780   119040343.62209  22652604.860    92758731.77047
  21650542.060   113774380.81209  21650541.320    88655350.80048
  24174811.160   127039438.41108  24174808.320    98991749.35445
 15 03 05 00 20  0.0000000  0  7G16G18G19G21G22G27G31
  20684660.760   108698644.59109  20684656.920    84700214.01649
  22230280.660   116820963.04409  22230277.600    91029349.28047
  23519885.340   123597835.92704  23519875.220    96309964.03743
  22401779.000   117722153.53808  22401775.420    91731537.11747
  22637308.380   118959935.05509  22637304.260    92696075.77448
  21641750.820   113728182.45509  21641750.460    88619352.09048
  24193724.300   127138833.22107  24193723.040    99069199.65545
 15 03 05 00 20 30.0000000  0  7G16G18G19G21G22G27G31
  20677388.800   108660429.90809  20677385.340    84670436.34949
  22225069.440   116793577.76209  22225066.280    91008010.12747
  23506341.880   123526683.65104  23506337.180    96254520.67544
  22414346.740   117788197.12409  22414342.880    91782999.64947
  22622048.460   118879743.34309  22622045.100    92633588.75448
  21632985.500   113682121.33309  21632985.480    88583460.33848
  24212633.220   127238206.38107  24212633.900    99146633.09946
 15 03 05 00 21  0.0000000  0  7G16G18G19G21G22G27G31
  20670196.140   108622632.36109  20670192.960    84640983.74248
  22219942.100   116766633.17709  22219938.940    90987014.36547
  23492820.280   123455640.72905  23492817.720    96199162.77143
  22426950.220   117854427.86209  22426946.180    91834608.00047
  22606831.180   118799774.33909  22606828.020    92571275.26348
  21624246.920   113636200.16409  21624246.900    88547677.64548
  24231538.760   127337557.80808  24231540.260    99224049.59145
 15 03 05 00 21 30.0000000  0  7G16G18G19G21G22G27G31
  20663078.780   108585231.64308  20663075.840    84611840.33748
  22214894.640   116740108.21409  22214892.000    90966345.57247
  23479316.500   123384685.82105  23479313.820    96143873.23243
  22439584.600   117920821.62308  22439580.560    91886343.40247
  22591652.580   118720008.33609  22591649.340    92509119.98448
  21615530.920   113590397.09609  21615530.740    88511986.95348
  24250436.280   127436862.91208  24250437.180    99301429.93845
 15 03 05 00 22  0.0000000  0  7G16G18G19G21G22G27G31
  20656041.020   108548250.10109  20656038.280    84583023.55548
  22209931.180   116714024.96709  22209929.020    90946020.99647
  23465833.680   123313838.88105  23465831.020    96088667.94144
  22452253.420   117987396.79708  22452249.560    91938220.16847
  22576516.760   118640468.35109  22576513.220    92447140.81347
  21606841.140   113544732.66409  21606841.000    88476404.28548
  24269328.720   127536139.40307  24269328.980    99378787.97245
 15 03 05 00 22 30.0000000  0  7G16G18G19G21G22G27G31
  20649084.960   108511697.35909  20649082.500    84554540.90548
  22205053.500   116688392.44309  22205051.520    90926047.60747
  23452373.420   123243108.18206  23452371.860    96033553.14145
  22464958.080   118054160.27008  22464954.480    91990243.66347
  22561425.780   118561165.29909  22561421.180    92385346.28547
  21598179.260   113499214.81609  21598179.020    88440935.86348
  24288216.380   127635391.96707  24288216.640    99456127.42245
 15 03 05 00 23  0.0000000  0  7G16G18G19G21G22G27G31
  20642209.120   108475564.64409  20642206.600    84526385.56048
  22200259.940   116663201.90309  22200257.760    90906418.63947
  23438934.220   123172483.04106  23438932.520    95978520.62344
  22477695.940   118121099.46408  22477692.840    92042404.09047
  22546378.160   118482091.25109  22546373.000    92323730.22547
  21589543.240   113453833.13109  21589543.020    88405573.56848
  24307096.800   127734607.69107  24307097.400    99533438.18145
 15 03 05 00 23 30.0000000  0  7G16G18G19G21G22G27G31
  20635414.100   108439856.29409  20635411.380    84498560.88048
  22195550.960   116638456.32209  22195548.480    90887136.39147
  23425515.720   123101965.87706  23425513.700    95923572.13743
  22490467.200   118188214.49608  22490464.460    92094701.50647
  22531374.960   118403251.12809  22531369.940    92262296.40347
  21580933.840   113408590.18409  21580933.320    88370319.28348
  24325970.000   127833786.38507  24325970.520    99610720.02445
 15 03 05 00 24  0.0000000  0  7G16G18G19G21G22G27G31
  20628700.380   108404574.87209  20628697.180    84471068.85648
  22190927.020   116614158.30909  22190924.320    90868202.89147
  23412117.920   123031557.17006  23412115.500    95868708.21345
  22503271.860   118255504.34508  22503269.100    92147135.15647
  22516417.200   118324648.81709  22516412.560    92201047.88147
  21572351.300   113363486.83509  21572350.180    88335173.78948
  24344835.520   127932925.67207  24344835.060    99687971.24045
 15 03 05 00 24 30.0000000  0  7G16G18G19G21G22G27G31
  20622069.120   108369725.62309  20622065.200    84443913.57948
  22186389.180   116590312.52709  22186386.480    90849621.78447
  23398741.140   122961260.50806  23398738.120    95813931.57944
  22516110.140   118322970.85008  22516107.340    92199706.45347
  22501506.140   118246290.19509  22501501.940    92139989.22947
  21563796.060   113318526.71409  21563794.620    88300139.93148
  24363694.180   128032026.75008  24363693.060    99765192.57945
 15 03 05 00 25  0.0000000  0  7G16G18G19G21G22G27G31
  20615519.020   108335303.10509  20615514.860    84417090.85348
  22181936.320   116566912.76909  22181933.580    90831388.21647
  23385384.460   122891068.50307  23385381.420    95759236.56143
  22528980.320   118390604.87508  22528977.680    92252408.28647
  22486640.840   118168170.52209  22486636.780    92079116.77747
  21555266.380   113273702.64109  21555265.140    88265212.12548
  24382543.760   128131079.16308  24382542.840    99842375.97445
 15 03 05 00 25 30.0000000  0  7G16G18G19G21G22G27G31
  20609049.260   108301303.69509  20609045.300    84390597.80548
  22177567.740   116543954.99809  22177564.800    90813499.05547
  23372047.220   122820975.93107  23372043.220    95704619.09143
  22541881.180   118458399.56008  22541878.760    92305235.29147
  22471820.540   118090287.40409  22471816.100    92018428.66047
  21546761.480   113229009.40509  21546760.780    88230386.29649
  24401382.540   128230075.31308  24401381.960    99919515.53346
 15 03 05 00 26  0.0000000  0  7G16G18G19G21G22G27G31
  20602663.740   108267747.46109  20602659.980    84364450.08648
  22173287.100   116521458.57509  22173283.720    90795969.39547
  23358731.480   122751001.10505  23358729.260    95650093.41343
  22554815.700   118526370.68708  22554813.300    92358199.78147
  22457049.060   118012661.89109  22457044.100    91957941.29647
  21538284.900   113184465.43109  21538284.640    88195676.75549
  24420213.700   128329030.61607  24420213.260    99996623.27046
 15 03 05 00 26 30.0000000  0  7G16G18G19G21G22G27G31
  20596360.880   108234625.43809  20596357.080    84338640.73248
  22169092.280   116499414.63609  22169088.720    90778792.33747
  23345436.300   122681133.86905  23345433.420    95595651.40341
  22567781.440   118594506.37108  22567779.280    92411292.52647
  22442325.000   117935286.08409  22442319.640    91897648.48847
  21529834.680   113140060.40209  21529834.580    88161075.43849
  24439034.540   128427931.90207  24439034.300   100073688.89045
 15 03 05 00 27  0.0000000  0  7G16G18G19G21G22G27G31
  20590143.640   108201953.03509  20590139.740    84313181.72749
  22164986.040   116477837.69209  22164983.100    90761979.14247
  23332163.660   122611387.61705  23332152.220    95541255.79143
  22580780.860   118662818.56808  22580778.920    92464522.81247
  22427651.420   117858175.99309  22427646.260    91837562.71948
  21521413.600   113095808.13709  21521413.460    88126593.15249
  24457846.720   128526790.01307  24457846.020   100150720.87345
 15 03 05 00 27 30.0000000  0  7G16G18G19G21G22G27G31
  20584003.860   108169688.02609  20584000.200    84288040.16649
  22160960.540   116456684.33209  22160958.200    90745496.01047
  23318906.320   122541717.57806  23318899.040    95486967.43744
  22593805.320   118731261.21508  22593803.300    92517854.73147
  22413020.440   117781290.51209  22413015.820    91777651.99847
  21513013.520   113051664.64909  21513013.020    88092195.62949
  24476641.520   128625558.16807  24476640.500   100227682.70145
 15 03 05 00 28  0.0000000  0  7G16G18G19G21G22G27G31
  20577951.080   108137880.18509  20577947.580    84263254.83349
  22157025.320   116436004.39309  22157023.060    90729381.79747
  23305672.520   122472172.26006  23305667.300    95432776.27842
  22606863.320   118799880.40408  22606860.980    92571324.25047
  22398441.680   117704680.28208  22398437.440    91717955.74248
  21504643.300   113007677.98409  21504642.440    88057920.29348
  24495428.120   128724281.87906  24495426.640   100304609.93845
 15 03 05 00 28 30.0000000  0  7G16G18G19G21G22G27G31
  20571981.540   108106509.93509  20571977.860    84238810.48648
  22153176.340   116415777.71209  22153174.120    90713620.75948
  23292458.220   122402730.54005  23292452.820    95378666.12544
  22619950.700   118868653.39209  22619947.660    92624913.58747
  22383911.660   117628326.71409  22383907.780    91658459.50347
  21496298.880   112963827.34109  21496297.900    88023750.97748
  24514201.820   128822937.34507  24514200.180   100381483.93645
 15 03 05 00 29  0.0000000  0  7G16G18G19G21G22G27G31
  20566096.560   108075585.12609  20566093.000    84214713.24148
  22149414.940   116396011.40609  22149412.760    90698218.47947
  23279264.900   122333398.17705  23279261.240    95324640.87642
  22633068.440   118937584.63509  22633064.540    92678626.21847
  22369432.320   117552238.69509  22369428.580    91599170.16747
  21487981.480   112920119.06409  21487980.640    87989692.60248
  24532963.420   128921527.98007  24532962.580   100458307.39044
 15 03 05 00 29 30.0000000  0  7G16G18G19G21G22G27G31
  20560298.540   108045117.88409  20560295.320    84190972.53248
  22145743.040   116376716.70509  22145741.320    90683183.63947
  23266093.320   122264186.32004  23266090.160    95270709.32343
  22646217.700   119006682.41108  22646213.440    92732468.63247
  22355006.120   117476428.75009  22355002.220    91540097.50947
  21479693.160   112876563.53509  21479692.300    87955753.24548
  24551714.300   129020061.38207  24551714.120   100535086.29444
 15 03 05 00 30  0.0000000  0  7G16G18G19G21G22G27G31
  20554586.000   108015098.29609  20554582.880    84167580.65048
  22142158.820   116357883.22009  22142157.540    90668508.21947
  23252942.760   122195082.56707  23252942.340    95216903.55843
  22659395.900   119075933.57809  22659391.640    92786430.59347
  22340631.360   117400888.16709  22340627.260    91481234.72747
  21471431.740   112833149.57209  21471431.060    87921924.19648
  24570451.340   129118523.44407  24570451.700   100611809.52245
 15 03 05 00 30 30.0000000  0  7G16G18G19G21G22G27G31
  20548958.620   107985525.03509  20548955.180    84144536.54448
  22138662.100   116339509.19609  22138660.780    90654190.82647
  23239813.040   122126084.31407  23239811.660    95163138.71044
  22672602.280   119145333.25808  22672597.820    92840508.24947
  22326307.880   117325616.74409  22326303.700    91422581.69748
  21463196.600   112789874.28709  21463195.980    87888203.18848
  24589173.280   129216908.07907  24589173.720   100688472.37144
 15 03 05 00 31  0.0000000  0  7G16G18G19G21G22G27G31
  20543415.820   107956397.51109  20543412.240    84121839.76648
  22135252.640   116321593.08009  22135251.080    90640230.22547
  23226703.120   122057189.27206  23226700.660    95109454.24844
  22685835.800   119214877.03908  22685831.380    92894698.20647
  22312035.820   117250615.35109  22312031.440    91364139.06348
  21454987.560   112746735.56909  21454986.700    87854588.59548
  24607879.580   129315210.77206  24607880.660   100765071.46046
 15 03 05 00 31 30.0000000  0  7G16G18G19G21G22G27G31
  20537958.500   107927719.05109  20537954.840    84099492.90648
  22131931.100   116304138.10909  22131929.260    90626628.95147
  23213613.340   121988399.27106  23213609.940    95055851.68245
  22699096.740   119284565.64408  22699092.860    92949001.00347
  22297815.900   117175887.95009  22297811.160    91305909.94348
  21446805.000   112703735.36409  21446803.680    87821081.93148
  24626570.660   129413430.95808  24626572.320   100841606.20745
 15 03 05 00 32  0.0000000  0  7G16G18G19G21G22G27G31
  20532588.280   107899497.50109  20532584.260    84077502.09048
  22128698.940   116287150.79709  22128696.740    90613392.12747
  23200544.500   121919720.01105  23200540.600    95002335.49744
  22712386.240   119354403.17108  22712382.880    93003419.84347
  22283649.740   117101443.09709  22283644.780    91247900.99548
  21438649.900   112660880.08209  21438648.580    87787688.21348
  24645247.040   129511572.12708  24645248.140   100918079.25644
 15 03 05 00 32 30.0000000  0  7G16G18G19G21G22G27G31
  20527306.900   107871743.76409  20527302.720    84055875.80548
  22125557.740   116270641.44109  22125555.200    90600527.71847
  23187496.940   121851161.10806  23187493.020    94948912.90145
  22725705.600   119424397.18708  22725702.500    93057960.61447
  22269539.420   117027292.41309  22269534.120    91190121.27448
  21430524.160   112618179.22209  21430523.180    87754414.83248
  24663909.000   129609640.34606  24663909.060   100994495.62645
 15 03 05 00 33  0.0000000  0  7G16G18G19G21G22G27G31
  20522110.060   107844434.88209  20522105.860    84034596.15548
  22122502.800   116254587.07209  22122500.340    90588017.82447
  23174468.500   121782697.87807  23174464.620    94895564.91744
  22739049.620   119494521.15308  22739046.620    93112602.66447
  22255481.000   116953414.59209  22255475.340    91132554.17547
  21422423.020   112575608.47109  21422422.440    87721242.84748
  24682552.300   129707608.86608  24682551.900   101070834.12044
 15 03 05 00 33 30.0000000  0  6G16G18G19G21G22G27
  20516999.660   107817580.33909  20516995.560    84013670.54848
  22119535.940   116238995.86009  22119533.120    90575868.83447
  23161459.860   121714338.56407  23161456.040    94842297.96643
  22752419.500   119564781.29808  22752416.400    93167350.81047
  22241476.280   116879820.26909  22241470.680    91075207.98847
  21414347.960   112533175.91509  21414347.920    87688178.54848
 15 03 05 00 34  0.0000000  0  6G16G18G19G21G22G27
  20511978.680   107791194.88809  20511974.880    83993110.47448
  22116660.020   116223882.54809  22116657.080    90564092.24247
  23148473.700   121646095.95607  23148468.280    94789121.98644
  22765817.320   119635188.81708  22765814.220    93222213.81447
  22227527.980   116806524.71608  22227522.960    91018094.59147
  21406301.960   112490894.94509  21406301.880    87655232.34648
 15 03 05 00 34 30.0000000  0  6G16G18G19G21G22G27
  20507046.040   107765273.23009  20507042.360    83972911.76948
  22113873.880   116209240.55109  22113870.760    90552682.91247
  23135508.640   121577963.63808  23135504.240    94736031.91343
  22779241.660   119705735.68208  22779238.620    93277185.38946
  22213635.700   116733523.70509  22213630.880    90961210.71147
  21398283.780   112448758.98609  21398283.500    87622399.13948
 15 03 05 00 35  0.0000000  0  6G16G18G19G21G22G27
  20502200.700   107739810.62809  20502197.040    83953070.77048
  22111176.320   116195064.74309  22111172.920    90541636.83047
  23122563.640   121509935.03608  23122558.600    94683022.63643
  22792691.060   119776413.70708  22792688.080    93332259.18347
  22199799.040   116660813.41809  22199794.320    90904553.36748
  21390292.260   112406761.93509  21390291.740    87589674.18348
 15 03 05 00 35 30.0000000  0  6G16G18G19G21G22G27
  20497444.460   107714816.03709  20497440.800    83933594.47248
  22108568.740   116181363.34409  22108565.400    90530960.42947
  23109639.460   121442017.59707  23109634.600    94630100.13643
  22806166.660   119847228.41108  22806163.660    93387439.45947
  22186019.980   116588404.10309  22186015.440    90848130.55348
  21382328.720   112364911.47909  21382328.020    87557063.44048
 15 03 05 00 36  0.0000000  0  6G16G18G19G21G22G27
  20492778.480   107690296.24909  20492774.840    83914488.14248
  22106052.480   116168142.34209  22106049.620    90520658.34647
  23096737.140   121374216.73207  23096733.620    94577268.27943
  22819669.240   119918183.41108  22819666.300    93442729.03947
  22172299.740   116516303.51609  22172295.460    90791948.28348
  21374394.080   112323213.16409  21374393.400    87524571.23848
 15 03 05 00 36 30.0000000  0  6G16G18G19G21G22G27
  20488199.080   107666232.54808  20488195.640    83895737.19248
  22103624.240   116155382.62209  22103621.780    90510715.72347
  23083853.500   121306512.66007  23083849.440    94524511.79043
  22833194.420   119989256.60408  22833191.420    93498110.72947
  22158635.020   116444494.27909  22158630.880    90735993.05848
  21366484.340   112281647.19209  21366483.560    87492182.16548
 15 03 05 00 37  0.0000000  0  6G16G18G19G21G22G27
  20483708.980   107642638.36109  20483705.760    83877352.10148
  22101286.200   116143096.61009  22101284.000    90501142.22347
  23070990.620   121238916.60807  23070985.740    94471839.71543
  22846743.860   120060458.31408  22846740.700    93553592.57147
  22145028.640   116372990.50909  22145023.980    90680275.85348
  21358601.820   112240225.58909  21358601.040    87459905.58348
 15 03 05 00 37 30.0000000  0  6G16G18G19G21G22G27
  20479310.520   107619525.54909  20479307.440    83859342.11948
  22099040.400   116131295.55509  22099038.540    90491946.59647
  23058149.800   121171439.03105  23058145.140    94419259.72443
  22860319.360   120131797.66708  22860315.960    93609181.65546
  22131482.820   116301805.27009  22131477.640    90624806.87348
  21350748.760   112198958.91509  21350748.180    87427749.73948
 15 03 05 00 38  0.0000000  0  6G16G18G19G21G22G27
  20475004.740   107596898.63309  20475001.660    83841710.74948
  22096887.620   116119982.43609  22096885.820    90483131.18347
  23045331.260   121104083.01904  23045328.140    94366774.51144
  22873921.100   120203274.86808  22873917.760    93664878.15947
  22117998.380   116230943.97909  22117993.120    90569590.29448
  21342925.860   112157850.22809  21342925.660    87395717.00048
 15 03 05 00 38 30.0000000  0  6G16G18G19G21G22G27
  20470786.980   107574733.27709  20470783.840    83824439.02349
  22094823.220   116109133.23909  22094821.460    90474677.26147
  23032531.800   121036822.88204  23032529.980    94314364.07843
  22887544.080   120274863.31508  22887540.620    93720661.35646
  22104570.900   116160383.42409  22104566.060    90514608.06948
  21335128.280   112116874.32009  21335128.520    87363787.73648
 15 03 05 00 39  0.0000000  0  5G16G18G21G22G27
  20466660.820   107553048.42309  20466657.560    83807541.72849
  22092850.480   116098765.83209  22092848.480    90466598.78347
  22901191.040   120346578.39808  22901187.120    93776543.23446
  22091204.320   116090143.51709  22091200.220    90459875.66548
  21327359.380   112076048.89809  21327359.720    87331975.72948
 15 03 05 00 39 30.0000000  0  5G16G18G21G22G27
  20462625.000   107531838.35309  20462621.580    83791014.39949
  22090968.180   116088873.92909  22090965.900    90458890.81547
  22914860.320   120418411.48708  22914856.280    93832517.06947
  22077898.260   116020219.71309  22077894.600    90405389.59848
  21319618.060   112035367.41609  21319617.800    87300275.85748
 15 03 05 00 40  0.0000000  0  6G16G18G19G21G22G27
  20458684.200   107511128.55809  20458680.620    83774876.88848
