     2.11           OBSERVATION DATA    M                   RINEX VERSION / TYPE
SPIDER V4,0,0,3554                      2015 03 19 03:30    PGM / RUN BY / DATE 
OBHM                                                        MARKER NAME         
OBHM                                                        MARKER NUMBER       
                                                            OBSERVER / AGENCY   
496638              LEICA GRX1200+GNSS  8.20/4.007          REC # / TYPE / VERS 
10321015            LEIAR25         NONE                    ANT # / TYPE        
  5268006.0133   -44062.8765  3585543.8986                  APPROX POSITION XYZ 
        0.1200        0.0000        0.0000                  ANTENNA: DELTA H/E/N
     1     1                                                WAVELENGTH FACT L1/2
     4    C1    L1    P2    L2                              # / TYPES OF OBSERV 
    30.000                                                  INTERVAL            
  2015    03    05    00    00    0.0000000     GPS         TIME OF FIRST OBS   
  2015    03    05    23    59   30.0000000     GPS         TIME OF LAST OBS    
    16                                                      LEAP SECONDS        
    38                                                      # OF SATELLITES     
   G 1   844   844   844   844                              PRN / # OF OBS      
   G 2   920   919   919   919                              PRN / # OF OBS      
   G 3   843   843   842   842                              PRN / # OF OBS      
   G 4   853   853   853   853                              PRN / # OF OBS      
   G 5   682   682   682   682                              PRN / # OF OBS      
   G 6   645   645   645   645                              PRN / # OF OBS      
   G 7   740   740   740   740                              PRN / # OF OBS      
   G 9   780   780   780   780                              PRN / # OF OBS      
   G10   795   795   795   795                              PRN / # OF OBS      
   G11   809   809   809   809                              PRN / # OF OBS      
   G12   812   811   811   811                              PRN / # OF OBS      
   G13   834   834   833   833                              PRN / # OF OBS      
   G14   422   413   406   406                              PRN / # OF OBS      
   G15   744   744   744   744                              PRN / # OF OBS      
   G16   702   702   702   702                              PRN / # OF OBS      
   G17   924   923   923   923                              PRN / # OF OBS      
   G18   942   939   934   934                              PRN / # OF OBS      
   G19   802   802   802   802                              PRN / # OF OBS      
   G20   805   805   805   805                              PRN / # OF OBS      
   G21   707   707   707   707                              PRN / # OF OBS      
   G22   817   817   817   817                              PRN / # OF OBS      
   G23   723   723   723   723                              PRN / # OF OBS      
   G24   849   842   838   838                              PRN / # OF OBS      
   G25   862   861   861   861                              PRN / # OF OBS      
   G27   843   843   843   843                              PRN / # OF OBS      
   G28   917   917   917   917                              PRN / # OF OBS      
   G29   738   738   737   737                              PRN / # OF OBS      
   G30   688   688   688   688                              PRN / # OF OBS      
   G31   748   748   748   748                              PRN / # OF OBS      
   G32   735   735   735   735                              PRN / # OF OBS      
   R 2    30    30    30    30                              PRN / # OF OBS      
   R 3    30    30    30    30                              PRN / # OF OBS      
   R 9    30    30    30    30                              PRN / # OF OBS      
   R15    30    30    30    30                              PRN / # OF OBS      
   R16    30    30    30    30                              PRN / # OF OBS      
   R17    30    30    30    30                              PRN / # OF OBS      
   R18    30    30    30    30                              PRN / # OF OBS      
   R19    30    30    30    30                              PRN / # OF OBS      
BIT 2 OF LLI FLAGS DATA COLLECTED UNDER A/S CONDITION       COMMENT             
SNR is mapped to RINEX snr flag value [2-9]                 COMMENT             
Lx:     = 25dBHz -> 1; 26-27dBHz -> 2; 28-31dBHz -> 3       COMMENT             
       32-35dBHz -> 4; 36-38dBHz -> 5; 39-41dBHz -> 6       COMMENT             
       42-44dBHz -> 7; 45-48dBHz -> 8; >=49dBHz -> 9        COMMENT             
                                                            END OF HEADER       
 15 03 05 00 00  0.0000000  0 15G16G18G19G21G22G27G31R02R03R09R15R16
                                R17R18R19
  21079980.640   110776070.00509  21079977.960    86319012.47048
  22423250.920   117835011.86009  22423248.140    91819521.81547
  24171625.300   127022755.47908  24171622.740    98978769.95046
  21903183.460   115102090.03009  21903180.080    89689955.29448
  23214987.740   121995648.61808  23214984.580    95061564.25647
  22090546.400   116086651.58009  22090546.260    90457151.02748
  23433349.500   123143116.18408  23433348.280    95955685.62847
  22847401.580   121918117.49108  22847404.920    94825226.59407
  22703231.740   121532185.06007  22703233.200    94525046.53707
  21567514.580   115169332.67408  21567515.300    89576159.32505
  22321806.620   119280999.86308  22321811.100    92774141.71707
  19638881.500   104907394.87808  19638883.740    81594659.33408
  22885766.880   122466718.45807  22885767.400    95252057.98907
  20193575.000   107795069.91409  20193577.640    83840552.64608
  21552680.300   115292371.00209  21552680.700    89671879.31808
 15 03 05 00 00 30.0000000  0 15G16G18G19G21G22G27G31R02R03R09R15R16
                                R17R18R19
  21069571.480   110721369.29809  21069568.740    86276388.54948
  22415043.760   117791883.56309  22415041.060    91785915.37547
  24157279.920   126947370.24808  24157277.380    98920028.28346
  21913995.040   115158904.94008  21913991.640    89734226.65748
  23198427.600   121908624.77108  23198424.420    94993753.52647
  22080561.380   116034180.21609  22080561.240    90416264.28348
  23451859.080   123240384.41008  23451857.880    96031478.97547
  22846630.940   121914005.20608  22846634.160    94822028.19207
  22686803.100   121444240.92907  22686804.500    94456645.58806
  21552019.500   115086590.01408  21552020.260    89511803.95405
  22346077.000   119410693.00908  22346081.480    92875014.08907
  19644738.460   104938681.63308  19644740.660    81618993.46808
  22901046.580   122548484.03207  22901047.400    95315653.41307
  20199947.340   107829085.74509  20199949.940    83867009.40608
  21543256.380   115241959.22409  21543256.600    89632670.19007
 15 03 05 00 01  0.0000000  0 15G16G18G19G21G22G27G31R02R03R09R15R16
                                R17R18R19
  21059225.920   110667002.86109  21059223.140    86234025.10448
  22406907.920   117749130.16509  22406905.340    91752601.06647
  24142953.520   126872084.81008  24142951.000    98861364.38946
  21924854.900   115215973.69509  21924851.500    89778695.82148
  23181889.360   121821715.82008  23181886.040    94926032.31847
  22070600.580   115981836.40509  22070600.540    90375476.93648
  23470385.360   123337740.31108  23470384.100    96107340.64347
  22845993.120   121910601.82008  22845996.260    94819381.15107
  22670438.500   121356639.61707  22670439.760    94388511.27407
  21536636.860   115004447.26808  21536637.620    89447915.17805
  22370387.220   119540599.35508  22370391.740    92976052.29207
  19650749.260   104970790.48208  19650751.520    81643967.00708
  22916316.940   122630199.15307  22916317.960    95379209.61807
  20206355.060   107863290.39009  20206357.660    83893613.02208
  21533879.360   115191798.03309  21533879.380    89593655.95907
 15 03 05 00 01 30.0000000  0 15G16G18G19G21G22G27G31R02R03R09R15R16
                                R17R18R19
  21048943.920   110612970.74109  21048941.120    86191922.16548
  22398843.340   117706751.15009  22398840.820    91719578.46847
  24128645.700   126796897.08608  24128643.180    98802776.63146
  21935762.340   115273292.65608  21935759.000    89823359.94448
  23165373.060   121734922.42508  23165369.580    94858401.14847
  22060663.680   115929617.92509  22060663.660    90334787.24248
  23488927.340   123435178.61708  23488925.940    96183266.52347
  22845487.960   121907906.17608  22845491.020    94817284.57007
  22654138.180   121269383.14007  22654139.460    94320645.17107
  21521366.900   114922905.95108  21521367.600    89384494.17105
  22394736.200   119670712.75608  22394740.860    93077251.52207
  19656913.240   105003717.59209  19656915.620    81669576.96308
  22931577.300   122711860.79607  22931578.420    95442724.23006
  20212797.420   107897680.08109  20212800.060    83920360.54708
  21524548.600   115141884.38709  21524548.460    89554834.27207
 15 03 05 00 02  0.0000000  0 15G16G18G19G21G22G27G31R02R03R09R15R16
                                R17R18R19
  21038726.360   110559277.44509  21038723.600    86150083.24848
  22390850.940   117664751.23009  22390848.460    91686851.28747
  24114356.960   126721809.48508  24114354.420    98744266.91446
  21946717.420   115330861.99208  21946714.120    89868219.17048
  23148879.680   121648249.79808  23148876.140    94790864.09647
  22050751.060   115877527.11009  22050751.100    90294197.02148
  23507484.900   123532698.74608  23507483.400    96259256.15447
  22845116.100   121905921.43808  22845119.080    94815740.92707
  22637903.620   121182478.33407  22637904.840    94253052.58307
  21506210.660   114841971.84508  21506211.360    89321545.44605
  22419123.580   119801031.29408  22419128.360    93178610.30407
  19663230.660   105037463.85409  19663233.040    81695824.04908
  22946828.080   122793471.10807  22946829.260    95506198.91306
  20219274.460   107932255.49409  20219277.200    83947252.54208
  21515264.320   115092219.77909  21515264.100    89516206.28108
 15 03 05 00 02 30.0000000  0 15G16G18G19G21G22G27G31R02R03R09R15R16
                                R17R18R19
  21028573.680   110505924.71809  21028570.880    86108509.70048
  22382930.900   117623131.59609  22382928.500    91654420.42047
  24100087.180   126646821.56108  24100084.540    98685834.83346
  21957719.740   115388679.78208  21957716.480    89913271.98648
  23132409.720   121561700.37508  23132406.240    94723423.03447
  22040862.660   115825563.59509  22040862.780    90253705.99748
  23526057.440   123630297.56308  23526055.900    96335307.10347
  22844877.620   121904648.24408  22844880.440    94814750.69407
  22621735.500   121095929.38907  22621736.780    94185736.78107
  21491168.640   114761648.23108  21491169.460    89259071.54305
  22443548.280   119931549.62708  22443553.260    93280124.46307
  19669701.100   105072027.51609  19669703.440    81722706.88908
  22962068.980   122875029.01107  22962070.220    95569632.82606
  20225785.940   107967014.83009  20225788.760    83974287.57108
  21506026.380   115042803.05009  21506026.060    89477771.06407
 15 03 05 00 03  0.0000000  0 15G16G18G19G21G22G27G31R02R03R09R15R16
                                R17R18R19
  21018486.320   110452915.33809  21018483.480    86067203.70048
  22375083.800   117581895.29109  22375081.440    91622288.25447
  24085836.460   126571933.98708  24085833.820    98627480.95746
  21968769.040   115446744.76308  21968765.880    89958517.42847
  23115963.960   121475277.96408  23115960.520    94656080.94947
  22030998.640   115773728.29309  22030998.820    90213314.88848
  23544644.600   123727973.22808  23544643.020    96411417.93146
  22844772.820   121904088.34408  22844775.420    94814315.25207
  22605634.880   121009741.83107  22605636.280    94118702.06807
  21476241.720   114681939.64708  21476242.640    89197076.00105
  22468010.000   120062265.49508  22468015.100    93381792.26307
  19676324.360   105107407.65908  19676326.680    81750224.76008
  22977300.220   122956535.10607  22977301.420    95633026.46606
  20232331.760   108001957.52709  20232334.640    84001465.23408
  21496834.820   114993634.50409  21496834.420    89439528.90108
 15 03 05 00 03 30.0000000  0 15G16G18G19G21G22G27G31R02R03R09R15R16
                                R17R18R19
  21008464.440   110400250.16409  21008461.620    86026165.91448
  22367309.780   117541042.91609  22367307.420    91590455.25347
  24071604.560   126497145.37008  24071601.920    98569204.19546
  21979864.840   115505054.31608  21979861.800    90003953.44148
  23099542.600   121388983.69508  23099539.200    94588838.71847
  22021158.740   115722019.60909  22021158.960    90173022.42548
  23563245.460   123825721.08408  23563243.840    96487585.01047
  22844801.580   121904241.00808  22844803.960    94814434.02707
  22589602.260   120923918.15907  22589603.700    94051950.36407
  21461430.200   114602847.89908  21461431.400    89135560.20505
  22492507.600   120193173.44408  22492512.840    93483609.46007
  19683099.800   105143601.05708  19683102.200    81778375.16208
  22992521.360   123037986.92608  22992522.380    95696377.89206
  20238911.380   108037080.25409  20238914.260    84028782.90708
  21487689.180   114944711.79609  21487688.820    89401477.94208
 15 03 05 00 04  0.0000000  0 15G16G18G19G21G22G27G31R02R03R09R15R16
                                R17R18R19
  20998508.280   110347930.22909  20998505.480    85985397.14048
  22359608.860   117500574.90709  22359606.580    91558921.75647
  24057391.340   126422454.84408  24057388.680    98511003.86546
  21991006.600   115563605.19308  21991003.620    90049577.49848
  23083146.060   121302819.24508  23083142.600    94521697.64447
  22011342.800   115670436.55609  22011342.960    90132827.86348
  23581859.380   123923537.45508  23581857.660    96563805.47446
  22844963.640   121905105.86308  22844965.940    94815106.72107
  22573638.240   120838461.75307  22573639.780    93985484.31507
  21446734.620   114524375.60108  21446736.120    89074526.20605
  22517040.160   120324267.78508  22517045.440    93585571.63507
  19690027.040   105180605.31209  19690029.480    81807156.22508
  23007732.100   123119383.33708  23007732.900    95759686.24106
  20245524.320   108072380.57509  20245527.160    84056238.71108
  21478589.120   114896033.20009  21478588.860    89363616.83808
 15 03 05 00 04 30.0000000  0 15G16G18G19G21G22G27G31R02R03R09R15R16
                                R17R18R19
  20988618.780   110295960.58709  20988615.980    85944901.33048
  22351982.120   117460496.62809  22351979.860    91527691.95147
  24043197.260   126347865.04208  24043194.780    98452882.01446
  22002194.440   115622397.91508  22002191.460    90095390.01247
  23066775.340   121216790.39508  23066771.760    94454662.23447
  22001551.400   115618982.05809  22001551.460    90092733.48148
  23600486.300   124021422.36008  23600484.580    96640079.35246
  22845259.740   121906686.60008  22845262.100    94816336.20607
  22557744.300   120753380.41907  22557745.940    93919309.99407
  21432156.220   114446528.99408  21432157.940    89013978.85705
  22541607.360   120455547.04708  22541612.680    93687677.63207
  19697106.300   105218421.15109  19697108.720    81836568.53508
  23022932.900   123200726.68307  23022933.640    95822953.30506
  20252170.860   108107859.95209  20252173.620    84083833.78308
  21469535.020   114847600.58409  21469534.900    89325947.06408
 15 03 05 00 05  0.0000000  0 15G16G18G19G21G22G27G31R02R03R09R15R16
                                R17R18R19
  20978795.500   110244338.79709  20978792.680    85904676.57548
  22344429.120   117420805.12909  22344426.760    91496763.53747
  24029021.560   126273371.52708  24029019.060    98394835.20046
  22013427.160   115681426.27308  22013424.060    90141386.14448
  23050430.100   121130895.36308  23050426.340    94387731.09647
  21991783.620   115567651.59909  21991783.560    90052735.75448
  23619124.860   124119368.46708  23619123.200    96716400.90646
  22845689.240   121908979.69508  22845691.780    94818119.76007
  22541920.340   120668673.62707  22541922.060    93853426.98107
  21417694.920   114369307.14308  21417696.740    88953917.44005
  22566207.800   120587003.93608  22566213.120    93789921.78807
  19704336.360   105257042.48409  19704338.740    81866607.34308
  23038122.780   123282011.57507  23038123.660    95886174.90606
  20258849.820   108143512.19809  20258852.540    84111563.31308
  21460525.900   114799408.58609  21460525.940    89288464.43408
 15 03 05 00 05 30.0000000  0 15G16G18G19G21G22G27G31R02R03R09R15R16
                                R17R18R19
  20969039.700   110193071.73009  20969036.900    85864728.22948
  22336951.060   117381507.43009  22336948.600    91466141.97647
  24014865.140   126198978.89908  24014862.640    98336866.99846
  22024705.380   115740693.54308  22024702.200    90187568.43247
  23034111.820   121045141.75808  23034107.900    94320910.16647
  21982040.380   115516450.02609  21982040.220    90012838.44948
  23637775.460   124217377.62408  23637773.760    96792771.60046
  22846253.120   121911990.33708  22846255.980    94820461.40607
  22526168.060   120584350.54607  22526169.860    93787842.40607
  21403352.300   114292718.25608  21403353.980    88894348.32705
  22590841.420   120718637.71807  22590846.700    93892303.52507
  19711717.740   105296472.34508  19711720.080    81897275.00208
  23053302.680   123363242.81107  23053303.680    95949354.75606
  20265561.820   108179340.78109  20265564.540    84139429.99608
  21451562.580   114751461.42508  21451562.840    89251172.23308
 15 03 05 00 06  0.0000000  0 15G16G18G19G21G22G27G31R02R03R09R15R16
                                R17R18R19
  20959351.160   110142158.09609  20959348.360    85825055.27548
  22329547.580   117342601.73009  22329545.080    91435825.85847
  24000727.360   126124683.98708  24000724.720    98278974.92946
  22036028.020   115800194.30508  22036024.780    90233932.66048
  23017820.280   120959528.86909  23017816.240    94254198.87547
  21972320.960   115465373.89209  21972320.720    89973038.88348
  23656436.840   124315443.39708  23656435.120    96869186.39646
  22846951.020   121915715.65308  22846954.060    94823358.91307
  22510487.640   120500412.16407  22510489.480    93722557.04607
  21389128.260   114216762.29208  21389129.740    88835271.48605
  22615507.000   120850442.41208  22615512.200    93994818.18507
  19719249.360   105336704.98708  19719251.680    81928567.04208
  23068471.860   123444416.20007  23068473.040    96012489.61406
  20272305.880   108215340.70609  20272308.640    84167429.92708
  21442644.300   114703754.91809  21442644.680    89214067.20708
 15 03 05 00 06 30.0000000  0 15G16G18G19G21G22G27G31R02R03R09R15R16
                                R17R18R19
  20949731.040   110091604.10809  20949728.220    85785662.56848
  22322219.840   117304093.89509  22322217.180    91405819.76947
  23986608.860   126050490.58808  23986606.020    98221161.94346
  22047395.620   115859930.99408  22047392.220    90280480.73347
  23001556.860   120874063.69208  23001552.720    94187602.69347
  21962626.120   115414427.29309  21962625.900    89933340.26948
  23675109.260   124413567.22408  23675107.540    96945646.43746
  22847783.920   121920160.46808  22847787.020    94826816.03507
  22494880.680   120416867.23807  22494882.600    93657577.69207
  21375024.220   114141446.76308  21375025.420    88776692.76205
  22640204.420   120982417.42108  22640209.620    94097465.30007
  19726931.800   105377743.18409  19726934.060    81960485.62508
  23083631.020   123525535.81707  23083632.460    96075582.63606
  20279082.520   108251514.65709  20279085.280    84195565.22408
  21433771.660   114656292.29309  21433772.060    89177151.86608
 15 03 05 00 07  0.0000000  0 15G16G18G19G21G22G27G31R02R03R09R15R16
                                R17R18R19
  20940178.440   110041404.97209  20940175.600    85746546.37048
  22314966.820   117265978.91509  22314964.100    91376119.80547
  23972508.380   125976392.02608  23972505.240    98163422.88045
  22058806.400   115919894.66708  22058802.880    90327205.67947
  22985320.700   120788742.47108  22985316.620    94121118.69247
  21952954.560   115363603.46409  21952954.420    89893737.32048
  23693790.920   124511739.54708  23693789.120    97022144.26646
  22848750.560   121925318.31308  22848753.600    94830827.74207
  22479346.640   120333713.01807  22479348.660    93592902.23607
  21361039.400   114066768.23808  21361040.380    88718609.49705
  22664931.400   121114550.41608  22664936.600    94200235.30107
  19734763.300   105419577.66409  19734765.540    81993023.54808
  23098778.780   123606594.05107  23098780.380    96138627.91807
  20285890.180   108287854.19709  20285892.960    84223829.32808
  21424943.180   114609065.69709  21424943.520    89140420.09508
 15 03 05 00 07 30.0000000  0 15G16G18G19G21G22G27G31R02R03R09R15R16
                                R17R18R19
  20930695.680   109991572.84009  20930692.800    85707716.14148
  22307790.840   117228268.91409  22307788.020    91346735.40147
  23958427.740   125902398.39408  23958424.380    98105765.56646
  22070261.880   115980093.54108  22070258.320    90374113.88747
  22969114.280   120703577.78208  22969110.320    94054756.64347
  21943308.260   115312912.50709  21943308.200    89854237.89348
  23712483.100   124609967.28008  23712481.340    97098685.25346
  22849852.880   121931199.97608  22849855.840    94835402.40007
  22463888.260   120250963.94007  22463890.380    93528541.88107
  21347176.340   113992740.38608  21347177.280    88661032.29505
  22689689.300   121246848.85208  22689694.520    94303133.97607
  19742745.440   105462216.73309  19742747.680    82026187.25208
  23113916.940   123687600.86307  23113918.620    96201633.18107
  20292730.460   108324368.10609  20292733.300    84252229.03008
  21416160.660   114562084.79709  21416160.880    89103879.42008
 15 03 05 00 08  0.0000000  0 15G16G18G19G21G22G27G31R02R03R09R15R16
                                R17R18R19
  20921281.480   109942101.01609  20921278.540    85669166.68548
  22300690.560   117190956.63909  22300687.680    91317660.92747
  23944365.420   125828500.98708  23944361.980    98048183.23246
  22081760.040   116040516.90108  22081756.540    90421197.02947
  22952936.440   120618563.56009  22952932.640    93988511.86347
  21933685.600   115262345.63109  21933685.600    89814835.17248
  23731183.580   124708238.75808  23731181.880    97175260.34946
  22851089.200   121937797.15808  22851092.100    94840533.58907
  22448504.820   120168615.81507  22448507.040    93464493.37307
  21333433.960   113919357.22008  21333434.920    88603956.52405
  22714475.740   121379299.65507  22714481.000    94406151.16007
  19750876.120   105505649.26209  19750878.400    82059968.10108
  23129043.720   123768546.70307  23129045.400    96264591.03507
  20299601.440   108361045.95209  20299604.360    84280756.25808
  21407422.200   114515339.59709  21407422.300    89067522.08208
 15 03 05 00 08 30.0000000  0 15G16G18G19G21G22G27G31R02R03R09R15R16
                                R17R18R19
  20911937.360   109892997.56009  20911934.420    85630904.26248
  22293667.440   117154050.15109  22293664.540    91288902.65047
  23930322.400   125754705.32008  23930318.900    97990680.20345
  22093301.640   116101168.80708  22093298.340    90468458.25647
  22936788.900   120533708.51309  22936785.200    93922391.10347
  21924087.780   115211908.85209  21924087.780    89775533.81648
  23749893.060   124806557.60508  23749891.520    97251872.33846
  22852460.720   121945116.22208  22852463.600    94846226.24407
  22433198.120   120086678.76707  22433200.540    93400764.60807
  21319814.120   113846628.53608  21319815.100    88547389.79305
  22739290.960   121511904.57107  22739296.300    94509288.19207
  19759156.100   105549879.40709  19759158.460    82094369.31708
  23144160.220   123849437.43307  23144161.840    96327506.03107
  20306504.020   108397892.47309  20306506.940    84309414.67008
  21398728.760   114468835.37008  21398728.760    89031352.16508
 15 03 05 00 09  0.0000000  0 15G16G18G19G21G22G27G31R02R03R09R15R16
                                R17R18R19
  20902662.920   109844259.96509  20902659.940    85592926.91748
  22286720.920   117117546.61809  22286718.140    91260458.35347
  23916298.000   125681007.24408  23916294.540    97933253.19046
  22104885.540   116162042.94408  22104882.480    90515892.64647
  22920671.480   120449011.28308  22920667.840    93856393.31647
  21914513.940   115161597.84109  21914513.900    89736330.44948
  23768610.180   124904916.17508  23768608.740    97328515.27746
  22853966.680   121953153.06608  22853969.580    94852477.15607
  22417968.140   120005152.49007  22417970.780    93337355.32107
  21306316.580   113774552.81508  21306317.640    88491330.91305
  22764133.460   121644655.30807  22764138.900    94612538.64107
  19767584.200   105594900.67909  19767586.560    82129385.84608
  23159265.540   123930268.15607  23159267.020    96390374.36307
  20313437.080   108434901.66309  20313439.920    84338199.59108
  21390079.320   114422566.87008  21390079.300    88995365.57308
 15 03 05 00 09 30.0000000  0 15G16G18G19G21G22G27G31R02R03R09R15R16
                                R17R18R19
  20893458.800   109795891.85609  20893455.780    85555237.49448
  22279851.720   117081449.05609  22279848.940    91232330.40347
  23902292.440   125607408.01008  23902289.100    97875903.22846
  22116511.680   116223139.07108  22116508.820    90563500.02147
  22904584.840   120364475.73508  22904581.180    93790521.51547
  21904964.340   115111413.91609  21904964.180    89697226.10848
  23787334.600   125003313.35108  23787333.260    97405188.29646
  22855607.500   121961909.35008  22855610.420    94859287.64107
  22402816.120   119924043.16707  22402818.880    93274270.32907
  21292942.300   113703134.86408  21292943.360    88435783.64105
  22789002.680   121777548.73507  22789008.200    94715900.06207
  19776160.140   105640711.93108  19776162.480    82165016.81508
  23174359.800   124011039.75007  23174361.040    96453196.71807
  20320400.500   108472073.51009  20320403.320    84367111.04208
  21381474.020   114376534.63008  21381474.040    88959562.75908
 15 03 05 00 10  0.0000000  0 15G16G18G19G21G22G27G31R02R03R09R15R16
                                R17R18R19
  20884325.480   109747895.92309  20884322.460    85517838.06748
  22273060.240   117045759.52509  22273057.400    91204520.38547
  23888305.800   125533908.10708  23888302.560    97818630.65046
  22128179.860   116284455.97608  22128177.120    90611279.42547
  22888529.620   120280104.98709  22888525.860    93724778.11447
  21895439.000   115061357.54309  21895438.740    89658221.15348
  23806065.860   125101746.20308  23806064.540    97481889.11046
  22857383.340   121971385.94108  22857386.220    94866658.35607
  22387742.960   119843354.91407  22387745.600    93211512.83907
  21279691.960   113632378.14108  21279693.000    88380750.64905
  22813897.960   121910581.17107  22813903.480    94819369.60507
  19784883.600   105687311.33208  19784885.920    82201260.78108
  23189443.060   124091752.39507  23189444.020    96515973.20306
  20327394.220   108509406.99309  20327397.020    84396148.19408
  21372912.860   114330738.28209  21372912.880    88923943.39908
 15 03 05 00 10 30.0000000  0 15G16G18G19G21G22G27G31R02R03R09R15R16
                                R17R18R19
  20875263.260   109700273.57209  20875260.260    85480729.75448
  22266346.780   117010480.03909  22266343.940    91177029.90347
  23874337.920   125460507.03608  23874334.700    97761435.08646
  22139889.600   116345991.20908  22139886.960    90659228.96147
  22872506.340   120195901.76709  22872502.500    93659165.27147
  21885937.880   115011428.51309  21885937.540    89619315.44648
  23824803.400   125200212.01308  23824802.100    97558615.61846
  22859294.140   121981582.37608  22859296.920    94874588.95407
  22372749.340   119763092.21807  22372751.820    93149086.34707
  21266566.080   113562285.73208  21266567.100    88326234.36105
  22838818.500   122043748.55908  22838824.040    94922944.09906
  19793754.220   105734696.54608  19793756.460    82238115.94008
  23204515.120   124172405.40907  23204515.920    96578703.30906
  20334417.960   108546900.42709  20334420.720    84425309.75308
  21364395.660   114285176.71109  21364395.560    88888506.65008
 15 03 05 00 11  0.0000000  0 15G16G18G19G21G22G27G31R02R03R09R15R16
                                R17R18R19
  20866272.580   109653027.18509  20866269.600    85443914.39048
  22259711.580   116975611.85109  22259708.780    91149859.89947
  23860389.000   125387205.45008  23860385.840    97704317.03746
  22151640.440   116407742.22708  22151637.800    90707346.62947
  22856515.560   120111869.04409  22856511.560    93593685.26647
  21876461.000   114961627.10109  21876460.600    89580509.17048
  23843546.660   125298707.87308  23843545.380    97635365.52246
  22861340.000   121992499.54408  22861342.700    94883080.10507
  22357836.160   119683259.69007  22357838.340    93086994.40207
  21253565.200   113492860.94908  21253566.240    88272237.32305
  22863763.680   122177047.25707  22863769.180    95026620.72906
  19802771.540   105782865.41408  19802773.780    82275580.59808
  23219575.960   124252998.59408  23219576.620    96641386.86806
  20341471.420   108584552.53109  20341474.160    84454594.71708
  21355922.140   114239849.13608  21355922.000    88853251.88408
 15 03 05 00 11 30.0000000  0 15G16G18G19G21G22G27G31R02R03R09R15R16
                                R17R18R19
  20857353.960   109606159.32909  20857350.940    85407393.99148
  22253155.080   116941157.54009  22253152.340    91123012.41047
  23846459.140   125314003.52108  23846455.960    97647276.64046
  22163432.340   116469708.93508  22163429.600    90755632.38248
  22840557.860   120028010.23609  22840553.760    93528340.79047
  21867008.500   114911954.00209  21867008.020    89541802.88748
  23862295.200   125397231.65808  23862293.960    97712137.19346
  22863521.080   122004138.14108  22863523.680    94892132.37807
  22343004.100   119603861.78907  22343006.060    93025240.50607
  21240689.940   113424107.48008  21240691.020    88218762.43105
  22888732.760   122310473.49107  22888738.220    95130396.54506
  19811935.180   105831815.97408  19811937.480    82313653.24508
  23234625.740   124333532.32208  23234626.260    96704024.19906
  20348554.540   108622362.83009  20348557.300    84484002.73508
  21347492.280   114194755.54808  21347492.240    88818179.11408
 15 03 05 00 12  0.0000000  0 15G16G18G19G21G22G27G31R02R03R09R15R16
                                R17R18R19
  20848507.280   109559669.78509  20848504.280    85371168.38048
  22246677.100   116907116.15809  22246674.500    91096486.67047
  23832547.820   125240898.84408  23832544.540    97590312.01446
  22175264.520   116531887.03008  22175261.640    90804082.83947
  22824633.300   119944325.61709  22824629.120    93463132.03347
  21857579.960   114862406.92409  21857579.460    89503194.79948
  23881048.140   125495778.52908  23881046.900    97788926.84346
  22865836.940   122016495.94708  22865839.460    94901744.02607
  22328253.660   119524900.57307  22328255.360    92963826.25807
  21227940.460   113356026.39308  21227941.580    88165810.49105
  22913724.420   122444020.51608  22913729.860    95234266.29606
  19821244.320   105881543.71608  19821246.660    82352330.35908
  23249663.900   124414003.87708  23249664.340    96766613.17806
  20355666.600   108660327.31809  20355669.380    84513530.66908
  21339105.400   114149892.30508  21339105.540    88783285.50308
 15 03 05 00 12 30.0000000  0 15G16G18G19G21G22G27G31R02R03R09R15R16
                                R17R18R19
  20839733.660   109513563.93509  20839730.620    85335241.75448
  22240278.820   116873493.36409  22240276.300    91070287.11347
  23818655.640   125167894.88708  23818652.260    97533425.86946
  22187137.320   116594278.33408  22187134.260    90852699.44447
  22808743.040   119860821.53709  22808738.880    93398063.96647
  21848176.060   114812989.39009  21848175.540    89464687.65448
  23899805.480   125594348.71908  23899804.280    97865734.66946
  22868288.220   122029576.58808  22868290.760    94911917.88907
  22313586.120   119446383.79907  22313587.740    92902757.70407
  21215318.040   113288624.04908  21215319.300    88113386.46305
  22938738.780   122577688.94007  22938744.160    95338230.49106
  19830699.160   105932049.65608  19830701.520    82391612.74908
  23264690.960   124494416.63807  23264691.440    96829156.45306
  20362808.020   108698448.24909  20362810.800    84543180.28408
  21330762.180   114105262.61508  21330762.480    88748573.55808
 15 03 05 00 13  0.0000000  0 15G16G18G19G21G22G27G31R02R03R09R15R16
                                R17R18R19
  20831032.700   109467839.94809  20831029.560    85299612.68448
  22233959.740   116840286.45309  22233957.220    91044411.61947
  23804781.860   125094987.60808  23804778.480    97476615.05946
  22199049.400   116656876.08308  22199046.180    90901476.91947
  22792886.760   119777496.48109  22792882.760    93333135.40647
  21838795.980   114763697.25509  21838795.580    89426278.24148
  23918566.040   125692935.53408  23918564.940    97942555.45546
  22870874.140   122043375.89708  22870876.820    94922650.72207
  22299001.560   119368311.51007  22299003.180    92842034.85207
  21202822.460   113221899.24108  21202823.860    88061489.41105
  22963774.120   122711469.45307  22963779.420    95442281.83606
  19840298.360   105983326.89508  19840300.700    82431495.04108
  23279706.100   124574765.98207  23279706.660    96891650.39606
  20369977.680   108736719.99209  20369980.480    84572947.20108
  21322461.680   114060861.07508  21322462.100    88714039.06408
 15 03 05 00 13 30.0000000  0 15G16G18G19G21G22G27G31R02R03R09R15R16
                                R17R18R19
  20822405.500   109422503.39909  20822402.240    85264285.51048
  22227720.840   116807500.90709  22227718.320    91018864.45847
  23790927.140   125022180.63108  23790923.720    97419882.41846
  22211001.200   116719682.57508  22210997.800    90950417.04747
  22777065.760   119694357.16109  22777062.000    93268351.58047
  21829440.460   114714534.36709  21829440.240    89387969.52848
  23937329.900   125791539.95208  23937328.840    98019389.93046
  22873595.360   122057897.51208  22873598.200    94933945.34107
  22284501.580   119290691.66607  22284503.160    92781663.90807
  21190455.100   113155858.92608  21190456.540    88010124.74205
  22988830.400   122845361.65207  22988835.720    95546420.04906
  19850042.220   106035376.97708  19850044.560    82471978.43208
  23294709.880   124655055.22406  23294710.760    96954097.55706
  20377176.140   108775145.14209  20377178.860    84602833.42908
  21314204.480   114016690.68708  21314204.920    88679684.34308
 15 03 05 00 14  0.0000000  0 15G16G18G19G21G22G27G31R02R03R09R15R16
                                R17R18R19
  20813852.460   109377556.64409  20813849.100    85229262.07248
  22221562.580   116775138.55709  22221559.960    90993647.05347
  23777091.520   124949474.29108  23777088.060    97363228.17246
  22222992.300   116782696.12508  22222988.820    90999518.51347
  22761280.680   119611406.81009  22761277.140    93203714.98547
  21820109.620   114665501.18409  21820109.580    89349761.87548
  23956096.620   125890159.22708  23956095.500    98096235.99946
  22876452.040   122073141.92008  22876455.080    94945802.11707
  22270087.000   119213528.87408  22270088.480    92721648.43407
  21178216.620   113090506.50708  21178218.000    87959295.09105
  23013907.040   122979362.67007  23013912.420    95650642.88607
  19859930.360   106088197.67009  19859932.720    82513061.17708
  23309702.460   124735284.66206  23309703.600    97016498.19706
  20384403.160   108813722.64409  20384405.720    84632838.14808
  21305990.520   113972751.08209  21305990.860    88645509.11808
 15 03 05 00 14 30.0000000  0 15G16G18G19G21G22G27G31R02R03R09R15R16
                                R17R18R19
  20805373.360   109332998.56209  20805369.940    85194541.49748
  22215484.500   116743197.79409  22215481.840    90968758.16347
  23763274.520   124876865.63908  23763271.000    97306650.06146
  22235021.880   116845912.01108  22235018.340    91048777.64447
  22745531.420   119528644.77609  22745528.020    93139225.13947
  21810802.920   114616594.62309  21810803.000    89311652.89448
  23974865.140   125988787.57708  23974863.920    98173089.13446
  22879443.560   122089105.92708  22879446.820    94958218.59007
  22255758.020   119136824.11908  22255759.340    92661989.21007
  21166106.980   113025841.59808  21166108.200    87909000.18705
  23039002.460   123113464.46408  23039007.920    95754944.09106
  19869961.680   106141783.00709  19869964.020    82554738.64708
  23324683.320   124815450.76207  23324684.560    97078849.57306
  20391657.740   108852447.76709  20391660.240    84662957.68408
  21297818.940   113929037.95209  21297819.120    88611510.03908
 15 03 05 00 15  0.0000000  0  7G16G18G19G21G22G27G31
  20796968.720   109288831.83409  20796965.240    85160125.87448
  22209487.100   116711681.02109  22209484.380    90944199.65147
  23749476.180   124804355.02508  23749472.640    97250148.33546
  22247089.680   116909328.86708  22247086.160    91098193.37647
  22729818.680   119446074.61309  22729815.360    93074884.81047
  21801520.520   114567815.51609  21801520.680    89273643.23048
  23993634.980   126087423.03508  23993633.680    98249947.80746
 15 03 05 00 15 30.0000000  0  7G16G18G19G21G22G27G31
  20788639.200   109245060.05509  20788635.740    85126018.00748
  22203570.920   116680591.32809  22203568.200    90919973.93647
  23735696.800   124731944.09208  23735693.220    97193724.29947
  22259195.740   116972946.89408  22259192.320    91147765.87348
  22714143.280   119363700.52909  22714139.940    93010697.26247
  21792262.720   114519165.48809  21792262.880    89235734.14648
  24012405.920   126186064.14708  24012404.580    98326810.87447
 15 03 05 00 16  0.0000000  0  7G16G18G19G21G22G27G31
  20780384.900   109201683.79409  20780381.540    85092218.33848
  22197736.100   116649929.00709  22197733.280    90896081.23847
  23721936.180   124659631.56108  23721932.520    97137376.91746
  22271339.400   117036762.48908  22271336.080    91197492.30947
  22698505.620   119281524.15009  22698502.080    92946663.75847
  21783029.260   114470643.28909  21783029.360    89197924.67148
  24031177.160   126284707.07208  24031175.900    98403675.34246
 15 03 05 00 16 30.0000000  0  7G16G18G19G21G22G27G31
  20772206.520   109158706.42009  20772203.260    85058729.48248
  22191983.040   116619696.26309  22191980.140    90872523.27547
  23708194.540   124587418.74808  23708190.860    97081107.24846
  22283520.560   117100775.31608  22283517.400    91247372.44247
  22682906.380   119199549.57009  22682902.580    92882787.49447
  21773820.380   114422250.21909  21773820.420    89160215.80448
  24049948.400   126383350.10508  24049947.260    98480539.89346
 15 03 05 00 17  0.0000000  0  7G16G18G19G21G22G27G31
  20764104.100   109116128.15709  20764100.920    85025551.61348
  22186311.900   116589893.54309  22186308.840    90849300.38747
  23694471.560   124515303.81208  23694467.800    97024913.83846
  22295738.500   117164981.35608  22295735.460    91297403.11047
  22667345.680   119117777.67109  22667341.720    92819069.16847
  21764635.780   114373984.73309  21764635.720    89122606.34548
  24068718.760   126481988.66808  24068717.700    98557400.94646
 15 03 05 00 17 30.0000000  0  7G16G18G19G21G22G27G31
  20756078.360   109073952.75009  20756075.260    84992687.67448
  22180723.100   116560523.55709  22180719.900    90826414.71447
  23680767.480   124443288.12808  23680763.580    96968797.77646
  22307993.220   117229380.42808  22307990.200    91347584.20747
  22651824.280   119036212.62509  22651820.280    92755512.03847
  21755475.800   114325848.53509  21755475.640    89085097.64848
  24087488.080   126580621.60108  24087487.060    98634257.61446
 15 03 05 00 18  0.0000000  0  7G16G18G19G21G22G27G31
  20748129.760   109032182.58109  20748126.700    84960139.50548
  22175217.020   116531588.34409  22175213.700    90803867.82447
  23667082.380   124371372.15608  23667078.340    96912759.41446
  22320284.540   117293971.97108  22320281.520    91397915.28647
  22636343.000   118954858.15209  22636338.940    92692118.98747
  21746340.580   114277842.40909  21746340.300    89047690.30248
  24106255.940   126679246.82708  24106254.980    98711108.28046
 15 03 05 00 18 30.0000000  0  7G16G18G19G21G22G27G31
  20740258.700   108990819.59509  20740255.580    84927908.61148
  22169793.980   116503089.78009  22169790.640    90781661.16947
  23653416.360   124299556.64408  23653412.260    96856799.32646
  22332612.200   117358754.12008  22332609.160    91448394.87647
  22620902.360   118873717.12809  22620898.240    92628892.24947
  21737230.120   114229966.63709  21737229.800    89010384.51748
  24125021.800   126777861.91608  24125020.920    98787951.01646
 15 03 05 00 19  0.0000000  0  7G16G18G19G21G22G27G31
  20732465.060   108949863.59809  20732461.940    84895994.85149
  22164453.840   116475027.13309  22164450.520    90759794.18647
  23639768.880   124227838.81008  23639764.800    96800915.35146
  22344975.260   117423722.20508  22344972.140    91499019.35247
  22605502.380   118792789.72409  22605498.300    92565831.96747
  21728143.960   114182218.86709  21728143.700    88973178.47948
  24143784.760   126876461.61008  24143783.860    98864781.75946
 15 03 05 00 19 30.0000000  0  7G16G18G19G21G22G27G31
  20724749.400   108909317.58109  20724746.280    84864400.55848
  22159197.000   116447402.52109  22159193.720    90738268.53247
  23626140.220   124156220.18108  23626136.200    96745108.68047
  22357373.660   117488875.90008  22357370.520    91549788.46547
  22590143.820   118712079.98609  22590139.780    92502941.29947
  21719082.380   114134600.51009  21719082.260    88936073.28548
  24162544.580   126975044.42008  24162543.660    98941599.36146
 15 03 05 00 20  0.0000000  0  7G16G18G19G21G22G27G31
  20717112.100   108869183.65609  20717109.020    84833127.38448
  22154023.900   116420218.06209  22154020.660    90717085.85947
  23612530.320   124084700.41208  23612526.460    96689379.04346
  22369806.980   117554213.03108  22369803.820    91600700.51747
  22574827.200   118631590.57009  22574823.200    92440222.31947
  21710045.460   114087111.69609  21710045.460    88899069.04448
  24181300.680   127073607.51908  24181299.680    99018401.60946
 15 03 05 00 20 30.0000000  0  7G16G18G19G21G22G27G31
  20709553.280   108829462.15409  20709550.220    84802175.57148
  22148934.520   116393473.33109  22148931.300    90696245.82447
  23598939.020   124013278.38908  23598935.340    96633725.57846
  22382274.800   117619731.23409  22382271.480    91651753.66247
  22559552.780   118551322.72509  22559548.660    92377675.98547
  21701033.000   114039751.16109  21701033.040    88862164.76048
  24200052.260   127172146.75208  24200051.180    99095185.25146
 15 03 05 00 21  0.0000000  0  7G16G18G19G21G22G27G31
  20702073.940   108790158.62209  20702070.980    84771549.45648
  22143929.780   116367173.23509  22143926.600    90675752.26947
  23585366.900   123941957.06608  23585363.340    96578150.58546
  22394777.240   117685431.66308  22394773.820    91702948.80447
  22544321.760   118471283.06509  22544317.600    92315307.47247
  21692045.720   113992522.45809  21692045.700    88825363.20048
  24218799.400   127270662.80208  24218798.360    99171950.81446
 15 03 05 00 21 30.0000000  0  7G16G18G19G21G22G27G31
  20694674.040   108751272.66009  20694671.200    84741248.70948
  22139009.380   116341316.57609  22139006.240    90655604.24047
  23571813.620   123870734.55908  23571810.160    96522652.57646
  22407313.580   117751310.13808  22407310.060    91754282.67647
  22529134.180   118391471.78509  22529129.960    92253116.90347
  21683083.200   113945423.62109  21683083.040    88788662.82248
  24237541.200   127369150.93708  24237540.160    99248694.62146
 15 03 05 00 22  0.0000000  0  7G16G18G19G21G22G27G31
  20687354.020   108712806.31009  20687351.280    84711274.93649
  22134173.660   116315905.09309  22134170.620    90635803.10247
  23558279.160   123799610.76508  23558275.760    96467231.47947
  22419883.360   117817364.72508  22419879.860    91805753.77347
  22513990.480   118311891.50709  22513986.220    92191106.32747
  21674145.460   113898454.83409  21674145.120    88752063.78048
  24256277.200   127467608.53308  24256276.200    99325414.63146
 15 03 05 00 22 30.0000000  0  7G16G18G19G21G22G27G31
  20680114.200   108674761.05409  20680111.520    84681629.28448
  22129422.740   116290939.50209  22129419.880    90616349.41547
  23544763.480   123728585.42108  23544760.060    96411887.09646
  22432486.400   117883594.12108  22432482.920    91857361.09247
  22498891.260   118232545.00309  22498887.060    92129277.91848
  21665232.380   113851615.90709  21665231.940    88715565.92748
  24275006.700   127566032.22008  24275005.820    99402108.17846
 15 03 05 00 23  0.0000000  0  7G16G18G19G21G22G27G31
  20672955.340   108637140.82609  20672952.640    84652314.83248
  22124757.380   116266423.72409  22124754.660    90597246.23647
  23531266.940   123657660.65708  23531263.460    96356621.09946
  22445122.740   117949998.39908  22445119.180    91909104.69447
  22483837.440   118153436.97909  22483833.340    92067635.35748
  21656344.440   113804909.12009  21656343.920    88679171.04848
  24293729.660   127664421.54208  24293728.920    99478774.95946
 15 03 05 00 23 30.0000000  0  7G16G18G19G21G22G27G31
  20665876.920   108599942.83109  20665874.140    84623329.38648
  22120176.820   116242353.50909  22120174.260    90578490.24147
  23517788.640   123586831.75108  23517785.060    96301429.78346
  22457791.000   118016570.55008  22457787.380    91960979.09547
  22468828.600   118074565.12409  22468824.500    92006176.79947
  21647480.720   113758329.85009  21647480.200    88642875.53148
  24312444.740   127762769.21308  24312444.200    99555409.27046
 15 03 05 00 24  0.0000000  0  7G16G18G19G21G22G27G31
  20658880.640   108563176.53009  20658877.760    84594680.31248
  22115682.880   116218738.29709  22115680.460    90560088.78347
  23504329.900   123516106.08908  23504326.420    96246318.91746
  22470492.280   118083316.45808  22470488.640    92012988.88547
  22453866.780   117995940.24509  22453862.640    91944910.68847
  21638642.740   113711885.90409  21638642.220    88606685.45648
  24331152.880   127861079.84708  24331152.400    99632014.71946
 15 03 05 00 24 30.0000000  0  7G16G18G19G21G22G27G31
  20651965.840   108526838.44809  20651962.880    84566364.93448
  22111274.820   116195573.99309  22111272.400    90542038.69947
  23490889.840   123445478.45708  23490886.440    96191284.44746
  22483225.240   118150229.19008  22483221.700    92065128.67447
  22438951.400   117917559.42609  22438947.200    91883834.76248
  21629829.520   113665572.20209  21629829.020    88570596.87548
  24349852.500   127959345.63908  24349852.040    99708585.22546
 15 03 05 00 25  0.0000000  0  7G16G18G19G21G22G27G31
  20645133.420   108490933.32609  20645130.340    84538386.91548
  22106953.300   116172864.42509  22106950.860    90524342.93447
  23477468.980   123374951.63308  23477465.580    96136328.51546
  22495990.100   118217309.80708  22495986.720    92117399.27547
  22424083.520   117839428.06009  22424079.240    91822953.20347
  21621041.660   113619391.67809  21621041.160    88534612.05548
  24368543.560   128057566.36608  24368543.080    99785120.59746
 15 03 05 00 25 30.0000000  0  7G16G18G19G21G22G27G31
  20638383.100   108455459.58009  20638379.860    84510745.04348
  22102717.960   116150607.56109  22102715.440    90506999.94147
  23464066.700   123304522.34908  23464063.320    96081448.60146
  22508786.000   118284553.42508  22508782.760    92169796.89747
  22409263.080   117761545.78809  22409258.720    91762265.74948
  21612278.500   113573341.26309  21612278.040    88498728.63248
  24387224.940   128155736.45708  24387224.440    99861616.51945
 15 03 05 00 26  0.0000000  0  7G16G18G19G21G22G27G31
  20631715.920   108420422.93409  20631712.620    84483443.75448
  22098569.720   116128808.37309  22098567.100    90490013.56747
  23450683.760   123234194.61708  23450680.440    96026647.81447
  22521613.180   118351961.49608  22521610.100    92222322.65347
  22394491.300   117683919.25809  22394486.860    91701777.56948
  21603540.840   113527424.94409  21603540.440    88462949.69248
  24405896.880   128253856.92608  24405896.280    99938073.76545
 15 03 05 00 26 30.0000000  0  7G16G18G19G21G22G27G31
  20625131.240   108385820.04709  20625127.880    84456480.47848
  22094507.860   116107463.49609  22094505.220    90473381.21647
  23437319.260   123163963.71408  23437315.920    95971922.47146
  22534470.500   118419527.76308  22534467.520    92274971.69147
  22379767.620   117606546.08409  22379763.240    91641486.82547
  21594827.800   113481637.96509  21594827.500    88427271.54748
  24424557.920   128351920.21308  24424557.400   100014486.46045
 15 03 05 00 27  0.0000000  0  7G16G18G19G21G22G27G31
  20618629.480   108351653.10409  20618626.100    84429856.88648
  22090532.680   116086574.09409  22090530.040    90457103.77247
  23423973.260   123093829.73708  23423969.920    95917272.65446
  22547357.700   118487250.90808  22547354.820    92327742.95947
  22365092.660   117529429.04009  22365088.360    91581395.65248
  21586139.500   113435980.95009  21586139.280    88391694.65648
  24443207.600   128449923.92008  24443207.180   100090852.69345
 15 03 05 00 27 30.0000000  0  7G16G18G19G21G22G27G31
  20612212.080   108317929.69509  20612208.700    84403578.90448
  22086645.380   116066146.56809  22086642.780    90441186.22847
  23410646.680   123023797.97408  23410643.300    95862702.49447
  22560275.540   118555134.65408  22560272.640    92380639.37547
  22350468.080   117452576.80809  22350463.900    91521510.82148
  21577477.020   113390459.75709  21577476.880    88356223.60748
  24461846.500   128547870.97108  24461846.240   100167174.77345
 15 03 05 00 28  0.0000000  0  7G16G18G19G21G22G27G31
  20605878.720   108284648.07309  20605875.340    84377645.18348
  22082845.680   116046179.15709  22082843.100    90425627.23347
  23397338.840   122953865.13308  23397335.500    95808209.42147
  22573222.940   118623173.63508  22573220.000    92433656.76447
  22335893.740   117375988.43209  22335889.680    91461831.60548
  21568839.700   113345070.89109  21568839.600    88320855.68448
  24480473.360   128645755.34208  24480473.300   100243447.97145
 15 03 05 00 28 30.0000000  0  7G16G18G19G21G22G27G31
  20599629.980   108251811.07509  20599626.640    84352057.91448
  22079134.000   116026673.99509  22079131.380    90410428.42547
  23384049.960   122884032.41508  23384046.720    95753794.35847
  22586199.840   118691367.40508  22586196.780    92486794.75947
  22321370.320   117299667.71009  22321366.360    91402360.94548
  21560227.940   113299815.98409  21560227.800    88285592.13048
  24499088.080   128743575.67808  24499088.260   100319671.26845
 15 03 05 00 29  0.0000000  0  7G16G18G19G21G22G27G31
  20593465.820   108219418.46609  20593462.540    84326816.92048
  22075510.120   116007630.05909  22075507.440    90395589.01147
  23370779.700   122814297.66608  23370776.520    95699455.64447
  22599205.520   118759712.35008  22599202.400    92540050.55447
  22306897.980   117223615.34409  22306894.060    91343099.38648
  21551641.360   113254693.26709  21551641.200    88250431.58848
  24517689.760   128841327.16508  24517690.080   100395840.89746
 15 03 05 00 29 30.0000000  0  7G16G18G19G21G22G27G31
  20587386.680   108187472.65109  20587383.480    84301924.07749
  22071974.300   115989048.71809  22071971.520    90381110.05347
  23357528.280   122744661.82208  23357525.120    95645193.98047
  22612239.720   118828207.04408  22612236.540    92593423.03147
  22292477.300   117147834.15109  22292473.380    91284049.12748
  21543080.160   113209703.41109  21543079.900    88215374.56648
  24536277.940   128939007.61708  24536278.400   100471955.16945
 15 03 05 00 30  0.0000000  0  7G16G18G19G21G22G27G31
  20581392.840   108155975.10909  20581389.740    84277380.53648
  22068526.660   115970930.99809  22068523.860    90366992.36747
  23344295.760   122675124.62608  23344292.480    95591009.19747
  22625302.100   118896849.74708  22625298.840    92646910.84747
  22278108.740   117072326.72209  22278104.800    91225212.19248
  21534544.320   113164846.57009  21534543.880    88180421.19748
  24554852.160   129036614.37008  24554852.660   100548012.01345
 15 03 05 00 30 30.0000000  0  7G16G18G19G21G22G27G31
  20575485.000   108124929.41309  20575481.980    84253189.08648
  22065167.760   115953279.93309  22065164.940    90353238.30547
  23331082.380   122605687.83508  23331078.960    95536902.65447
  22638392.600   118965640.39208  22638389.320    92700513.94347
  22263793.180   116997097.77109  22263789.160    91166592.25648
  21526034.140   113120124.79409  21526033.540    88145573.06648
  24573412.180   129134146.13708  24573412.600   100624010.40445
 15 03 05 00 31  0.0000000  0  7G16G18G19G21G22G27G31
  20569663.460   108094336.94309  20569660.480    84229350.79448
  22061897.680   115936095.81209  22061894.900    90339848.09547
  23317888.100   122536351.10208  23317884.540    95482874.07046
  22651510.800   119034576.56508  22651507.500    92754230.42747
  22249531.060   116922150.03209  22249527.060    91108191.44948
  21517549.540   113075537.91809  21517548.920    88110830.05448
  24591957.480   129231600.37508  24591957.880   100699948.37745
 15 03 05 00 31 30.0000000  0  7G16G18G19G21G22G27G31
  20563928.480   108064199.12509  20563925.480    84205866.78049
  22058716.720   115919379.93609  22058713.900    90326822.75547
  23304712.860   122467114.42508  23304709.140    95428923.44547
  22664656.420   119103657.07208  22664653.140    92808059.38547
  22235322.740   116847485.54709  22235318.880    91050011.37048
  21509090.560   113031085.96909  21509090.000    88076192.18448
  24610487.500   129328974.61407  24610487.980   100775823.98545
 15 03 05 00 32  0.0000000  0  7G16G18G19G21G22G27G31
  20558280.340   108034517.41309  20558277.260    84182738.17149
  22055624.900   115903132.37809  22055622.040    90314162.33147
  23291556.480   122397977.16108  23291552.700    95375050.28347
  22677829.040   119172879.56308  22677825.840    92861998.97447
  22221168.680   116773106.36109  22221164.940    90992053.59148
  21500657.240   112986768.99909  21500656.760    88041659.49148
  24629001.640   129426265.73307  24629002.240   100851634.80545
 15 03 05 00 32 30.0000000  0  7G16G18G19G21G22G27G31
  20552719.640   108005295.11209  20552716.460    84159967.54349
  22052622.740   115887355.72109  22052619.820    90301868.84047
  23278419.260   122328940.94308  23278415.520    95321255.86647
  22691028.620   119242244.02908  22691025.520    92916049.19947
  22207069.660   116699016.52809  22207066.020    90934321.29548
  21492249.980   112942588.87009  21492249.600    88007233.42948
  24647499.720   129523472.53107  24647500.400   100927379.87645
 15 03 05 00 33  0.0000000  0  7G16G18G19G21G22G27G31
  20547246.200   107976531.47809  20547242.920    84137554.32249
  22049710.000   115872049.11609  22049707.040    90289941.62647
  23265300.860   122260003.55308  23265297.140    95267538.44747
  22704254.400   119311746.16108  22704251.320    92970206.69747
  22193025.880   116625216.85609  22193022.280    90876815.08848
  21483868.360   112898543.52309  21483868.080    87972912.38949
  24665980.820   129620590.01607  24665981.640   101003055.37245
 15 03 05 00 33 30.0000000  0  7G16G18G19G21G22G27G31
  20541860.560   107948229.61209  20541857.220    84115500.91649
  22046886.980   115857214.23809  22046884.140    90278381.99747
  23252201.600   122191166.78708  23252197.940    95213899.43747
  22717506.280   119381385.72608  22717503.240    93024471.27647
  22179038.240   116551711.57509  22179034.500    90819538.26848
  21475512.720   112854634.64009  21475512.540    87938697.68548
  24684444.800   129717617.18907  24684445.660   101078660.47045
 15 03 05 00 34  0.0000000  0  6G16G18G19G21G22G27
  20536561.680   107920384.05409  20536558.380    84093803.08148
  22044152.700   115842845.59409  22044149.900    90267185.66347
  23239120.120   122122423.22508  23239116.460    95160333.05547
  22730782.580   119451153.77808  22730779.680    93078835.99247
  22165105.800   116478495.67009  22165101.820    90762486.93448
  21467181.760   112810855.37609  21467181.620    87904583.98948
 15 03 05 00 34 30.0000000  0  6G16G18G19G21G22G27
  20531351.780   107893006.01609  20531348.500    84072469.54449
  22041509.000   115828953.08009  22041506.300    90256360.34247
  23226058.340   122053782.81908  23226054.600    95106847.05747
  22744085.020   119521058.72508  22744082.160    93133307.36747
  22151230.780   116405581.39609  22151226.560    90705670.63748
  21458877.360   112767215.68809  21458877.240    87870579.04648
 15 03 05 00 35  0.0000000  0  6G16G18G19G21G22G27
  20526230.900   107866095.84109  20526227.700    84051500.57948
  22038955.880   115815536.49909  22038953.240    90245905.88347
  23213015.900   121985244.12408  23213012.060    95053440.32146
  22757412.960   119591097.46408  22757410.100    93187883.00447
  22137413.400   116332969.97509  22137408.960    90649090.33148
  21450599.320   112723714.52509  21450599.200    87836682.04448
 15 03 05 00 35 30.0000000  0  6G16G18G19G21G22G27
  20521199.060   107839653.38309  20521195.900    84030896.06249
  22036493.140   115802594.89209  22036490.620    90235821.52447
  23199992.440   121916805.30608  23199988.520    95000111.39447
  22770765.680   119661266.40508  22770762.840    93242560.08047
  22123653.800   116260662.46309  22123649.220    90592746.83248
  21442347.420   112680350.50109  21442347.260    87802891.89348
 15 03 05 00 36  0.0000000  0  6G16G18G19G21G22G27
  20516256.920   107813682.07009  20516253.740    84010658.66549
  22034121.280   115790130.79909  22034118.820    90226109.25747
  23186988.340   121848468.50708  23186984.380    94946861.96547
  22784143.300   119731565.75008  22784140.340    93297338.78447
  22109952.780   116188663.21409  22109948.120    90536643.53548
  21434122.080   112637125.77909  21434121.800    87769210.30048
 15 03 05 00 36 30.0000000  0  6G16G18G19G21G22G27
  20511404.360   107788181.52709  20511401.160    83990788.10849
  22031840.160   115778143.38209  22031837.680    90216768.42147
  23174003.320   121780232.21008  23173999.460    94893690.86247
  22797545.000   119801991.78308  22797541.940    93352216.19947
  22096310.540   116116973.17409  22096305.940    90480781.19148
  21425923.000   112594038.92609  21425922.580    87735636.13948
 15 03 05 00 37  0.0000000  0  6G16G18G19G21G22G27
  20506641.280   107763151.46409  20506638.060    83971284.15549
  22029649.480   115766631.30809  22029646.980    90207797.97947
  23161036.980   121712093.95108  23161033.140    94840596.13547
  22810970.180   119872541.08408  22810967.040    93407189.65747
  22082727.180   116045592.65809  22082722.640    90425160.02848
  21417749.820   112551088.25009  21417749.340    87702168.07548
 15 03 05 00 37 30.0000000  0  6G16G18G19G21G22G27
  20501968.820   107738597.76309  20501965.620    83952151.39948
