     2.11           OBSERVATION DATA    M                   RINEX VERSION / TYPE
SPIDER V4,0,0,3554                      2015 03 24 08:16    PGM / RUN BY / DATE 
OJGS                                                        MARKER NAME         
OJGS                                                        MARKER NUMBER       
                                                            OBSERVER / AGENCY   
496552              LEICA GRX1200+GNSS  8.20/4.007          REC # / TYPE / VERS 
10401003            LEIAR25         NONE                    ANT # / TYPE        
  5198100.9450    88691.2920  3684205.7148                  APPROX POSITION XYZ 
        0.1200        0.0000        0.0000                  ANTENNA: DELTA H/E/N
     1     1                                                WAVELENGTH FACT L1/2
     4    C1    L1    P2    L2                              # / TYPES OF OBSERV 
    30.000                                                  INTERVAL            
  2015    03    05    00    00    0.0000000     GPS         TIME OF FIRST OBS   
  2015    03    05    23    59   30.0000000     GPS         TIME OF LAST OBS    
    16                                                      LEAP SECONDS        
    38                                                      # OF SATELLITES     
   G 1   833   832   832   832                              PRN / # OF OBS      
   G 2   925   925   925   925                              PRN / # OF OBS      
   G 3   840   840   840   840                              PRN / # OF OBS      
   G 4   845   844   844   844                              PRN / # OF OBS      
   G 5   673   673   673   673                              PRN / # OF OBS      
   G 6   734   734   733   733                              PRN / # OF OBS      
   G 7   721   721   721   721                              PRN / # OF OBS      
   G 9   782   782   782   782                              PRN / # OF OBS      
   G10   784   784   784   784                              PRN / # OF OBS      
   G11   798   798   797   797                              PRN / # OF OBS      
   G12   811   811   811   811                              PRN / # OF OBS      
   G13   822   822   822   822                              PRN / # OF OBS      
   G14   416   416   416   416                              PRN / # OF OBS      
   G15   733   732   732   732                              PRN / # OF OBS      
   G16   694   694   694   694                              PRN / # OF OBS      
   G17   930   930   930   930                              PRN / # OF OBS      
   G18   934   931   930   930                              PRN / # OF OBS      
   G19   790   790   790   790                              PRN / # OF OBS      
   G20   793   792   792   792                              PRN / # OF OBS      
   G21   713   713   712   712                              PRN / # OF OBS      
   G22   803   800   797   797                              PRN / # OF OBS      
   G23   726   726   726   726                              PRN / # OF OBS      
   G24   835   826   820   818                              PRN / # OF OBS      
   G25   854   854   854   854                              PRN / # OF OBS      
   G27   832   832   832   832                              PRN / # OF OBS      
   G28   913   912   912   912                              PRN / # OF OBS      
   G29   742   742   741   741                              PRN / # OF OBS      
   G30   692   692   692   692                              PRN / # OF OBS      
   G31   796   796   796   796                              PRN / # OF OBS      
   G32   739   739   739   739                              PRN / # OF OBS      
   R 2    30    30    30    30                              PRN / # OF OBS      
   R 3    30    30    30    30                              PRN / # OF OBS      
   R 9    30    30    30    30                              PRN / # OF OBS      
   R15    30    30    30    30                              PRN / # OF OBS      
   R16    30    30    30    30                              PRN / # OF OBS      
   R17    30    30    30    30                              PRN / # OF OBS      
   R18    30    30    30    30                              PRN / # OF OBS      
   R19    30    30    30    30                              PRN / # OF OBS      
BIT 2 OF LLI FLAGS DATA COLLECTED UNDER A/S CONDITION       COMMENT             
SNR is mapped to RINEX snr flag value [2-9]                 COMMENT             
Lx:     = 25dBHz -> 1; 26-27dBHz -> 2; 28-31dBHz -> 3       COMMENT             
       32-35dBHz -> 4; 36-38dBHz -> 5; 39-41dBHz -> 6       COMMENT             
       42-44dBHz -> 7; 45-48dBHz -> 8; >=49dBHz -> 9        COMMENT             
                                                            END OF HEADER       
 15 03 05 00 00  0.0000000  0 15G16G18G19G21G22G27G31R02R03R09R15R16
                                R17R18R19
  21071836.860   110733272.78909  21071833.580    86285678.03548
  22372965.060   117570786.08009  22372962.460    91613614.43646
  24290401.880   127646927.40108  24290398.540    99465139.12345
  21798817.120   114553566.52108  21798813.660    89262509.78947
  23272475.980   122297729.32409  23272471.460    95296928.76546
  22147230.060   116384516.77809  22147229.700    90689247.82248
  23575135.340   123888147.63208  23575133.600    96536200.92746
  22679088.340   121019972.47208  22679091.420    94126662.65907
  22625568.640   121116449.86307  22625569.700    94201707.88107
  21558388.840   115120600.73309  21558390.360    89538246.67605
  22435043.300   119886048.23507  22435048.820    93244710.92406
  19718885.100   105334749.99009  19718887.720    81927041.82308
  22715192.820   121553576.91308  22715193.880    94541670.48706
  20119692.400   107400296.98809  20119695.240    83533582.50908
  21650538.760   115815822.20208  21650539.320    90078994.17008
 15 03 05 00 00 30.0000000  0 15G16G18G19G21G22G27G31R02R03R09R15R16
                                R17R18R19
  21061473.680   110678813.99709  21061470.400    86243242.62548
  22364278.060   117525135.54209  22364275.420    91578042.61946
  24275587.240   127569076.58108  24275583.800    99404476.21245
  21809111.980   114607666.31508  21809108.580    89304665.47947
  23255510.480   122208575.14909  23255505.940    95227458.03546
  22136625.900   116328791.61209  22136625.600    90645825.64448
  23593713.140   123985774.38808  23593711.420    96612273.65646
  22678213.040   121015301.71208  22678216.240    94123029.85707
  22608667.220   121025975.15307  22608668.500    94131338.69607
  21543437.480   115040760.81408  21543438.840    89476148.99005
  22459532.160   120016908.92808  22459537.680    93346491.38807
  19725430.080   105369711.73209  19725432.600    81954234.27308
  22730352.140   121634697.38607  22730353.320    94604764.18007
  20125315.540   107430313.53609  20125318.260    83556928.71308
  21640388.920   115761527.26808  21640389.440    90036764.81008
 15 03 05 00 01  0.0000000  0 15G16G18G19G21G22G27G31R02R03R09R15R16
                                R17R18R19
  21051178.040   110624709.89909  21051174.740    86201083.59848
  22355663.240   117479864.40209  22355660.600    91542766.42746
  24260790.400   127491320.23008  24260787.340    99343886.94445
  21819457.220   114662031.17908  21819453.940    89347027.71447
  23238566.700   122119535.33609  23238562.100    95158076.42446
  22126046.620   116273197.49309  22126046.440    90602505.58648
  23612305.580   124083478.07008  23612303.900    96688406.34847
  22677473.460   121011355.86008  22677476.640    94119960.91107
  22591831.340   120935850.95707  22591832.660    94061242.15507
  21528602.820   114961543.77208  21528603.860    89414535.73305
  22484058.000   120147967.14008  22484063.480    93448425.47907
  19732128.580   105405493.52709  19732131.020    81982064.54808
  22745506.480   121715791.19207  22745507.860    94667837.12807
  20130977.500   107460537.32409  20130980.240    83580436.11808
  21630284.360   115707474.98008  21630284.880    89994724.19108
 15 03 05 00 01 30.0000000  0 15G16G18G19G21G22G27G31R02R03R09R15R16
                                R17R18R19
  21040948.420   110570952.76809  21040945.040    86159194.93548
  22347119.040   117434964.36509  22347116.440    91507779.41146
  24246009.960   127413648.66708  24246007.120    99283363.74045
  21829850.740   114716649.72108  21829847.560    89389587.62447
  23221643.360   122030602.78409  23221638.780    95088778.39446
  22115490.320   116217724.53709  22115490.240    90559279.94348
  23630910.180   124181245.71408  23630908.540    96764588.87746
  22676868.020   121008125.79608  22676871.240    94117448.66007
  22575059.740   120846071.45407  22575060.900    93991413.69007
  21513883.520   114882943.08008  21513884.400    89353401.88405
  22508618.200   120279208.77208  22508623.620    93550502.23506
  19738978.340   105442083.43309  19738980.760    82010523.35708
  22760653.700   121796847.46007  22760655.160    94730880.85406
  20136676.080   107490956.80909  20136678.780    83604095.72608
  21620223.140   115653654.51008  21620223.660    89952863.85908
 15 03 05 00 02  0.0000000  0 15G16G18G19G21G22G27G31R02R03R09R15R16
                                R17R18R19
  21030786.400   110517551.18409  21030783.060    86117583.32348
  22338647.160   117390444.28809  22338644.520    91473088.45446
  24231246.800   127336068.42308  24231244.140    99222911.68245
  21840293.400   114771526.25408  21840290.300    89432348.55647
  23204742.200   121941786.73309  23204737.600    95019571.12946
  22104958.300   116162379.23409  22104958.400    90516153.77048
  23649527.600   124279080.81108  23649525.980    96840823.94846
  22676398.060   121005618.83208  22676401.540    94115498.81407
  22558354.580   120756647.63107  22558355.760    93921861.85807
  21499281.400   114804968.58208  21499282.480    89292755.08405
  22533213.120   120410636.04408  22533218.400    93652723.36906
  19745980.300   105479486.25909  19745982.720    82039614.42308
  22775795.100   121877872.40908  22775796.120    94793900.27006
  20142412.180   107521576.92409  20142415.020    83627911.37708
  21610206.360   115600071.62508  21610206.880    89911188.32808
 15 03 05 00 02 30.0000000  0 15G16G18G19G21G22G27G31R02R03R09R15R16
                                R17R18R19
  21020692.260   110464506.31209  21020688.920    86076249.66148
  22330247.660   117346304.76509  22330244.980    91438694.04346
  24216501.000   127258578.52208  24216498.360    99162529.98845
  21850784.700   114826658.29708  21850781.640    89475308.58847
  23187863.540   121853089.02609  23187858.860    94950456.08846
  22094450.380   116107160.67509  22094450.620    90473126.34348
  23668157.160   124376979.64408  23668155.540    96917108.69146
  22676063.680   121003835.00708  22676067.200    94114111.42607
  22541716.540   120667583.12707  22541717.760    93852589.50707
  21484796.900   114727622.85408  21484798.260    89232597.32405
  22557841.680   120542243.03508  22557846.780    93755084.28306
  19753133.940   105517699.43409  19753136.300    82069335.76908
  22790930.520   121958864.33408  22790931.260    94856893.99906
  20148185.320   107552395.39209  20148188.340    83651881.29908
  21600233.720   115546724.67808  21600234.320    89869696.28208
 15 03 05 00 03  0.0000000  0 15G16G18G19G21G22G27G31R02R03R09R15R16
                                R17R18R19
  21010666.520   110411820.86109  21010663.180    86035196.07348
  22321921.100   117302548.80909  22321918.420    91404598.51446
  24201772.500   127181179.69008  24201769.840    99102219.26745
  21861324.380   114882044.58708  21861321.360    89518466.72848
  23171008.120   121764513.42409  23171003.420    94881436.19446
  22083966.800   116052069.91809  22083967.220    90430198.50548
  23686798.520   124474940.33108  23686796.900    96993441.63547
  22675865.220   121002775.95708  22675868.660    94113287.73707
  22525146.640   120578883.42807  22525147.640    93783600.89507
  21470431.080   114650910.29109  21470432.460    89172932.00405
  22582503.400   120674027.38808  22582508.360    93857583.15006
  19760439.000   105556721.78809  19760441.400    82099686.47808
  22806059.880   122039823.81108  22806060.620    94919862.49206
  20153995.580   107583411.64609  20153998.700    83676005.05008
  21590305.240   115493613.99608  21590305.840    89828388.02108
 15 03 05 00 03 30.0000000  0 15G16G18G19G21G22G27G31R02R03R09R15R16
                                R17R18R19
  21000709.640   110359497.14309  21000706.320    85994424.35948
  22313667.960   117259178.50209  22313665.240    91370803.49446
  24187061.240   127103871.95907  24187058.480    99041979.52246
  21871912.240   114937683.99608  21871909.280    89561822.11147
  23154176.380   121676062.45109  23154171.700    94812513.40947
  22073507.520   115997106.86309  22073508.120    90387370.18248
  23705451.040   124572959.65208  23705449.480    97069820.26146
  22675802.720   121002442.40508  22675805.960    94113028.37607
  22508645.680   120490552.56707  22508646.680    93714899.15407
  21456184.480   114574834.06908  21456185.740    89113761.62805
  22607197.580   120805985.19608  22607202.520    93960216.91506
  19767895.140   105596551.31208  19767897.640    82130664.98308
  22821182.920   122120749.83808  22821183.820    94982804.97406
  20159842.700   107614623.99309  20159845.860    83700281.31808
  21580420.700   115440738.87008  21580421.300    89787262.94508
 15 03 05 00 04  0.0000000  0 15G16G18G19G21G22G27G31R02R03R09R15R16
                                R17R18R19
  20990821.660   110307535.44909  20990818.380    85953934.74248
  22305488.120   117216193.52909  22305485.460    91337308.72446
  24172367.040   127026653.82708  24172364.440    98981809.62045
  21882547.500   114993572.57008  21882544.540    89605371.64547
  23137368.540   121587737.02109  23137363.920    94743688.45047
  22063072.220   115942269.82709  22063072.980    90344640.06348
  23724113.880   124671033.18608  23724112.360    97146241.14346
  22675875.880   121002833.22008  22675879.200    94113332.35907
  22492214.000   120402593.16107  22492215.220    93646486.31807
  21442057.340   114499395.87609  21442058.660    89055087.49205
  22631923.020   120938109.90308  22631927.920    94062980.50706
  19775501.820   105637184.64509  19775504.300    82162268.66508
  22836299.460   122201640.50508  22836300.320    95045719.92907
  20165726.040   107646029.31509  20165729.280    83724707.68108
  21570579.800   115388096.92608  21570580.340    89746319.23408
 15 03 05 00 04 30.0000000  0 15G16G18G19G21G22G27G31R02R03R09R15R16
                                R17R18R19
  20981003.800   110255942.24409  20981000.500    85913732.25548
  22297382.920   117173600.76709  22297380.320    91304119.56946
  24157690.660   126949529.42608  24157688.020    98921712.74245
  21893230.580   115049712.35508  21893227.640    89649116.92748
  23120585.980   121499544.41209  23120581.380    94674966.98846
  22052661.760   115887563.33909  22052662.620    90302011.65548
  23742787.340   124769162.44708  23742785.720    97222705.43746
  22676085.660   121003953.57208  22676089.280    94114203.74907
  22475853.400   120315014.54108  22475854.600    93578369.64507
  21428050.960   114424603.34108  21428052.420    88996915.54105
  22656679.720   121070401.55508  22656684.580    94165873.93806
  19783259.360   105678623.79609  19783261.740    82194499.09908
  22851409.840   122282499.62607  22851410.900    95108610.33907
  20171646.140   107677630.69309  20171649.260    83749286.53508
  21560783.160   115335691.64208  21560783.560    89705559.58508
 15 03 05 00 05  0.0000000  0 15G16G18G19G21G22G27G31R02R03R09R15R16
                                R17R18R19
  20971255.540   110204714.66609  20971252.180    85873814.67448
  22289351.720   117131396.81309  22289349.240    91271233.40146
  24143031.200   126872494.04008  24143028.780    98861685.22445
  21903960.220   115106096.72908  21903957.160    89693052.81447
  23103828.220   121411482.33509  23103823.640    94606347.25146
  22042275.240   115832982.52609  22042276.220    90259481.18648
  23761469.880   124867339.64208  23761468.260    97299207.07846
  22676431.600   121005799.36308  22676435.080    94115639.40807
  22459563.900   120227815.78108  22459565.060    93510548.43707
  21414165.200   114350454.99808  21414166.680    88939244.63305
  22681466.160   121202852.41708  22681471.060    94268891.19006
  19791166.440   105720862.00909  19791168.820    82227351.03208
  22866513.120   122363321.34707  22866514.520    95171471.63706
  20177601.720   107709421.59609  20177604.720    83774012.80408
  21551029.720   115283517.36308  21551030.120    89664979.61908
 15 03 05 00 05 30.0000000  0 15G16G18G19G21G22G27G31R02R03R09R15R16
                                R17R18R19
  20961577.540   110153856.41209  20961574.120    85834184.87348
  22281395.280   117089585.58009  22281392.920    91238653.23346
  24128388.940   126795548.99107  24128386.580    98801728.08845
  21914736.400   115162725.84808  21914733.300    89737179.40947
  23087096.160   121323555.25509  23087091.620    94537832.69046
  22031913.120   115778529.16509  22031914.140    90217050.02048
  23780161.300   124965563.48008  23780159.680    97375745.06446
  22676913.740   121008372.67008  22676917.180    94117640.89907
  22443346.480   120141002.78008  22443347.560    93443027.25607
  21400401.020   114276955.71308  21400402.520    88882078.54105
  22706281.680   121335458.52708  22706286.540    94372029.20006
  19799223.020   105763898.86609  19799225.460    82260824.12708
  22881609.840   122444107.22108  22881611.260    95234305.06106
  20183592.900   107741402.38609  20183595.760    83798886.75708
  21541319.660   115231575.15908  21541319.980    89624580.15408
 15 03 05 00 06  0.0000000  0 15G16G18G19G21G22G27G31R02R03R09R15R16
                                R17R18R19
  20951970.400   110103370.69209  20951967.020    85794845.36448
  22273514.100   117048169.76509  22273511.740    91206381.18347
  24113764.100   126718695.83708  24113761.840    98741842.62845
  21925558.960   115219598.85008  21925555.800    89781496.03247
  23070390.480   121235766.94009  23070386.080    94469426.27247
  22021575.480   115724204.37409  22021576.440    90174719.04948
  23798861.200   125063832.02908  23798859.660    97452317.89146
  22677532.740   121011675.06808  22677536.040    94120209.45607
  22427202.320   120054581.20708  22427203.040    93375810.49307
  21386759.400   114204109.88908  21386760.880    88825420.69905
  22731125.980   121468218.49507  22731130.800    94475286.86806
  19807428.880   105807733.00409  19807431.360    82294917.33308
  22896700.100   122524857.63808  22896701.080    95297110.98006
  20189619.520   107773572.71909  20189622.320    83823908.14408
  21531653.100   115179865.54908  21531653.300    89584361.59408
 15 03 05 00 06 30.0000000  0 15G16G18G19G21G22G27G31R02R03R09R15R16
                                R17R18R19
  20942434.020   110053256.65909  20942430.640    85755795.48048
  22265707.940   117007148.24909  22265705.580    91174416.38647
  24099156.260   126641931.37208  24099153.700    98682026.17145
  21936427.060   115276711.14808  21936423.900    89825999.11948
  23053711.200   121148117.32009  23053706.940    94401127.92147
  22011261.780   115670005.35209  22011262.660    90132486.05948
  23817568.560   125162139.71708  23817567.020    97528921.20746
  22678288.000   121015704.27408  22678291.000    94123343.33907
  22411131.460   119968552.62408  22411132.280    93308899.41707
  21373240.240   114131917.77608  21373241.600    88769271.28205
  22755997.580   121601124.52308  22756002.480    94578658.13806
  19815783.180   105852359.84709  19815785.580    82329627.08008
  22911783.100   122605569.51507  22911783.960    95359886.90806
  20195680.720   107805928.27309  20195683.640    83849073.55808
  21522029.360   115128384.77508  21522029.440    89544321.01908
 15 03 05 00 07  0.0000000  0 15G16G18G19G21G22G27G31R02R03R09R15R16
                                R17R18R19
  20932969.400   110003519.49009  20932965.960    85717039.25748
  22257977.780   116966525.99709  22257975.400    91142762.70247
  24084565.920   126565258.92508  24084563.560    98622281.47345
  21947340.880   115334063.87508  21947337.700    89870689.56847
  23037059.540   121060612.63509  23037055.340    94332942.50747
  22000972.640   115615935.38309  22000973.420    90090353.63848
  23836283.480   125260486.95108  23836281.900    97605555.34646
  22679180.100   121020463.89008  22679182.920    94127045.30207
  22395135.240   119882924.53708  22395136.320    93242299.85007
  21359844.700   114060385.94208  21359845.960    88713635.43805
  22780896.100   121734174.50707  22780901.120    94682141.36506
  19824285.960   105897780.05909  19824288.340    82364953.91208
  22926859.320   122686245.35008  22926860.280    95422634.74506
  20201776.980   107838470.81909  20201779.940    83874384.44008
  21512448.740   115077135.23608  21512448.960    89504460.30408
 15 03 05 00 07 30.0000000  0 15G16G18G19G21G22G27G31R02R03R09R15R16
                                R17R18R19
  20923576.320   109954158.68209  20923572.900    85678576.30148
  22250323.540   116926302.54809  22250321.100    91111419.76646
  24069992.760   126488676.09808  24069990.480    98562606.61945
  21958299.660   115391652.60508  21958296.380    89915563.91347
  23020435.440   120973252.79609  23020431.240    94264869.95846
  21990707.620   115561992.06309  21990708.340    90048319.91948
  23855004.840   125358868.05008  23855003.280    97682215.86846
  22680208.600   121025951.88608  22680211.460    94131313.76007
  22379214.080   119797698.53108  22379215.340    93176012.99407
  21346572.880   113989515.11808  21346574.020    88658513.70705
  22805820.580   121867362.96808  22805825.660    94785732.30306
  19832936.320   105943988.88408  19832938.720    82400894.09708
  22941928.320   122766882.25407  22941929.280    95485352.30006
  20207907.560   107871196.43909  20207910.460    83899837.70008
  21502910.700   115026113.82808  21502911.020    89464777.01308
 15 03 05 00 08  0.0000000  0 15G16G18G19G21G22G27G31R02R03R09R15R16
                                R17R18R19
  20914255.340   109905176.75409  20914251.960    85640408.57148
  22242745.580   116886479.86509  22242743.020    91080389.12346
  24055436.840   126412183.38108  24055434.380    98503001.96046
  21969303.040   115449475.90408  21969299.740    89960621.02647
  23003839.540   120886040.94008  23003835.260    94196912.71747
  21980466.860   115508175.88609  21980467.460    90006385.26648
  23873732.200   125457280.55408  23873730.680    97758900.85746
  22681373.640   121032169.26408  22681376.580    94136149.52107
  22363369.220   119712879.80308  22363370.520    93110042.90107
  21333425.540   113919308.55209  21333426.700    88603908.61205
  22830770.280   122000686.29508  22830775.360    94889428.12106
  19841733.940   105990984.34309  19841736.360    82437446.11108
  22956989.960   122847480.05208  22956990.920    95548039.46006
  20214072.300   107904104.09309  20214075.140    83925432.54608
  21493415.200   114975320.08108  21493415.580    89425270.77708
 15 03 05 00 08 30.0000000  0 15G16G18G19G21G22G27G31R02R03R09R15R16
                                R17R18R19
  20905007.740   109856580.39509  20905004.380    85602541.29248
  22235245.140   116847064.70809  22235242.520    91049676.03446
  24040898.800   126335785.09708  24040895.960    98443470.89545
  21980351.580   115507536.57108  21980348.240    90005863.11447
  22987273.140   120798984.40108  22987268.780    94129076.51247
  21970251.260   115454491.64409  21970251.560    89964553.42548
  23892465.940   125555726.76008  23892464.480    97835612.11046
  22682676.100   121039121.02808  22682679.340    94141556.48007
  22347602.080   119628477.15908  22347603.320    93044396.44207
  21320404.160   113849774.54609  21320405.120    88549826.62405
  22855745.240   122134144.82108  22855750.440    94993229.09506
  19850679.300   106038769.03308  19850681.760    82474611.96608
  22972045.180   122928043.18708  22972046.080    95610699.69106
  20220271.820   107937197.36509  20220274.460    83951171.77008
  21483963.140   114924758.08408  21483963.440    89385944.81208
 15 03 05 00 09  0.0000000  0 15G16G18G19G21G22G27G31R02R03R09R15R16
                                R17R18R19
  20895832.440   109808363.88709  20895829.100    85564969.99048
  22227821.080   116808051.03309  22227818.380    91019275.78447
  24026377.340   126259473.89508  24026374.300    98384007.70045
  21991443.480   115565825.06708  21991440.060    90051282.73347
  22970735.440   120712078.64809  22970731.120    94061357.79247
  21960059.400   115400931.83109  21960059.400    89922818.53248
  23911204.020   125654195.81208  23911202.660    97912341.17246
  22684114.820   121046799.73808  22684118.280    94147528.82007
  22331912.060   119544487.06608  22331913.220    92979070.84807
  21307507.840   113780908.17409  21307508.700    88496263.91105
  22880743.400   122267726.97008  22880748.520    95097126.23106
  19859770.540   106087332.96808  19859773.040    82512383.90108
  22987092.340   123008563.55308  22987093.300    95673326.62906
  20226504.360   107970466.99109  20226507.020    83977048.14408
  21474552.860   114874419.40208  21474553.120    89346792.54308
 15 03 05 00 09 30.0000000  0 15G16G18G19G21G22G27G31R02R03R09R15R16
                                R17R18R19
  20886731.080   109760536.25109  20886727.840    85527701.71748
  22220475.040   116769447.33209  22220472.300    90989194.99146
  24011873.720   126183256.50208  24011870.700    98324617.59245
  22002579.780   115624346.62908  22002576.280    90096883.97347
  22954228.200   120625332.90208  22954223.920    93993763.74047
  21949892.500   115347503.35509  21949892.220    89881185.99248
  23929947.300   125752692.05008  23929945.960    97989091.41046
  22685691.320   121055212.55408  22685694.720    94154072.16307
  22316301.200   119460921.21008  22316302.480    92914075.22307
  21294738.400   113712719.62808  21294739.140    88443228.37505
  22905765.100   122401435.18308  22905770.280    95201121.40706
  19869008.440   106136680.34808  19869010.960    82550765.18208
  23002132.620   123089047.43208  23002133.620    95735925.22906
  20232770.980   108003918.63909  20232773.860    84003066.10108
  21465185.500   114824310.19008  21465185.780    89307818.73608
 15 03 05 00 10  0.0000000  0 15G16G18G19G21G22G27G31R02R03R09R15R16
                                R17R18R19
  20877703.500   109713096.29709  20877700.300    85490735.52548
  22213206.620   116731251.79009  22213203.860    90959432.24347
  23997387.260   126107129.66008  23997384.080    98265298.00945
  22013759.520   115683096.23408  22013755.980    90142662.88847
  22937751.240   120538746.42108  22937747.060    93926293.80247
  21939749.900   115294202.86209  21939749.380    89839653.16548
  23948694.480   125851208.67808  23948693.080    98065857.52446
  22687404.860   121064356.37708  22687408.200    94161184.04807
  22300769.600   119377779.84508  22300770.980    92849409.75907
  21282095.640   113645208.30008  21282096.460    88390719.58705
  22930808.960   122535261.81007  22930814.220    95305208.67306
  19878391.880   106186805.17608  19878394.380    82589751.14108
  23017165.460   123169491.11807  23017166.420    95798492.55506
  20239070.760   108037547.40809  20239073.560    84029221.81308
  21455860.240   114774426.28908  21455860.580    89269020.17408
 15 03 05 00 10 30.0000000  0 15G16G18G19G21G22G27G31R02R03R09R15R16
                                R17R18R19
  20868750.380   109666047.72809  20868747.260    85454074.31148
  22206016.660   116693468.77109  22206013.980    90929990.95447
  23982918.360   126031095.22408  23982915.140    98206050.46646
  22024982.520   115742073.76008  22024979.060    90188619.40847
  22921305.520   120452324.23108  22921301.400    93858951.88047
  21929632.040   115241032.56609  21929631.380    89798221.79248
  23967445.440   125949745.28108  23967444.040    98142639.20646
  22689255.800   121074233.04308  22689259.040    94168865.92107
  22285318.600   119295069.80508  22285320.180    92785079.76907
  21269580.620   113578379.48808  21269581.640    88338741.64905
  22955874.700   122669205.17707  22955879.980    95409386.75406
  19887920.840   106237707.31708  19887923.340    82629341.67608
  23032190.980   123249896.27507  23032191.940    95861029.86606
  20245403.860   108071354.09609  20245406.700    84055515.91108
  21446577.340   114724769.10508  21446577.640    89230397.96208
 15 03 05 00 11  0.0000000  0 15G16G18G19G21G22G27G31R02R03R09R15R16
                                R17R18R19
  20859872.580   109619394.81109  20859869.420    85417721.40948
  22198905.840   116656101.48309  22198903.180    90900873.60747
  23968467.400   125955155.87308  23968464.660    98146877.03045
  22036248.720   115801278.67308  22036245.460    90234753.10947
  22904892.000   120366071.21608  22904887.940    93791741.79447
  21919539.360   115187994.77809  21919538.620    89756893.68248
  23986199.980   126048300.92808  23986198.540    98219435.72446
  22691244.600   121084845.40208  22691247.800    94177119.96906
  22269949.480   119212797.67808  22269950.900    92721090.36607
  21257194.360   113512238.32008  21257195.540    88287298.53305
  22980961.960   122803263.63707  22980967.340    95513654.33506
  19897595.200   106289386.33508  19897597.800    82669536.46108
  23047209.620   123330264.64807  23047210.740    95923538.53007
  20251770.440   108105339.47709  20251773.340    84081948.99308
  21437337.060   114675339.88608  21437337.260    89191953.06108
 15 03 05 00 11 30.0000000  0 15G16G18G19G21G22G27G31R02R03R09R15R16
                                R17R18R19
  20851068.940   109573131.72309  20851065.840    85381672.24948
  22191873.040   116619144.13209  22191870.460    90872075.67347
  23954033.000   125879303.43008  23954030.120    98087771.27945
  22047556.660   115860702.47308  22047553.480    90281057.37047
  22888509.740   120279982.39708  22888505.780    93724659.63947
  21909470.380   115135081.87809  21909469.640    89715662.88248
  24004956.100   126146865.07708  24004954.700    98296238.86546
  22693369.900   121096185.53808  22693372.620    94185940.14106
  22254661.520   119130959.48008  22254662.600    92657438.45707
  21244935.940   113446779.82009  21244937.320    88236386.38305
  23006068.460   122937424.76507  23006073.880    95618001.75506
  19907413.000   106341831.54608  19907415.720    82710327.16208
  23062219.900   123410587.93208  23062221.320    95986012.16307
  20258168.880   108139494.58109  20258171.660    84108514.07608
  21428137.900   114626130.25108  21428137.920    89153678.92208
 15 03 05 00 12  0.0000000  0 15G16G18G19G21G22G27G31R02R03R09R15R16
                                R17R18R19
  20842341.000   109527266.45109  20842337.940    85345933.08348
  22184919.680   116582604.03409  22184917.120    90843602.88847
  23939616.240   125803543.82508  23939613.260    98028737.87645
  22058907.080   115920349.19008  22058903.820    90327535.33247
  22872160.300   120194066.27008  22872156.500    93657712.04147
  21899426.260   115082299.90809  21899425.560    89674534.09948
  24023714.520   126245441.16808  24023713.180    98373051.31146
  22695632.700   121108259.62908  22695635.380    94195331.13807
  22239456.500   119049565.63208  22239457.480    92594132.17307
  21232807.200   113382013.30808  21232808.580    88186012.43605
  23031194.540   123071690.29408  23031199.940    95722430.36406
  19917374.920   106395046.62008  19917377.720    82751716.65808
  23077222.960   123490871.87108  23077224.500    96048455.21707
  20264599.980   108173823.92809  20264602.680    84135214.67508
  21418980.620   114577145.02908  21418980.600    89115579.33808
 15 03 05 00 12 30.0000000  0 15G16G18G19G21G22G27G31R02R03R09R15R16
                                R17R18R19
  20833688.340   109481796.72809  20833685.320    85310502.13648
  22178045.360   116546479.24409  22178042.840    90815453.71946
  23925216.540   125727872.95108  23925213.380    97969773.61445
  22070298.900   115980213.00208  22070295.540    90374182.47047
  22855843.520   120108321.54808  22855839.880    93590898.02247
  21889406.220   115029644.84909  21889405.580    89633504.22248
  24042473.880   126344021.83208  24042472.660    98449867.31946
  22698032.140   121121063.53508  22698034.840    94205289.73207
  22224334.440   118968616.15008  22224335.260    92531171.51207
  21220807.780   113317937.24308  21220809.100    88136175.50905
  23056338.800   123206053.08807  23056344.260    95826934.64306
  19927479.740   106449024.59508  19927482.460    82793699.51308
  23092217.900   123571112.04807  23092219.260    96110864.24506
  20271062.680   108208322.09109  20271065.360    84162046.58808
  21409864.480   114528379.79808  21409864.480    89077650.85308
 15 03 05 00 13  0.0000000  0 15G16G18G19G21G22G27G31R02R03R09R15R16
                                R17R18R19
  20825112.180   109436728.67709  20825109.200    85275384.18248
  22171251.100   116510775.06709  22171248.540    90787632.29547
  23910834.440   125652294.81808  23910831.240    97910881.61445
  22081732.240   116040295.23308  22081728.920    90420999.80347
  22839560.560   120022754.68008  22839556.980    93524222.58647
  21879411.020   114977120.64109  21879410.500    89592576.29848
  24061234.340   126442608.32308  24061233.020    98526687.87146
  22700569.080   121134601.06708  22700571.700    94215818.96107
  22209296.980   118888119.26408  22209297.540    92468562.84407
  21208938.960   113254558.39909  21208940.280    88086880.87105
  23081501.040   123340511.96408  23081506.640    95931513.63606
  19937727.580   106503766.52708  19937730.260    82836276.56508
  23107205.180   123651311.98107  23107206.300    96173241.97306
  20277557.500   108242991.67909  20277560.020    84189011.83808
  21400790.040   114479837.43808  21400790.080    89039895.71208
 15 03 05 00 13 30.0000000  0 15G16G18G19G21G22G27G31R02R03R09R15R16
                                R17R18R19
  20816612.920   109392064.92709  20816610.000    85240581.26848
  22164537.340   116475494.05409  22164534.740    90760140.60947
  23896470.140   125576810.20708  23896466.940    97852062.49146
  22093206.920   116100595.24108  22093203.640    90467986.80647
  22823312.200   119937369.45008  22823308.720    93457688.67747
  21869440.920   114924728.30509  21869440.520    89551751.10748
  24079995.620   126541198.75308  24079994.200    98603511.48646
  22703243.560   121148872.90608  22703246.200    94226919.31507
  22194344.940   118808079.95708  22194345.680    92406310.09007
  21197201.440   113191880.56309  21197202.720    88038131.45805
  23106680.680   123475063.55907  23106686.340    96036164.74606
  19948118.140   106559270.79308  19948120.760    82879446.52908
  23122184.780   123731471.98607  23122185.840    96235588.59606
  20284084.420   108277832.36709  20284086.940    84216110.15508
  21391757.300   114431518.08308  21391757.320    89002314.01908
 15 03 05 00 14  0.0000000  0 15G16G18G19G21G22G27G31R02R03R09R15R16
                                R17R18R19
  20808190.240   109347803.69709  20808187.420    85206092.00048
  22157903.660   116440634.00609  22157901.100    90732976.94847
  23882123.000   125501415.42208  23882119.800    97793313.35346
  22104721.960   116161107.29508  22104718.820    90515139.05447
  22807098.220   119852164.97508  22807094.840    93391295.60647
  21859495.260   114872464.34709  21859494.960    89511025.97848
  24098756.260   126639786.27108  24098754.860    98680332.82146
  22706055.040   121163875.36908  22706057.840    94238587.90307
  22179478.420   118728498.72408  22179479.400    92344413.60607
  21185594.960   113129902.87508  21185596.240    87989926.59305
  23131876.300   123609700.80807  23131882.020    96140882.45706
  19958650.140   106615530.82008  19958652.820    82923204.31308
  23137156.480   123811588.04208  23137157.280    96297901.08206
  20290642.380   108312839.07509  20290644.940    84243337.59208
  21382765.420   114383417.35908  21382765.380    88964902.37108
 15 03 05 00 14 30.0000000  0 15G16G18G19G21G22G27G31R02R03R09R15R16
                                R17R18R19
  20799845.300   109303950.90209  20799842.500    85171920.99748
  22151351.180   116406200.35709  22151348.540    90706145.54346
  23867793.680   125426114.61508  23867790.620    97734637.47646
  22116277.840   116221833.77008  22116274.740    90562458.38547
  22790919.800   119767147.59808  22790916.580    93325048.34047
  21849574.820   114820332.76409  21849574.560    89470403.99248
  24117516.560   126738372.18508  24117515.200    98757152.90745
  22709004.020   121179612.40108  22709007.040    94250827.85107
  22164699.000   118649383.71908  22164700.140    92282879.75507
  21174120.820   113068631.90908  21174122.120    87942271.42605
  23157087.860   123744422.84608  23157093.560    96245666.12006
  19969323.800   106672547.58808  19969326.540    82967550.68008
  23152120.580   123891663.83807  23152121.500    96360182.25306
  20297231.860   108348014.28709  20297234.420    84270696.09908
  21373814.900   114335538.19508  21373814.900    88927663.06108
 15 03 05 00 15  0.0000000  0  7G16G18G19G21G22G27G31
  20791577.780   109260504.84409  20791574.960    85138066.93648
  22144879.480   116372191.19709  22144876.760    90679644.91547
  23853481.580   125350903.86208  23853478.740    97676031.76046
  22127873.500   116282768.98308  22127870.200    90609940.37447
  22774776.900   119682316.57708  22774773.800    93258946.28547
  21839678.940   114768330.13609  21839678.700    89429882.49448
  24136275.380   126836950.16308  24136274.040    98833966.80546
 15 03 05 00 15 30.0000000  0  7G16G18G19G21G22G27G31
  20783388.720   109217471.12409  20783385.880    85104534.17848
  22138489.480   116338611.70409  22138486.800    90653479.09747
  23839187.300   125275786.96108  23839184.400    97617499.15246
  22139509.260   116343915.24708  22139505.860    90657586.81647
  22758670.680   119597678.14308  22758667.620    93192994.30347
  21829808.320   114716460.25609  21829808.120    89389464.42948
  24155032.840   126935520.81508  24155031.440    98910774.99346
 15 03 05 00 16  0.0000000  0  7G16G18G19G21G22G27G31
  20775277.900   109174848.59809  20775275.060    85071321.81848
  22132180.980   116305460.46609  22132178.320    90627646.98347
  23824910.260   125200760.95408  23824907.500    97559037.39046
  22151184.120   116405267.28108  22151180.720    90705393.59147
  22742601.160   119513232.17508  22742598.040    93127192.28147
  21819962.420   114664720.25909  21819962.260    89349147.56448
  24173787.900   127034078.63208  24173786.540    98987573.17145
 15 03 05 00 16 30.0000000  0  7G16G18G19G21G22G27G31
  20767246.100   109132641.10509  20767243.240    85038432.86648
  22125954.500   116272740.24509  22125951.840    90602150.72647
  23810650.920   125125827.77108  23810648.160    97500647.97346
  22162898.200   116466825.27608  22162894.820    90753360.86047
  22726569.160   119428983.31508  22726566.020    93061543.84547
  21810141.660   114613112.07409  21810141.520    89308933.41548
  24192540.300   127132622.43708  24192538.980    99064360.43746
 15 03 05 00 17  0.0000000  0  7G16G18G19G21G22G27G31
  20759293.360   109090849.13709  20759290.500    85005867.70348
  22119810.180   116240451.75709  22119807.520    90576990.88347
  23796409.000   125050985.93208  23796406.080    97442329.68946
  22174650.820   116528585.55608  22174647.460    90801485.74947
  22710574.880   119344932.68808  22710571.680    92996049.89547
  21800345.780   114561634.50409  21800345.640    89268821.04348
  24211289.180   127231147.94308  24211287.940    99141133.41545
 15 03 05 00 17 30.0000000  0  7G16G18G19G21G22G27G31
  20751420.380   109049476.34509  20751417.540    84973629.17048
  22113748.560   116208597.76009  22113745.860    90552169.60247
  23782184.740   124976236.87008  23782181.780    97384083.71246
  22186441.900   116590547.95308  22186438.500    90849768.14047
  22694619.140   119261084.45608  22694615.860    92930713.64147
  21790575.120   114510289.28409  21790575.000    89228811.79148
  24230034.380   127329653.98308  24230033.040    99217891.25345
 15 03 05 00 18  0.0000000  0  7G16G18G19G21G22G27G31
  20743627.200   109008522.74009  20743624.340    84941717.27848
  22107769.560   116177177.92109  22107766.880    90527686.62947
  23767977.880   124901578.74408  23767974.620    97325908.57445
  22198270.860   116652709.58308  22198267.400    90898205.77847
  22678702.140   119177439.92008  22678698.800    92865536.13047
  21780829.420   114459074.99309  21780829.280    89188904.57848
  24248775.060   127428136.14608  24248773.800    99294630.46446
 15 03 05 00 18 30.0000000  0  7G16G18G19G21G22G27G31
  20735914.600   108967992.49109  20735911.680    84910135.27148
  22101874.000   116146196.43709  22101871.260    90503545.23547
  23753788.860   124827014.64408  23753785.320    97267806.72645
  22210137.780   116715070.89708  22210134.280    90946799.01047
  22662824.940   119094004.25808  22662821.480    92800521.36347
  21771109.160   114407994.26709  21771109.000    89149101.42548
  24267511.180   127526594.24608  24267509.980    99371350.92446
 15 03 05 00 19  0.0000000  0  7G16G18G19G21G22G27G31
  20728282.920   108927887.48409  20728279.960    84878884.62348
  22096062.120   116115654.72009  22096059.300    90479746.51947
  23739617.440   124752543.99108  23739613.820    97209777.69246
  22222042.260   116777629.32308  22222038.640    90995545.84547
  22646987.880   119010779.71508  22646984.340    92735671.11347
  21761414.300   114357046.93409  21761414.080    89109402.22148
  24286242.160   127625025.14908  24286240.800    99448050.19846
 15 03 05 00 19 30.0000000  0  7G16G18G19G21G22G27G31
  20720732.300   108888208.54009  20720729.280    84847965.97148
  22090333.900   116085552.74709  22090331.060    90456290.45947
  23725463.560   124678166.22608  23725460.000    97151821.04146
  22233983.820   116840382.51308  22233980.200    91044444.43947
  22631191.360   118927768.21809  22631187.740    92670986.86947
  21751744.700   114306232.41509  21751744.420    89069806.51248
  24304967.240   127723425.37208  24304965.920    99524725.54645
 15 03 05 00 20  0.0000000  0  7G16G18G19G21G22G27G31
  20713263.780   108848961.13909  20713260.740    84817383.58148
  22084690.420   116055896.07209  22084687.620    90433181.37047
  23711327.840   124603884.51308  23711324.660    97093939.21146
  22245962.580   116903331.68408  22245959.140    91093495.72947
  22615436.540   118844975.80509  22615432.840    92606473.33447
  21742101.040   114255554.30609  21742100.700    89030317.07648
  24323686.560   127821795.40908  24323685.220    99601377.36645
 15 03 05 00 20 30.0000000  0  7G16G18G19G21G22G27G31
  20705876.200   108810139.03409  20705873.100    84787132.58648
  22079130.320   116026677.78309  22079127.560    90410413.88647
  23697209.140   124529691.23208  23697206.600    97036126.33246
  22257976.880   116966468.00008  22257973.680    91142692.84847
  22599722.420   118762397.18409  22599718.600    92542126.39647
  21732481.840   114205004.91909  21732481.480    88990927.95648
  24342398.060   127920124.60308  24342396.860    99677997.35045
 15 03 05 00 21  0.0000000  0  7G16G18G19G21G22G27G31
  20698570.740   108771748.59809  20698567.620    84757217.97348
  22073654.740   115997903.66609  22073652.040    90387992.52347
  23683108.220   124455590.35008  23683105.560    96978385.42045
  22270027.260   117029793.48508  22270024.140    91192037.37947
  22584050.340   118680039.80609  22584046.440    92477951.85547
  21722887.980   114154588.75009  21722887.640    88951642.65248
  24361102.100   128018414.52608  24361100.980    99754586.74745
 15 03 05 00 21 30.0000000  0  7G16G18G19G21G22G27G31
  20691347.580   108733790.74709  20691344.460    84727640.43548
  22068263.760   115969573.88809  22068261.080    90365917.39447
  23669024.840   124381581.41508  23669021.920    96920716.15146
  22282113.160   117093305.35208  22282110.040    91241527.15447
  22568420.620   118597905.23609  22568416.680    92413950.93047
  21713319.340   114104305.29109  21713319.000    88912460.76548
  24379798.020   128116661.78908  24379797.080    99831142.90646
 15 03 05 00 22  0.0000000  0  7G16G18G19G21G22G27G31
  20684207.920   108696271.57009  20684204.800    84698404.71648
  22062958.440   115941694.32709  22062955.760    90344193.08347
  23654959.780   124307668.46708  23654956.920    96863121.68046
  22294234.940   117157005.82208  22294231.800    91291163.87647
  22552834.580   118516000.18709  22552830.620    92350128.85347
  21703776.800   114054158.92109  21703776.460    88873385.68548
  24398486.140   128214867.99408  24398485.300    99907667.05645
 15 03 05 00 22 30.0000000  0  7G16G18G19G21G22G27G31
  20677150.980   108659186.87909  20677147.820    84669507.55148
  22057737.840   115914260.12309  22057735.180    90322815.79747
  23640911.900   124233845.63908  23640908.860    96805597.46546
  22306391.340   117220887.97808  22306388.180    91340942.16947
  22537291.700   118434321.77009  22537287.720    92286483.36447
  21694259.280   114004143.91109  21694258.960    88834412.96748
  24417164.720   128313023.98508  24417163.880    99984152.05345
 15 03 05 00 23  0.0000000  0  7G16G18G19G21G22G27G31
  20670177.900   108622543.10409  20670174.720    84640953.96648
  22052603.240   115887277.74909  22052600.540    90301790.59047
  23626881.940   124160117.79108  23626878.860    96748147.22446
  22318582.800   117284954.51208  22318579.640    91390864.13747
  22521793.280   118352877.25709  22521789.300    92223020.14448
  21684767.700   113954265.17709  21684767.340    88795546.43148
  24435834.140   128411132.03708  24435833.440   100060599.70845
 15 03 05 00 23 30.0000000  0  7G16G18G19G21G22G27G31
  20663289.040   108586341.70609  20663285.860    84612745.08848
  22047554.600   115860747.24509  22047551.900    90281117.49647
  23612869.900   124086484.48108  23612866.920    96690770.66646
  22330808.880   117349202.68608  22330805.680    91440927.64547
  22506339.760   118271668.61909  22506335.740    92159740.71848
  21675301.980   113904522.48809  21675301.560    88756785.90048
  24454493.860   128509189.04708  24454493.220   100137007.59745
 15 03 05 00 24  0.0000000  0  7G16G18G19G21G22G27G31
  20656484.340   108550582.82909  20656481.240    84584881.02548
  22042592.000   115834668.84009  22042589.340    90260796.66747
  23598875.500   124012943.97008  23598872.580    96633466.40046
  22343068.920   117413629.18908  22343065.700    91491130.10547
  22490931.460   118190697.38809  22490927.360    92096646.28348
  21665861.800   113854914.47509  21665861.420    88718130.31848
  24473142.980   128607190.51608  24473142.420   100213372.15945
 15 03 05 00 24 30.0000000  0  7G16G18G19G21G22G27G31
  20649763.840   108515266.63109  20649760.780    84557361.92048
  22037715.380   115809042.12609  22037712.760    90240827.82047
  23584898.500   123939494.74908  23584895.640    96576233.28646
  22355362.300   117478230.83508  22355358.960    91541469.05246
  22475568.440   118109964.32509  22475564.340    92033737.44048
  21656446.980   113805439.86809  21656446.660    88679578.68748
  24491780.780   128705132.25108  24491780.220   100289690.19245
 15 03 05 00 25  0.0000000  0  7G16G18G19G21G22G27G31
  20643128.440   108480397.75509  20643125.400    84530191.36548
  22032925.480   115783870.93709  22032922.880    90221213.91048
  23570939.560   123866139.65908  23570936.640    96519073.51946
  22367689.120   117543008.59108  22367685.740    91591945.21147
  22460251.700   118029474.72309  22460247.640    91971018.29848
  21647058.120   113756101.60409  21647057.820    88641133.29848
  24510407.220   128803014.00808  24510406.660   100365961.47646
 15 03 05 00 25 30.0000000  0  7G16G18G19G21G22G27G31
  20636578.560   108445978.09809  20636575.500    84503370.85148
  22028222.600   115759156.76109  22028219.940    90201956.13347
  23556998.520   123792878.99908  23556995.340    96461987.35446
  22380049.260   117607961.18408  22380045.680    91642557.63247
  22444981.900   117949231.77409  22444977.840    91908491.35048
  21637695.340   113706900.25709  21637695.000    88602794.59348
  24529021.860   128900833.82108  24529021.420   100442184.47945
 15 03 05 00 26  0.0000000  0  7G16G18G19G21G22G27G31
  20630114.600   108412009.82509  20630111.560    84476902.07248
  22023606.940   115734901.14109  22023604.220    90183055.65847
  23543075.520   123719713.46908  23543072.120    96404975.28546
  22392442.220   117673086.61208  22392438.660    91693304.71147
  22429759.720   117869238.66009  22429755.600    91846159.07948
  21628358.700   113657836.41409  21628358.340    88564563.04348
  24547624.220   128998589.21708  24547624.000   100518357.29545
 15 03 05 00 26 30.0000000  0  7G16G18G19G21G22G27G31
  20623736.680   108378493.59509  20623733.680    84450785.52148
  22019078.660   115711104.74209  22019075.880    90164513.01847
  23529170.400   123646642.32908  23529166.800    96348036.78046
  22404867.620   117738382.64608  22404864.120    91744184.72047
  22414585.380   117789496.97009  22414581.220    91784022.72248
  21619048.120   113608909.43809  21619047.720    88526438.12448
  24566213.660   129096276.64808  24566213.480   100594477.12145
 15 03 05 00 27  0.0000000  0  7G16G18G19G21G22G27G31
  20617444.560   108345428.20209  20617441.540    84425020.28448
  22014637.360   115687765.48209  22014634.580    90146326.60847
  23515282.800   123573662.53808  23515279.040    96291169.43946
  22417324.640   117803844.70708  22417321.140    91795194.12546
  22399458.780   117710006.17409  22399454.580    91722081.87148
  21609763.100   113560116.74109  21609762.700    88488417.84948
  24584789.120   129193890.45308  24584788.980   100670539.58045
 15 03 05 00 27 30.0000000  0  7G16G18G19G21G22G27G31
  20611239.020   108312817.91109  20611235.940    84399609.67248
  22010283.600   115664886.46609  22010280.880    90128498.82447
  23501413.100   123500776.17308  23501409.660    96234374.92846
  22429813.360   117869473.26508  22429809.840    91846333.25346
  22384380.900   117630771.67409  22384376.760    91660340.73348
  21600504.100   113511460.97409  21600503.800    88450504.27748
  24603350.500   129291430.22608  24603350.380   100746544.35245
 15 03 05 00 28  0.0000000  0  7G16G18G19G21G22G27G31
  20605121.240   108280668.56609  20605118.100    84374558.23448
  22006018.540   115642473.59009  22006015.860    90111034.27248
  23487562.060   123427987.60508  23487558.540    96177656.59446
  22442334.220   117935270.63208  22442330.620    91897603.92247
  22369353.080   117551800.11309  22369348.980    91598804.48448
  21591272.060   113462946.39209  21591271.720    88412700.71748
  24621898.140   129388897.73608  24621898.060   100822492.78745
 15 03 05 00 28 30.0000000  0  7G16G18G19G21G22G27G31
  20599090.160   108248974.71709  20599086.960    84349861.72848
  22001841.040   115620520.84309  22001838.440    90093928.25347
  23473728.360   123355289.98308  23473724.780    96121009.15647
  22454885.560   118001228.17208  22454881.980    91948999.40147
  22354374.480   117473087.12809  22354370.400    91537469.71348
  21582065.660   113414566.49409  21582065.340    88375002.10948
  24640430.200   129486283.35208  24640430.080   100898377.42645
 15 03 05 00 29  0.0000000  0  7G16G18G19G21G22G27G31
  20593147.140   108217743.67809  20593143.900    84325525.85448
  21997752.380   115599034.77909  21997749.740    90077185.87847
  23459912.900   123282688.69908  23459909.140    96064436.77046
  22467468.160   118067349.89708  22467464.480    92000522.83846
  22339446.640   117394640.99609  22339442.540    91476342.88448
  21572886.060   113366327.19209  21572885.760    88337413.04748
  24658947.200   129583589.88408  24658947.080   100974200.41245
 15 03 05 00 29 30.0000000  0  7G16G18G19G21G22G27G31
  20587292.380   108186976.64409  20587289.100    84301551.54248
  21993752.540   115578015.66409  21993749.900    90060807.36647
  23446115.440   123210183.71308  23446111.920    96007939.42946
  22480081.420   118133633.28308  22480077.700    92052172.22246
  22324569.920   117316463.33409  22324565.820    91415425.26048
  21563733.220   113318228.12009  21563732.900    88299933.26348
  24677448.540   129680814.01308  24677448.480   101049959.19345
 15 03 05 00 30  0.0000000  0  6G16G18G19G21G22G27
  20581524.140   108156664.24909  20581520.880    84277931.49648
  21989839.700   115557453.76109  21989837.040    90044785.11247
  23432334.140   123137763.99608  23432330.720    95951508.53246
  22492723.100   118200065.78908  22492719.460    92103937.81347
  22309742.760   117238545.99809  22309738.600    91354710.48848
  21554605.060   113270258.74309  21554604.760    88262554.53348
 15 03 05 00 30 30.0000000  0  6G16G18G19G21G22G27
  20575846.540   108126828.39109  20575843.400    84254682.78148
  21986017.940   115537370.53709  21986015.340    90029135.86748
  23418573.140   123065449.89708  23418569.620    95895159.92246
  22505396.620   118266665.81508  22505393.080    92155833.93347
  22294969.520   117160912.05809  22294965.320    91294216.54548
  21545505.480   113222439.57509  21545505.200    88225292.85548
 15 03 05 00 31  0.0000000  0  6G16G18G19G21G22G27
  20570257.840   108097459.57709  20570254.760    84231797.99148
  21982285.280   115517755.48909  21982282.680    90013851.42047
  23404830.100   122993230.28608  23404826.540    95838884.94846
  22518099.500   118333420.14408  22518096.080    92207850.28347
  22280248.660   117083553.43509  22280244.440    91233937.12148
  21536432.420   113174759.75809  21536432.060    88188139.75948
 15 03 05 00 31 30.0000000  0  6G16G18G19G21G22G27
  20564757.880   108068556.85509  20564754.800    84209276.39848
  21978641.520   115498607.61409  21978638.920    89998931.01648
  23391104.740   122921102.88508  23391100.940    95782681.81346
  22530831.060   118400325.28508  22530827.820    92259984.15547
  22265580.160   117006469.81609  22265575.900    91173871.99248
  21527385.400   113127217.08709  21527385.000    88151093.54048
 15 03 05 00 32  0.0000000  0  6G16G18G19G21G22G27
  20559348.160   108040128.20609  20559344.940    84187124.19048
  21975087.980   115479933.61709  21975085.380    89984379.85448
  23377398.040   122849073.72008  23377394.160    95726555.20946
  22543592.080   118467385.49408  22543589.020    92312238.84146
  22250965.620   116929669.89509  22250961.300    91114027.91348
  21518365.700   113079818.25209  21518365.360    88114159.38248
 15 03 05 00 32 30.0000000  0  6G16G18G19G21G22G27
  20554028.000   108012170.33009  20554024.700    84165338.84448
  21971623.860   115461729.57009  21971621.260    89970194.89848
  23363709.200   122777138.02808  23363705.380    95670501.48147
  22556381.340   118534594.32908  22556378.320    92364609.35347
  22236404.600   116853151.14009  22236400.220    91054402.94348
  21509372.480   113032558.74309  21509372.180    88077333.80148
 15 03 05 00 33  0.0000000  0  6G16G18G19G21G22G27
  20548797.940   107984686.16109  20548794.620    84143922.61448
  21968249.740   115443998.40009  21968247.080    89956378.42548
  23350038.440   122705297.41508  23350034.420    95614521.81546
  22569198.880   118601951.18508  22569195.940    92417095.21346
  22221897.940   116776918.15109  22221893.540    90995000.64148
  21500406.120   112985440.30809  21500405.840    88040618.14648
 15 03 05 00 33 30.0000000  0  6G16G18G19G21G22G27
  20543658.780   107957679.43009  20543655.400    84122878.40648
  21964966.080   115426742.49509  21964963.340    89942932.27548
  23336386.280   122633554.42308  23336382.060    95558618.20547
  22582044.700   118669456.58508  22582041.780    92469696.80747
  22207446.600   116700975.80709  22207442.160    90935824.81948
  21491467.100   112938465.38609  21491466.720    88004014.31748
 15 03 05 00 34  0.0000000  0  6G16G18G19G21G22G27
  20538610.060   107931148.34009  20538606.660    84102204.82848
  21961772.520   115409960.13209  21961769.740    89929855.12448
  23322751.980   122561905.39908  23322747.780    95502787.83646
  22594917.860   118737105.31608  22594914.960    92522410.09846
  22193050.320   116625322.81609  22193045.800    90876874.45948
  21482554.760   112891630.99409  21482554.340    87967519.98348
 15 03 05 00 34 30.0000000  0  6G16G18G19G21G22G27
  20533652.680   107905097.32209  20533649.300    84081905.33948
  21958669.680   115393654.50309  21958666.860    89917149.46348
  23309136.160   122490353.73708  23309131.960    95447033.31147
  22607818.600   118804899.14608  22607815.800    92575236.45147
  22178710.180   116549964.75909  22178705.600    90818153.91948
  21473669.760   112844940.45009  21473669.360    87931137.75248
 15 03 05 00 35  0.0000000  0  6G16G18G19G21G22G27
  20528787.220   107879529.15409  20528783.880    84061982.08348
  21955657.980   115377827.96309  21955655.140    89904817.11148
  23295538.880   122418900.56008  23295534.880    95391355.55746
  22620746.940   118872837.49008  22620744.100    92628175.41046
  22164426.860   116474905.32709  22164422.220    90759666.06748
  21464812.460   112798395.35809  21464812.120    87894868.85348
 15 03 05 00 35 30.0000000  0  6G16G18G19G21G22G27
  20524013.580   107854443.56209  20524010.360    84042434.86748
  21952737.240   115362479.53809  21952734.440    89892857.31448
  23281959.900   122347544.09708  23281956.320    95335753.13547
  22633702.060   118940916.69608  22633699.080    92681224.12346
  22150200.520   116400145.54209  22150195.920    90701411.70848
  21455982.580   112751994.30709  21455982.240    87858712.20048
 15 03 05 00 36  0.0000000  0  6G16G18G19G21G22G27
  20519331.640   107829839.79109  20519328.480    84023263.09548
  21949907.180   115347607.65109  21949904.460    89881268.84748
  23268399.020   122276282.42908  23268395.740    95280224.58947
  22646683.300   119009132.93408  22646680.000    92734379.63946
  22136031.280   116325685.64109  22136026.640    90643391.02248
  21447179.740   112705735.44909  21447179.400    87822666.34048
 15 03 05 00 36 30.0000000  0  6G16G18G19G21G22G27
  20514741.620   107805719.17209  20514738.480    84004467.80648
  21947168.000   115333213.29709  21947165.280    89870052.48448
  23254856.400   122205115.91608  23254853.340    95224770.20547
  22659690.260   119077484.25508  22659686.940    92787640.40946
  22121919.580   116251528.33109  22121914.940    90585606.12548
  21438404.040   112659619.20209  21438403.780    87786731.62148
 15 03 05 00 37  0.0000000  0  6G16G18G19G21G22G27
  20510244.340   107782085.90109  20510241.140    83986052.26648
  21944520.300   115319299.70809  21944517.580    89859210.74648
  23241332.420   122134046.75408  23241329.120    95169391.65746
  22672723.080   119145971.85008  22672719.580    92841007.36646
  22107866.360   116177678.50609  22107861.760    90528060.82748
  21429656.080   112613648.55909  21429655.920    87750910.34948
 15 03 05 00 37 30.0000000  0  6G16G18G19G21G22G27
  20505840.360   107758942.89009  20505837.160    83968018.74748
  21941964.520   115305869.12809  21941961.740    89848745.37548
  23227827.220   122063076.36708  23227823.680    95114090.06947
  22685781.820   119214595.92608  22685778.380    92894480.66446
  22093872.460   116104140.30109  22093867.900    90470758.34948
  21420936.220   112567825.25109  21420936.080    87715203.88048
 15 03 05 00 38  0.0000000  0  6G16G18G19G21G22G27
  20501529.100   107736287.41309  20501526.000    83950365.11848
  21939499.840   115292917.40709  21939497.100    89838653.13648
