     2.11           OBSERVATION DATA    M                   RINEX VERSION / TYPE
SPIDER V4,0,0,3554                      2015 03 16 01:56    PGM / RUN BY / DATE 
OLHC                                                        MARKER NAME         
OLHC                                                        MARKER NUMBER       
                                                            OBSERVER / AGENCY   
496563              LEICA GRX1200+GNSS  8.20/4.007          REC # / TYPE / VERS 
10401012            LEIAR25         NONE                    ANT # / TYPE        
  5213038.6056  -137570.4416  3660672.8464                  APPROX POSITION XYZ 
        0.0750        0.0000        0.0000                  ANTENNA: DELTA H/E/N
     1     1                                                WAVELENGTH FACT L1/2
     4    C1    L1    P2    L2                              # / TYPES OF OBSERV 
    30.000                                                  INTERVAL            
  2015    03    05    00    00    0.0000000     GPS         TIME OF FIRST OBS   
  2015    03    05    23    59   30.0000000     GPS         TIME OF LAST OBS    
    16                                                      LEAP SECONDS        
    38                                                      # OF SATELLITES     
   G 1   841   841   841   841                              PRN / # OF OBS      
   G 2   914   914   914   914                              PRN / # OF OBS      
   G 3   834   834   834   834                              PRN / # OF OBS      
   G 4   847   847   847   847                              PRN / # OF OBS      
   G 5   684   684   684   684                              PRN / # OF OBS      
   G 6   648   648   648   648                              PRN / # OF OBS      
   G 7   778   778   777   777                              PRN / # OF OBS      
   G 9   772   772   772   772                              PRN / # OF OBS      
   G10   795   795   795   795                              PRN / # OF OBS      
   G11   808   808   808   808                              PRN / # OF OBS      
   G12   802   802   802   802                              PRN / # OF OBS      
   G13   832   831   831   831                              PRN / # OF OBS      
   G14   418   413   408   408                              PRN / # OF OBS      
   G15   745   745   745   745                              PRN / # OF OBS      
   G16   706   706   705   705                              PRN / # OF OBS      
   G17   922   921   921   921                              PRN / # OF OBS      
   G18   947   943   941   940                              PRN / # OF OBS      
   G19   803   803   803   803                              PRN / # OF OBS      
   G20   805   804   804   804                              PRN / # OF OBS      
   G21   701   701   700   700                              PRN / # OF OBS      
   G22   838   838   838   838                              PRN / # OF OBS      
   G23   716   716   716   716                              PRN / # OF OBS      
   G24   848   844   842   842                              PRN / # OF OBS      
   G25   855   855   854   854                              PRN / # OF OBS      
   G27   841   841   841   841                              PRN / # OF OBS      
   G28   922   922   922   922                              PRN / # OF OBS      
   G29   730   730   730   730                              PRN / # OF OBS      
   G30   682   682   682   682                              PRN / # OF OBS      
   G31   737   737   737   737                              PRN / # OF OBS      
   G32   727   727   727   727                              PRN / # OF OBS      
   R 2    30    30    30    30                              PRN / # OF OBS      
   R 3    30    30    30    30                              PRN / # OF OBS      
   R 9    30    30    30    30                              PRN / # OF OBS      
   R15    30    30    30    30                              PRN / # OF OBS      
   R16    30    30    30    30                              PRN / # OF OBS      
   R17    30    30    30    30                              PRN / # OF OBS      
   R18    30    30    30    30                              PRN / # OF OBS      
   R19    30    30    30    30                              PRN / # OF OBS      
BIT 2 OF LLI FLAGS DATA COLLECTED UNDER A/S CONDITION       COMMENT             
SNR is mapped to RINEX snr flag value [2-9]                 COMMENT             
Lx:     = 25dBHz -> 1; 26-27dBHz -> 2; 28-31dBHz -> 3       COMMENT             
       32-35dBHz -> 4; 36-38dBHz -> 5; 39-41dBHz -> 6       COMMENT             
       42-44dBHz -> 7; 45-48dBHz -> 8; >=49dBHz -> 9        COMMENT             
                                                            END OF HEADER       
 15 03 05 00 00  0.0000000  0 15G16G18G19G21G22G27G31R02R03R09R15R16
                                R17R18R19
  21010010.940   110408378.76809  21010008.060    86032497.12848
  22525723.780   118373524.74909  22525720.460    92239135.50646
  24073569.860   126507473.73807  24073567.440    98577251.30946
  21908411.060   115129595.75209  21908407.540    89711418.23447
  23326919.800   122583839.87508  23326915.760    95519885.13346
  21994541.940   115582149.69609  21994541.580    90064030.71248
  23493305.160   123458187.54809  23493303.440    96201192.74747
  22872867.240   122054013.09608  22872870.440    94930914.71707
  22817063.400   122141537.17407  22817065.280    94998977.97907
  21457700.920   114582938.97708  21457702.100    89120061.07404
  22407737.260   119740182.37008  22407743.120    93131301.42207
  19615389.720   104781908.18608  19615392.320    81497057.39108
  22899375.420   122539554.75408  22899377.140    95308709.84307
  20139962.280   107508811.93009  20139965.300    83617958.13408
  21464531.220   114820831.71309  21464531.740    89305120.76608
 15 03 05 00 00 30.0000000  0 15G16G18G19G21G22G27G31R02R03R09R15R16
                                R17R18R19
  21000050.020   110356033.65709  21000047.120    85991708.73748
  22517215.260   118328811.78809  22517211.960    92204294.25847
  24059030.600   126431070.54807  24059028.340    98517716.42646
  21919131.740   115185933.39809  21919128.220    89755317.69848
  23310298.500   122496494.54008  23310294.420    95451823.90746
  21984606.400   115529938.25909  21984605.940    90023346.50648
  23512066.640   123556778.24308  23512064.520    96278016.59847
  22871531.800   122046886.36408  22871534.820    94925371.74107
  22800326.240   122051942.30608  22800328.260    94929293.12607
  21442402.060   114501243.34408  21442403.140    89056520.04904
  22432161.960   119870700.82308  22432167.860    93232815.70606
  19621681.500   104815517.91908  19621684.080    81523198.28608
  22915091.920   122623657.42108  22915093.660    95374123.01307
  20146606.600   107544279.75409  20146609.580    83645544.22108
  21454887.200   114769242.74108  21454887.780    89264996.05008
 15 03 05 00 01  0.0000000  0 15G16G18G19G21G22G27G31R02R03R09R15R16
                                R17R18R19
  20990153.340   110304026.25009  20990150.380    85951183.50248
  22508775.920   118284462.48109  22508772.620    92169736.37947
  24044511.400   126354772.95707  24044509.420    98458263.83546
  21929902.040   115242532.08008  21929898.540    89799420.57748
  23293696.480   122409250.47308  23293692.300    95383841.59246
  21974696.960   115477864.15309  21974696.640    89982769.32548
  23530843.260   123655449.42708  23530840.880    96354903.16346
  22870328.420   122040464.47808  22870331.360    94920376.98907
  22783649.860   121962672.42208  22783651.860    94859861.04307
  21427216.040   114420150.69508  21427217.020    88993448.01604
  22456624.680   120001421.59608  22456630.380    93334487.35407
  19628126.100   104849943.52109  19628128.580    81549973.75508
  22930798.940   122707710.00307  22930800.740    95439497.23307
  20153288.700   107579948.82809  20153291.600    83673286.84808
  21445291.980   114717915.19309  21445292.660    89225074.66808
 15 03 05 00 01 30.0000000  0 15G16G18G19G21G22G27G31R02R03R09R15R16
                                R17R18R19
  20980321.600   110252360.01809  20980318.660    85910924.10648
  22500406.240   118240479.78109  22500402.880    92135464.16447
  24030012.720   126278582.46507  24030010.740    98398894.67646
  21940721.980   115299391.66109  21940718.480    89843726.75248
  23277114.520   122322111.83508  23277110.300    95315941.41447
  21964813.920   115425928.70309  21964813.780    89942300.17448
  23549634.580   123754199.34508  23549632.220    96431851.07746
  22869257.500   122034749.92408  22869260.520    94915932.38506
  22767035.320   121873733.15107  22767037.060    94790686.10506
  21412143.720   114339666.11108  21412144.820    88930848.90704
  22481124.860   120132342.15508  22481130.320    93436314.36806
  19634723.380   104885184.65208  19634725.820    81577383.50808
  22946496.760   122791712.88007  22946498.500    95504832.78806
  20160008.460   107615818.88809  20160011.300    83701185.78608
  21435745.760   114666849.67208  21435746.420    89185357.08107
 15 03 05 00 02  0.0000000  0 15G16G18G19G21G22G27G31R02R03R09R15R16
                                R17R18R19
  20970555.300   110201037.62809  20970552.380    85870932.64848
  22492106.880   118196866.77009  22492103.480    92101480.02447
  24015534.680   126202499.75408  24015532.520    98339609.52446
  21951591.300   115356510.54309  21951587.800    89888234.98148
  23260553.220   122235082.02608  23260549.080    95248126.02847
  21954957.360   115374132.45309  21954957.300    89901939.48948
  23568440.300   123853025.64108  23568438.160    96508858.51646
  22868319.360   122029744.23808  22868322.360    94912039.11307
  22750483.460   121785129.54007  22750484.780    94721772.24107
  21397186.000   114259793.57208  21397187.300    88868725.84405
  22505661.760   120263458.80508  22505667.020    93538293.90607
  19641473.120   104921240.35908  19641475.640    81605426.82408
  22962185.380   122875666.35207  22962187.020    95570129.93507
  20166765.620   107651888.73309  20166768.520    83729240.12708
  21426248.560   114616045.95709  21426249.160    89145843.12008
 15 03 05 00 02 30.0000000  0 15G16G18G19G21G22G27G31R02R03R09R15R16
                                R17R18R19
  20960854.900   110150061.32509  20960851.900    85831210.86448
  22483878.160   118153625.18009  22483874.700    92067785.29947
  24001077.240   126126524.87108  24001074.860    98280408.39146
  21962509.720   115413887.36709  21962506.260    89932944.19448
  23244013.060   122148164.01208  23244009.160    95180397.76347
  21945127.300   115322475.56309  21945127.320    89861687.38748
  23587260.060   123951925.75308  23587258.200    96585923.47647
  22867514.280   122025448.68308  22867517.140    94908698.17407
  22733995.240   121696866.32307  22733996.100    94653123.12007
  21382343.600   114180536.85808  21382344.960    88807081.74104
  22530234.440   120394766.77908  22530239.620    93640422.24307
  19648375.100   104958109.32608  19648377.560    81634102.67908
  22977864.760   122959569.74008  22977866.300    95635388.12107
  20173559.920   107688157.08309  20173562.840    83757448.84508
  21416800.220   114565503.46809  21416800.780    89106532.32908
 15 03 05 00 03  0.0000000  0 15G16G18G19G21G22G27G31R02R03R09R15R16
                                R17R18R19
  20951220.960   110099434.23409  20951217.860    85791761.19548
  22475720.800   118110758.52909  22475717.320    92034382.73547
  23986640.620   126050659.08508  23986637.980    98221292.26646
  21973477.060   115471521.26209  21973473.660    89977853.73048
  23227495.000   122061362.07208  23227491.320    95112759.94147
  21935324.060   115270959.46509  21935324.180    89821544.99448
  23606093.800   124050898.29508  23606092.160    96663044.87447
  22866842.620   122021865.61508  22866845.520    94905911.37006
  22717571.640   121608949.48707  22717572.220    94584743.41506
  21367617.500   114101900.99408  21367618.860    88745920.52604
  22554842.540   120526264.33607  22554847.780    93742698.03506
  19655429.180   104995791.08408  19655431.600    81663410.69408
  22993535.100   123043424.06508  22993536.360    95700608.15606
  20180391.320   107724623.66609  20180394.300    83785811.74108
  21407400.880   114515223.06708  21407401.340    89067425.38007
 15 03 05 00 03 30.0000000  0 15G16G18G19G21G22G27G31R02R03R09R15R16
                                R17R18R19
  20941653.540   110049156.69309  20941650.320    85752583.91148
  22467634.840   118068267.00909  22467631.320    92001272.48547
  23972224.460   125974900.50508  23972221.480    98162259.68946
  21984492.720   115529409.14308  21984489.320    90022961.17848
  23210999.220   121974676.78908  23210995.680    95045213.01647
  21925547.240   115219582.01009  21925547.360    89781510.64248
  23624940.540   124149938.09108  23624939.000    96740218.67647
  22866304.300   122018993.91108  22866307.320    94903677.86007
  22701213.120   121521381.03007  22701213.480    94516634.66307
  21353008.060   114023887.21808  21353009.280    88685243.15904
  22579484.960   120657945.57307  22579490.280    93845116.70007
  19662634.720   105034281.80608  19662637.080    81693347.92008
  23009195.800   123127226.25408  23009196.760    95765787.63407
  20187259.120   107761284.64709  20187262.140    83814325.83908
  21398049.980   114465201.91808  21398050.300    89028520.07508
 15 03 05 00 04  0.0000000  0 15G16G18G19G21G22G27G31R02R03R09R15R16
                                R17R18R19
  20932153.380   109999233.12009  20932150.180    85713682.45048
  22459621.040   118026154.50809  22459617.560    91968457.57046
  23957829.160   125899251.76808  23957825.880    98103312.70246
  21995556.800   115587551.25209  21995553.320    90068266.72247
  23194526.640   121888113.28308  23194523.100    94977760.98046
  21915797.320   115168345.72209  21915797.320    89741586.28248
  23643800.220   124249045.00108  23643798.640    96817444.75046
  22865900.040   122016836.92108  22865903.140    94902000.23006
  22684920.980   121434167.89708  22684921.180    94448802.28106
  21338516.300   113946501.70508  21338517.460    88625054.44604
  22604161.320   120789808.38208  22604166.740    93947676.58806
  19669991.860   105073582.59008  19669994.300    81723915.19408
  23024847.140   123210978.67108  23024847.840    95830928.40106
  20194163.560   107798141.02709  20194166.520    83842991.91308
  21388747.820   114415441.91009  21388748.140    88989817.89007
 15 03 05 00 04 30.0000000  0 15G16G18G19G21G22G27G31R02R03R09R15R16
                                R17R18R19
  20922720.860   109949665.21709  20922717.700    85675058.12349
  22451679.760   117984423.21509  22451676.360    91935939.69647
  23943454.540   125823712.27508  23943451.080    98044450.84746
  22006668.740   115645944.79109  22006665.180    90113768.18548
  23178077.740   121801674.12108  23178074.160    94910405.83047
  21906074.240   115117250.23109  21906074.140    89701771.63548
  23662672.020   124348215.76608  23662670.360    96894720.58047
  22865629.940   122015395.07408  22865633.080    94900878.83906
  22668696.080   121347314.58208  22668696.200    94381249.73506
  21324142.660   113869747.30908  21324143.760    88565356.59904
  22628870.760   120921847.94607  22628876.240    94050373.94106
  19677500.180   105113690.74608  19677502.680    81755110.41408
  23040488.920   123294680.09608  23040489.460    95896029.51106
  20201104.280   107835190.89409  20201107.100    83871808.47808
  21379494.260   114365941.67308  21379494.500    88951317.73307
 15 03 05 00 05  0.0000000  0 15G16G18G19G21G22G27G31R02R03R09R15R16
                                R17R18R19
  20913356.400   109900454.99909  20913353.280    85636712.52248
  22443811.200   117943074.70409  22443807.920    91903720.10847
  23929100.580   125748282.21108  23929097.240    97985674.25846
  22017828.160   115704588.06508  22017824.640    90159464.24947
  23161653.060   121715361.99808  23161649.360    94843149.67946
  21896377.900   115066295.56609  21896377.800    89662066.73148
  23681555.320   124447447.54908  23681553.660    96972043.96747
  22865494.100   122014669.52008  22865497.340    94900314.55706
  22652539.200   121260825.13108  22652539.200    94313980.21106
  21309887.820   113793627.68908  21309888.980    88506152.47104
  22653612.780   121054061.66508  22653618.220    94153206.74906
  19685159.300   105154604.69808  19685161.860    81786932.36208
  23056120.900   123378329.73308  23056121.540    95961090.34406
  20208080.920   107872432.55209  20208083.620    83900774.23308
  21370289.060   114316700.46209  21370289.220    88913019.04607
 15 03 05 00 05 30.0000000  0 15G16G18G19G21G22G27G31R02R03R09R15R16
                                R17R18R19
  20904061.020   109851607.34809  20904057.820    85598649.43349
  22436016.420   117902114.15109  22436013.300    91871802.81647
  23914767.860   125672964.18608  23914764.740    97926984.97046
  22029035.340   115763482.40908  22029031.900    90205355.95248
  23145253.700   121629182.57208  23145249.760    94775996.92747
  21886708.920   115015484.66509  21886708.780    89622473.85248
  23700450.140   124546740.29608  23700448.540    97049414.85347
  22865493.060   122014663.69808  22865496.540    94900310.06607
  22636451.680   121174706.77508  22636451.600    94246999.31307
  21295752.980   113718149.10708  21295754.440    88447446.92004
  22678386.900   121186446.86408  22678392.100    94256172.92106
  19692969.520   105196325.46408  19692972.100    81819381.83108
  23071743.560   123461930.30908  23071744.480    96026113.03106
  20215093.700   107909867.45809  20215096.400    83929890.28608
  21361132.820   114267720.62309  21361132.880    88874923.64508
 15 03 05 00 06  0.0000000  0 15G16G18G19G21G22G27G31R02R03R09R15R16
                                R17R18R19
  20894834.060   109803119.15909  20894830.800    85560866.44848
  22428294.860   117861538.03109  22428291.940    91840185.08346
  23900455.480   125597753.39408  23900452.560    97868379.23746
  22040288.920   115822620.70709  22040285.520    90251437.74947
  23128879.060   121543133.38408  23128874.880    94708945.67946
  21877066.280   114964812.26809  21877066.140    89582988.90048
  23719354.900   124646085.83008  23719353.460    97126826.87346
  22865626.040   122015373.01208  22865629.600    94900861.78807
  22620433.240   121088958.76808  22620433.100    94180306.46306
  21281737.980   113643309.68508  21281739.460    88389238.49304
  22703191.760   121318995.86608  22703196.620    94359266.49606
  19700929.340   105238845.48708  19700932.020    81852452.94708
  23087355.900   123545475.77408  23087357.100    96091092.84306
  20222141.340   107947488.72509  20222144.220    83959151.26908
  21352024.320   114218996.23109  21352024.380    88837026.93107
 15 03 05 00 06 30.0000000  0 15G16G18G19G21G22G27G31R02R03R09R15R16
                                R17R18R19
  20885675.760   109754991.75009  20885672.420    85523364.58748
  22420646.760   117821347.45109  22420643.900    91808867.76446
  23886163.400   125522648.81308  23886160.580    97809856.25145
  22051588.500   115882000.49308  22051585.100    90297707.69947
  23112529.620   121457216.58908  23112525.260    94641997.56646
  21867449.820   114914277.71009  21867449.720    89543611.35048
  23738269.100   124745480.80608  23738267.700    97204277.42245
  22865893.040   122016797.54008  22865896.420    94901969.78707
  22604484.620   121003584.90807  22604484.460    94113904.60807
  21267843.160   113569112.03908  21267844.640    88331529.22504
  22728026.320   121451703.21208  22728030.840    94462483.22706
  19709038.360   105282162.55008  19709041.140    81886143.98208
  23102957.760   123628965.11007  23102959.240    96156028.98506
  20229223.460   107985294.07809  20229226.520    83988555.43808
  21342963.300   114170525.66709  21342963.300    88799327.63108
 15 03 05 00 07  0.0000000  0 15G16G18G19G21G22G27G31R02R03R09R15R16
                                R17R18R19
  20876587.280   109707231.43909  20876583.940    85486148.77848
  22413073.200   117781548.59509  22413070.400    91777855.69147
  23871892.440   125447655.05008  23871889.660    97751419.62247
  22062934.480   115941624.06508  22062931.080    90344167.64048
  23096206.820   121371439.64808  23096202.320    94575158.44747
  21857860.500   114863885.40709  21857860.320    89504344.65248
  23757193.160   124844926.78208  23757191.540    97281767.72546
  22866294.880   122018942.31008  22866297.920    94903637.97307
  22588607.380   120918593.89907  22588607.280    94047800.53207
  21254069.960   113495564.09008  21254071.500    88274325.27304
  22752890.380   121584567.94108  22752894.780    94565822.36506
  19717296.980   105326278.71208  19717299.760    81920456.55008
  23118549.860   123712402.09208  23118551.380    96220924.42606
  20236340.700   108023286.37709  20236343.840    84018105.01108
  21333950.280   114122312.52109  21333950.400    88761828.54408
 15 03 05 00 07 30.0000000  0 15G16G18G19G21G22G27G31R02R03R09R15R16
                                R17R18R19
  20867568.640   109659838.22109  20867565.320    85449219.00848
  22405574.180   117742141.55209  22405571.460    91747148.92346
  23857642.220   125372770.09108  23857639.500    97693067.76546
  22074326.060   116001487.46608  22074322.740    90390814.45447
  23079910.720   121285802.96808  23079906.100    94508428.62546
  21848297.920   114813633.35009  21848297.640    89465187.22848
  23776126.080   124944418.66508  23776124.120    97359293.78745
  22866831.380   122021805.93208  22866834.160    94905865.26607
  22572801.880   120833987.88607  22572801.940    93981995.89706
  21240418.720   113422667.17708  21240420.360    88217627.68405
  22777782.900   121717585.29907  22777787.480    94669280.19606
  19725704.520   105371189.90808  19725707.220    81955387.46708
  23134131.800   123795784.26508  23134133.140    96285777.22706
  20243492.300   108061462.02109  20243495.380    84047797.17808
  21324984.920   114074354.19609  21324985.120    88724527.64708
 15 03 05 00 08  0.0000000  0 15G16G18G19G21G22G27G31R02R03R09R15R16
                                R17R18R19
  20858620.220   109612814.01409  20858616.920    85412576.79448
  22398150.000   117703127.85009  22398147.480    91716748.66347
  23843412.680   125297993.95508  23843410.020    97634800.71847
  22085762.900   116061588.70808  22085759.680    90437646.59548
  23063641.780   121200309.18708  23063637.160    94441810.16946
  21838761.940   114763521.41309  21838761.600    89426139.00048
  23795067.220   125043953.48308  23795064.860    97436853.30746
  22867502.800   122025389.07008  22867505.500    94908652.19207
  22557069.240   120749771.52708  22557069.320    93916494.32807
  21226889.940   113350424.14808  21226891.680    88161438.66705
  22802703.160   121850751.09507  22802708.000    94772853.47606
  19734260.460   105416893.80309  19734263.160    81990934.93308
  23149703.360   123879110.83007  23149704.500    96350586.79106
  20250677.960   108099819.31909  20250680.920    84077630.63908
  21316067.000   114026649.63609  21316067.280    88687424.13708
 15 03 05 00 08 30.0000000  0 15G16G18G19G21G22G27G31R02R03R09R15R16
                                R17R18R19
  20849742.620   109566161.78009  20849739.320    85376224.41448
  22390801.280   117664510.53109  22390798.940    91686657.25947
  23829203.900   125223327.19308  23829201.220    97576618.88446
  22097244.840   116121926.82809  22097241.680    90484663.31647
  23047400.780   121114962.00609  23047396.160    94375305.92946
  21829252.880   114713550.62909  21829252.360    89387200.75648
  23814016.160   125143529.84208  23814013.600    97514445.18346
  22868309.360   122029693.12708  22868312.060    94911999.83607
  22541410.580   120665949.86007  22541410.580    93851299.74406
  21213484.500   113278839.64008  21213486.220    88105761.83704
  22827650.500   121984061.99307  22827655.600    94876539.61006
  19742964.600   105463389.36908  19742967.260    82027098.14508
  23165264.560   123962382.35607  23165265.440    96415353.52306
  20257897.580   108138357.89309  20257900.420    84107605.09708
  21307196.600   113979199.02609  21307196.880    88650518.12708
 15 03 05 00 09  0.0000000  0 15G16G18G19G21G22G27G31R02R03R09R15R16
                                R17R18R19
  20840935.900   109519882.21209  20840932.620    85340162.41748
  22383528.040   117626290.09109  22383525.880    91656875.11646
  23815015.760   125148768.90708  23815013.140    97518521.57446
  22108771.340   116182498.72908  22108768.160    90531862.19647
  23031188.060   121029763.30909  23031183.520    94308917.37746
  21819770.380   114663719.91309  21819769.720    89348371.65148
  23832971.980   125243143.37208  23832969.640    97592065.98646
  22869250.900   122034717.42408  22869253.740    94915907.65907
  22525826.220   120582525.89308  22525826.280    93786414.47607
  21200202.720   113207915.45708  21200204.360    88050598.58505
  22852623.940   122117513.02407  22852629.240    94980334.73406
  19751816.220   105510673.34508  19751818.920    82063874.54408
  23180815.140   124045597.25607  23180816.000    96480076.19906
  20265150.600   108177074.90009  20265153.340    84137718.31608
  21298373.320   113932000.48409  21298373.540    88613808.15808
 15 03 05 00 09 30.0000000  0 15G16G18G19G21G22G27G31R02R03R09R15R16
                                R17R18R19
  20832200.300   109473976.57909  20832197.060    85304391.81248
  22376330.460   117588467.29109  22376328.280    91627402.84047
  23800848.140   125074318.16008  23800845.560    97460508.09446
  22120341.820   116243301.89308  22120338.620    90579241.29147
  23015003.880   120944714.65409  23014999.420    94242645.75547
  21810314.300   114614028.30609  21810313.660    89309650.95748
  23851934.100   125342790.65708  23851932.260    97669713.11546
  22870327.300   122040461.39408  22870330.160    94920375.22907
  22510316.900   120499503.55607  22510317.140    93721841.59107
  21187045.100   113137654.06508  21187046.620    87995950.85505
  22877622.620   122251098.81808  22877627.940    95084234.69206
  19760814.840   105558742.22708  19760817.520    82101261.44408
  23196354.920   124128753.97407  23196355.900    96544753.63306
  20272436.600   108215967.96109  20272439.360    84167968.48608
  21289596.840   113885052.29809  21289597.040    88577292.93608
 15 03 05 00 10  0.0000000  0 15G16G18G19G21G22G27G31R02R03R09R15R16
                                R17R18R19
  20823536.480   109428448.31509  20823533.260    85268915.25548
  22369209.160   117551045.06409  22369206.820    91598242.68747
  23786701.360   124999976.29808  23786698.580    97402579.43746
  22131956.200   116304335.92509  22131952.980    90626800.28147
  22998848.960   120859820.00509  22998844.640    94176494.13047
  21800884.980   114564477.07909  21800884.340    89271039.63748
  23870902.320   125442469.57308  23870900.960    97747384.89546
  22871538.880   122046926.86008  22871541.780    94925403.96207
  22494883.440   120416887.79408  22494884.080    93657584.92507
  21174012.380   113068059.74408  21174013.820    87941821.94905
  22902646.040   122384816.60107  22902651.340    95188237.29606
  19769960.200   105607595.01108  19769962.820    82139258.04508
  23211884.020   124211853.40808  23211885.000    96609386.48006
  20279755.560   108255036.77009  20279758.440    84198355.34508
  21280867.180   113838354.96609  21280867.500    88540972.83208
 15 03 05 00 10 30.0000000  0 15G16G18G19G21G22G27G31R02R03R09R15R16
                                R17R18R19
  20814944.500   109383297.76009  20814941.320    85233733.01148
  22362164.320   117514024.48209  22362161.840    91569395.50346
  23772575.100   124925741.82008  23772572.000    97344734.44546
  22143613.860   116365597.34408  22143610.620    90674536.45847
  22982723.600   120775081.05809  22982719.500    94110463.82647
  21791482.140   114515065.01309  21791481.520    89232536.75648
  23889875.940   125542176.44908  23889874.880    97825078.47246
  22872885.440   122054112.53608  22872888.300    94930992.82707
  22479526.580   120334682.07208  22479527.680    93593647.17207
  21161104.900   112999134.51308  21161106.220    87888213.45504
  22927693.320   122518661.31307  22927698.660    95292338.60306
  19779251.660   105657228.24808  19779254.200    82177861.66508
  23227402.140   124294893.80507  23227403.300    96673973.44306
  20287106.900   108294278.60009  20287109.780    84228876.76408
  21272183.960   113791906.41209  21272184.380    88504846.21507
 15 03 05 00 11  0.0000000  0 15G16G18G19G21G22G27G31R02R03R09R15R16
                                R17R18R19
  20806425.180   109338528.79409  20806422.060    85198848.10448
  22355196.500   117477408.44109  22355193.860    91540863.54147
  23758469.740   124851617.03308  23758466.440    97286974.94246
  22155314.600   116427085.19808  22155311.340    90722449.06948
  22966628.700   120690502.35509  22966624.820    94044558.38547
  21782106.120   114465793.97909  21782105.520    89194143.76548
  23908854.660   125641909.95908  23908853.780    97902792.79047
  22874367.520   122062020.97708  22874370.300    94937143.86607
  22464247.680   120252892.65908  22464249.120    93530033.21307
  21148323.720   112930883.29508  21148324.800    87835129.18005
  22952764.100   122652630.99307  22952769.520    95396537.10606
  19788689.120   105707641.31008  19788691.600    82217071.80608
  23242909.460   124377876.55307  23242910.820    96738515.56307
  20294490.700   108333693.66309  20294493.520    84259532.92608
  21263547.540   113745707.52809  21263547.900    88468913.77608
 15 03 05 00 11 30.0000000  0 15G16G18G19G21G22G27G31R02R03R09R15R16
                                R17R18R19
  20797978.920   109294143.56609  20797975.840    85164262.22048
  22348306.140   117441199.21509  22348303.400    91512648.57747
  23744385.260   124777601.79508  23744381.800    97229300.79846
  22167058.340   116488799.02608  22167055.080    90770537.77647
  22950564.840   120606086.98908  22950561.120    93978780.23147
  21772757.000   114416664.33209  21772756.460    89155860.94748
  23927838.020   125741667.64308  23927837.160    97980525.95346
  22875985.120   122070652.68608  22875987.980    94943857.43607
  22449047.460   120171523.69008  22449048.840    93466746.27307
  21135669.380   112863309.40708  21135670.300    87782571.71705
  22977857.480   122786721.49707  22977863.080    95500829.56606
  19798272.160   105758831.85308  19798274.640    82256886.65908
  23258405.940   124460801.42307  23258407.400    96803012.68007
  20301906.760   108373281.05409  20301909.540    84290323.13308
  21254957.740   113699757.99509  21254958.140    88433175.29208
 15 03 05 00 12  0.0000000  0 15G16G18G19G21G22G27G31R02R03R09R15R16
                                R17R18R19
  20789606.340   109250145.44509  20789603.280    85129977.98748
  22341493.760   117405399.57209  22341490.940    91484752.77847
  23730321.840   124703697.39608  23730318.120    97171713.00846
  22178844.940   116550738.18208  22178841.740    90818802.05847
  22934532.760   120521838.82508  22934529.160    93913132.36847
  21763435.020   114367677.41409  21763434.540    89117689.36248
  23946825.720   125841448.28808  23946824.780    98058277.01146
  22877738.540   122080009.23608  22877741.400    94951134.78207
  22433926.880   120090580.97108  22433928.000    93403790.86607
  21123142.700   112796417.58408  21123143.580    87730544.75805
  23002973.040   122920929.88707  23002978.700    95605213.73106
  19808000.540   105810799.02508  19808003.100    82297305.55108
  23273891.840   124543669.40407  23273893.320    96867465.52506
  20309354.920   108413040.40409  20309357.720    84321247.08608
  21246414.640   113654057.92909  21246415.040    88397630.82608
 15 03 05 00 12 30.0000000  0 15G16G18G19G21G22G27G31R02R03R09R15R16
                                R17R18R19
  20781307.240   109206533.48809  20781304.240    85095994.65648
  22334759.180   117370008.92109  22334756.280    91457175.67847
  23716278.780   124629901.04808  23716275.100    97114209.41646
  22190673.580   116612898.17608  22190670.440    90867238.41747
  22918532.600   120437758.02109  22918528.940    93847614.90847
  21754139.680   114318830.48209  21754139.260    89079626.84748
  23965816.560   125941245.91508  23965815.580    98136041.29646
  22879627.300   122090088.05608  22879630.220    94958973.88706
  22418886.240   120010065.91708  22418887.040    93341168.09306
  21110743.720   112730207.84508  21110744.620    87679048.31405
  23028109.560   123055250.43207  23028115.100    95709685.12205
  19817873.260   105863537.40308  19817875.860    82338324.27708
  23289366.600   124626477.29307  23289367.880    96931871.66406
  20316834.520   108452967.52409  20316837.420    84352301.52308
  21237917.540   113608604.23609  21237917.940    88362277.98007
 15 03 05 00 13  0.0000000  0 15G16G18G19G21G22G27G31R02R03R09R15R16
                                R17R18R19
  20773082.440   109163311.45709  20773079.360    85062315.16048
  22328102.980   117335030.34409  22328100.080    91429919.66447
  23702256.580   124556214.49708  23702252.960    97056791.39846
  22202544.080   116675277.94508  22202540.900    90915846.02747
  22902565.100   120353848.67908  22902561.240    93782231.05847
  21744871.360   114270125.08709  21744870.980    89041674.62448
  23984810.360   126041059.54108  23984809.360    98213818.02746
  22881651.780   122100890.86408  22881654.700    94967376.09007
  22403926.620   119929984.37208  22403927.060    93278882.49606
  21098473.340   112664684.74008  21098474.280    87628085.91405
  23053266.300   123189679.67707  23053271.700    95814241.05006
  19827890.180   105917045.83108  19827892.740    82379941.93408
  23304830.380   124709226.36007  23304831.240    96996232.02406
  20324345.640   108493062.47509  20324348.600    84383486.50608
  21229466.620   113563397.38608  21229467.040    88327117.13107
 15 03 05 00 13 30.0000000  0 15G16G18G19G21G22G27G31R02R03R09R15R16
                                R17R18R19
  20764932.220   109120481.23609  20764928.940    85028940.96648
  22321525.460   117300465.71009  22321522.580    91402986.20247
  23688255.360   124482637.72908  23688251.760    96999458.90246
  22214456.240   116737876.13009  22214452.920    90964623.84048
  22886630.820   120270113.92408  22886626.840    93716983.24847
  21735630.020   114221561.44709  21735629.680    89003832.85048
  24003806.740   126140886.53108  24003805.740    98291605.17046
  22883811.980   122112417.77408  22883814.940    94976341.49107
  22389048.520   119850340.62308  22389048.880    93216937.39707
  21086332.160   112599851.48208  21086333.140    87577660.05805
  23078442.620   123324213.56307  23078447.760    95918878.34806
  19838050.780   105971322.11208  19838053.420    82422156.79808
  23320283.060   124791915.94007  23320283.380    97060546.10406
  20331888.060   108533324.07909  20331890.960    84414801.08608
  21221061.620   113518436.64308  21221062.040    88292147.68708
 15 03 05 00 14  0.0000000  0 15G16G18G19G21G22G27G31R02R03R09R15R16
                                R17R18R19
  20756856.900   109078044.64909  20756853.480    84995873.50848
  22315026.960   117266316.48009  22315024.120    91376376.43847
  23674274.960   124409170.66408  23674271.360    96942211.89246
  22226409.540   116800690.58109  22226406.100    91013570.16947
  22870730.320   120186556.50909  22870726.240    93651873.62746
  21726415.620   114173139.53709  21726415.300    88966101.52948
  24022805.180   126240723.65508  24022804.220    98369400.20346
  22886107.860   122124668.90408  22886110.880    94985870.17107
  22374252.880   119771138.88508  22374253.340    93155336.07907
  21074320.620   112535711.01408  21074321.660    87527773.04505
  23103637.960   123458848.77407  23103642.960    96023594.45706
  19848354.620   106026363.53608  19848357.360    82464966.78808
  23335724.420   124874545.81107  23335724.640    97124813.74806
  20339461.460   108573750.73809  20339464.320    84446244.04508
  21212702.520   113473721.29608  21212702.820    88257369.11408
 15 03 05 00 14 30.0000000  0 15G16G18G19G21G22G27G31R02R03R09R15R16
                                R17R18R19
  20748856.640   109036002.72309  20748853.140    84963113.57848
  22308607.720   117232583.32709  22308604.920    91350090.88847
  23660315.320   124335812.61808  23660311.680    96885049.83846
  22238403.480   116863718.80109  22238399.940    91062683.08047
  22854863.920   120103178.01609  22854859.800    93586903.42047
  21717227.980   114124858.53109  21717227.780    88928480.00148
  24041805.060   126340567.39508  24041803.980    98447200.38945
  22888539.160   122137643.50508  22888542.320    94995961.56607
  22359540.380   119692382.41908  22359541.000    93094081.08107
  21062439.180   112472265.19108  21062440.340    87478426.32205
  23128851.140   123593579.61807  23128856.240    96128384.94306
  19858801.040   106082166.30608  19858803.740    82508368.94808
  23351154.280   124957114.78907  23351154.720    97189034.03106
  20347065.280   108614339.92209  20347068.000    84477813.42508
  21204388.920   113429249.31309  21204389.280    88222779.83408
 15 03 05 00 15  0.0000000  0  7G16G18G19G21G22G27G31
  20740931.700   108994357.02709  20740928.220    84930662.38448
  22302267.960   117199267.62409  22302265.180    91324130.60847
  23646376.300   124262562.91308  23646372.640    96827972.19847
  22250437.640   116926958.36009  22250434.020    91111960.64647
  22839032.000   120019980.94709  22839028.000    93522074.57347
  21708067.080   114076718.17609  21708067.000    88890968.05848
  24060805.760   126440414.72108  24060804.520    98525003.35946
 15 03 05 00 15 30.0000000  0  7G16G18G19G21G22G27G31
  20733082.560   108953109.59409  20733079.160    84898521.53948
  22296008.020   117166371.07909  22296005.200    91298496.96046
  23632457.980   124189421.78108  23632454.420    96770979.16046
  22262511.720   116990407.95009  22262508.080    91161401.88747
  22823235.160   119936968.03909  22823231.220    93457389.23647
  21698933.080   114028718.61409  21698932.900    88853565.82648
  24079806.540   126540262.72108  24079805.140    98602806.85445
 15 03 05 00 16  0.0000000  0  7G16G18G19G21G22G27G31
  20725309.680   108912262.96809  20725306.380    84866693.00548
  22289828.400   117133896.05009  22289825.460    91273191.76147
  23618560.380   124116389.95808  23618557.000    96714071.30546
  22274625.460   117054066.00509  22274621.780    91211005.56447
  22807474.100   119854142.93709  22807470.100    93392850.23647
  21689826.060   113980860.64609  21689825.720    88816273.92848
  24098807.020   126640109.61408  24098805.560    98680609.48046
 15 03 05 00 16 30.0000000  0  7G16G18G19G21G22G27G31
  20717613.900   108871821.53709  20717610.660    84835180.21848
  22283729.640   117101845.90409  22283726.580    91248217.64647
  23604684.080   124043469.94808  23604680.840    96657250.56946
  22286778.960   117117933.24109  22286775.260    91260772.24647
  22791749.760   119771510.81409  22791745.660    93328461.61547
  21680746.460   113933146.65009  21680745.980    88779094.21148
  24117807.020   126739954.80408  24117805.620    98758410.79246
 15 03 05 00 17  0.0000000  0  7G16G18G19G21G22G27G31
  20709995.120   108831784.85909  20709991.960    84803982.81548
  22277711.720   117070220.51209  22277708.480    91223574.50046
  23590828.680   123970659.30308  23590825.440    96600515.05546
  22298971.380   117182005.06109  22298967.680    91310698.33447
  22776062.240   119689071.98309  22776058.040    93264223.60746
  21671693.800   113885574.49809  21671693.220    88742025.02748
  24136805.480   126839793.08208  24136804.460    98836206.69945
 15 03 05 00 17 30.0000000  0  7G16G18G19G21G22G27G31
  20702454.020   108792156.00809  20702450.800    84773103.19149
  22271774.980   117039022.12009  22271771.640    91199264.08147
  23576994.180   123897958.87708  23576990.960    96543865.42447
  22311202.540   117246280.66708  22311198.900    91360783.20947
  22760412.160   119606830.03209  22760407.800    93200139.00747
  21662668.220   113838145.20209  21662667.620    88705067.15048
  24155802.280   126939622.74408  24155801.500    98913995.89046
 15 03 05 00 18  0.0000000  0  7G16G18G19G21G22G27G31
  20694990.820   108752936.48309  20694987.560    84742542.52848
  22265919.640   117008252.00109  22265916.280    91175287.38647
  23563180.580   123825368.35008  23563177.260    96487301.42246
  22323472.260   117310758.68508  22323468.680    91411025.81647
  22744800.040   119524787.87909  22744795.540    93136210.10047
  21653669.820   113790858.84509  21653669.340    88668220.65948
  24174796.920   127039440.92308  24174796.360    98991776.14046
 15 03 05 00 18 30.0000000  0  7G16G18G19G21G22G27G31
  20687605.540   108714126.32309  20687602.200    84712300.84948
  22260145.700   116977910.25109  22260142.480    91151644.49447
  23549387.720   123752886.67308  23549384.260    96430822.24046
  22335779.780   117375435.38908  22335776.280    91461423.24847
  22729226.020   119442946.53809  22729221.460    93072437.67347
  21644698.320   113743713.85109  21644697.960    88631484.33348
  24193788.720   127139243.35908  24193788.260    99069544.11845
 15 03 05 00 19  0.0000000  0  7G16G18G19G21G22G27G31
  20680298.900   108675729.45209  20680295.480    84682381.21848
  22254453.860   116948000.37109  22254450.840    91128338.11747
  23535615.780   123680515.29208  23535612.380    96374429.02146
  22348125.020   117440310.27308  22348121.580    91511975.10847
  22713691.080   119361310.40009  22713686.540    93008825.13747
  21635754.120   113696712.03609  21635753.840    88594859.56848
  24212777.460   127239028.92808  24212776.920    99147298.92745
 15 03 05 00 19 30.0000000  0  7G16G18G19G21G22G27G31
  20673070.800   108637745.37309  20673067.300    84652783.23648
  22248843.920   116918521.16209  22248841.140    91105367.32547
  23521864.560   123608252.38708  23521861.120    96318120.30046
  22360507.320   117505379.61208  22360503.880    91562678.48747
  22698195.220   119279880.11208  22698190.880    92945372.99947
  21626836.820   113649851.39009  21626836.600    88558344.79748
  24231762.160   127338792.88308  24231761.400    99225036.89846
 15 03 05 00 20  0.0000000  0  7G16G18G19G21G22G27G31
  20665921.720   108600176.81909  20665918.180    84623509.04748
  22243316.500   116889475.46109  22243313.940    91082734.32847
  23508134.060   123536098.31508  23508130.540    96261896.40046
  22372926.340   117570641.87908  22372922.960    91613532.19947
  22682739.140   119198659.00109  22682735.080    92882083.86547
  21617946.600   113603132.74309  21617946.320    88521940.68148
  24250742.400   127438533.03108  24250741.340    99302756.31445
 15 03 05 00 20 30.0000000  0  7G16G18G19G21G22G27G31
  20658852.000   108563025.62109  20658848.480    84594560.06549
  22237871.880   116860864.50709  22237869.460    91060440.09447
  23494424.360   123464053.55508  23494420.780    96205757.67347
  22385381.900   117636096.28108  22385378.500    91664535.63148
  22667323.580   119117649.93409  22667319.600    92818959.95148
  21609083.500   113556556.36509  21609083.020    88485647.41449
  24269717.560   127538246.75408  24269716.280    99380455.10946
 15 03 05 00 21  0.0000000  0  7G16G18G19G21G22G27G31
  20651862.500   108526296.17309  20651859.040    84565939.71648
  22232510.800   116832692.18609  22232508.380    91038487.65147
  23480735.920   123392120.01208  23480732.220    96149705.59946
  22397874.020   117701742.89108  22397870.660    91715688.82647
  22651949.580   119036858.42709  22651945.480    92756005.56947
  21600247.900   113510124.72109  21600247.300    88449466.93148
  24288687.580   127637933.77308  24288686.120    99458133.09946
 15 03 05 00 21 30.0000000  0  7G16G18G19G21G22G27G31
  20644953.200   108489988.01109  20644949.820    84537647.65248
  22227233.020   116804957.37509  22227230.620    91016876.13647
  23467068.300   123320295.89808  23467064.640    96093738.81246
  22410401.920   117767577.49709  22410398.620    91766988.51747
  22636617.060   118956284.68909  22636612.740    92693220.88247
  21591439.440   113463835.89609  21591438.820    88413397.74548
  24307651.540   127737589.29808  24307650.000    99535786.53745
 15 03 05 00 22  0.0000000  0  7G16G18G19G21G22G27G31
  20638125.100   108454106.16109  20638121.760    84509687.77148
  22222039.400   116777664.90509  22222036.980    90995609.29047
  23453422.020   123248584.16508  23453418.340    96037859.57847
  22422965.840   117833601.20808  22422962.540    91818435.57347
  22621327.100   118875934.41109  22621322.560    92630610.31847
  21582658.800   113417693.09009  21582658.200    88377442.33148
  24326609.560   127837213.79008  24326608.080    99613415.78645
 15 03 05 00 22 30.0000000  0  7G16G18G19G21G22G27G31
  20631377.080   108418644.96709  20631373.800    84482055.67148
  22216928.780   116750808.53609  22216926.380    90974682.26847
  23439795.800   123176977.49908  23439791.940    95982062.21146
  22435564.080   117899805.63008  22435560.920    91870023.43347
  22606078.740   118795803.30509  22606073.980    92568170.54047
  21573904.560   113371689.05709  21573903.900    88341595.05448
  24345559.680   127936796.77808  24345558.200    99691012.71645
 15 03 05 00 23  0.0000000  0  7G16G18G19G21G22G27G31
  20624711.120   108383614.71109  20624707.840    84454759.37248
  22211903.180   116724398.69609  22211900.720    90954103.19547
  23426191.200   123105484.53908  23426187.300    95926353.45647
  22448197.940   117966197.29308  22448194.920    91921757.19747
  22590874.080   118715902.52509  22590869.220    92505910.23147
  21565178.380   113325832.50309  21565177.660    88305862.68348
  24364503.060   128036344.36808  24364501.800    99768582.04445
 15 03 05 00 23 30.0000000  0  7G16G18G19G21G22G27G31
  20618126.880   108349014.13109  20618123.580    84427797.89148
  22206962.040   116698432.75109  22206959.520    90933870.01147
  23412607.560   123034102.16508  23412603.700    95870730.88147
  22460866.340   118032770.72108  22460863.580    91973632.60347
  22575713.020   118636231.40009  22575708.140    92443828.87647
  21556479.600   113280120.35809  21556478.880    88270242.84648
  24383438.660   128135850.79308  24383437.540    99846119.27845
 15 03 05 00 24  0.0000000  0  7G16G18G19G21G22G27G31
  20611624.480   108314843.68609  20611621.140    84401171.56848
  22202105.600   116672911.32409  22202102.920    90913983.20847
  23399044.640   122962828.90508  23399040.720    95815193.32046
  22473568.780   118099522.89808  22473566.160    92025647.27547
  22560595.940   118556791.78009  22560591.160    92381927.90247
  21547808.000   113234551.53909  21547807.380    88234734.69248
  24402365.620   128235311.82408  24402364.700    99923621.14545
 15 03 05 00 24 30.0000000  0  7G16G18G19G21G22G27G31
  20605204.480   108281106.60209  20605201.180    84374882.94249
  22197334.360   116647837.10109  22197331.460    90894444.86747
  23385502.780   122891666.29208  23385498.860    95759741.96247
  22486305.180   118166453.60708  22486302.720    92077801.06447
  22545523.660   118477587.53109  22545519.100    92320210.33447
  21539164.000   113189127.68509  21539163.480    88199339.49348
  24421283.740   128334726.40108  24421283.000   100001086.80846
 15 03 05 00 25  0.0000000  0  7G16G18G19G21G22G27G31
  20598867.480   108247805.48709  20598864.220    84348934.03048
  22192648.600   116623212.00509  22192645.440    90875256.51147
  23371982.120   122820615.15908  23371978.240    95704377.49646
  22499075.400   118233561.84008  22499073.040    92130093.19547
  22530496.860   118398622.00209  22530492.560    92258678.78847
  21530547.800   113143849.71109  21530547.380    88164057.96948
  24440192.680   128434092.23508  24440192.180   100078514.48145
 15 03 05 00 25 30.0000000  0  7G16G18G19G21G22G27G31
  20592613.200   108214939.09509  20592609.960    84323323.86249
  22188047.980   116599034.45409  22188044.560    90856416.88748
  23358482.180   122749672.64508  23358478.280    95649097.65047
  22511878.560   118300843.13108  22511876.260    92182520.17548
  22515515.600   118319895.28309  22515511.460    92197333.33348
  21521958.900   113098714.92609  21521958.480    88128888.02149
  24459091.520   128533404.30808  24459091.140   100155900.23046
 15 03 05 00 26  0.0000000  0  7G16G18G19G21G22G27G31
  20586442.360   108182511.20909  20586439.100    84298055.38448
  22183532.920   116575307.60409  22183529.540    90837928.45747
  23345003.300   122678840.95808  23344999.360    95593904.15647
  22524714.640   118368297.05508  22524712.300    92235081.66447
  22500580.760   118241412.16109  22500576.580    92136177.68147
  21513397.680   113053725.43209  21513397.240    88093831.28148
  24477980.020   128632661.65408  24477979.620   100233243.31046
 15 03 05 00 26 30.0000000  0  7G16G18G19G21G22G27G31
  20580355.400   108150524.27609  20580352.140    84273130.50949
  22179104.000   116552034.05309  22179100.800    90819793.24547
  23331545.760   122608121.24208  23331541.820    95538797.91847
  22537583.460   118435923.16908  22537581.060    92287777.33747
  22485693.000   118163176.12809  22485688.740    92075214.57347
  21504864.360   113008882.36509  21504863.900    88058888.64548
  24496857.780   128731862.63208  24496857.380   100310542.46046
 15 03 05 00 27  0.0000000  0  7G16G18G19G21G22G27G31
  20574352.460   108118978.53709  20574349.140    84248549.40949
  22174761.100   116529213.15509  22174758.260    90802010.74548
  23318109.180   122537511.75308  23318105.340    95483777.56848
  22550484.460   118503718.25508  22550481.980    92340604.65748
  22470852.420   118085188.08409  22470848.180    92014444.68648
  21496358.660   112964184.45209  21496358.160    88024059.10149
  24515723.880   128831002.97808  24515723.500   100387794.35046
 15 03 05 00 27 30.0000000  0  7G16G18G19G21G22G27G31
  20568434.200   108087877.87909  20568430.900    84224315.13648
  22170504.760   116506847.75309  22170502.320    90784583.18247
  23304693.880   122467014.26708  23304690.160    95428844.49746
  22563417.640   118571682.43808  22563415.080    92393563.75847
  22456059.980   118007453.13209  22456055.680    91953872.03147
  21487880.980   112919633.89509  21487880.440    87989344.39848
  24534578.200   128930082.01307  24534577.940   100464998.47046
 15 03 05 00 28  0.0000000  0  7G16G18G19G21G22G27G31
  20562600.640   108057221.92809  20562597.260    84200427.38248
  22166335.100   116484937.58909  22166332.980    90767510.34147
  23291299.540   122396626.85308  23291295.740    95373997.19446
  22576382.300   118639811.72608  22576379.620    92446651.50747
  22441315.820   117929971.75909  22441311.400    91893496.96847
  21479430.920   112875228.64309  21479430.380    87954742.91348
  24553419.960   129029095.13708  24553419.720   100542151.19745
 15 03 05 00 28 30.0000000  0  7G16G18G19G21G22G27G31
  20556852.080   108027012.80409  20556848.600    84176887.80448
  22162252.480   116463484.23309  22162250.500    90750793.45547
  23277926.240   122326350.17608  23277922.480    95319236.17846
  22589378.180   118708105.02208  22589375.320    92499867.05247
  22426620.560   117852747.14409  22426616.040    91833321.97147
  21471008.680   112830969.66309  21471008.220    87920255.40848
  24572248.780   129128040.39008  24572248.620   100619251.02146
 15 03 05 00 29  0.0000000  0  7G16G18G19G21G22G27G31
  20551188.680   107997251.11109  20551185.120    84153696.87248
  22158256.880   116442487.65409  22158254.860    90734432.50347
  23264573.820   122256183.01608  23264570.100    95264560.51646
  22602404.760   118776559.66208  22602401.700    92553208.33746
  22411974.480   117775780.93109  22411969.920    91773348.33147
  21462614.200   112786856.10709  21462613.680    87885881.20748
  24591063.880   129226913.85308  24591063.720   100696294.90645
 15 03 05 00 29 30.0000000  0  7G16G18G19G21G22G27G31
  20545611.340   107967941.74209  20545607.780    84130858.40248
  22154349.140   116421951.87209  22154346.960    90718430.60547
  23251242.880   122186128.86908  23251239.200    95209972.90646
  22615462.220   118845176.71308  22615459.040    92606676.15647
  22397378.520   117699078.47009  22397374.020    91713580.20847
  21454248.020   112742891.17709  21454247.480    87851622.82648
  24609865.420   129325715.95808  24609865.380   100773283.18745
 15 03 05 00 30  0.0000000  0  7G16G18G19G21G22G27G31
  20540119.140   107939080.15909  20540115.680    84108368.86448
  22150528.160   116401872.03209  22150525.800    90702783.99547
  23237932.320   122116181.60608  23237928.740    95155468.60746
  22628549.080   118913948.46308  22628545.800    92660264.53347
  22382832.080   117622636.49009  22382827.640    91654015.06047
  21445909.000   112699069.13409  21445908.420    87817475.79648
  24628651.880   129424438.17408  24628651.960   100850209.18145
 15 03 05 00 30 30.0000000  0  7G16G18G19G21G22G27G31
  20534713.280   107910672.55209  20534709.920    84086233.06649
  22146795.040   116382253.94409  22146792.580    90687497.19147
  23224643.020   122046345.69308  23224639.540    95101051.06347
  22641665.840   118982877.52808  22641662.540    92713975.48947
  22368336.500   117546462.37909  22368332.160    91594658.62648
  21437598.000   112655394.62609  21437597.380    87783443.72048
  24647423.440   129523081.85108  24647423.600   100927073.94945
 15 03 05 00 31  0.0000000  0  7G16G18G19G21G22G27G31
  20529394.660   107882723.28809  20529391.360    84064454.41548
  22143150.440   116363101.01809  22143147.860    90672572.84247
  23211375.460   121976623.88708  23211371.980    95046722.43447
  22654812.660   119051964.54408  22654809.340    92767809.51146
  22353892.880   117470561.97809  22353888.740    91535515.46647
  21429315.640   112611870.60409  21429315.040    87749528.90648
  24666180.200   129621647.50807  24666180.340   101003877.92045
 15 03 05 00 31 30.0000000  0  7G16G18G19G21G22G27G31
  20524162.640   107855229.15309  20524159.400    84043030.41348
  22139593.660   116344410.07609  22139591.000    90658008.48647
  23198128.740   121907011.65908  23198125.180    94992479.18546
  22667988.460   119121203.71208  22667985.080    92821762.11347
  22339500.800   117394932.75009  22339496.940    91476583.63647
  21421061.040   112568492.49109  21421060.480    87715727.79348
  24684920.720   129720128.12108  24684920.980   101080615.59744
 15 03 05 00 32  0.0000000  0  6G16G18G19G21G22G27
  20519016.700   107828187.24509  20519013.520    84021958.79048
  22136124.060   116326176.97409  22136121.240    90643800.88847
  23184901.940   121837504.09308  23184898.240    94938317.48047
  22681191.880   119190588.40208  22681188.480    92875828.08947
  22325159.980   117319572.54409  22325156.260    91417861.41947
  21412833.380   112525256.02209  21412832.860    87682037.05848
 15 03 05 00 32 30.0000000  0  6G16G18G19G21G22G27
  20513960.020   107801614.25909  20513956.840    84001252.56849
  22132744.700   116308417.85209  22132741.760    90629962.63447
  23171697.860   121768116.33408  23171694.160    94884249.14247
  22694425.560   119260132.04108  22694422.120    92930017.93547
  22310873.820   117244498.83609  22310870.000    91359362.45948
  21404635.580   112482176.55009  21404635.060    87648468.64048
 15 03 05 00 33  0.0000000  0  6G16G18G19G21G22G27
  20508991.480   107775504.20609  20508988.240    83980907.06548
  22129454.340   116291126.76809  22129451.300    90616489.07247
  23158515.080   121698841.04908  23158511.460    94830268.43546
  22707687.700   119329825.11008  22707684.200    92984324.21247
  22296641.480   117169707.31409  22296637.480    91301083.38247
  21396466.240   112439246.80409  21396465.760    87615016.89248
 15 03 05 00 33 30.0000000  0  6G16G18G19G21G22G27
  20504110.800   107749856.02509  20504107.520    83960921.47648
  22126252.520   116274301.39209  22126249.460    90603378.41047
  23145353.280   121629675.95608  23145349.780    94776373.58847
  22720977.500   119399663.30408  22720973.960    93038743.58846
  22282463.000   117095198.15809  22282458.840    91243024.33647
  21388324.980   112396464.37809  21388324.500    87581679.95148
 15 03 05 00 34  0.0000000  0  6G16G18G19G21G22G27
  20499319.000   107724674.78109  20499315.680    83941299.72348
  22123140.260   116257946.90509  22123137.280    90590634.65147
  23132213.080   121560624.25408  23132209.720    94722567.10046
  22734295.260   119469648.20808  22734291.680    93093277.26046
  22268339.360   117020976.93509  22268335.060    91185189.63547
  21380212.560   112353833.02309  21380212.000    87548460.72248
 15 03 05 00 34 30.0000000  0  6G16G18G19G21G22G27
  20494615.760   107699959.06409  20494612.460    83922040.72548
  22120117.080   116242060.70409  22120114.240    90578255.81447
  23119093.920   121491683.39708  23119090.680    94668846.99247
  22747640.160   119539775.71308  22747636.560    93147922.06747
  22254270.380   116947043.41809  22254266.040    91127579.13347
  21372128.400   112311350.09509  21372127.780    87515357.15848
 15 03 05 00 35  0.0000000  0  6G16G18G19G21G22G27
  20490001.680   107675711.96809  20489998.400    83903146.87849
  22117183.540   116226645.52209  22117180.880    90566243.98447
  23105996.180   121422854.76808  23105992.900    94615214.31147
  22761012.160   119610045.45708  22761008.520    93202677.68847
  22240256.840   116873401.65309  22240252.620    91070195.95848
  21364072.760   112269017.40809  21364072.160    87482370.64748
 15 03 05 00 35 30.0000000  0  6G16G18G19G21G22G27
  20485476.900   107651934.21409  20485473.620    83884618.75848
  22114339.700   116211701.45509  22114337.060    90554599.26347
  23092919.640   121354137.54908  23092916.400    94561668.45846
  22774410.760   119680454.81508  22774407.040    93257542.10746
  22226299.200   116800053.71509  22226295.200    91013041.73947
  21356045.600   112226834.46609  21356045.040    87449500.82448
 15 03 05 00 36  0.0000000  0  6G16G18G19G21G22G27
  20481041.220   107628624.93709  20481037.980    83866455.69148
  22111585.320   116197226.84309  22111582.620    90543320.35947
  23079863.980   121285529.66608  23079860.680    94508207.80146
  22787835.140   119750999.77308  22787831.300    93312512.19446
  22212397.520   116726999.72009  22212393.580    90956116.56947
  21348046.500   112184799.21109  21348046.060    87416746.09048
 15 03 05 00 36 30.0000000  0  6G16G18G19G21G22G27
  20476695.860   107605790.02909  20476692.640    83848662.25648
  22108921.420   116183227.32909  22108918.620    90532411.66147
  23066830.060   121217035.99608  23066826.660    94454836.13746
  22801285.800   119821682.87408  22801281.840    93367589.92547
  22198553.220   116654246.99109  22198549.160    90899426.14947
  21340076.460   112142916.52309  21340076.020    87384110.23548
 15 03 05 00 37  0.0000000  0  6G16G18G19G21G22G27
  20472440.840   107583429.54009  20472437.600    83831238.49148
  22106347.780   116169702.01309  22106344.900    90521872.46247
  23053817.540   121148654.48008  23053813.980    94401551.86747
  22814762.180   119892501.12208  22814758.120    93422772.95347
  22184766.440   116581796.29509  22184762.120    90842971.07248
  21332135.180   112101185.10709  21332134.720    87351592.25348
 15 03 05 00 37 30.0000000  0  6G16G18G19G21G22G27
  20468276.240   107561544.11209  20468272.920    83814184.91148
  22103864.400   116156650.96709  22103861.480    90511702.83847
  23040826.240   121080384.32208  23040822.680    94348354.39147
  22828263.860   119963452.40608  22828259.800    93478059.65647
  22171037.460   116509649.52209  22171032.860    90786752.83147
