     2.11           OBSERVATION DATA    G                   RINEX VERSION / TYPE
SPIDER V4,0,0,3554                      2015 04 15 03:35    PGM / RUN BY / DATE 
CABS                                                        MARKER NAME         
CABS                                                        MARKER NUMBER       
                                                            OBSERVER / AGENCY   
462287              LEICA GRX1200PRO    8.10/2.127          REC # / TYPE / VERS 
103298              LEIAT504                                ANT # / TYPE        
  5116912.3402   671231.6412  3737143.4301                  APPROX POSITION XYZ 
        0.0600        0.0000        0.0000                  ANTENNA: DELTA H/E/N
     1     1                                                WAVELENGTH FACT L1/2
     4    C1    L1    P2    L2                              # / TYPES OF OBSERV 
    30.000                                                  INTERVAL            
  2015    01    25    00    00    0.0000000     GPS         TIME OF FIRST OBS   
  2015    01    25    23    59   30.0000000     GPS         TIME OF LAST OBS    
    16                                                      LEAP SECONDS        
    30                                                      # OF SATELLITES     
   G 1   801   801   801   801                              PRN / # OF OBS      
   G 2   941   941   941   941                              PRN / # OF OBS      
   G 3   846   846   846   846                              PRN / # OF OBS      
   G 4   831   831   831   831                              PRN / # OF OBS      
   G 5   646   646   646   646                              PRN / # OF OBS      
   G 6   816   816   816   816                              PRN / # OF OBS      
   G 7   671   671   671   671                              PRN / # OF OBS      
   G 9   808   808   808   808                              PRN / # OF OBS      
   G10   752   752   752   752                              PRN / # OF OBS      
   G11   770   770   770   770                              PRN / # OF OBS      
   G12   836   836   836   836                              PRN / # OF OBS      
   G13   791   791   791   791                              PRN / # OF OBS      
   G14   950   950   950   950                              PRN / # OF OBS      
   G15   699   699   699   699                              PRN / # OF OBS      
   G16   659   659   659   659                              PRN / # OF OBS      
   G17   942   942   942   942                              PRN / # OF OBS      
   G18   899   899   899   899                              PRN / # OF OBS      
   G19   750   750   750   750                              PRN / # OF OBS      
   G20   825   825   825   825                              PRN / # OF OBS      
   G21   743   743   743   743                              PRN / # OF OBS      
   G22   657   657   657   657                              PRN / # OF OBS      
   G23   755   755   755   755                              PRN / # OF OBS      
   G24   817   817   817   817                              PRN / # OF OBS      
   G25   856   856   856   856                              PRN / # OF OBS      
   G27   792   792   792   792                              PRN / # OF OBS      
   G28   868   868   868   868                              PRN / # OF OBS      
   G29   784   784   784   784                              PRN / # OF OBS      
   G30   686   686   686   686                              PRN / # OF OBS      
   G31   868   868   868   868                              PRN / # OF OBS      
   G32   772   772   772   772                              PRN / # OF OBS      
BIT 2 OF LLI FLAGS DATA COLLECTED UNDER A/S CONDITION       COMMENT             
SNR is mapped to RINEX snr flag value [2-9]                 COMMENT             
Lx:     = 25dBHz -> 1; 26-27dBHz -> 2; 28-31dBHz -> 3       COMMENT             
       32-35dBHz -> 4; 36-38dBHz -> 5; 39-41dBHz -> 6       COMMENT             
       42-44dBHz -> 7; 45-48dBHz -> 8; >=49dBHz -> 9        COMMENT             
                                                            END OF HEADER       
 15 01 25 00 00  0.0000000  0  6G12G14G21G25G29G31
  23770566.180   124915236.04007  23770567.300    97336590.38945
  24261393.000   127494453.76306  24261395.560    99346326.27544
  22421052.160   117823465.49308  22421053.260    91810509.89147
  21085885.780   110807120.20808  21085889.880    86343243.10548
  20411805.280   107264844.05009  20411806.560    83583037.72949
  21153646.340   111163156.26009  21153646.780    86620644.55448
 15 01 25 00 00 30.0000000  0  6G12G14G21G25G29G31
  23784936.280   124990751.75906  23784937.460    97395433.80746
  24276804.920   127575443.69206  24276807.680    99409435.18144
  22406097.580   117744877.60208  22406098.480    91749272.57947
  21092770.600   110843299.89708  21092774.680    86371435.06548
  20418551.900   107300297.60709  20418553.180    83610663.87949
  21147328.900   111129958.15109  21147329.400    86594775.89848
 15 01 25 00 01  0.0000000  0  6G12G14G21G25G29G31
  23799332.720   125066405.55907  23799334.080    97454384.80545
  24292225.880   127656481.12905  24292228.700    99472581.09544
  22391197.220   117666575.02708  22391198.020    91688257.60046
  21099708.020   110879755.84108  21099712.060    86399842.28648
  20425354.300   107336044.42109  20425355.600    83638518.53149
  21141109.040   111097272.83409  21141109.580    86569306.82048
 15 01 25 00 01 30.0000000  0  6G12G14G21G25G29G31
  23813756.100   125142200.93507  23813757.460    97513446.09745
  24307656.040   127737566.61006  24307658.740    99535764.43144
  22376351.980   117588562.88508  22376352.760    91627468.92246
  21106698.640   110916491.58408  21106702.660    86428467.53048
  20432212.720   107372085.63209  20432214.060    83666602.58049
  21134987.560   111065104.41009  21134988.120    86544240.51848
 15 01 25 00 02  0.0000000  0  6G12G14G21G25G29G31
  23828206.080   125218135.48306  23828207.280    97572615.92345
  24323094.440   127818694.95405  24323097.160    99598981.18345
  22361561.920   117510841.15808  22361562.720    91566906.55947
  21113742.140   110953505.29008  21113746.120    86457309.36448
  20439126.360   107408417.13209  20439127.720    83694912.83149
  21128964.320   111033452.29109  21128964.900    86519576.52948
 15 01 25 00 02 30.0000000  0  6G12G14G21G25G29G31
  23842683.700   125294214.93007  23842684.840    97631898.58945
  24338541.540   127899868.90605  24338544.260    99662233.45344
  22346828.600   117433417.86107  22346829.460    91506576.72846
  21120839.700   110990803.26208  21120843.660    86486372.69648
  20446096.160   107445043.63109  20446097.520    83723452.95649
  21123040.800   111002323.97309  21123041.360    86495320.69448
 15 01 25 00 03  0.0000000  0  6G12G14G21G25G29G31
  23857188.740   125370439.78706  23857189.980    97691294.55946
  24353996.780   127981085.48405  24353999.440    99725518.92945
  22332152.540   117356295.21808  22332153.460    91446481.17647
  21127991.520   111028386.14808  21127995.440    86515658.05048
  20453121.820   107481963.56609  20453123.160    83752221.73049
  21117217.300   110971721.10609  21117217.800    86471474.30248
 15 01 25 00 03 30.0000000  0  6G12G14G21G25G29G31
  23871720.860   125446807.13206  23871722.220    97750801.60146
  24369459.160   128062339.79405  24369461.600    99788833.79144
  22317533.740   117279472.72108  22317534.580    91386619.50947
  21135197.120   111066251.96608  21135201.020    86545163.86848
  20460202.500   107519172.89309  20460203.880    83781216.00349
  21111493.580   110941642.65709  21111494.040    86448036.54648
 15 01 25 00 04  0.0000000  0  6G12G14G21G25G29G31
  23886279.860   125523315.79007  23886281.420    97810418.70146
  24384927.860   128143627.67005  24384930.320    99852174.79744
  22302972.260   117202951.17308  22302973.020    91326992.33947
  21142456.300   111104399.67708  21142460.260    86574889.33448
  20467337.700   107556668.77409  20467339.100    83810433.56749
  21105869.680   110912088.68709  21105870.100    86425007.47848
 15 01 25 00 04 30.0000000  0  6G12G14G21G25G29G31
  23900865.980   125599966.85706  23900867.700    97870146.78446
  24400402.440   128224946.69305  24400404.940    99915540.11544
  22288468.740   117126734.19108  22288469.480    91267602.49947
  21149769.380   111142830.70708  21149773.440    86604835.57648
  20474527.320   107594450.67909  20474528.780    83839874.00449
  21100346.000   110883061.46109  21100346.400    86402388.86248
 15 01 25 00 05  0.0000000  0  6G12G14G21G25G29G31
  23915479.240   125676759.78307  23915481.020    97929985.40946
  24415882.240   128306293.66905  24415884.900    99978927.17844
  22274023.380   117050822.74908  22274024.080    91208450.73947
  21157136.420   111181545.15308  21157140.560    86635002.66648
  20481771.000   107632516.53509  20481772.460    83869535.71049
  21094922.760   110854562.18409  21094923.160    86380181.62848
 15 01 25 00 05 30.0000000  0  6G12G14G21G25G29G31
  23930119.580   125753695.27106  23930121.340    97989935.10945
  24431366.720   128387666.27505  24431369.760   100042334.23544
  22259636.620   116975219.92808  22259637.380    91149539.45447
  21164557.620   111220543.88008  21164561.760    86665391.27648
  20489068.520   107670865.20609  20489069.960    83899417.78549
  21089600.320   110826592.45809  21089600.720    86358387.03448
 15 01 25 00 06  0.0000000  0  6G12G14G21G25G29G31
  23944786.780   125830771.62707  23944788.400    98049994.61445
  24446855.400   128469060.45005  24446858.780   100105758.05043
  22245308.580   116899926.37408  22245309.500    91090869.14947
  21172032.800   111259825.93208  21172036.900    86696000.65348
  20496419.400   107709494.21809  20496420.800    83929518.31049
  21084378.720   110799152.43609  21084379.080    86337005.19049
 15 01 25 00 06 30.0000000  0  6G12G14G21G25G29G31
  23959480.560   125907987.99106  23959482.180    98110163.19545
  24462347.660   128550472.59205  24462351.320   100169195.90944
  22231039.500   116824943.02408  22231040.600    91032440.56147
  21179561.860   111299390.94408  21179565.880    86726830.51648
  20503823.120   107748401.00309  20503824.480    83959835.28349
  21079258.080   110772242.93909  21079258.400    86316036.74748
 15 01 25 00 07  0.0000000  0  6G12G14G21G25G29G31
  23974201.460   125985347.22606  23974203.060    98170443.09045
  24477843.540   128631902.62705  24477847.040   100232647.70244
  22216830.520   116750275.16608  22216831.800    90974257.82547
  21187145.460   111339242.44308  21187149.360    86757883.61848
  20511280.020   107787587.14309  20511281.360    83990369.93949
  21074239.100   110745867.93209  21074239.440    86295484.79449
 15 01 25 00 07 30.0000000  0  6G12G14G21G25G29G31
  23988949.300   126062848.34506  23988951.020    98230833.55046
  24493342.160   128713346.14205  24493345.600   100296109.98744
  22202681.900   116675923.59708  22202683.140    90916321.55247
  21194783.360   111379379.39508  21194787.180    86789159.15648
  20518789.500   107827049.76609  20518790.880    84021120.03749
  21069321.820   110720027.52509  21069322.180    86275349.40949
 15 01 25 00 08  0.0000000  0  6G12G14G21G25G29G31
  24003724.140   126140491.47306  24003726.100    98291334.66045
  24508842.820   128794800.82105  24508846.180   100359580.94645
  22188593.960   116601890.29508  22188595.000    90858633.27947
  21202475.680   111419802.42508  21202479.420    86820657.60848
  20526351.280   107866787.25109  20526352.680    84052084.30749
  21064506.560   110694723.41009  21064506.980    86255631.90949
 15 01 25 00 08 30.0000000  0  6G12G14G21G25G29G31
  24018525.700   126218274.08506  24018527.760    98351944.47945
  24524344.400   128876261.22705  24524347.820   100423056.35645
  22174566.620   116528175.16408  22174567.420    90801192.94047
  21210222.000   111460509.57808  21210225.740    86852377.45648
  20533964.700   107906796.01709  20533966.120    84083259.96349
  21059793.100   110669954.26809  21059793.580    86236331.27249
 15 01 25 00 09  0.0000000  0  5G12G21G25G29G31
  24033354.960   126296202.07307  24033356.880    98412667.56444
  22160601.280   116454786.20808  22160601.940    90744006.76147
  21218023.640   111501507.36508  21218027.380    86884323.77248
  20541630.660   107947080.74609  20541632.060    84114650.66349
  21055182.840   110645727.40309  21055183.380    86217453.19649
 15 01 25 00 09 30.0000000  0  5G12G21G25G29G31
  24048209.720   126374263.07106  24048211.340    98473494.37345
  22146695.880   116381712.93808  22146696.540    90687066.55647
  21225878.260   111542783.72908  21225882.060    86916487.15448
  20549346.380   107987627.12809  20549347.780    84146245.24249
  21050673.700   110622031.75209  21050674.280    86198989.04648
 15 01 25 00 10  0.0000000  0  5G12G21G25G29G31
  24063092.020   126452469.55207  24063093.600    98534434.39046
  22132853.240   116308969.93308  22132854.000    90630383.71047
  21233788.360   111584351.56708  21233792.200    86948877.66548
  20557113.960   108028445.93409  20557115.340    84178052.10249
  21046268.280   110598880.98209  21046268.860    86180949.47949
 15 01 25 00 10 30.0000000  0  5G12G21G25G29G31
  24078000.000   126530809.97607  24078001.500    98595478.88245
  22119071.640   116236547.63808  22119072.500    90573950.75347
  21241751.800   111626199.60608  21241755.660    86981486.51848
  20564930.960   108069524.64909  20564932.340    84210061.48849
  21041964.540   110576264.43909  21041965.100    86163326.19949
 15 01 25 00 11  0.0000000  0  5G12G21G25G29G31
  24092935.720   126609297.57506  24092937.220    98656637.98345
  22105354.060   116164461.73108  22105354.980    90517779.92247
  21249771.240   111668341.77908  21249775.080    87014324.56548
  20572799.740   108110875.27709  20572801.100    84242282.75149
  21037765.360   110554197.32609  21037765.880    86146131.03649
 15 01 25 00 11 30.0000000  0  5G12G21G25G29G31
  24107898.000   126687924.84007  24107899.480    98717905.98945
  22091699.480   116092706.34008  22091700.380    90461866.64647
  21257845.220   111710770.81808  21257849.120    87047386.13948
  20580718.420   108152488.24509  20580719.800    84274708.43849
  21033669.420   110532672.94809  21033669.920    86129358.79349
 15 01 25 00 12  0.0000000  0  5G12G21G25G29G31
  24122886.600   126766690.32006  24122888.020    98779281.73545
  22078108.040   116021282.44608  22078108.860    90406211.67747
  21265973.680   111753486.11808  21265977.640    87080670.77248
  20588686.660   108194361.45309  20588688.020    84307336.91049
  21029676.760   110511691.35409  21029677.240    86113009.49549
 15 01 25 00 12 30.0000000  0  5G12G21G25G29G31
  24137902.080   126845597.96506  24137903.700    98840768.16745
  22064580.760   115950195.49808  22064581.440    90350819.26247
  21274157.340   111796491.61008  21274161.300    87114181.52748
  20596704.800   108236496.66709  20596706.120    84340169.53949
  21025788.200   110491256.99409  21025788.720    86097086.60949
 15 01 25 00 13  0.0000000  0  5G12G21G25G29G31
  24152944.080   126924644.05307  24152945.720    98902362.50145
  22051117.220   115879444.01808  22051117.880    90295688.25147
  21282395.640   111839784.27108  21282399.620    87147916.05248
  20604771.840   108278889.11909  20604773.120    84373202.61749
  21022003.400   110471367.90409  21022003.960    86081588.61749
 15 01 25 00 13 30.0000000  0  5G12G21G25G29G31
  24168011.920   127003825.17806  24168013.440    98964062.11145
  22037717.100   115809026.43208  22037717.900    90240817.41547
  21290687.960   111883360.84608  21290691.980    87181871.80448
  20612886.780   108321533.52409  20612888.060    84406432.02049
  21018321.900   110452021.59109  21018322.500    86066513.56349
 15 01 25 00 14  0.0000000  0  5G12G21G25G29G31
  24183106.560   127083148.66106  24183108.120    99025872.51544
  22024382.260   115738952.01108  22024383.220    90186213.97647
  21299035.840   111927229.24108  21299039.860    87216054.94248
  20621050.840   108364435.98309  20621052.100    84439862.49949
  21014745.380   110433226.64609  21014745.940    86051868.15049
 15 01 25 00 14 30.0000000  0  5G12G21G25G29G31
  24198228.000   127162612.23607  24198229.640    99087792.18845
  22011112.760   115669220.73608  22011113.860    90131877.92747
  21307438.920   111971387.78308  21307442.960    87250464.17948
  20629263.460   108407593.47209  20629264.720    84473491.70749
  21011273.600   110414982.10609  21011274.120    86037651.61949
 15 01 25 00 15  0.0000000  0  5G12G21G25G29G31
  24213374.900   127242208.93406  24213376.460    99149815.58945
  21997907.660   115599827.48508  21997908.800    90077805.27347
  21315895.980   112015829.85908  21315900.020    87285094.35848
  20637522.920   108450997.09109  20637524.180    84507312.70749
  21007905.380   110397281.71009  21007905.840    86023859.10049
 15 01 25 00 15 30.0000000  0  5G12G21G25G29G31
  24228549.440   127321952.39206  24228551.080    99211953.31046
  21984769.940   115530788.05408  21984770.980    90024008.32147
  21324409.660   112060569.56008  21324413.720    87319956.44848
  20645831.600   108494659.40709  20645832.880    84541335.28449
  21004643.540   110380140.55909  21004643.960    86010502.35649
 15 01 25 00 16  0.0000000  0  5G12G21G25G29G31
  24243750.140   127401833.51306  24243751.960    99274198.31945
  21971698.180   115462095.47508  21971699.160    89970481.64747
  21332978.320   112105598.27508  21332982.420    87355043.75548
  20654187.420   108538569.54009  20654188.680    84575550.97049
  21001486.560   110363550.39109  21001486.960    85997574.94849
 15 01 25 00 16 30.0000000  0  5G12G21G25G29G31
  24258976.860   127481850.81106  24258978.740    99336549.42545
  21958692.560   115393750.35208  21958693.500    89917225.71347
  21341601.860   112150915.32608  21341606.020    87390355.71948
  20662589.980   108582725.41909  20662591.260    84609958.14349
  20998434.480   110347511.57409  20998434.860    85985077.16049
 15 01 25 00 17  0.0000000  0  5G12G21G25G29G31
  24274229.400   127562003.48106  24274231.280    99399006.06445
  21945753.080   115325752.95508  21945753.980    89864240.74147
  21350280.000   112196519.24908  21350284.220    87425891.23448
  20671038.640   108627123.61409  20671039.960    84644554.12749
  20995487.060   110332022.76609  20995487.440    85973007.95749
 15 01 25 00 17 30.0000000  0  5G12G21G25G29G31
  24289508.280   127642293.88906  24289509.980    99461569.99945
  21932880.740   115258108.22308  21932881.560    89811530.56647
  21359013.480   112242413.70908  21359017.700    87461653.14348
  20679533.840   108671766.22509  20679535.180    84679340.57549
  20992645.140   110317088.47109  20992645.520    85961370.83849
 15 01 25 00 18  0.0000000  0  5G12G21G25G29G31
  24304813.500   127722722.49006  24304814.980    99524241.59845
  21920075.960   115190818.53408  21920076.700    89759097.05547
  21367802.360   112288599.16508  21367806.500    87497641.79148
  20688075.260   108716651.61409  20688076.600    84714316.20349
  20989908.960   110302709.84809  20989909.360    85950166.71249
 15 01 25 00 18 30.0000000  0  5G12G21G25G29G31
  24320144.820   127803288.16706  24320146.060    99587020.02544
  21907338.800   115123884.27008  21907339.500    89706940.49547
  21376646.520   112335075.15308  21376650.520    87533856.82548
  20696662.500   108761777.54409  20696663.780    84749479.26149
  20987278.480   110288886.68709  20987278.920    85939395.41849
 15 01 25 00 19  0.0000000  0  5G12G21G25G29G31
  24335502.180   127883991.08706  24335503.340    99649905.39845
  21894669.820   115057308.62008  21894670.560    89655063.37947
  21385546.100   112381842.56008  21385550.000    87570298.94148
  20705295.360   108807143.43808  20705296.620    84784829.30849
  20984754.020   110275620.37409  20984754.440    85929058.03049
 15 01 25 00 19 30.0000000  0  5G12G21G25G29G31
  24350885.580   127964831.18407  24350886.820    99712897.65545
  21882069.320   114991092.72908  21882070.080    89603466.59447
  21394501.040   112428901.17908  21394504.940    87606967.97648
  20713973.440   108852747.10308  20713974.700    84820364.62849
  20982335.660   110262911.66709  20982336.040    85919155.13449
 15 01 25 00 20  0.0000000  0  5G12G21G25G29G31
  24366295.100   128045809.15207  24366296.540    99775997.37945
  21869537.840   114925239.48908  21869538.640    89552152.38947
  21403511.740   112476252.73008  21403515.640    87643865.27448
  20722696.760   108898588.66708  20722698.060    84856085.32349
  20980023.780   110250762.56109  20980024.140    85909688.29849
 15 01 25 00 20 30.0000000  0  5G12G21G25G29G31
  24381730.160   128126920.82206  24381731.580    99839201.29745
  21857074.880   114859746.34108  21857075.720    89501118.77647
  21412577.380   112523893.13908  21412581.360    87680987.65348
  20731464.220   108944662.38008  20731465.600    84891986.91549
  20977817.700   110239169.44309  20977818.040    85900654.70249
 15 01 25 00 21  0.0000000  0  5G12G21G25G29G31
  24397191.160   128208168.68306  24397192.560    99902511.33645
  21844681.180   114794617.08208  21844682.040    89450368.71647
  21421698.460   112571824.90308  21421702.540    87718337.06148
  20740275.960   108990968.84608  20740277.420    84928069.86549
  20975717.960   110228135.30609  20975718.320    85892056.67349
 15 01 25 00 21 30.0000000  0  5G12G21G25G29G31
  24412678.300   128289554.37906  24412679.720    99965928.73945
  21832357.500   114729855.79808  21832358.360    89399905.38447
  21430875.520   112620050.67908  21430879.640    87755915.58448
  20749132.280   109037509.35808  20749133.800    84964335.19549
  20973725.160   110217663.25209  20973725.560    85883896.62949
 15 01 25 00 22  0.0000000  0  5G12G21G25G29G31
  24428191.140   128371075.09306  24428192.600   100029451.33844
  21820103.760   114665462.21508  21820104.620    89349728.57847
  21440108.140   112668568.12008  21440112.240    87793721.37848
  20758032.400   109084279.58608  20758033.880    85000779.52549
  20971838.960   110207751.53809  20971839.380    85876173.21349
 15 01 25 00 22 30.0000000  0  5G12G21G25G29G31
  24443729.600   128452730.20406  24443731.020   100093078.67745
  21807920.200   114601437.17508  21807921.040    89299838.94947
  21449396.180   112717376.74208  21449400.200    87831754.05448
  20766975.860   109131277.44708  20766977.300    85037401.23649
  20970059.320   110198399.84509  20970059.800    85868886.17849
 15 01 25 00 23  0.0000000  0  5G12G21G25G29G31
  24459293.380   128534517.66806  24459294.680   100156809.15045
  21795806.780   114537780.67908  21795807.560    89250236.49247
  21458739.400   112766475.36408  21458743.300    87870012.71448
  20775962.020   109178499.87108  20775963.420    85074197.92448
  20968386.160   110189607.39609  20968386.660    85862034.91449
 15 01 25 00 23 30.0000000  0  5G12G21G25G29G31
  24474883.240   128616442.43406  24474884.400   100220646.64645
  21783764.740   114474499.02108  21783765.420    89200926.11847
  21468138.760   112815868.93208  21468142.560    87908501.19648
  20784991.580   109225950.34508  20784992.940    85111172.31449
  20966820.560   110181379.93609  20966821.040    85855623.90349
 15 01 25 00 24  0.0000000  0  5G12G21G25G29G31
  24490498.300   128698499.76506  24490499.340   100284587.41244
  21771793.460   114411589.45708  21771794.080    89151905.69147
  21477593.380   112865552.86208  21477597.080    87947215.92448
  20794063.300   109273622.34208  20794064.620    85148319.32548
  20965361.640   110173713.02009  20965362.100    85849649.67949
 15 01 25 00 24 30.0000000  0  5G12G21G25G29G31
  24506138.900   128780691.88906  24506139.920   100348633.19344
  21759893.740   114349056.00408  21759894.380    89103178.33947
  21487103.720   112915530.05708  21487107.400    87986159.17348
  20803177.540   109321517.72608  20803178.800    85185640.39748
  20964010.000   110166609.83609  20964010.420    85844114.72249
 15 01 25 00 25  0.0000000  0  5G12G21G25G29G31
  24521804.840   128863017.24306  24521805.840   100412782.81244
  21748065.800   114286899.59108  21748066.460    89054744.78148
  21496669.680   112965800.01508  21496673.460    88025330.54648
  20812333.800   109369633.95008  20812335.000    85223133.55648
  20962765.620   110160070.43909  20962766.020    85839019.08349
 15 01 25 00 25 30.0000000  0  5G12G21G25G29G31
  24537496.420   128945477.07106  24537497.380   100477037.21145
  21736310.080   114225122.54508  21736310.720    89006606.83648
  21506291.600   113016363.85608  21506295.420    88064730.92648
  20821531.960   109417970.41008  20821533.120    85260798.32648
  20961628.680   110154096.04909  20961629.160    85834363.71149
 15 01 25 00 26  0.0000000  0  5G12G21G25G29G31
  24553213.100   129028068.92106  24553214.100   100541394.50744
  21724626.500   114163724.90808  21724627.180    88958764.53348
  21515969.020   113067219.40108  21515972.880    88104358.61548
  20830771.340   109466523.65408  20830772.480    85298632.02448
  20960598.880   110148684.83409  20960599.460    85830147.17649
 15 01 25 00 26 30.0000000  0  5G12G21G25G29G31
  24568955.340   129110795.42806  24568956.420   100605856.69244
  21713015.820   114102710.51908  21713016.580    88911220.87048
  21525702.580   113118369.72308  21525706.520    88144215.99248
  20840052.220   109515295.08108  20840053.400    85336635.73449
  20959676.880   110143840.00409  20959677.560    85826371.97949
 15 01 25 00 27  0.0000000  0  5G12G21G25G29G31
  24584722.400   129193652.07506  24584723.580   100670420.31245
  21701477.580   114042076.84808  21701478.400    88863973.86648
  21535491.540   113169810.71108  21535495.500    88184299.86648
  20849373.540   109564279.06408  20849374.780    85374805.06748
  20958862.080   110139558.15109  20958862.760    85823035.46249
 15 01 25 00 27 30.0000000  0  5G12G21G25G29G31
  24600514.640   129276640.74806  24600515.900   100735086.78945
  21690012.600   113981828.07708  21690013.440    88817026.77948
  21545336.340   113221545.23908  21545340.360    88224612.47648
  20858735.460   109613476.38009  20858736.740    85413140.63648
  20958154.960   110135842.03709  20958155.620    85820139.78749
 15 01 25 00 28  0.0000000  0  5G12G21G25G29G31
  24616331.680   129359759.58906  24616332.860   100799854.70045
  21678620.800   113921963.73708  21678621.620    88770379.25648
  21555236.540   113273571.28908  21555240.660    88265152.24048
  20868137.420   109662884.00308  20868138.700    85451640.07648
  20957555.220   110132690.20409  20957555.840    85817683.80549
 15 01 25 00 28 30.0000000  0  5G12G21G25G29G31
  24632174.020   129443012.10506  24632175.260   100864726.77044
  21667302.980   113862488.44408  21667303.800    88724034.88248
  21565192.900   113325892.63108  21565197.180    88305922.10948
  20877579.800   109712504.21508  20877581.100    85490305.17548
  20957063.620   110130106.53609  20957064.180    85815670.54949
 15 01 25 00 29  0.0000000  0  5G12G21G25G29G31
  24648041.120   129526394.87706  24648042.520   100929700.35345
  21656059.180   113803402.07108  21656060.020    88677993.56748
  21575205.000   113378507.06108  21575209.420    88346920.35048
  20887061.860   109762332.67709  20887063.120    85529132.54648
  20956679.720   110128088.91309  20956680.240    85814098.36749
 15 01 25 00 29 30.0000000  0  5G12G21G25G29G31
  24663933.000   129609907.17606  24663934.420   100994774.86745
  21644889.440   113744704.70908  21644890.280    88632255.37148
  21585272.780   113431413.53108  21585277.180    88388146.15648
  20896583.140   109812367.34908  20896584.420    85568120.60048
  20956403.400   110126636.73109  20956403.900    85812966.79049
 15 01 25 00 30  0.0000000  0  5G12G21G25G29G31
  24679849.920   129693550.49306  24679851.280   101059951.48044
  21633794.280   113686399.28208  21633795.120    88586822.57948
  21595396.580   113484613.89108  21595400.840    88429600.95448
  20906143.660   109862608.02909  20906144.940    85607269.18448
  20956235.000   110125751.87309  20956235.520    85812277.28849
 15 01 25 00 30 30.0000000  0  5G12G21G25G29G31
  24695791.320   129777322.08506  24695792.480   101125228.05145
  21622773.560   113628485.07008  21622774.360    88541694.63048
  21605575.960   113538106.14008  21605580.060    88471283.20948
  20915742.780   109913051.77908  20915744.100    85646576.00048
  20956174.200   110125432.42409  20956174.740    85812028.36349
 15 01 25 00 31  0.0000000  0  5G12G21G25G29G31
  24711757.800   129861225.37706  24711758.840   101190607.25444
  21611828.380   113570968.01308  21611829.180    88496876.15048
  21615811.600   113591894.26608  21615815.620    88513196.01648
  20925380.980   109963700.99308  20925382.340    85686042.91848
  20956221.760   110125682.43209  20956222.320    85812223.17349
 15 01 25 00 31 30.0000000  0  5G12G21G25G29G31
  24727748.880   129945258.94306  24727750.040   101256087.92245
  21600958.800   113513848.21308  21600959.620    88452367.22348
  21626103.240   113645977.28608  21626107.300    88555338.61548
  20935057.800   110014553.27508  20935059.200    85725668.06748
  20956377.620   110126501.70009  20956378.220    85812861.55949
 15 01 25 00 32  0.0000000  0  5G12G21G25G29G31
  24743763.920   130029418.94606  24743765.320   101321667.14345
  21590164.320   113457122.94608  21590165.160    88408165.72248
  21636450.140   113700350.98808  21636454.300    88597707.72348
  20944772.160   110065602.68708  20944773.600    85765446.82348
  20956640.960   110127885.57709  20956641.580    85813939.90949
 15 01 25 00 32 30.0000000  0  4G21G25G29G31
  21579427.860   113400702.34208  21579428.720    88364201.62548
  21646835.100   113754924.69208  21646839.300    88640232.68148
  20954506.480   110116756.94108  20954507.960    85805307.27748
  20956994.560   110129743.54209  20956995.160    85815387.66849
 15 01 25 00 33  0.0000000  0  4G21G25G29G31
  21568789.820   113344798.89608  21568790.700    88320640.50948
  21657298.360   113809909.68608  21657302.560    88683078.11548
  20964300.780   110168226.39808  20964302.280    85845413.34148
  20957478.560   110132286.70109  20957479.100    85817369.34049
 15 01 25 00 33 30.0000000  0  4G21G25G29G31
  21558223.720   113289273.41308  21558224.580    88277373.90548
  21667813.120   113865165.01508  21667817.260    88726134.19548
  20974127.920   110219868.67208  20974129.460    85885654.07048
  20958066.180   110135374.43609  20958066.660    85819775.36749
 15 01 25 00 34  0.0000000  0  4G21G25G29G31
  21547733.460   113234146.74908  21547734.340    88234418.07348
  21678383.040   113920709.97808  21678387.080    88769415.96348
  20983991.360   110271701.46808  20983992.900    85926043.25748
  20958761.120   110139026.16609  20958761.540    85822620.86149
 15 01 25 00 34 30.0000000  0  4G21G25G29G31
  21537321.560   113179431.91808  21537322.440    88191783.14648
  21689010.360   113976556.61408  21689014.280    88812932.81047
  20993893.060   110323735.13908  20993894.600    85966588.97148
  20959565.680   110143253.93909  20959566.060    85825915.22349
 15 01 25 00 35  0.0000000  0  4G21G25G29G31
  21526988.760   113125132.90308  21526989.640    88149472.23648
  21699695.520   114032707.70908  21699699.460    88856686.89848
  21003833.360   110375971.52408  21003834.860    86007292.64348
  20960480.380   110148060.73009  20960480.760    85829660.77149
 15 01 25 00 35 30.0000000  0  4G21G25G29G31
  21516734.000   113071244.08308  21516734.880    88107480.95848
  21710437.280   114089156.31908  21710441.300    88900672.81448
  21013810.580   110428401.76408  21013812.000    86048147.37048
  20961503.800   110153439.14409  20961504.240    85833851.73249
 15 01 25 00 36  0.0000000  0  4G21G25G29G31
  21506555.460   113017755.55808  21506556.320    88065801.60448
  21721233.520   114145891.17508  21721237.580    88944881.77448
  21023822.380   110481013.78408  21023823.720    86089143.74748
  20962633.900   110159378.10109  20962634.400    85838479.48149
 15 01 25 00 36 30.0000000  0  4G21G25G29G31
  21496454.300   112964673.40708  21496455.100    88024438.90148
  21732085.240   114202917.47208  21732089.300    88989317.84148
  21033869.420   110533811.09908  21033870.700    86130284.50648
  20963871.720   110165883.17009  20963872.260    85843548.35149
 15 01 25 00 37  0.0000000  0  4G21G25G29G31
  21486428.140   112911985.43308  21486428.860    87983383.34148
  21742989.880   114260221.70508  21742993.940    89033970.47448
  21043948.840   110586778.76208  21043950.100    86171558.01148
  20965214.560   110172940.06509  20965215.140    85849047.21849
 15 01 25 00 37 30.0000000  0  4G21G25G29G31
  21476477.500   112859694.60608  21476478.240    87942637.25648
  21753947.660   114317805.10408  21753951.780    89078840.64348
  21054060.620   110639916.77908  21054061.920    86212964.25048
  20966662.820   110180550.65209  20966663.400    85854977.53349
 15 01 25 00 38  0.0000000  0  4G21G25G29G31
  21466606.560   112807822.62108  21466607.320    87902217.53448
  21764962.520   114375688.20308  21764966.680    89123944.34648
  21064208.580   110693244.93408  21064209.940    86254518.65148
  20968220.240   110188734.74409  20968220.780    85861354.74049
 15 01 25 00 38 30.0000000  0  4G21G25G29G31
  21456814.980   112756367.91308  21456815.820    87862122.96648
  21776033.940   114433868.49008  21776038.180    89169279.61648
  21074391.940   110746759.05208  21074393.340    86296217.95748
  20969886.340   110197489.95709  20969886.860    85868176.97749
 15 01 25 00 39  0.0000000  0  4G21G25G29G31
  21447103.220   112705332.47208  21447104.100    87822355.09648
  21787162.040   114492346.54108  21787166.320    89214846.91848
  21084610.620   110800458.62008  21084612.020    86338061.77448
  20971661.260   110206816.88309  20971661.740    85875444.71449
 15 01 25 00 39 30.0000000  0  4G21G25G29G31
  21437471.220   112654715.94908  21437472.100    87782913.66048
  21798346.540   114551120.85408  21798350.800    89260645.07848
  21094864.000   110854340.60308  21094865.420    86380047.73348
  20973544.580   110216713.75709  20973545.060    85883156.55849
 15 01 25 00 40  0.0000000  0  4G21G25G29G31
  21427918.320   112604515.06008  21427919.140    87743796.09548
  21809586.580   114610187.22208  21809590.820    89306670.81148
  21105151.000   110908399.40308  21105152.440    86422171.47148
  20975535.580   110227176.40609  20975536.040    85891309.26549
 15 01 25 00 40 30.0000000  0  4G21G25G29G31
  21418444.220   112554728.28908  21418445.000    87705001.22148
  21820881.620   114669542.64508  21820885.820    89352921.78448
  21115470.840   110962630.73308  21115472.320    86464429.64848
  20977633.600   110238201.59909  20977634.080    85899900.31749
 15 01 25 00 41  0.0000000  0  4G21G25G29G31
  21409050.200   112505362.31308  21409050.960    87666534.23648
  21832232.760   114729192.83608  21832236.880    89399402.44248
  21125824.420   111017039.36808  21125825.940    86506825.98148
  20979839.660   110249794.68609  20979840.160    85908933.88749
 15 01 25 00 41 30.0000000  0  4G21G25G29G31
  21399737.560   112456424.20608  21399738.340    87628400.66148
  21843640.960   114789143.24308  21843645.020    89446117.02248
  21136212.560   111071629.56708  21136214.180    86549363.79948
  20982154.840   110261961.04909  20982155.360    85918414.16249
 15 01 25 00 42  0.0000000  0  4G21G25G29G31
  21390504.800   112407905.57808  21390505.580    87590593.94848
  21855104.460   114849384.75408  21855108.500    89493058.44147
  21146633.340   111126391.04108  21146634.980    86592035.07148
  20984577.400   110274691.79009  20984577.920    85928334.21149
 15 01 25 00 42 30.0000000  0  4G21G25G29G31
  21381352.840   112359811.64308  21381353.620    87553118.16748
  21866624.080   114909921.00508  21866628.080    89540229.52147
  21157087.240   111181326.46408  21157088.900    86634841.88848
  20987107.920   110287989.62609  20987108.420    85938696.15749
 15 01 25 00 43  0.0000000  0  4G21G25G29G31
  21372281.460   112312141.13808  21372282.200    87515972.32948
  21878199.340   114970749.62208  21878203.340    89587628.43847
  21167573.580   111236432.20608  21167575.220    86677781.42748
  20989745.880   110301852.05009  20989746.380    85949498.04649
 15 01 25 00 43 30.0000000  0  4G21G25G29G31
  21363290.380   112264892.71208  21363291.100    87479155.38448
  21889829.800   115031868.29408  21889833.820    89635253.36047
  21178091.600   111291704.40608  21178093.180    86720850.67248
  20992490.800   110316276.64609  20992491.320    85960737.98549
 15 01 25 00 44  0.0000000  0  4G21G25G29G31
  21354380.060   112218068.68308  21354380.740    87442669.13848
  21901515.680   115093278.21508  21901519.740    89683105.24147
  21188641.320   111347143.25708  21188642.840    86764049.77448
  20995342.840   110331264.27309  20995343.380    85972416.64549
 15 01 25 00 44 30.0000000  0  4G21G25G29G31
  21345548.960   112171661.02808  21345549.620    87406507.33948
  21913255.340   115154970.56308  21913259.440    89731177.19047
  21199220.820   111402738.81808  21199222.320    86807370.98748
  20998300.320   110346805.90909  20998300.880    85984527.00549
 15 01 25 00 45  0.0000000  0  4G21G25G29G31
  21336800.460   112125687.42708  21336801.100    87370683.77048
  21925051.720   115216961.42408  21925055.920    89779481.73447
  21209832.980   111458506.16108  21209834.500    86850826.04748
  21001366.260   110362917.56409  21001366.840    85997081.53149
 15 01 25 00 45 30.0000000  0  4G21G25G29G31
  21328131.960   112080134.40908  21328132.600    87335187.92248
  21936902.140   115279236.03508  21936906.400    89828007.38747
  21220474.820   111514429.30008  21220476.380    86894402.51548
  21004537.780   110379583.89809  21004538.360    86010068.28549
 15 01 25 00 46  0.0000000  0  4G21G25G29G31
  21319544.980   112035009.82208  21319545.680    87300025.91448
  21948807.960   115341801.25508  21948812.160    89876759.48647
  21231147.460   111570514.34908  21231149.020    86938105.14848
  21007816.020   110396811.19009  21007816.620    86023492.14249
 15 01 25 00 46 30.0000000  0  4G21G25G29G31
  21311041.080   111990321.60208  21311041.800    87265203.93148
  21960770.440   115404664.15208  21960774.520    89925743.53947
  21241852.040   111626767.15008  21241853.560    86981938.49148
  21011202.320   110414606.41309  21011202.920    86037358.54649
 15 01 25 00 47  0.0000000  0  4G21G25G29G31
  21302618.100   111946058.59108  21302618.880    87230713.28548
  21972787.220   115467812.28108  21972791.140    89974949.85547
  21252585.960   111683173.97208  21252587.400    87025891.85148
  21014694.240   110432956.61409  21014694.840    86051657.39349
 15 01 25 00 47 30.0000000  0  4G21G25G29G31
  21294278.280   111902232.48508  21294279.080    87196563.08148
  21984860.280   115531256.21208  21984864.100    90024386.65547
  21263351.040   111739744.66608  21263352.420    87069972.90148
  21018293.740   110451872.05109  21018294.320    86066396.68049
 15 01 25 00 48  0.0000000  0  4G21G25G29G31
  21286020.340   111858836.58708  21286021.120    87162748.10748
  21996988.220   115594988.56708  21996991.980    90074048.21747
  21274145.680   111796470.83708  21274147.020    87114175.10048
  21021999.360   110471345.29909  21021999.920    86081570.62249
 15 01 25 00 48 30.0000000  0  4G21G25G29G31
  21277845.680   111815878.12708  21277846.400    87129274.00048
  22009172.060   115659015.09408  22009175.880    90123939.00547
  21284970.800   111853357.19508  21284972.120    87158502.12648
  21025812.040   110491381.03709  21025812.600    86097182.87649
 15 01 25 00 49  0.0000000  0  4G21G25G29G31
  21269753.240   111773351.82408  21269753.880    87096136.63748
  22021410.660   115723329.70208  22021414.600    90174054.26747
  21295824.980   111910396.30108  21295826.280    87202948.17148
  21029730.560   110511973.07409  21029731.160    86113228.60649
 15 01 25 00 49 30.0000000  0  4G21G25G29G31
  21261743.160   111731258.38808  21261743.740    87063336.56948
  22033703.960   115787931.86308  22033708.040    90224393.61447
  21306708.060   111967587.30708  21306709.320    87247512.58448
  21033754.800   110533120.58209  21033755.440    86129707.17949
 15 01 25 00 50  0.0000000  0  5G16G21G25G29G31
  24572913.120   129131531.48806  24572912.400   100621968.75445
  21253816.160   111689601.84008  21253816.720    87030876.92848
  22046052.620   115852824.63308  22046056.760    90274959.39247
  21317620.380   112024932.00108  21317621.620    87292196.75648
  21037885.220   110554825.96809  21037885.860    86146620.46549
 15 01 25 00 50 30.0000000  0  5G16G21G25G29G31
  24555609.860   129040602.14606  24555609.820   100551114.74345
  21245969.520   111648367.88608  21245970.120    86998746.58848
  22058453.840   115917992.99308  22058457.900    90325739.92247
  21328558.860   112082414.19108  21328560.100    87336988.07048
  21042118.840   110577073.65709  21042119.500    86163956.32249
 15 01 25 00 51  0.0000000  0  5G16G21G25G29G31
  24538304.460   128949662.07305  24538304.920   100480252.33044
  21238207.660   111607579.51708  21238208.300    86966963.45448
  22070911.540   115983458.26208  22070915.540    90376751.80347
  21339527.380   112140054.54108  21339528.660    87381902.62148
  21046459.640   110599884.60709  21046460.280    86181731.08549
 15 01 25 00 51 30.0000000  0  5G16G21G25G29G31
  24520995.680   128858704.21405  24520996.560   100409376.10145
  21230529.160   111567228.91108  21230529.780    86935521.43048
  22083424.060   116049211.75908  22083428.060    90427988.27647
  21350524.120   112197843.39408  21350525.500    87426932.88748
  21050905.880   110623249.62009  21050906.500    86199937.58049
 15 01 25 00 52  0.0000000  0  5G16G21G25G29G31
  24503684.000   128767730.61205  24503684.840   100338487.60444
  21222934.440   111527318.16308  21222935.040    86904422.16348
  22095991.580   116115254.72708  22095995.740    90479450.30748
  21361549.280   112255781.28708  21361550.720    87472079.29648
  21055457.680   110647169.38209  21055458.240    86218576.35449
 15 01 25 00 52 30.0000000  0  5G16G21G25G29G31
  24486369.040   128676739.87706  24486369.820   100267585.74645
  21215422.900   111487844.68008  21215423.500    86873663.61748
  22108613.500   116181583.66708  22108617.840    90531135.17847
  21372601.940   112313863.48908  21372603.380    87517338.14248
  21060114.260   110671639.77809  21060114.800    86237644.19149
 15 01 25 00 53  0.0000000  0  5G16G21G25G29G31
  24469051.360   128585735.15206  24469052.200   100196673.00144
  21207995.320   111448812.36308  21207995.880    86843248.83548
  22121290.320   116248201.27908  22121294.760    90583044.99347
  21383682.520   112372092.12508  21383683.960    87562711.09948
  21064876.040   110696663.01709  21064876.540    86257142.81449
 15 01 25 00 53 30.0000000  0  5G16G21G25G29G31
  24451730.800   128494715.43606  24451731.640   100125748.54144
  21200651.320   111410219.36108  21200651.840    86813176.38148
  22134021.660   116315104.83008  22134026.040    90635177.61947
  21394790.300   112430463.63508  21394791.720    87608195.38448
  21069742.440   110722235.97209  21069742.880    86277069.78249
 15 01 25 00 54  0.0000000  0  5G16G21G25G29G31
  24434407.760   128403682.33805  24434408.420   100054813.68444
  21193391.160   111372067.03608  21193391.680    86783447.30548
  22146807.500   116382294.64908  22146811.720    90687533.31447
  21405925.200   112488977.44608  21405926.560    87653790.55748
  21074713.340   110748358.14609  21074713.760    86297424.71949
 15 01 25 00 54 30.0000000  0  5G16G21G25G29G31
  24417082.560   128312638.15805  24417083.260    99983870.20844
  21186215.160   111334356.93608  21186215.680    86754062.82348
  22159648.020   116449771.48008  22159651.980    90740112.63647
  21417087.160   112547633.32708  21417088.420    87699496.43548
  21079788.800   110775029.76309  21079789.220    86318207.79549
 15 01 25 00 55  0.0000000  0  5G16G21G25G29G31
  24399755.100   128221581.67305  24399755.920    99912917.10344
  21179123.040   111297087.72308  21179123.620    86725021.88848
  22172542.680   116517532.91108  22172546.480    90792913.72847
  21428275.560   112606428.40008  21428276.760    87745310.77648
  21084968.220   110802247.88609  21084968.700    86339416.71149
 15 01 25 00 55 30.0000000  0  5G16G21G25G29G31
  24382425.880   128130515.83606  24382426.660    99841956.72744
  21172115.240   111260261.45608  21172115.840    86696326.10848
  22185491.680   116585580.24708  22185495.480    90845937.61647
  21439490.380   112665362.60408  21439491.560    87791233.51748
  21090251.700   110830013.01509  21090252.300    86361051.86949
 15 01 25 00 56  0.0000000  0  5G16G21G25G29G31
  24365095.380   128039443.31306  24365096.080    99770991.13844
  21165192.240   111223880.85908  21165192.880    86667977.60148
  22198495.220   116653914.78408  22198499.180    90899185.31147
  21450731.900   112724437.11908  21450733.080    87837265.59948
  21095639.420   110858325.84109  21095640.080    86383113.80949
 15 01 25 00 56 30.0000000  0  5G16G21G25G29G31
  24347763.160   127948361.68506  24347763.840    99700018.45244
  21158353.460   111187942.87208  21158354.100    86639973.98148
  22211552.660   116722532.67508  22211556.840    90952653.80447
  21461999.080   112783646.82508  21462000.300    87883403.01848
  21101130.540   110887181.98909  21101131.240    86405599.11149
 15 01 25 00 57  0.0000000  0  5G16G21G25G29G31
  24330429.840   127857274.49706  24330430.620    99629041.44145
  21151599.460   111152450.45708  21151600.120    86612317.56448
  22224664.460   116791436.04008  22224668.800    91006344.72247
  21473292.300   112842993.68008  21473293.660    87929647.30248
  21106725.360   110916583.09009  21106726.100    86428509.05649
 15 01 25 00 57 30.0000000  0  5G16G21G25G29G31
  24313095.300   127766180.90606  24313096.200    99558059.42245
  21144929.940   111117402.16108  21144930.640    86585007.21248
  22237830.220   116860622.52908  22237834.620    91060256.25347
  21484611.080   112902474.40508  21484612.520    87975995.90848
  21112423.220   110946525.57009  21112423.960    86451840.85649
 15 01 25 00 58  0.0000000  0  5G16G21G25G29G31
  24295760.020   127675083.31806  24295761.000    99487074.29144
  21138345.200   111082799.52308  21138345.920    86558044.12548
  22251050.060   116930092.86008  22251054.360    91114388.97247
  21495955.320   112962088.77308  21495956.780    88022448.65048
  21118224.200   110977009.68709  21118224.900    86475594.70749
 15 01 25 00 58 30.0000000  0  5G16G21G25G29G31
  24278424.140   127583982.98006  24278425.140    99416087.03246
  21131845.480   111048643.60608  21131846.240    86531429.13548
  22264323.940   116999846.96908  22264328.060    91168742.81147
  21507324.960   113021836.33708  21507326.380    88069005.19248
  21124128.100   111008034.70409  21124128.760    86499770.04449
 15 01 25 00 59  0.0000000  0  5G16G21G25G29G31
  24261088.100   127492881.52506  24261089.120    99345098.89444
  21125430.900   111014934.86308  21125431.680    86505162.58848
  22277651.700   117069884.82308  22277655.760    91223317.73147
  21518719.760   113081716.17608  21518721.160    88115664.80148
  21130134.800   111039599.98109  21130135.440    86524366.35949
 15 01 25 00 59 30.0000000  0  5G16G21G25G29G31
  24243751.980   127401779.89105  24243753.060    99274110.63445
  21119101.520   110981673.76508  21119102.280    86479244.85648
  22291033.260   117140205.67108  22291037.300    91278113.17547
  21530139.420   113141726.88108  21530140.840    88162426.37748
  21136243.960   111071703.84709  21136244.620    86549382.36249
 15 01 25 01 00  0.0000000  0  5G16G21G25G29G31
  24226415.900   127310678.81705  24226417.140    99203122.82545
  21112857.400   110948860.66408  21112858.140    86453676.21848
  22304468.520   117210808.96708  22304472.680    91333128.71247
  21541583.720   113201867.31808  21541585.180    88209289.03848
  21142455.380   111104345.04509  21142456.040    86574817.05849
 15 01 25 01 00 30.0000000  0  5G16G21G25G29G31
  24209079.800   127219577.58205  24209081.100    99132134.84845
  21106698.200   110916493.61808  21106698.880    86428455.14748
  22317957.060   117281692.10108  22317961.380    91388362.30547
  21553052.100   113262134.25308  21553053.560    88256250.27848
  21148768.400   111137520.28409  21148769.080    86600667.89449
 15 01 25 01 01  0.0000000  0  5G16G21G25G29G31
  24191744.220   127128478.93906  24191745.500    99061148.89844
  21100624.340   110884575.24508  21100624.980    86403583.69648
  22331499.220   117352856.50608  22331503.640    91443815.08047
  21564544.800   113322528.98808  21564546.280    88303311.10548
  21155183.200   111171230.51409  21155183.940    86626935.59949
 15 01 25 01 01 30.0000000  0  5G16G21G25G29G31
  24174409.300   127037383.36606  24174410.580    98990165.37244
  21094635.740   110853104.90808  21094636.340    86379061.36448
  22345094.720   117424300.68708  22345099.120    91499485.86447
  21576061.360   113383048.87808  21576062.860    88350469.44448
  21161699.300   111205472.87209  21161700.040    86653617.94849
 15 01 25 01 02  0.0000000  0  5G16G21G25G29G31
  24157075.280   126946292.38706  24157076.460    98919185.39345
  21088732.500   110822083.14908  21088733.080    86354888.57848
  22358743.520   117496024.69308  22358747.740    91555374.69147
  21587601.700   113443693.52708  21587603.160    88397725.00448
  21168316.540   111240246.58209  21168317.260    86680714.34149
 15 01 25 01 02 30.0000000  0  5G16G21G25G29G31
  24139742.500   126855207.45706  24139743.500    98848210.11644
  21082914.720   110791510.61908  21082915.320    86331065.83648
  22372445.440   117568028.25908  22372449.460    91611481.36047
  21599165.600   113504462.01608  21599167.040    88445077.07048
  21175034.780   111275550.92109  21175035.440    86708224.21049
 15 01 25 01 03  0.0000000  0  5G16G21G25G29G31
  24122411.500   126764131.88006  24122412.380    98777242.12645
  21077182.920   110761389.80908  21077183.540    86307595.08348
  22386200.800   117640313.04508  22386204.640    91667807.16347
  21610753.200   113565355.23308  21610754.620    88492526.32248
  21181854.160   111311386.77409  21181854.760    86736148.24349
 15 01 25 01 03 30.0000000  0  5G16G21G25G29G31
  24105082.040   126673064.64806  24105082.860    98706280.63644
  21071536.700   110731718.66708  21071537.340    86284474.72448
  22400009.020   117712875.88308  22400012.740    91724349.61647
  21622363.940   113626370.33108  21622365.420    88540070.53948
  21188773.820   111347749.72209  21188774.380    86764483.00849
 15 01 25 01 04  0.0000000  0  5G16G21G25G29G31
  24087754.540   126582008.28906  24087755.540    98635327.65645
  21065976.400   110702498.96508  21065977.020    86261706.12849
  22413870.340   117785718.00008  22413874.060    91781109.68747
  21633997.900   113687507.52908  21633999.460    88587709.90248
  21195793.860   111384640.31609  21195794.420    86793228.91649
 15 01 25 01 04 30.0000000  0  5G16G21G25G29G31
  24070428.900   126490961.41806  24070429.920    98564382.05245
  21060501.580   110673728.71308  21060502.220    86239287.75248
  22427784.260   117858836.45608  22427788.100    91838085.08547
  21645654.380   113748762.97908  21645656.000    88635441.41148
  21202913.540   111422054.69709  21202914.140    86822382.98049
 15 01 25 01 05  0.0000000  0  5G16G21G25G29G31
  24053105.520   126399926.31806  24053106.580    98493445.59445
  21055112.420   110645408.61208  21055113.080    86217220.14548
  22441750.900   117932231.35308  22441754.880    91895275.89147
  21657333.460   113810136.97408  21657335.080    88683265.29348
  21210132.780   111459992.47909  21210133.460    86851944.88248
 15 01 25 01 05 30.0000000  0  5G16G21G25G29G31
  24035784.920   126308905.61406  24035785.940    98422520.38344
  21049809.380   110617540.95408  21049810.040    86195505.09348
  22455770.420   118005903.98708  22455774.560    91952683.12347
  21669035.280   113871630.26208  21669036.840    88731182.13348
  21217451.700   111498453.70809  21217452.400    86881914.66548
 15 01 25 01 06  0.0000000  0  5G16G21G25G29G31
  24018467.180   126217900.12406  24018468.280    98351607.03645
  21044592.320   110590125.22908  21044592.960    86174142.19948
  22469842.580   118079853.18508  22469846.860    92010305.86347
  21680759.440   113933241.08608  21680760.980    88779190.55148
  21224869.880   111537436.35509  21224870.560    86912290.75348
 15 01 25 01 06 30.0000000  0  5G16G21G25G29G31
  24001154.840   126126923.06906  24001156.000    98280715.83745
  21039463.460   110563172.97708  21039464.080    86153140.45648
  22483969.420   118154090.09608  22483973.840    92068152.78847
  21692508.000   113994980.04608  21692509.560    88827298.82148
  21232389.260   111576950.82409  21232389.920    86943081.24249
 15 01 25 01 07  0.0000000  0  6G16G18G21G25G29G31
  23983845.240   126035960.56706  23983846.380    98209835.95344
  24495937.360   128727016.90105  24495940.380   100306766.36744
  21034420.080   110536669.88908  21034420.660    86132488.71148
  22498148.000   118228599.16808  22498152.460    92126211.80547
  21704277.920   114056831.46408  21704279.500    88875494.71748
  21240006.620   111616980.12709  21240007.240    86974272.89448
 15 01 25 01 07 30.0000000  0  6G16G18G21G25G29G31
  23966535.600   125944998.11606  23966536.780    98138956.12345
  24480879.920   128647888.69705  24480882.280   100245108.11544
  21029459.220   110510600.38008  21029459.720    86112174.81748
  22512375.280   118303364.15008  22512379.720    92184470.21947
  21716066.040   114118778.55808  21716067.620    88923765.17948
  21247718.700   111657507.22309  21247719.300    87005852.45648
 15 01 25 01 08  0.0000000  0  6G16G18G21G25G29G31
  23949231.720   125854065.74406  23949232.880    98068099.74145
  24465812.420   128568708.85805  24465814.860   100183409.71344
  21024586.460   110484993.64608  21024586.900    86092221.52848
  22526656.560   118378413.00107  22526660.920    92242949.83047
  21727877.640   114180848.79508  21727879.240    88972131.58648
  21255530.700   111698559.47409  21255531.300    87037841.21449
 15 01 25 01 08 30.0000000  0  6G16G18G21G25G29G31
  23931931.360   125763151.66006  23931932.360    97997257.61845
  24450733.380   128489467.41905  24450735.820   100121663.27243
  21019799.140   110459836.08108  21019799.560    86072618.23648
  22540989.280   118453732.23407  22540993.560    92301640.12447
  21739710.080   114243028.44008  21739711.660    89020583.25848
  21263439.880   111740122.40809  21263440.460    87070227.92148
 15 01 25 01 09  0.0000000  0  6G16G18G21G25G29G31
  23914636.000   125672263.70906  23914636.840    97926435.84544
  24435644.100   128410173.19505  24435646.460   100059875.64943
  21015098.640   110435134.64208  21015099.040    86053370.36849
  22555374.640   118529327.63508  22555378.800    92360545.61047
  21751564.380   114305322.73708  21751565.880    89069124.25448
  21271447.100   111782200.64109  21271447.700    87103016.15448
 15 01 25 01 09 30.0000000  0  6G16G18G21G25G29G31
  23897344.940   125581398.33306  23897345.560    97855631.65444
  24420544.280   128330823.31106  24420546.880    99998044.73844
  21010484.000   110410884.50608  21010484.420    86034474.16049
  22569811.540   118605193.61808  22569815.600    92419661.94046
  21763439.460   114367726.17308  21763440.840    89117750.29348
  21279551.100   111824787.48309  21279551.700    87136200.70248
 15 01 25 01 10  0.0000000  0  6G16G18G21G25G29G31
  23880059.400   125490562.13706  23880059.980    97784850.22045
  24405435.280   128251426.08605  24405437.940    99936176.84844
  21005956.220   110387090.99808  21005956.700    86015933.76849
  22584300.900   118681335.23508  22584304.920    92478993.05447
  21775336.160   114430243.09608  21775337.420    89166464.77148
  21287752.640   111867886.95609  21287753.260    87169784.70148
 15 01 25 01 10 30.0000000  0  6G16G18G21G25G29G31
  23862778.200   125399748.82606  23862778.720    97714086.61645
  24390316.180   128171976.11105  24390318.720    99874267.86944
  21001513.880   110363746.53808  21001514.400    85997743.29048
  22598840.980   118757743.88407  22598845.100    92538532.26347
  21787252.760   114492864.76308  21787253.980    89215260.85448
  21296049.960   111911489.75609  21296050.580    87203760.90148
 15 01 25 01 11  0.0000000  0  6G16G18G21G25G29G31
  23845502.020   125308961.84006  23845502.520    97643343.50644
  24375188.240   128092477.81105  24375190.680    99812321.27145
  20997157.480   110340853.60908  20997158.020    85979904.65149
  22613432.040   118834421.11107  22613436.360    92598280.73946
  21799189.560   114555592.73708  21799190.780    89264139.78148
  21304443.140   111955596.21509  21304443.760    87238129.55548
 15 01 25 01 11 30.0000000  0  6G16G18G21G25G29G31
  23828231.860   125218206.53606  23828232.360    97572625.09444
  24360052.360   128012937.62005  24360054.560    99750342.02943
  20992887.740   110318416.04208  20992888.280    85962420.84348
  22628074.800   118911370.19007  22628079.240    92658241.07146
  21811147.080   114618429.75508  21811148.360    89313103.68148
  21312932.620   112000208.76709  21312933.220    87272892.57748
 15 01 25 01 12  0.0000000  0  6G16G18G21G25G29G31
  23810967.420   125127481.37606  23810968.020    97501930.15744
  24344908.580   127933355.71305  24344910.420    99688330.26744
  20988704.120   110296431.17808  20988704.680    85945289.79249
  22642768.600   118988587.77607  22642773.200    92718410.60847
  21823124.600   114681372.22908  21823125.960    89362149.75248
  21321517.480   112045322.64209  21321518.100    87308046.23848
 15 01 25 01 12 30.0000000  0  6G16G18G21G25G29G31
  23793709.360   125036789.49806  23793709.940    97431261.15145
  24329757.480   127853735.96606  24329759.100    99626289.04643
  20984606.860   110274900.12408  20984607.400    85928512.35348
  22657513.760   119066074.89807  22657518.460    92778790.16346
  21835122.260   114744420.77608  21835123.700    89411278.47748
  21330197.780   112090938.18708  21330198.460    87343590.81448
 15 01 25 01 13  0.0000000  0  6G16G18G21G25G29G31
  23776457.460   124946130.13306  23776458.080    97360617.49745
  24314599.300   127774078.94306  24314600.780    99564218.76744
  20980595.680   110253821.28008  20980596.200    85912087.28549
  22672309.860   119143828.64707  22672314.420    92839377.48446
  21847139.540   114807572.65708  21847141.080    89460487.73248
  21338972.800   112137051.41509  21338973.540    87379523.18948
 15 01 25 01 13 30.0000000  0  6G16G18G21G25G29G31
  23759212.480   124855506.89206  23759213.080    97290001.97545
  24299434.680   127694388.76106  24299435.960    99502122.61943
  20976670.920   110233196.56908  20976671.420    85896016.08949
  22687157.100   119221850.45607  22687161.380    92900173.67246
  21859176.740   114870828.79908  21859178.300    89509778.22148
  21347842.560   112183662.32909  21347843.320    87415843.37848
 15 01 25 01 14  0.0000000  0  6G16G18G21G25G29G31
  23741974.280   124764919.60507  23741974.960    97219414.48745
  24284264.000   127614666.57206  24284265.080    99440001.54044
  20972832.320   110213024.60308  20972832.800    85880297.68749
  22702055.080   119300138.33208  22702058.960    92961177.19346
  21871233.460   114934187.02508  21871234.940    89559148.25947
  21356806.500   112230767.93109  21356807.240    87452549.04048
 15 01 25 01 14 30.0000000  0  6G16G18G21G25G29G31
  23724743.560   124674371.71807  23724744.400    97148857.71144
  24269088.040   127534917.35806  24269089.220    99377859.36844
  20969080.320   110193307.67108  20969080.800    85864933.84948
  22717003.860   119378693.58407  22717007.560    93022389.05546
