     2.11           OBSERVATION DATA    G                   RINEX VERSION / TYPE
SPIDER V4,0,0,3554                      2015 03 16 01:21    PGM / RUN BY / DATE 
ABKD                                                        MARKER NAME         
ABKD                                                        MARKER NUMBER       
                                                            OBSERVER / AGENCY   
496503              LEICA GRX1200+GNSS  8.20/4.007          REC # / TYPE / VERS 
10301028            LEIAR25         NONE                    ANT # / TYPE        
  5126847.8297   206786.8373  3776118.0908                  APPROX POSITION XYZ 
        0.0000        0.0000        0.0000                  ANTENNA: DELTA H/E/N
     1     1                                                WAVELENGTH FACT L1/2
     4    C1    L1    P2    L2                              # / TYPES OF OBSERV 
    30.000                                                  INTERVAL            
  2015    02    28    00    00    0.0000000     GPS         TIME OF FIRST OBS   
  2015    02    28    23    59   30.0000000     GPS         TIME OF LAST OBS    
    16                                                      LEAP SECONDS        
    30                                                      # OF SATELLITES     
   G 1   822   822   822   822                              PRN / # OF OBS      
   G 2   930   930   929   929                              PRN / # OF OBS      
   G 3   829   829   826   826                              PRN / # OF OBS      
   G 4   837   836   836   836                              PRN / # OF OBS      
   G 5   666   666   665   665                              PRN / # OF OBS      
   G 6   736   736   735   735                              PRN / # OF OBS      
   G 7   703   703   703   703                              PRN / # OF OBS      
   G 9   784   784   782   782                              PRN / # OF OBS      
   G10   774   773   773   773                              PRN / # OF OBS      
   G11   788   788   788   788                              PRN / # OF OBS      
   G12   808   808   808   808                              PRN / # OF OBS      
   G13   811   810   810   810                              PRN / # OF OBS      
   G14   937   931   934   930                              PRN / # OF OBS      
   G15   724   724   724   724                              PRN / # OF OBS      
   G16   687   687   687   687                              PRN / # OF OBS      
   G17   933   933   933   933                              PRN / # OF OBS      
   G18   933   933   933   933                              PRN / # OF OBS      
   G19   772   772   772   772                              PRN / # OF OBS      
   G20   791   791   791   791                              PRN / # OF OBS      
   G21   706   706   705   705                              PRN / # OF OBS      
   G22   792   792   790   790                              PRN / # OF OBS      
   G23   715   715   715   715                              PRN / # OF OBS      
   G24   831   831   831   831                              PRN / # OF OBS      
   G25   844   844   843   843                              PRN / # OF OBS      
   G27   820   819   819   819                              PRN / # OF OBS      
   G28   910   909   909   909                              PRN / # OF OBS      
   G29   736   735   735   735                              PRN / # OF OBS      
   G30   688   688   688   688                              PRN / # OF OBS      
   G31   785   783   782   782                              PRN / # OF OBS      
   G32   732   732   731   731                              PRN / # OF OBS      
BIT 2 OF LLI FLAGS DATA COLLECTED UNDER A/S CONDITION       COMMENT             
SNR is mapped to RINEX snr flag value [2-9]                 COMMENT             
Lx:     = 25dBHz -> 1; 26-27dBHz -> 2; 28-31dBHz -> 3       COMMENT             
       32-35dBHz -> 4; 36-38dBHz -> 5; 39-41dBHz -> 6       COMMENT             
       42-44dBHz -> 7; 45-48dBHz -> 8; >=49dBHz -> 9        COMMENT             
                                                            END OF HEADER       
 15 02 28 00 00  0.0000000  0  7G16G18G21G22G27G29G31
  21529588.500   113138776.10009  21529585.020    88160073.57648
  22764231.800   119626917.20508  22764229.240    93215797.68846
  21346660.720   112177457.96108  21346656.920    87410991.70348
  24052980.440   126399305.27008  24052978.820    98492975.74745
  22674521.680   119155453.82908  22674520.860    92848410.00748
  24142119.660   126867697.82708  24142117.800    98857937.82745
  22973740.200   120727802.63309  22973737.840    94073594.60747
 15 02 28 00 00 30.0000000  0  7G16G18G21G22G27G29G31
  21516861.400   113071894.73309  21516858.000    88107958.23548
  22752575.580   119565663.37108  22752572.960    93168067.45746
  21354032.940   112216199.17208  21354029.120    87441179.66548
  24035282.280   126306301.31308  24035280.420    98420505.46145
  22662398.500   119091746.20909  22662397.920    92798767.73547
  24156747.400   126944567.57407  24156745.720    98917836.32945
  22991467.200   120820958.71008  22991464.920    94146183.68447
 15 02 28 00 01  0.0000000  0  7G16G18G21G22G27G29G31
  21504187.620   113005293.18909  21504184.220    88056060.93248
  22740973.460   119504693.69809  22740970.800    93120558.63746
  21361469.960   112255281.17308  21361466.200    87471633.16648
  24017583.400   126213293.61008  24017581.240    98348032.23745
  22650299.020   119028162.40809  22650298.520    92749221.94847
  24171377.760   127021450.77207  24171376.260    98977745.27345
  23009227.940   120914292.11808  23009225.660    94218910.94747
 15 02 28 00 01 30.0000000  0  7G16G18G21G22G27G29G31
  21491567.580   112938973.99509  21491564.140    88004383.64248
  22729425.880   119444010.77209  22729423.200    93073273.26246
  21368971.600   112294702.75508  21368967.940    87502351.28348
  23999884.360   126120285.17608  23999881.980    98275558.43045
  22638223.180   118964703.08808  22638222.660    92699773.16347
  24186010.820   127098347.95507  24186009.100    99037665.10444
  23027022.040   121007800.45308  23027019.580    94291774.52147
 15 02 28 00 02  0.0000000  0  7G16G18G21G22G27G29G31
  21479001.440   112872938.19109  21478997.960    87952927.18048
  22717933.200   119383616.00209  22717930.500    93026212.41746
  21376537.320   112334461.11608  21376533.700    87533331.82248
  23982185.480   126027277.41208  23982182.880    98203085.11845
  22626170.560   118901366.87308  22626170.040    92650420.29747
  24200646.180   127175257.17307  24200644.420    99097594.34245
  23044848.680   121101479.25408  23044845.980    94364770.91747
 15 02 28 00 02 30.0000000  0  7G16G18G21G22G27G29G31
  21466489.760   112807188.45709  21466486.200    87901693.62348
  22706495.960   119323512.45409  22706493.140    92979378.49446
  21384166.820   112374554.55308  21384163.200    87564573.46248
  23964487.420   125934273.82108  23964484.500    98130615.06745
  22614141.380   118838154.51608  22614140.840    92601163.94347
  24215284.100   127252179.86707  24215282.400    99157534.08945
  23062707.420   121195326.52508  23062704.420    94437898.60247
 15 02 28 00 03  0.0000000  0  7G16G18G21G22G27G29G31
  21454032.940   112741727.20509  21454029.320    87850684.86348
  22695114.540   119263702.33809  22695111.640    92932773.23446
  21391859.880   112414981.82508  21391856.260    87596075.24048
  23946790.600   125841276.91608  23946787.540    98058150.20946
  22602135.860   118775066.07908  22602135.260    92552004.15147
  24229924.540   127329115.49107  24229922.920    99217483.92845
  23080597.600   121289339.25208  23080594.540    94511155.20947
 15 02 28 00 03 30.0000000  0  7G16G18G21G22G27G29G31
  21441630.940   112676553.99809  21441627.160    87799900.54848
  22683788.960   119204185.50409  22683785.980    92886396.48446
  21399615.760   112455738.94209  21399612.060    87627834.03248
  23929095.040   125748286.82708  23929092.000    97985690.66246
  22590153.540   118712098.98008  22590152.860    92502938.91847
  24244566.820   127406061.35007  24244565.220    99277441.74445
  23098518.080   121383511.81508  23098515.120    94584536.34147
 15 02 28 00 04  0.0000000  0  7G16G18G21G22G27G29G31
  21429284.640   112611673.87409  21429280.800    87749344.62048
  22672520.200   119144967.85209  22672517.200    92840252.87546
  21407434.620   112496826.55609  21407430.720    87659850.35948
  23911401.860   125655309.24308  23911398.840    97913240.84246
  22578194.980   118649256.44908  22578194.320    92453970.74547
  24259211.580   127483020.25407  24259209.880    99337409.66444
  23116469.100   121477844.68109  23116466.160    94658042.38447
 15 02 28 00 04 30.0000000  0  7G16G18G21G22G27G29G31
  21416993.860   112547085.61309  21416990.040    87699016.10948
  22661307.960   119086047.81608  22661305.080    92794341.17946
  21415315.480   112538240.27108  21415311.440    87692120.78748
  23893710.800   125562343.14408  23893707.720    97840799.97146
  22566259.440   118586534.95508  22566258.940    92405096.88447
  24273858.220   127559988.86607  24273856.520    99397385.17143
  23134449.420   121572330.96809  23134446.480    94731667.97647
 15 02 28 00 05  0.0000000  0  7G16G18G21G22G27G29G31
  21404759.720   112482795.31209  21404755.980    87648919.77448
  22650153.560   119027431.80809  22650150.860    92748666.37646
  21423258.780   112579982.30008  21423254.660    87724647.04748
  23876023.080   125469395.12708  23876020.000    97768373.18046
  22554347.660   118523938.54108  22554347.400    92356320.48847
  24288507.500   127636970.96607  24288506.040    99457371.23344
  23152459.200   121666972.07009  23152456.300    94805414.17547
 15 02 28 00 05 30.0000000  0  7G16G18G21G22G27G29G31
  21392582.240   112418802.66909  21392578.620    87599055.39048
  22639057.060   118969119.81408  22639054.380    92703228.47346
  21431263.640   112622048.10308  21431259.480    87757425.58648
  23858338.880   125376465.76308  23858335.800    97695960.92446
  22542459.240   118461464.97908  22542459.080    92307639.81348
  24303158.960   127713964.50905  24303157.380    99517366.20344
  23170497.420   121761762.74708  23170494.520    94879276.85047
 15 02 28 00 06  0.0000000  0  6G16G18G21G22G27G31
  21380464.880   112355125.62309  21380461.340    87549436.91848
  22628021.960   118911130.19509  22628019.220    92658041.77846
  21439332.780   112664452.06608  21439328.640    87790467.64048
  23840661.760   125283573.41808  23840658.760    97623577.48146
  22530597.220   118399129.99608  22530597.040    92259067.12147
  23188566.540   121856715.78808  23188563.480    94953266.00747
 15 02 28 00 06 30.0000000  0  6G16G18G21G22G27G31
  21368402.620   112291738.05309  21368399.060    87500044.00948
  22617043.320   118853436.87909  22617040.560    92613085.96546
  21447460.520   112707164.04308  21447456.400    87823749.70448
  23822986.580   125190692.13208  23822983.860    97551202.65246
  22518756.160   118336905.17108  22518755.880    92210580.27747
  23206660.560   121951799.78808  23206657.420    95027357.27247
 15 02 28 00 07  0.0000000  0  7G16G18G21G22G27G29G31
  21356398.380   112228655.32009  21356394.800    87450888.64048
  22606124.020   118796055.36809  22606121.320    92568373.11646
  21455649.040   112750195.36608  21455644.980    87857280.60948
  23805316.600   125097837.81508  23805314.160    97478848.82546
  22506938.640   118274803.79908  22506938.200    92162189.63347
  24347129.940   127945024.72105  24347123.920    99697401.99142
  23224781.360   122047025.05308  23224778.400    95101558.64446
 15 02 28 00 07 30.0000000  0  7G16G18G21G22G27G29G31
  21344451.800   112165875.36609  21344448.140    87401969.19648
  22595263.640   118738983.46309  22595260.980    92523901.51646
  21463897.240   112793540.28408  21463893.360    87891055.86748
  23787651.600   125005008.68808  23787649.340    97406514.61546
  22495143.960   118212821.64909  22495143.360    92113891.88047
  24361789.600   128022061.71504  24361784.260    99757433.85753
  23242927.540   122142384.02008  23242924.860    95175864.21847
 15 02 28 00 08  0.0000000  0  6G16G18G21G22G27G31
  21332564.120   112103404.62909  21332560.220    87353290.70548
  22584463.560   118682228.38109  22584460.900    92479676.80147
  21472205.640   112837201.55108  21472201.920    87925077.63748
  23769993.020   124912212.44008  23769990.720    97334206.02846
  22483372.860   118150963.41508  22483372.220    92065690.69247
  23261099.580   122237878.82408  23261097.060    95250275.65747
 15 02 28 00 08 30.0000000  0  6G16G18G21G22G27G31
  21320736.080   112041247.27809  21320732.060    87304856.40648
  22573724.500   118625794.20809  22573721.860    92435702.13947
  21480574.240   112881179.15408  21480570.680    87959345.89448
  23752341.660   124819453.53008  23752339.140    97261926.52446
  22471625.520   118089231.12708  22471625.140    92017587.63848
  23279297.220   122333508.17308  23279294.900    95324791.89647
 15 02 28 00 09  0.0000000  0  6G16G18G21G22G27G31
  21308967.860   111979404.38709  21308963.800    87256667.13848
  22563046.680   118569682.16408  22563043.980    92391978.47147
  21489002.600   112925470.60008  21488999.060    87993858.69948
  23734697.560   124726733.09908  23734694.800    97189676.99946
  22459901.820   118027623.49708  22459901.720    91969581.70048
  23297519.680   122429268.13808  23297517.580    95399409.88347
 15 02 28 00 09 30.0000000  0  6G16G18G21G22G27G31
  21297259.380   111917875.61209  21297255.340    87208722.64748
  22552430.080   118513891.96209  22552427.400    92348505.61647
  21497489.760   112970070.90608  21497486.160    88028612.17848
  23717060.780   124634051.55208  23717057.840    97117457.76946
  22448201.520   117966138.20809  22448201.480    91921671.10348
  23315765.980   122525153.21508  23315764.020    95474125.35147
 15 02 28 00 10  0.0000000  0  6G16G18G21G22G27G31
  21285610.980   111856662.61009  21285607.020    87161024.20948
  22541875.120   118458425.46409  22541872.380    92305284.98946
  21506035.480   113014978.88608  21506031.780    88063605.42048
  23699431.860   124541411.53808  23699428.800    97045270.89546
  22436524.640   117904774.95209  22436524.420    91873855.60948
  23334035.420   122621159.98308  23334033.680    95548935.63347
 15 02 28 00 10 30.0000000  0  6G16G18G21G22G27G31
  21274024.120   111795773.25009  21274020.220    87113577.96748
  22531383.340   118403290.57809  22531380.520    92262322.76746
  21514640.420   113060197.91509  21514636.620    88098841.02648
  23681812.340   124448820.86608  23681809.020    96973122.46045
  22424872.100   117843539.37909  22424871.540    91826139.60148
  23352328.720   122717291.27708  23352326.960    95623843.00446
 15 02 28 00 11  0.0000000  0  6G16G18G21G22G27G31
  21262498.320   111735205.28209  21262494.560    87066382.14448
  22520954.280   118348485.47209  22520951.400    92219617.50446
  21523303.400   113105721.93209  21523299.540    88134314.28148
  23664202.020   124356278.02808  23664198.300    96901011.29146
  22413242.940   117782427.28709  22413242.200    91778519.81048
  23370644.500   122813539.94008  23370642.520    95698841.86047
 15 02 28 00 11 30.0000000  0  6G16G18G21G22G27G31
  21251034.280   111674962.35209  21251030.740    87019439.60748
  22510588.640   118294013.53209  22510585.700    92177171.85747
  21532024.360   113151550.37409  21532020.420    88170024.75748
  23646601.480   124263787.04208  23646597.460    96828940.53445
  22401637.440   117721440.03809  22401636.640    91730997.30948
  23388982.240   122909904.29708  23388980.180    95773930.84647
 15 02 28 00 12  0.0000000  0  6G16G18G21G22G27G31
  21239632.160   111615044.61809  21239628.780    86972750.47048
  22500286.440   118239875.02109  22500283.460    92134986.00246
  21540802.680   113197680.20509  21540798.680    88205970.08448
  23629010.900   124171348.70808  23629006.760    96756910.77446
  22390055.360   117660575.91309  22390054.540    91683570.73848
  23407341.080   123006379.29408  23407339.000    95849105.89246
 15 02 28 00 12 30.0000000  0  6G16G18G21G22G27G31
  21228292.560   111555455.60909  21228289.340    86926317.48048
  22490048.460   118186073.99709  22490045.480    92093063.15947
  21549638.220   113244110.95309  21549634.200    88242149.89148
  23611431.080   124078967.28108  23611426.840    96684925.37446
  22378497.060   117599836.36309  22378496.300    91636241.23548
  23425720.660   123102963.55108  23425718.660    95924366.10946
 15 02 28 00 13  0.0000000  0  6G16G18G21G22G27G31
  21217015.840   111496196.51309  21217012.720    86880141.56548
  22479874.820   118132611.20309  22479871.840    92051403.84747
  21558530.340   113290839.22709  21558526.340    88278561.52648
  23593862.420   123986644.20708  23593858.280    96612985.44546
  22366962.240   117539220.33609  22366961.640    91589007.99048
  23444120.120   123199653.22908  23444118.500    95999708.49846
 15 02 28 00 13 30.0000000  0  6G16G18G21G22G27G31
  21205802.820   111437272.04509  21205799.840    86834226.40148
  22469766.420   118079491.77209  22469763.560    92010012.11246
  21567479.360   113337866.85509  21567475.400    88315206.43048
  23576305.980   123894385.10908  23576302.040    96541095.34546
  22355451.400   117478730.76309  22355450.960    91541873.28848
  23462539.620   123296448.32908  23462538.260    96075133.12846
 15 02 28 00 14  0.0000000  0  6G16G18G21G22G27G31
  21194653.460   111378682.07509  21194650.560    86788571.88648
  22459723.420   118026715.73709  22459720.600    91968887.94947
  21576484.300   113385188.59708  21576480.420    88352080.50448
  23558761.820   123802190.29408  23558758.240    96469255.34046
  22343964.140   117418365.50808  22343963.720    91494835.45448
  23480978.280   123393343.60808  23480976.920    96150635.82246
 15 02 28 00 14 30.0000000  0  6G16G18G21G22G27G31
  21183568.740   111320431.23409  21183565.760    86743181.62048
  22449746.700   117974287.42809  22449743.760    91928034.74847
  21585545.520   113432805.88709  21585541.640    88389184.88848
  23541230.800   123710064.57408  23541227.500    96397469.17246
  22332500.960   117358126.73208  22332500.340    91447896.16648
  23499435.820   123490337.86308  23499434.420    96226215.64846
 15 02 28 00 15  0.0000000  0  6G16G18G21G22G27G31
  21172548.840   111262520.92409  21172545.800    86698056.70548
  22439836.420   117922208.36109  22439833.360    91887453.68146
  21594662.540   113480716.11309  21594658.620    88426517.52848
  23523713.300   123618010.37108  23523710.060    96325738.72846
  22321061.800   117298013.98209  22321061.060    91401055.07148
  23517911.480   123587427.70108  23517910.160    96301869.85946
 15 02 28 00 15 30.0000000  0  7G16G18G19G21G22G27G31
  21161593.360   111204949.21209  21161590.220    86653195.63948
  22429992.180   117870476.56509  22429989.100    91847143.20547
  24542679.440   128972646.61807  24542677.960   100498163.03355
  21603834.160   113528913.32308  21603830.220    88464073.80848
  23506209.120   123526025.98008  23506205.680    96254062.66746
  22309645.980   117238023.46409  22309645.300    91354309.23148
  23536404.100   123684606.65508  23536402.860    96377593.51247
 15 02 28 00 16  0.0000000  0  7G16G18G19G21G22G27G31
  21150700.420   111147706.51609  21150697.260    86608590.94948
  22420212.180   117819082.38909  22420209.120    91807095.81346
  24527289.780   128891773.17508  24527288.740   100435144.81745
  21613057.780   113577383.77809  21613053.820    88501842.99848
  23488716.700   123434102.58808  23488712.860    96182434.15246
  22298251.260   117178143.34609  22298250.620    91307649.42648
  23554910.900   123781859.73108  23554909.740    96453374.98046
 15 02 28 00 16 30.0000000  0  7G16G18G19G21G22G27G31
  21139877.720   111090832.81409  21139874.580    86564273.78348
  22410504.100   117768066.21509  22410500.960    91767342.98246
  24511920.140   128811004.38407  24511919.280   100372208.15745
  21622340.420   113626164.43909  21622336.460    88539853.90048
  23471243.840   123342281.05608  23471239.460    96110885.00146
  22286884.680   117118411.71709  22286884.140    91261105.31448
  23573438.520   123879221.81208  23573437.420    96529241.30446
 15 02 28 00 17  0.0000000  0  7G16G18G19G21G22G27G31
  21129120.080   111034300.99309  21129117.000    86520223.01348
  22400862.680   117717400.39809  22400859.380    91727863.13247
  24496564.680   128730310.97307  24496563.980   100309330.25145
  21631675.980   113675223.19308  21631672.020    88578081.49748
  23453785.220   123250534.17808  23453780.400    96039394.01946
  22275540.640   117058799.23308  22275540.160    91214654.03848
  23591980.840   123976660.49008  23591979.440    96605167.28346
 15 02 28 00 17 30.0000000  0  7G16G18G19G21G22G27G31
  21118428.520   110978116.32609  21118425.480    86476442.75548
  22391289.060   117667090.91109  22391285.780    91688660.95547
  24481224.260   128649696.43507  24481223.520   100246513.81845
  21641064.920   113724562.71308  21641061.020    88616527.86848
  23436341.920   123158868.37908  23436336.900    95967966.20246
  22264219.980   116999309.49109  22264219.480    91168298.40948
  23610537.880   124074176.57608  23610536.180    96681153.54846
 15 02 28 00 18  0.0000000  0  7G16G18G19G21G22G27G31
  21107803.880   110922283.52909  21107800.880    86432936.69648
  22381784.020   117617141.94409  22381781.000    91649739.70647
  24465899.380   128569163.17408  24465898.200   100183760.71146
  21650507.260   113774182.83308  21650503.440    88655192.89748
  23418914.840   123067288.73608  23418909.920    95896605.53546
  22252923.240   116939945.05309  22252922.720    91122040.42348
  23629109.500   124171769.71508  23629107.600    96757199.85146
 15 02 28 00 18 30.0000000  0  7G16G18G19G21G22G27G31
  21097245.940   110866801.35109  21097242.960    86389703.82648
  22372347.420   117567552.52809  22372344.540    91611098.60847
  24450589.600   128488707.96908  24450587.720   100121068.37846
  21660002.160   113824078.89908  21659998.440    88694072.93948
  23401503.980   122975794.85408  23401499.320    95825311.67246
  22241649.860   116880702.69709  22241649.300    91075877.56948
  23647694.460   124269433.34308  23647692.560    96833301.04446
 15 02 28 00 19  0.0000000  0  7G16G18G19G21G22G27G31
  21086755.400   110811673.66909  21086752.500    86346747.19148
  22362980.020   117518326.35909  22362977.100    91572740.57047
  24435295.260   128408333.13108  24435292.380   100058438.70345
  21669549.520   113874250.81908  21669545.920    88733167.94048
  23384110.260   122884391.19508  23384105.920    95754088.11846
  22230400.180   116821584.57009  22230399.600    91029811.52348
  23666292.780   124367167.11608  23666290.940    96909457.00346
 15 02 28 00 19 30.0000000  0  7G16G18G19G21G22G27G31
  21076333.180   110756904.98309  21076330.320    86304070.29848
  22353682.600   117469467.70409  22353679.580    91534668.90747
  24420016.500   128328040.71708  24420012.720    99995873.25246
  21679149.420   113924698.68108  21679145.900    88772477.95548
  23366734.700   122793082.74108  23366730.620    95682938.74946
  22219174.500   116762592.73209  22219173.960    90983843.87348
  23684904.180   124464969.66608  23684902.460    96985666.51646
 15 02 28 00 20  0.0000000  0  7G16G18G19G21G22G27G31
  21065980.940   110702503.59709  21065978.000    86261679.62148
  22344456.620   117420984.74909  22344453.620    91496890.00047
  24404754.480   128247837.24308  24404750.100    99933377.15845
  21688802.800   113975427.46209  21688799.260    88812006.87548
  23349378.920   122701878.12708  23349374.840    95611870.30346
  22207973.920   116703733.64509  22207973.560    90937979.65948
  23703529.340   124562844.40208  23703527.720    97061932.29046
 15 02 28 00 20 30.0000000  0  7G16G18G19G21G22G27G31
  21055697.920   110648465.63709  21055694.860    86219572.11748
  22335301.460   117372874.01109  22335298.460    91459401.12347
  24389507.920   128167715.90408  24389503.200    99870945.02345
  21698508.040   114026428.69809  21698504.500    88851748.09148
  23332042.380   122610774.25708  23332038.120    95540880.34046
  22196797.400   116645001.32109  22196797.060    90892214.21548
  23722166.520   124660782.50108  23722164.920    97138247.46546
 15 02 28 00 21  0.0000000  0  7G16G18G19G21G22G27G31
  21045483.920   110594790.40709  21045480.760    86177747.26548
  22326217.060   117325135.01709  22326214.000    91422201.91347
  24374276.600   128087675.26308  24374271.940    99808575.78945
  21708264.440   114077698.74209  21708260.940    88891698.77148
  23314725.040   122519771.45508  23314720.660    95469969.13746
  22185644.740   116586393.52109  22185644.220    90846545.82048
  23740814.560   124758778.45708  23740813.100    97214607.73946
 15 02 28 00 21 30.0000000  0  7G16G18G19G21G22G27G31
  21035340.360   110541485.69209  21035337.200    86136211.12148
  22317204.720   117277774.73009  22317201.620    91385297.81247
  24359061.520   128007720.45508  24359056.820    99746273.38645
  21718072.640   114129240.98409  21718069.100    88931861.54848
  23297428.460   122428877.77308  23297423.980    95399142.96746
  22174516.940   116527915.71809  22174516.240    90800978.71648
  23759474.100   124856835.01508  23759472.840    97291015.23646
 15 02 28 00 22  0.0000000  0  7G16G18G19G21G22G27G31
  21025267.180   110488550.88709  21025264.000    86094963.22948
  22308264.220   117230792.43809  22308261.140    91348688.25647
  24343862.120   127927848.78008  24343857.660    99684035.79345
  21727931.740   114181050.82309  21727928.180    88972232.86048
  23280152.700   122338093.32008  23280148.220    95328401.90046
  22163413.400   116469565.42009  22163412.560    90755510.98348
  23778144.180   124954946.56908  23778143.160    97367465.61946
 15 02 28 00 22 30.0000000  0  7G16G18G19G21G22G27G31
  21015265.720   110435992.66809  21015262.480    86054008.78348
  22299396.880   117184194.86909  22299393.860    91312378.49347
  24328679.260   127848064.80807  24328675.380    99621866.50746
  21737842.280   114233130.57609  21737838.580    89012814.49448
  23262899.060   122247424.80608  23262894.580    95257751.17846
  22152334.940   116411347.20709  22152334.020    90710146.16248
  23796825.180   125053114.85408  23796824.260    97443960.26246
 15 02 28 00 23  0.0000000  0  7G16G18G19G21G22G27G31
  21005335.460   110383808.23009  21005332.100    86013345.59548
  22290602.180   117137979.09409  22290599.260    91276366.22547
  24313512.220   127768364.23907  24313509.080    99559762.26846
  21747803.180   114285474.96209  21747799.300    89053602.33548
  23245667.340   122156871.13108  23245662.820    95187189.93646
  22141280.760   116353256.76009  22141279.900    90664880.89348
  23815515.580   125151332.34708  23815514.760    97520493.26546
 15 02 28 00 23 30.0000000  0  7G16G18G19G21G22G27G31
  20995476.520   110331998.46709  20995472.960    85972974.35748
  22281880.420   117092146.45609  22281877.580    91240652.48647
  24298360.960   127688745.75607  24298358.420    99497721.93946
  21757813.740   114338080.46309  21757809.660    89094593.63948
  23228457.580   122066433.19508  23228453.000    95116718.88046
  22130250.540   116295292.87109  22130249.820    90619714.24448
  23834214.440   125249594.79708  23834213.800    97597061.37746
 15 02 28 00 24  0.0000000  0  7G16G18G19G21G22G27G31
  20985688.120   110280559.86509  20985684.460    85932892.33848
  22273230.880   117046693.15009  22273228.160    91205234.35047
  24283224.540   127609203.79508  24283222.180    99435741.25345
  21767872.460   114390939.38308  21767868.340    89135782.41648
  23211269.300   121976108.83608  23211264.800    95046336.32246
  22119243.280   116237450.14109  22119242.700    90574642.01648
  23852920.100   125347893.59108  23852919.620    97673657.81546
 15 02 28 00 24 30.0000000  0  7G16G18G19G21G22G27G31
  20975972.120   110229501.82809  20975968.380    85893106.85648
  22264655.260   117001627.96309  22264652.560    91170118.62247
  24268104.360   127529746.02408  24268101.980    99373826.17345
  21777980.260   114444056.69008  21777976.200    89177172.51348
  23194104.460   121885907.52908  23194100.080    94976049.65146
  22108260.540   116179735.98109  22108259.960    90529669.96548
  23871633.340   125446233.34508  23871633.120    97750286.10746
 15 02 28 00 25  0.0000000  0  7G16G18G19G21G22G27G31
  20966329.320   110178828.33809  20966325.500    85853621.02048
  22256154.240   116956954.85109  22256151.600    91135308.41747
  24253000.560   127450374.17907  24252998.200    99311978.03945
  21788137.460   114497433.83008  21788133.560    89218765.07548
  23176964.020   121795833.99308  23176959.520    94905862.53947
  22097302.640   116122152.40309  22097302.060    90484799.66848
  23890354.140   125544612.70408  23890354.020    97826945.17846
 15 02 28 00 25 30.0000000  0  7G16G18G19G21G22G27G31
  20956759.080   110128536.00309  20956755.180    85814432.19848
  22247727.260   116912670.53109  22247724.580    91100801.17347
  24237912.100   127371082.92408  24237909.200    99250192.68545
  21798342.700   114551063.15108  21798338.880    89260554.16147
  23159847.400   121705885.51609  23159842.780    94835772.89346
  22086368.640   116064694.28909  22086368.080    90440027.13248
  23909081.140   125643023.70308  23909080.980    97903628.85446
 15 02 28 00 26  0.0000000  0  7G16G18G19G21G22G27G31
  20947262.420   110078630.60309  20947258.520    85775544.87348
  22239375.260   116868780.34309  22239372.480    91066601.05147
  24222839.640   127291876.13208  24222836.160    99188473.15946
  21808596.220   114604946.03609  21808592.440    89302540.81447
  23142755.820   121616068.48909  23142751.080    94765785.65846
  22075459.200   116007365.42809  22075458.720    90395355.31748
  23927814.360   125741467.35708  23927814.320    97980338.03546
 15 02 28 00 26 30.0000000  0  7G16G18G19G21G22G27G31
  20937839.260   110029111.83609  20937835.400    85736958.82748
  22231098.120   116825283.62909  22231095.240    91032707.52047
  24207782.840   127212751.54608  24207778.920    99126817.73246
  21818897.340   114659078.74509  21818893.540    89344722.14848
  23125689.260   121526383.34708  23125684.580    94695901.18246
  22064573.920   115950163.70509  22064573.620    90350782.57248
  23946552.800   125839938.28008  23946552.980    98057068.41345
 15 02 28 00 27  0.0000000  0  7G16G18G19G21G22G27G31
  20928490.800   109979985.64909  20928486.900    85698678.68648
  22222897.080   116782186.94709  22222894.120    90999125.70147
  24192742.400   127133713.14608  24192738.000    99065229.40545
  21829246.320   114713462.71009  21829242.520    89387099.26948
  23108649.040   121436837.12708  23108644.560    94626124.96646
  22053713.720   115893093.40809  22053713.500    90306312.23148
  23965296.760   125938438.16308  23965297.040    98133821.47347
 15 02 28 00 27 30.0000000  0  7G16G18G19G21G22G27G31
  20919217.540   109931254.37109  20919213.640    85660706.26948
  22214772.420   116739491.59409  22214769.420    90965856.61247
  24177718.300   127054761.13807  24177713.780    99003708.40546
  21839643.100   114768097.63709  21839639.300    89429671.94048
  23091635.720   121347432.24208  23091631.300    94556458.86146
  22042878.520   115836154.46809  22042878.360    90261944.24848
  23984045.700   126036963.43608  23984045.700    98210594.34546
 15 02 28 00 28  0.0000000  0  7G16G18G19G21G22G27G31
  20910019.880   109882920.49309  20910016.080    85623043.51448
  22206724.680   116697200.40809  22206721.680    90932902.45647
  24162710.500   126975896.77407  24162706.420    98942255.68746
  21850087.260   114822981.83209  21850083.480    89472438.83548
  23074649.940   121258172.37708  23074645.580    94486905.76646
  22032068.620   115779348.06209  22032068.420    90217679.53948
  24002799.280   126135512.09608  24002798.620    98287385.34346
 15 02 28 00 28 30.0000000  0  7G16G18G19G21G22G27G31
  20900897.020   109834979.74809  20900893.280    85585687.09348
  22198753.000   116655308.96309  22198749.960    90900259.77747
  24147718.060   126897113.23807  24147714.540    98880865.98246
  21860577.260   114878107.03109  21860573.540    89515393.53348
  23057691.000   121169053.75708  23057686.740    94417462.74546
  22021282.720   115722667.96209  22021282.560    90173513.25048
  24021555.580   126234075.43608  24021554.420    98364187.87645
 15 02 28 00 29  0.0000000  0  7G16G18G19G21G22G27G31
  20891850.320   109787439.30809  20891846.660    85548642.61048
  22190858.680   116613824.02109  22190855.640    90867933.86047
  24132742.000   126818415.40807  24132739.060    98819543.07646
  21871113.620   114933476.01809  21871109.960    89558538.20148
  23040760.500   121080084.21008  23040756.300    94348135.88446
  22010521.840   115666119.38409  22010521.720    90129449.45048
  24040315.020   126332655.15308  24040313.600    98441003.15845
 15 02 28 00 29 30.0000000  0  7G16G18G19G21G22G27G31
  20882879.100   109740295.20009  20882875.420    85511906.94148
  22183040.940   116572741.42809  22183037.900    90835921.46547
  24117781.600   126739797.88607  24117778.820    98758282.68946
  21881694.960   114989081.48509  21881691.320    89601867.12448
  23023857.940   120991260.94108  23023853.720    94278923.00546
  21999785.040   115609696.79109  21999784.800    90085483.80348
  24059076.020   126431243.06608  24059074.560    98517824.89646
 15 02 28 00 30  0.0000000  0  7G16G18G19G21G22G27G31
  20873984.380   109693553.03609  20873980.700    85475484.49148
  22175300.780   116532066.60509  22175297.780    90804226.81447
  24102837.500   126661264.61808  24102834.740    98697088.02346
  21892321.720   115044925.47309  21892318.000    89645381.92148
  23006984.460   120902589.80109  23006980.120    94209828.66947
  21989072.960   115553403.90009  21989072.600    90041619.23748
  24077838.440   126529839.48408  24077837.240    98594653.21246
 15 02 28 00 30 30.0000000  0  7G16G18G19G21G22G27G31
  20865166.540   109647214.77709  20865162.900    85439376.75048
  22167638.460   116491801.06709  22167635.500    90772851.08447
  24087909.520   126582815.26808  24087906.460    98635958.70646
  21902993.460   115101006.06809  21902989.780    89689081.07448
  22990140.480   120814073.51609  22990136.020    94140854.98146
  21978385.500   115497240.64509  21978385.080    89997855.67248
  24096601.820   126628441.51408  24096600.760    98671485.90246
 15 02 28 00 31  0.0000000  0  7G16G18G19G21G22G27G31
  20856427.020   109601288.53109  20856423.440    85403590.07548
  22160055.580   116451952.69809  22160052.640    90741800.42247
  24072998.440   126504455.98108  24072995.320    98574899.59346
  21913711.060   115157327.84408  21913707.440    89732968.18248
  22973327.580   120725721.18709  22973323.100    94072009.06746
  21967723.940   115441213.59109  21967723.540    89954198.24648
  24115366.920   126727052.83308  24115366.020    98748325.84746
 15 02 28 00 31 30.0000000  0  7G16G18G19G21G22G27G31
  20847765.100   109555770.04209  20847761.560    85368121.11248
  22152551.200   116412516.57409  22152548.220    90711070.98047
  24058102.960   126426180.67008  24058099.680    98513905.90646
  21924473.000   115213882.61709  21924469.440    89777036.81647
  22956545.100   120637529.13308  22956540.620    94003288.02447
  21957087.080   115385316.53809  21957086.680    89910642.11148
  24134131.900   126825664.15208  24134131.280    98825165.73846
 15 02 28 00 32  0.0000000  0  7G16G18G19G21G22G27G31
  20839181.500   109510662.81909  20839177.880    85332972.63448
  22145125.980   116373496.32709  22145122.920    90680665.61447
  24043223.640   126347991.13907  24043220.320    98452979.02546
  21935279.180   115270669.64708  21935275.620    89821286.45448
  22939793.940   120549501.76609  22939789.420    93934695.31447
  21946475.300   115329551.41009  21946474.820    89867188.78348
  24152896.760   126924274.22708  24152896.240    98902004.68247
 15 02 28 00 32 30.0000000  0  7G16G18G19G21G22G27G31
  20830676.580   109465969.07709  20830672.880    85298146.34748
  22137780.380   116334894.73409  22137777.260    90650586.46247
  24028360.680   126269887.65708  24028357.160    98392119.22845
  21946129.420   115327688.03809  21946125.820    89865716.35947
  22923074.720   120461641.99209  22923070.140    93866233.19946
  21935888.600   115273918.82209  21935888.080    89823838.72648
  24171660.980   127022880.45708  24171660.540    98978840.61546
 15 02 28 00 33  0.0000000  0  7G16G18G19G21G22G27G31
  20822250.120   109421687.79909  20822246.360    85263641.44948
  22130513.940   116296709.59909  22130510.900    90620831.82647
  24013513.700   126191867.38208  24013509.760    98331324.25045
  21957022.660   115384932.18209  21957019.020    89910322.18648
  22906387.300   120373949.23908  22906382.760    93797901.22547
  21925326.540   115218415.65209  21925326.100    89780589.51648
  24190423.280   127121476.84808  24190422.880    99055668.87346
 15 02 28 00 33 30.0000000  0  7G16G18G19G21G22G27G31
  20813902.400   109377820.19709  20813898.600    85229458.90048
  22123326.900   116258942.05909  22123324.000    90591402.58647
  23998682.580   126113929.30208  23998678.360    98270593.36145
  21967958.480   115442400.03309  21967954.800    89955102.32148
  22889732.100   120286425.75408  22889727.720    93729701.15647
  21914789.180   115163041.45209  21914788.680    89737440.80248
  24209183.040   127220060.17308  24209182.760    99132486.96546
 15 02 28 00 34  0.0000000  0  7G16G18G19G21G22G27G31
  20805634.680   109334372.83309  20805630.840    85195603.81348
  22116220.540   116221598.62109  22116217.760    90562303.81847
  23983868.320   126036078.80008  23983863.740    98209930.65845
  21978937.440   115500094.52109  21978933.800    90000059.07347
  22873110.680   120199079.28209  22873106.200    93661639.01747
  21904277.440   115107801.48909  21904276.880    89694396.70448
  24227940.740   127318632.61007  24227940.620    99209296.57846
 15 02 28 00 34 30.0000000  0  7G16G18G19G21G22G27G31
  20797446.900   109291345.45909  20797443.080    85162075.99148
  22109194.780   116184678.41509  22109192.080    90533534.84347
  23969070.260   125958313.58708  23969065.780    98149334.45446
  21989958.820   115558011.93309  21989955.080    90045189.51848
  22856523.020   120111910.20909  22856518.540    93593715.09947
  21893790.900   115052693.74509  21893790.220    89651455.62548
  24246695.320   127417188.80108  24246695.300    99286093.48945
 15 02 28 00 35  0.0000000  0  7G16G18G19G21G22G27G31
  20789340.220   109248744.01909  20789336.380    85128880.06248
  22102250.740   116148187.30709  22102248.000    90505100.23347
  23954289.080   125880637.69708  23954284.740    98088807.83946
  22001022.960   115616154.14709  22001019.080    90090495.13147
  22839970.280   120024925.07008  22839965.860    93525934.50047
  21883330.200   114997722.40009  21883329.500    89608620.81948
  24265447.240   127515730.04308  24265446.980    99362878.74446
 15 02 28 00 35 30.0000000  0  7G16G18G19G21G22G27G31
  20781314.060   109206565.72509  20781310.120    85096013.85948
  22095387.700   116112121.68609  22095384.900    90476997.17547
  23939523.960   125803046.70908  23939519.820    98028347.37946
  22012128.680   115674514.59809  22012124.660    90135970.80747
  22823452.120   119938121.81709  22823447.740    93458295.64047
  21872894.440   114942882.80209  21872893.800    89565888.68448
  24284195.000   127614248.55808  24284194.340    99439646.30145
 15 02 28 00 36  0.0000000  0  7G16G18G19G21G22G27G31
  20773369.120   109164814.91509  20773365.180    85063480.75248
  22088606.440   116076485.84009  22088603.460    90449228.99747
  23924775.340   125725542.51908  23924771.340    97967954.54646
  22023276.120   115733094.28609  22023272.040    90181617.32148
  22806969.540   119851505.48709  22806965.080    93390802.43347
  21862484.280   114888177.67009  21862483.860    89523261.32448
  24302938.500   127712744.61808  24302937.660    99516396.31245
 15 02 28 00 36 30.0000000  0  7G16G18G19G21G22G27G31
  20765505.480   109123491.68109  20765501.600    85031280.82948
  22081906.980   116041280.01609  22081903.900    90421795.91247
  23910043.000   125648123.72108  23910039.060    97907628.25146
  22034464.440   115791889.15209  22034460.360    90227431.50147
  22790522.780   119765077.25109  22790518.200    93323455.79247
  21852099.440   114833605.57009  21852099.320    89480737.62248
  24321676.640   127811213.10708  24321675.860    99593124.87445
 15 02 28 00 37  0.0000000  0  7G16G18G19G21G22G27G31
  20757723.820   109082599.09909  20757720.000    84999416.47248
  22075289.720   116006506.48209  22075286.680    90394699.67747
  23895327.180   125570791.81408  23895323.220    97847369.69446
  22045693.560   115850898.82308  22045689.500    90273413.05847
  22774112.560   119678841.13108  22774107.960    93256258.85847
  21841740.240   114779168.00309  21841740.200    89438318.75348
  24340409.280   127909652.76008  24340408.660    99669830.95546
 15 02 28 00 37 30.0000000  0  7G16G18G19G21G22G27G31
  20750025.100   109042141.94009  20750021.320    84967891.41048
  22068755.620   115972169.73609  22068752.520    90367943.78147
  23880628.340   125493549.72108  23880624.460    97787181.05446
  22056963.760   115910124.89608  22056959.820    90319563.23347
  22757739.980   119592802.61009  22757735.440    93189215.88047
  21831407.200   114724868.01809  21831407.180    89396007.08148
  24359136.300   128008063.66708  24359136.040    99746514.62746
 15 02 28 00 38  0.0000000  0  7G16G18G19G21G22G27G31
  20742408.940   109002118.54409  20742405.160    84936704.33848
  22062304.300   115938268.06509  22062301.160    90341526.90347
  23865945.900   125416393.95308  23865942.000    97727059.73046
  22068274.080   115969561.72508  22068270.300    90365877.62947
  22741404.840   119506961.05708  22741400.380    93122326.38347
  21821099.860   114670702.51509  21821099.720    89353800.20448
  24377856.520   128106439.63407  24377856.760    99823170.98746
 15 02 28 00 38 30.0000000  0  7G16G18G19G21G22G27G31
  20734875.600   108962530.47509  20734871.840    84905856.50548
  22055935.900   115904802.14709  22055932.760    90315449.57647
  23851279.980   125339324.31008  23851276.100    97667005.51646
  22079624.220   116029207.28208  22079620.460    90412354.68647
  22725107.560   119421318.60409  22725103.120    93055592.04047
  21810818.240   114616671.38609  21810817.860    89311698.04348
  24396569.440   128204777.63308  24396569.980    99899797.85446
 15 02 28 00 39  0.0000000  0  7G16G18G19G21G22G27G31
  20727424.940   108923377.35509  20727421.240    84875347.57448
  22049650.300   115871771.38009  22049647.240    90289711.33647
  23836630.160   125262338.71808  23836626.060    97607016.77846
  22091013.320   116089057.17209  22091009.540    90458990.97048
  22708848.320   119335875.62909  22708843.820    92989013.13647
  21800561.860   114562772.58709  21800561.300    89269699.00148
  24415274.200   128303072.34108  24415274.820    99976390.96946
 15 02 28 00 39 30.0000000  0  7G16G18G19G21G22G27G31
  20720058.260   108884665.54209  20720054.640    84845182.52548
  22043448.740   115839181.97509  22043445.720    90264317.01847
  23821997.160   125185441.84208  23821993.180    97547097.19746
  22102441.860   116149114.27409  22102438.020    90505788.70847
  22692628.540   119250639.63109  22692623.840    92922595.50647
  21790331.600   114509011.14309  21790330.940    89227806.97848
  24433971.300   128401325.82508  24433971.980   100052951.92145
 15 02 28 00 40  0.0000000  0  7G16G18G19G21G22G27G31
  20712775.720   108846395.67009  20712772.120    84815361.85048
  22037331.240   115807034.00909  22037328.300    90239266.66147
  23807380.800   125108632.41508  23807377.120    97487245.74546
  22113909.380   116209376.03109  22113905.520    90552745.91148
  22676448.340   119165611.78609  22676443.520    92856340.07147
  21780127.180   114455385.92909  21780126.420    89186021.10948
  24452659.900   128499533.90708  24452660.580   100129477.49945
 15 02 28 00 40 30.0000000  0  7G16G18G19G21G22G27G31
  20705577.700   108808569.70409  20705574.080    84785887.07148
  22031298.020   115775328.90109  22031295.040    90214561.39247
  23792781.200   125031910.97808  23792777.640    97427462.82546
  22125415.500   116269840.79209  22125411.680    90599861.30547
  22660308.320   119080795.23009  22660303.500    92790249.28047
  21769948.760   114401897.51909  21769947.860    89144341.84148
  24471339.440   128597694.36408  24471339.920   100205965.97445
 15 02 28 00 41  0.0000000  0  7G16G18G19G21G22G27G31
  20698464.480   108771189.05009  20698460.800    84756759.28448
  22025349.300   115744067.87509  22025346.280    90190202.17347
  23778198.340   124955277.15608  23778194.800    97367748.20646
  22136959.780   116330506.21209  22136955.920    90647133.05447
  22644208.920   118996192.39609  22644204.120    92724325.03347
  21759796.340   114348545.91109  21759795.420    89102769.17348
  24490009.260   128695803.92708  24490009.440   100282414.80644
 15 02 28 00 41 30.0000000  0  7G16G18G19G21G22G27G31
  20691436.140   108734254.62209  20691432.420    84727979.21048
  22019485.140   115713251.45909  22019482.000    90166189.39847
  23763632.120   124878730.13408  23763628.340    97308101.21246
  22148541.660   116391369.42809  22148537.760    90694558.94147
  22628150.380   118911804.63509  22628145.640    92658568.37147
  21749669.760   114295330.24809  21749668.720    89061302.43948
  24508668.640   128793858.89508  24508668.740   100358821.06445
 15 02 28 00 42  0.0000000  0  7G16G18G19G21G22G27G31
  20684493.720   108697771.88509  20684489.980    84699551.09648
  22013706.540   115682884.76809  22013703.380    90142527.04647
  23749083.000   124802273.36708  23749078.940    97248524.55246
  22160161.600   116452432.74109  22160157.660    90742140.73347
  22612134.080   118827638.68909  22612129.340    92592984.54247
  21739569.800   114242254.67609  21739568.660    89019944.85748
  24527317.820   128891860.55308  24527318.000   100435185.76345
 15 02 28 00 42 30.0000000  0  7G16G18G19G21G22G27G31
  20677637.320   108661740.83909  20677633.460    84671474.95448
  22008013.380   115652966.89809  22008010.220    90119214.44047
  23734550.720   124725905.62808  23734546.740    97189017.25847
  22171818.820   116513692.06608  22171814.900    90789875.26047
  22596160.100   118743695.12209  22596155.360    92527574.00947
  21729496.140   114189317.72409  21729494.960    88978695.30848
  24545955.920   128989804.11708  24545956.160   100511505.16545
 15 02 28 00 43  0.0000000  0  7G16G18G19G21G22G27G31
  20670867.060   108626162.40009  20670863.040    84643751.49848
  22002405.880   115623498.89209  22002402.560    90096252.37447
  23720035.260   124649626.35508  23720031.200    97129578.91446
  22183513.020   116575145.49609  22183509.160    90837761.05047
  22580228.840   118659976.09609  22580224.120    92462338.43747
  21719448.740   114136518.84009  21719447.560    88937553.33748
  24564582.380   129087685.94808  24564582.740   100587776.46745
 15 02 28 00 43 30.0000000  0  7G16G18G19G21G22G27G31
  20664182.240   108591033.35709  20664178.200    84616378.22348
  21996883.320   115594477.30709  21996879.820    90073638.17047
  23705535.760   124573430.39008  23705531.420    97070205.47646
  22195242.880   116636786.26608  22195239.020    90885792.81047
  22564339.840   118576479.76009  22564335.320    92397276.38247
  21709426.820   114083853.64409  21709425.720    88896515.54148
  24583195.820   129185498.92407  24583196.260   100663994.08245
 15 02 28 00 44  0.0000000  0  7G16G18G19G21G22G27G31
  20657584.480   108556362.18309  20657580.540    84589361.72248
  21991447.200   115565909.82809  21991443.620    90051377.81147
  23691053.420   124497324.58808  23691048.760    97010902.29546
  22207009.260   116698618.96808  22207005.400    90933974.13147
  22548494.920   118493214.99709  22548490.520    92332394.77747
  21699431.700   114031329.01109  21699430.760    88855587.26348
  24601796.900   129283246.68008  24601797.520   100740160.83545
 15 02 28 00 44 30.0000000  0  7G16G18G19G21G22G27G31
  20651074.460   108522152.51509  20651070.660    84562704.84148
  21986097.940   115537799.15409  21986094.360    90029473.40847
  23676588.480   124421310.77908  23676583.780    96951670.80446
  22218812.220   116760644.05208  22218808.360    90982305.36347
  22532694.960   118410186.03609  22532690.560    92267696.92047
  21689463.700   113978947.06909  21689462.760    88814770.18048
  24620385.380   129380928.31407  24620386.320   100816276.10246
 15 02 28 00 45  0.0000000  0  7G16G18G19G21G22G27G31
  20644652.120   108488403.55209  20644648.440    84536406.95048
  21980835.380   115510144.36409  21980831.820    90007924.22747
  23662140.500   124345386.74908  23662135.940    96892509.29446
  22230650.840   116822856.69308  22230647.060    91030782.72947
  22516940.000   118327393.25409  22516935.520    92203183.09347
  21679522.460   113926705.62709  21679521.420    88774062.58748
  24638960.220   129478538.74307  24638961.420   100892335.82846
 15 02 28 00 45 30.0000000  0  7G16G18G19G21G22G27G31
  20638317.320   108455114.57109  20638313.700    84510467.48248
  21975659.340   115482944.38709  21975655.740    89986729.45347
  23647709.240   124269550.21008  23647704.760    96833415.91446
  22242524.540   116885253.49008  22242520.820    91079403.59947
  22501229.980   118244837.11709  22501225.540    92138853.66647
  21669607.580   113874602.78309  21669606.540    88733462.98748
  24657520.720   129576073.31007  24657521.960   100968336.43545
 15 02 28 00 46  0.0000000  0  7G16G18G19G21G22G27G31
  20632070.540   108422288.17209  20632067.080    84484888.46648
  21970570.320   115456201.52209  21970566.700    89965890.86747
  23633294.840   124193802.12908  23633290.540    96774391.48346
  22254433.120   116947833.28209  22254429.320    91128167.06547
  22485565.680   118162520.98609  22485561.260    92074711.25747
  21659719.260   113822639.69409  21659718.360    88692972.28148
  24676066.400   129673529.94807  24676067.720   101044276.30845
 15 02 28 00 46 30.0000000  0  7G16G18G19G21G22G27G31
  20625912.760   108389929.49509  20625909.520    84459673.91948
  21965569.140   115429920.53309  21965565.700    89945412.20047
  23618898.020   124118146.66308  23618893.860    96715439.23546
  22266376.880   117010598.02008  22266373.040    91177074.64947
  22469948.420   118080451.47609  22469943.940    92010761.02247
  21649858.320   113770820.28609  21649857.540    88652593.53648
  24694597.480   129770909.93807  24694599.080   101120156.41446
 15 02 28 00 47  0.0000000  0  6G16G18G19G21G22G27
  20619841.480   108358024.94309  20619838.280    84434813.22948
  21960653.080   115404086.90709  21960649.800    89925282.10947
  23604515.860   124042568.34708  23604511.620    96656547.08946
  22278352.520   117073530.49009  22278348.700    91226112.93047
  22454375.640   117998615.31509  22454370.940    91946992.62247
  21640021.880   113719129.53709  21640021.100    88612315.04648
 15 02 28 00 47 30.0000000  0  6G16G18G19G21G22G27
  20613861.980   108326602.45809  20613858.760    84410328.17848
  21955827.440   115378728.42109  21955824.240    89905522.26547
  23590153.420   123967093.80608  23590148.980    96597735.80446
  22290364.840   117136655.41909  22290361.000    91275301.17447
  22438852.760   117917041.64209  22438847.740    91883428.74347
  21630215.100   113667594.14509  21630214.160    88572157.60648
 15 02 28 00 48  0.0000000  0  6G16G18G19G21G22G27
  20607971.400   108295647.39009  20607968.200    84386207.34448
  21951089.380   115353829.94709  21951086.200    89886120.86847
  23575807.460   123891706.35208  23575802.780    96538992.39546
  22302410.420   117199954.90909  22302406.520    91324625.44847
  22423377.200   117835716.99909  22423372.080    91820058.91447
  21620434.780   113616198.14309  21620433.760    88532108.79448
 15 02 28 00 48 30.0000000  0  6G16G18G19G21G22G27
  20602171.080   108265166.61909  20602167.900    84362456.09748
  21946440.060   115329397.77109  21946436.860    89867082.81747
  23561479.160   123816411.47608  23561474.420    96480321.11446
  22314489.780   117263432.11409  22314485.880    91374088.19747
  22407950.460   117754649.27709  22407945.500    91756889.28747
  21610682.040   113564947.20109  21610681.020    88492173.00948
 15 02 28 00 49  0.0000000  0  6G16G18G19G21G22G27
  20596460.820   108235159.05209  20596457.680    84339073.57848
  21941879.180   115305430.16109  21941875.940    89848406.77847
  23547168.080   123741206.62708  23547163.340    96421719.99846
  22326602.040   117327082.57508  22326598.200    91423685.95247
  22392572.460   117673838.05409  22392567.720    91693919.52947
  21600956.480   113513838.92209  21600955.380    88452348.39548
 15 02 28 00 49 30.0000000  0  6G16G18G19G21G22G27
  20590840.780   108205625.43809  20590837.620    84316060.37048
  21937406.740   115281927.35209  21937403.540    89830092.91447
  23532874.080   123666091.14708  23532869.460    96363188.51746
  22338746.800   117390903.84408  22338743.040    91473416.79647
  22377243.640   117593285.20509  22377239.040    91631151.10447
  21591258.020   113462872.84809  21591256.820    88412634.57948
 15 02 28 00 50  0.0000000  0  6G16G18G19G21G22G27
  20585312.080   108176571.58709  20585308.820    84293420.99948
  21933023.800   115258894.73109  21933020.660    89812145.42447
  23518597.880   123591069.42008  23518593.500    96304730.08446
  22350924.500   117454898.33908  22350920.800    91523282.63547
  22361965.300   117512997.39809  22361960.700    91568589.19447
  21581587.460   113412053.54909  21581586.220    88373035.13648
 15 02 28 00 50 30.0000000  0  6G16G18G19G21G22G27
  20579874.660   108147997.25309  20579871.300    84271155.28848
  21928730.160   115236332.05509  21928727.140    89794564.13647
  23504339.200   123516140.08208  23504335.140    96246343.62146
  22363134.580   117519062.96309  22363130.900    91573281.02747
  22346737.720   117432976.06509  22346733.080    91506234.93447
  21571944.560   113361380.11509  21571943.420    88333549.35148
 15 02 28 00 51  0.0000000  0  6G16G18G19G21G22G27
  20574528.620   108119903.44709  20574525.200    84249264.00748
  21924525.880   115214238.87409  21924522.920    89777348.68147
  23490097.840   123441302.17608  23490094.260    96188028.41946
  22375376.560   117583395.12808  22375372.880    91623409.97647
  22331561.140   117353222.71209  22331556.520    91444089.49347
  21562329.260   113310851.80609  21562328.280    88294176.64248
 15 02 28 00 51 30.0000000  0  6G16G18G19G21G22G27
  20569273.980   108092290.31409  20569270.620    84227747.28648
  21920410.960   115192615.09709  21920407.960    89760498.99847
  23475873.640   123366554.37008  23475870.040    96129783.40246
  22387649.900   117647892.04409  22387646.160    91673667.30947
  22316435.800   117273738.72109  22316431.240    91382153.93847
  21552741.440   113260467.74709  21552740.620    88254916.34548
 15 02 28 00 52  0.0000000  0  6G16G18G19G21G22G27
  20564110.940   108065158.72109  20564107.640    84206605.77748
  21916385.560   115171461.42709  21916382.520    89744015.63047
  23461666.660   123291896.54308  23461662.820    96071608.52146
  22399954.080   117712551.02208  22399950.340    91724050.92147
  22301362.080   117194525.88809  22301357.580    91320429.68347
  21543181.000   113210227.59009  21543180.200    88215768.17948
 15 02 28 00 52 30.0000000  0  6G16G18G19G21G22G27
  20559040.160   108038511.76809  20559036.900    84185841.91848
  21912450.040   115150779.95609  21912446.900    89727900.21447
  23447477.280   123217330.80608  23447473.060    96013505.40547
  22412289.140   117777372.27408  22412285.380    91774560.98947
  22286340.860   117115588.69709  22286336.360    91258920.21547
  21533648.280   113160133.57809  21533647.600    88176733.90348
 15 02 28 00 53  0.0000000  0  6G16G18G19G21G22G27
  20554062.000   108012351.42609  20554058.800    84165457.22748
  21908604.660   115130572.45109  21908601.520    89712154.11647
  23433305.480   123142857.43408  23433301.200    95955474.25747
  22424654.820   117842354.36908  22424651.100    91825196.37747
  22271372.640   117036930.11209  22271368.060    91197627.83747
  21524143.520   113110186.52109  21524143.040    88137814.12448
 15 02 28 00 53 30.0000000  0  6G16G18G19G21G22G27
  20549177.520   107986683.12409  20549174.280    84145455.95148
  21904850.420   115110843.70709  21904847.260    89696781.08447
  23419151.960   123068480.32408  23419147.800    95897518.10447
  22437051.480   117907499.38508  22437047.820    91875958.72047
  22256458.560   116958556.45509  22256453.940    91136557.46847
  21514667.620   113060390.60909  21514667.220    88099012.11948
 15 02 28 00 54  0.0000000  0  6G16G18G19G21G22G27
  20544385.800   107961502.21909  20544382.500    84125834.46248
  21901186.360   115091588.82109  21901183.160    89681777.29347
  23405015.620   122994193.76808  23405011.700    95839632.51947
  22449477.760   117972799.69108  22449474.140    91926842.06647
  22241598.060   116880464.24209  22241593.400    91075706.41547
  21505219.560   113010740.46609  21505219.120    88060323.70848
 15 02 28 00 54 30.0000000  0  6G16G18G19G21G22G27
  20539687.380   107936811.81309  20539684.080    84106595.17348
  21897612.820   115072809.98909  21897609.660    89667144.43947
  23390896.920   122919999.39608  23390893.160    95781818.76047
  22461933.640   118038255.51708  22461930.040    91977846.59047
  22226792.000   116802657.69809  22226787.280    91015077.95848
  21495799.720   112961238.03709  21495799.040    88021750.38548
 15 02 28 00 55  0.0000000  0  6G16G18G19G21G22G27
  20535082.900   107912614.94409  20535079.540    84087740.47048
  21894130.340   115054509.60609  21894127.240    89652884.42347
  23376796.260   122845899.39208  23376792.500    95724078.54847
  22474419.080   118103866.67909  22474415.440    92028972.16247
  22212041.160   116725141.08309  22212036.400    90954675.43547
  21486408.400   112911885.50109  21486407.460    87983293.88348
 15 02 28 00 55 30.0000000  0  6G16G18G19G21G22G27
  20530572.460   107888912.27709  20530569.140    84069270.85148
  21890739.080   115036687.92309  21890735.900    89638997.40747
  23362713.340   122771892.52508  23362709.300    95666410.88446
  22486933.580   118169630.54709  22486929.840    92080216.72147
  22197345.700   116647915.96609  22197340.960    90894500.03848
  21477045.460   112862682.18309  21477044.320    87944953.64448
 15 02 28 00 56  0.0000000  0  6G16G18G19G21G22G27
  20526156.320   107865705.05809  20526152.980    84051187.30448
  21887439.020   115019345.52109  21887435.740    89625483.86147
  23348648.180   122697979.11908  23348643.680    95608816.07546
  22499476.860   118235545.49709  22499472.980    92131579.02647
  22182706.240   116570985.10609  22182701.580    90834553.93447
  21467710.920   112813628.50309  21467709.680    87906729.99948
 15 02 28 00 56 30.0000000  0  6G16G18G19G21G22G27
  20521834.960   107842996.09509  20521831.580    84033492.01248
  21884230.520   115002484.92109  21884227.280    89612345.74647
  23334601.020   122624160.89008  23334596.160    95551295.42446
  22512048.840   118301611.16709  22512044.920    92183058.75847
  22168123.520   116494352.05609  22168118.860    90774839.90448
  21458405.200   112764726.49609  21458403.920    87868624.54748
 15 02 28 00 57  0.0000000  0  6G16G18G19G21G22G27
  20517607.940   107820782.73409  20517604.520    84016182.89148
  21881113.040   114986102.65209  21881109.860    89599580.35047
  23320571.120   122550433.86708  23320566.140    95493845.83946
