     2.11           OBSERVATION DATA    G                   RINEX VERSION / TYPE
SPIDER V4,0,0,3554                      2015 03 17 00:01    PGM / RUN BY / DATE 
ABZH                                                        MARKER NAME         
ABZH                                                        MARKER NUMBER       
                                                            OBSERVER / AGENCY   
462405              LEICA GRX1200PRO    8.20/2.127          REC # / TYPE / VERS 
103261              LEIAT504                                ANT # / TYPE        
  5106694.6829   270584.9059  3799508.1083                  APPROX POSITION XYZ 
        0.0770        0.0000        0.0000                  ANTENNA: DELTA H/E/N
     1     1                                                WAVELENGTH FACT L1/2
     4    C1    L1    P2    L2                              # / TYPES OF OBSERV 
    30.000                                                  INTERVAL            
  2015    02    28    00    00    0.0000000     GPS         TIME OF FIRST OBS   
  2015    02    28    23    59   30.0000000     GPS         TIME OF LAST OBS    
    16                                                      LEAP SECONDS        
    30                                                      # OF SATELLITES     
   G 1   819   819   819   819                              PRN / # OF OBS      
   G 2   920   920   917   917                              PRN / # OF OBS      
   G 3   834   834   834   834                              PRN / # OF OBS      
   G 4   833   833   833   833                              PRN / # OF OBS      
   G 5   662   662   662   662                              PRN / # OF OBS      
   G 6   785   785   785   785                              PRN / # OF OBS      
   G 7   651   651   651   651                              PRN / # OF OBS      
   G 9   785   785   785   785                              PRN / # OF OBS      
   G10   770   770   770   770                              PRN / # OF OBS      
   G11   784   784   784   784                              PRN / # OF OBS      
   G12   810   810   808   808                              PRN / # OF OBS      
   G13   807   807   807   807                              PRN / # OF OBS      
   G14   902   902   898   898                              PRN / # OF OBS      
   G15   720   720   720   720                              PRN / # OF OBS      
   G16   678   678   678   678                              PRN / # OF OBS      
   G17   927   927   922   922                              PRN / # OF OBS      
   G18   913   913   913   913                              PRN / # OF OBS      
   G19   768   768   768   768                              PRN / # OF OBS      
   G20   786   786   786   786                              PRN / # OF OBS      
   G21   705   705   705   705                              PRN / # OF OBS      
   G22   759   759   758   758                              PRN / # OF OBS      
   G23   732   732   732   732                              PRN / # OF OBS      
   G24   826   826   826   826                              PRN / # OF OBS      
   G25   831   831   831   831                              PRN / # OF OBS      
   G27   817   817   817   817                              PRN / # OF OBS      
   G28   886   886   882   882                              PRN / # OF OBS      
   G29   746   746   746   746                              PRN / # OF OBS      
   G30   696   696   696   696                              PRN / # OF OBS      
   G31   821   821   821   821                              PRN / # OF OBS      
   G32   746   746   746   746                              PRN / # OF OBS      
BIT 2 OF LLI FLAGS DATA COLLECTED UNDER A/S CONDITION       COMMENT             
SNR is mapped to RINEX snr flag value [2-9]                 COMMENT             
Lx:     = 25dBHz -> 1; 26-27dBHz -> 2; 28-31dBHz -> 3       COMMENT             
       32-35dBHz -> 4; 36-38dBHz -> 5; 39-41dBHz -> 6       COMMENT             
       42-44dBHz -> 7; 45-48dBHz -> 8; >=49dBHz -> 9        COMMENT             
                                                            END OF HEADER       
 15 02 28 00 00  0.0000000  0  7G16G18G21G22G27G29G31
  21543425.560   113211481.90208  21543424.780    88216750.42347
  22737623.420   119487071.07907  22737623.720    93106784.24245
  21318225.280   112028028.28708  21318224.240    87294563.47347
  24064629.120   126460547.79006  24064629.880    98540701.33544
  22721947.940   119404678.83107  22721950.960    93042628.52046
  24074048.500   126509962.04206  24074049.120    98579187.86244
  23019142.900   120966394.19507  23019142.840    94259519.65646
 15 02 28 00 00 30.0000000  0  7G16G18G21G22G27G29G31
  21530617.600   113144175.72508  21530616.840    88164304.06247
  22725829.840   119425095.17207  22725830.200    93058491.36045
  21325404.860   112065757.18708  21325403.740    87323962.62647
  24046799.520   126366853.55306  24046800.120    98467693.15644
  22709618.200   119339885.64907  22709621.240    92992140.35346
  24088659.060   126586740.66906  24088659.760    98639015.35445
  23036881.640   121059612.08707  23036881.580    94332156.92146
 15 02 28 00 01  0.0000000  0  7G16G18G21G22G27G29G31
  21517864.480   113077157.63008  21517863.620    88112082.17247
  22714091.340   119363408.45407  22714091.640    93010423.80445
  21332650.040   112103830.78608  21332648.860    87353630.36647
  24028969.920   126273159.49406  24028970.220    98394685.07944
  22697312.240   119275216.67307  22697315.100    92941748.99546
  24103273.920   126663542.24505  24103274.520    98698860.69145
  23054653.860   121153006.51107  23054654.020    94404931.73245
 15 02 28 00 01 30.0000000  0  7G16G18G21G22G27G29G31
  21505165.520   113010424.30808  21505164.620    88060082.19147
  22702407.300   119302007.74508  22702407.420    92962579.11245
  21339959.460   112142242.13908  21339958.260    87383561.29048
  24011139.940   126179462.82706  24011140.000    98321674.96945
  22685028.860   119210666.70207  22685031.500    92891450.34146
  24117892.120   126740361.33606  24117892.820    98758719.70044
  23072458.260   121246569.24307  23072458.620    94477837.71446
 15 02 28 00 02  0.0000000  0  7G16G18G21G22G27G29G31
  21492521.280   112943978.19909  21492520.360    88008306.00947
  22690778.180   119240895.73708  22690778.040    92914959.38845
  21347332.820   112180989.70408  21347331.580    87413754.20448
  23993309.860   126085766.31706  23993309.800    98248664.97443
  22672768.140   119146235.73707  22672770.660    92841244.42746
  24132513.620   126817197.37506  24132514.260    98818591.94444
  23090294.220   121340297.12607  23090294.620    94550872.37045
 15 02 28 00 02 30.0000000  0  7G16G18G21G22G27G29G31
  21479932.360   112877822.79409  21479931.420    87956756.34247
  22679204.680   119180076.36608  22679204.440    92867567.69745
  21354770.000   112220072.70408  21354768.860    87444208.49448
  23975480.560   125992074.29706  23975480.640    98175658.45745
  22660530.360   119081925.38508  22660532.740    92791132.48546
  24147138.720   126894052.76006  24147139.380    98878479.25744
  23108161.460   121434189.03907  23108161.760    94624034.84745
 15 02 28 00 03  0.0000000  0  7G16G18G21G22G27G29G31
  21467398.760   112811957.90309  21467397.700    87905433.05347
  22667686.780   119119549.24008  22667686.460    92820403.70945
  21362270.320   112259487.25108  21362269.220    87474921.12648
  23957652.040   125898386.56306  23957652.300    98102655.25845
  22648315.120   119017733.13808  22648317.340    92741112.59146
  24161766.960   126970924.15206  24161767.540    98938378.99044
  23126058.940   121528239.28608  23126058.980    94697320.67645
 15 02 28 00 03 30.0000000  0  7G16G18G21G22G27G29G31
  21454920.980   112746386.68708  21454919.840    87854338.60147
  22656225.100   119059317.71108  22656224.680    92773470.08945
  21369833.660   112299232.97108  21369832.620    87505891.81948
  23939825.160   125804706.92206  23939825.520    98029658.36045
  22636122.420   118953660.00907  22636124.720    92691185.51446
  24176398.500   127047812.45206  24176399.220    98998291.94944
  23143986.100   121622445.83207  23143985.900    94770728.31445
 15 02 28 00 04  0.0000000  0  7G16G18G21G22G27G29G31
  21442499.560   112681112.18108  21442498.540    87803475.35847
  22644820.360   118999385.75707  22644820.000    92726769.86945
  21377459.800   112339308.53608  21377458.840    87537119.53248
  23922000.620   125711038.97806  23922000.800    97956670.58344
  22623952.640   118889707.26008  22623954.940    92641352.23646
  24191033.380   127124718.51706  24191034.040    99058218.72044
  23161942.600   121716807.11907  23161942.280    94844256.51745
 15 02 28 00 04 30.0000000  0  7G16G18G21G22G27G29G31
  21430135.100   112616137.28308  21430134.340    87752845.58947
  22633473.020   118939755.85308  22633472.940    92680305.01745
  21385148.680   112379713.64208  21385147.740    87568604.03047
  23904178.860   125617385.86206  23904178.800    97883694.32545
  22611805.940   118825875.47408  22611808.040    92591613.21146
  24205671.620   127201643.05506  24205672.460    99118159.88244
  23179927.780   121811320.39007  23179927.500    94917903.17045
 15 02 28 00 05  0.0000000  0  7G16G18G21G22G27G29G31
  21417828.020   112551463.55908  21417827.380    87702450.48647
  22622183.600   118880429.82108  22622183.700    92634076.96945
  21392899.820   112420445.95808  21392898.900    87600343.49948
  23886360.360   125523749.63306  23886360.180    97810731.21844
  22599682.040   118762164.13908  22599684.180    92541968.04146
  24220313.280   127278585.28006  24220314.220    99178114.86444
  23197941.160   121905982.48907  23197941.120    94991665.77145
 15 02 28 00 05 30.0000000  0  7G16G18G21G22G27G29G31
  21405578.580   112487092.45408  21405578.000    87652291.18347
  22610952.320   118821409.42707  22610952.460    92588087.07045
  21400712.720   112461502.69608  21400711.760    87632335.76548
  23868545.600   125430132.46106  23868545.240    97737782.96344
  22587580.960   118698572.76308  22587583.140    92492416.34046
  24234958.160   127355544.81506  24234959.040    99238083.28344
  23215982.280   122000790.02907  23215982.380    95065541.71345
 15 02 28 00 06  0.0000000  0  7G16G18G21G22G27G29G31
  21393387.240   112423026.66908  21393386.740    87602369.80747
  22599779.860   118762697.79608  22599779.800    92542337.77645
  21408587.160   112502883.04708  21408586.200    87664580.19848
  23850734.920   125336537.54906  23850734.300    97664852.02744
  22575502.860   118635101.93508  22575504.960    92442958.58246
  24249606.420   127432522.05306  24249607.220    99298065.53144
  23234050.700   122095740.44907  23234050.900    95139528.97345
 15 02 28 00 06 30.0000000  0  7G16G18G21G22G27G29G31
  21381254.440   112359267.88409  21381253.860    87552687.63647
  22588666.440   118704296.62608  22588666.300    92496830.38345
  21416522.680   112544584.65508  21416521.780    87697074.96148
  23832928.720   125242966.71306  23832928.080    97591939.87144
  22563447.540   118571751.00808  22563449.740    92393594.25146
  24264257.880   127509516.02206  24264258.460    99358060.81144
  23252145.640   122190829.96307  23252145.840    95213624.63346
 15 02 28 00 07  0.0000000  0  7G16G18G21G22G27G29G31
  21369181.020   112295821.44909  21369180.380    87503248.86847
  22577613.200   118646211.38508  22577612.980    92451569.17645
  21424519.600   112586608.84708  21424518.660    87729821.08347
  23815128.280   125149425.82306  23815127.580    97519051.02444
  22551415.640   118508523.29407  22551417.800    92344325.90246
  24278912.860   127586529.62306  24278913.460    99418071.41343
  23270267.200   122286058.80207  23270267.260    95287828.78845
 15 02 28 00 07 30.0000000  0  7G16G18G21G22G27G29G31
  21357166.320   112232683.54609  21357165.640    87454050.51047
  22566619.320   118588438.10808  22566619.060    92406551.06345
  21432576.440   112628948.16108  21432575.460    87762812.75647
  23797332.820   125055911.36106  23797332.120    97446182.78045
  22539405.980   118445412.83807  22539408.080    92295148.94946
  24293570.640   127663556.89206  24293571.160    99478092.60044
  23288413.660   122381417.69807  23288413.560    95362134.23245
 15 02 28 00 08  0.0000000  0  7G16G18G21G22G27G29G31
  21345211.600   112169860.53209  21345210.840    87405097.51947
  22555686.120   118530983.92508  22555685.840    92361781.60545
  21440693.780   112671605.17108  21440692.760    87796051.99147
  23779544.040   124962430.86406  23779543.040    97373340.97644
  22527419.560   118382424.18507  22527421.620    92246066.90946
  24308231.880   127740602.48605  24308232.560    99538128.11644
  23306585.320   122476908.81007  23306585.000    95436542.78745
 15 02 28 00 08 30.0000000  0  7G16G18G21G22G27G29G31
  21333316.680   112107352.18009  21333315.940    87356389.71847
  22544813.480   118473848.52008  22544813.320    92317260.51645
  21448870.780   112714575.55108  21448869.720    87829535.40247
  23761761.700   124868984.36506  23761760.540    97300525.66744
  22515455.900   118319555.05907  22515458.040    92197078.00446
  24322896.080   127817663.44006  24322896.920    99598175.58644
  23324780.800   122572526.47707  23324780.400    95511049.95545
 15 02 28 00 09  0.0000000  0  7G16G18G21G22G27G29G31
  21321482.480   112045162.77909  21321481.680    87307930.44247
  22534002.460   118417036.25608  22534002.300    92272991.23845
  21457107.480   112757860.00908  21457106.540    87863263.55748
  23743986.580   124775576.25206  23743985.360    97227740.26545
  22503515.280   118256807.34207  22503517.640    92148183.70246
  24337563.660   127894741.83305  24337564.320    99658236.64743
  23343000.160   122668269.90507  23342999.880    95585655.14445
 15 02 28 00 09 30.0000000  0  7G16G18G21G22G27G29G31
  21309709.620   111983295.70609  21309708.740    87259722.33647
  22523253.600   118360550.59208  22523253.500    92228976.45945
  21465403.660   112801457.26008  21465402.880    87897235.43947
  23726219.500   124682210.63806  23726218.440    97154987.97245
  22491598.040   118194182.49307  22491600.560    92099385.13746
  24352234.660   127971839.02605  24352235.280    99718312.36144
  23361243.020   122764137.36407  23361243.020    95660356.96245
 15 02 28 00 10  0.0000000  0  7G16G18G21G22G27G29G31
  21297997.840   111921750.07909  21297996.960    87211764.70847
  22512566.640   118304390.83208  22512566.600    92185215.62845
  21473758.740   112845363.63808  21473758.000    87931448.20847
  23708460.520   124588887.58006  23708459.620    97082268.85044
  22479703.620   118131677.69807  22479706.340    92050680.13446
  24366908.680   128048952.21805  24366909.560    99778400.52144
  23379508.440   122860122.64207  23379508.660    95735150.53345
 15 02 28 00 10 30.0000000  0  7G16G18G21G22G27G29G31
  21286347.860   111860529.28309  21286346.980    87164060.19247
  22501942.360   118248560.41508  22501942.340    92141711.42945
  21482172.420   112889578.00108  21482171.740    87965900.96247
  23690710.400   124495610.38806  23690709.460    97009585.40544
  22467832.300   118069294.06307  22467835.180    92002069.54546
  24381585.720   128126081.97105  24381586.840    99838501.61144
  23397796.040   122956224.18507  23397796.340    95810034.74845
 15 02 28 00 11  0.0000000  0  7G16G18G21G22G27G29G31
  21274759.600   111799633.05209  21274758.760    87116608.59247
  22491380.820   118193059.46308  22491380.860    92098463.96745
  21490643.980   112934096.36308  21490643.320    88000590.59647
  23672969.040   124402379.53206  23672968.160    96936938.13445
  22455983.760   118007029.55508  22455986.600    91953551.76046
  24396265.680   128203226.07305  24396267.060    99898613.83744
  23416104.860   123052436.81107  23416105.180    95885005.50545
 15 02 28 00 11 30.0000000  0  7G16G18G21G22G27G29G31
  21263234.160   111739066.69509  21263233.360    87069414.03247
  22480883.080   118137892.97608  22480883.000    92055477.11045
  21499173.620   112978919.72108  21499172.920    88035517.89147
  23655237.600   124309200.65406  23655236.800    96864331.35345
  22444158.500   117944887.01008  22444161.260    91905129.02946
  24410949.000   128280387.42705  24410950.640    99958739.56845
  23434434.920   123148760.51007  23434435.120    95960062.80645
 15 02 28 00 12  0.0000000  0  7G16G18G21G22G27G29G31
  21251771.380   111678829.45909  21251770.600    87022475.92547
  22470448.840   118083060.31208  22470448.660    92012750.38645
  21507760.540   113024044.18208  21507759.820    88070679.80047
  23637516.200   124216073.61607  23637515.280    96791764.93945
  22432356.060   117882863.95008  22432358.620    91856799.39046
  24425635.240   128357563.32706  24425636.920   100018876.58445
  23452784.960   123245189.49607  23452785.000    96035202.06345
 15 02 28 00 12 30.0000000  0  7G16G18G21G22G27G29G31
  21240372.480   111618927.69609  21240371.700    86975799.23547
  22460079.440   118028568.37108  22460079.260    91970289.14845
  21516405.260   113069472.09608  21516404.440    88106078.17547
  23619806.180   124123005.55907  23619804.780    96719244.46144
  22420577.160   117820964.63508  22420579.480    91808566.16446
  24440324.940   128434757.80905  24440326.800   100079028.09544
  23471155.320   123341725.07307  23471155.180    96110424.45545
 15 02 28 00 13  0.0000000  0  7G16G18G21G22G27G29G31
  21229037.680   111559363.01909  21229036.880    86929385.20847
  22449775.060   117974418.26008  22449774.920    91928094.26845
  21525107.180   113115200.49508  21525106.200    88141710.69947
  23602107.680   124029998.25207  23602105.820    96646771.32544
  22408821.640   117759188.44508  22408823.900    91760428.89346
  24455017.880   128511969.99805  24455019.840   100139193.42544
  23489545.160   123438363.62807  23489544.900    96185727.10445
 15 02 28 00 13 30.0000000  0  7G16G18G21G22G27G29G31
  21217766.840   111500134.64709  21217766.060    86883233.23647
  22439535.600   117920609.64508  22439535.540    91886165.50045
  21533865.540   113161225.76708  21533864.480    88177574.54547
  23584420.740   123937051.84807  23584418.760    96574345.69345
  22397089.060   117697532.86408  22397091.180    91712385.60046
  24469713.840   128589197.47105  24469715.740   100199370.63844
  23507953.200   123535099.61406  23507953.240    96261105.69445
 15 02 28 00 14  0.0000000  0  7G16G18G21G22G27G29G31
  21206560.740   111441246.05709  21206559.900    86837346.02147
  22429361.760   117867146.09108  22429361.700    91844505.61045
  21542680.080   113207546.20308  21542678.920    88213668.39047
  23566746.020   123844170.18107  23566743.940    96501970.46245
  22385379.700   117635999.34108  22385381.660    91664437.42546
  24484412.980   128666441.47905  24484414.640   100259560.77843
  23526379.500   123631931.57707  23526379.920    96336559.04545
 15 02 28 00 14 30.0000000  0  7G16G18G21G22G27G29G31
  21195420.300   111382702.55309  21195419.440    86791727.72048
  22419254.580   117814032.69908  22419254.460    91803118.56845
  21551551.200   113254163.98808  21551549.960    88249993.93947
  23549084.580   123751358.77507  23549082.500    96429649.99845
  22373694.020   117574590.71008  22373695.940    91616586.56246
  24499115.500   128743704.47105  24499117.320   100319765.66444
  23544824.120   123728858.88007  23544824.740    96412086.67345
 15 02 28 00 15  0.0000000  0  7G16G18G21G22G27G29G31
  21184344.960   111324501.24809  21184344.140    86746376.05247
  22409213.540   117761266.61508  22409213.320    91762002.14345
  21560477.620   113301072.20308  21560476.260    88286545.79247
  23531435.980   123658615.75407  23531433.940    96357382.78944
  22362031.240   117513302.31708  22362033.200    91568829.38047
  24513820.900   128820981.87206  24513822.780   100379981.78643
  23563285.620   123825874.05307  23563286.200    96487682.74545
 15 02 28 00 15 30.0000000  0  7G16G18G21G22G27G29G31
  21173334.980   111266643.52609  21173334.240    86701292.11947
  22399238.760   117708849.14108  22399238.560    91721157.38545
  21569458.800   113348268.26508  21569457.320    88323321.94747
  23513800.660   123565942.63607  23513798.680    96285170.05845
  22350391.240   117452133.65708  22350393.220    91521165.51247
  24528529.040   128898272.69206  24528530.860   100440208.37843
  23581763.460   123922973.74207  23581763.960    96563344.69144
 15 02 28 00 16  0.0000000  0  7G16G18G21G22G27G29G31
  21162391.900   111209137.36009  21162391.180    86656482.13047
  22389332.000   117656788.30108  22389331.680    91680590.50745
  21578495.480   113395755.99008  21578493.880    88360325.36047
  23496180.380   123473348.28807  23496178.600    96213018.72145
  22338775.120   117391090.52108  22338777.020    91473599.44447
  24543240.720   128975582.63306  24543242.080   100500449.87043
  23600257.860   124020160.41807  23600258.300    96639074.33744
 15 02 28 00 16 30.0000000  0  7G16G18G21G22G27G29G31
  21151515.560   111151981.80009  21151514.800    86611945.33147
  22379492.980   117605083.40608  22379492.620    91640300.99645
  21587586.880   113443531.31708  21587585.220    88397552.89447
  23478575.160   123380832.47507  23478573.500    96140928.55444
  22327182.320   117330169.99308  22327184.100    91426128.92647
  24557955.500   129052908.98205  24557956.740   100560704.13545
  23618767.620   124117428.21107  23618768.120    96714867.17445
 15 02 28 00 17  0.0000000  0  6G16G18G21G22G27G31
  21140705.440   111095174.52509  21140704.620    86567679.92447
  22369721.100   117553731.63808  22369720.800    91600286.64645
  21596731.540   113491587.06308  21596729.980    88434998.92447
  23460984.280   123288392.84607  23460982.800    96068897.76845
  22315611.920   117269367.69008  22315613.860    91378750.53047
  23637291.280   124214769.48707  23637291.840    96790717.30145
 15 02 28 00 17 30.0000000  0  7G16G18G19G21G22G27G31
  21129965.260   111038734.29009  21129964.360    86523700.52148
  22360020.040   117502752.42308  22360019.860    91560562.60745
  24542321.460   128970779.83806  24542321.520   100496702.07644
  21605932.600   113539939.32308  21605931.160    88472676.00347
  23443411.600   123196049.27607  23443410.400    95996941.83444
  22304067.320   117208700.60208  22304069.340    91331477.48547
  23655831.460   124312198.51706  23655832.140    96866635.81045
 15 02 28 00 18  0.0000000  0  7G16G18G19G21G22G27G31
  21119288.520   110982627.42209  21119287.620    86479980.89048
  22350383.320   117452111.56708  22350383.220    91521102.21645
  24526864.620   128889553.02506  24526865.260   100433408.55444
  21615182.780   113588549.53108  21615181.440    88510554.08347
  23425850.900   123103768.40707  23425849.800    95925034.74245
  22292541.720   117148132.91308  22292543.780    91284281.91647
  23674380.800   124409676.40906  23674381.740    96942592.38445
 15 02 28 00 18 30.0000000  0  7G16G18G19G21G22G27G31
  21108683.020   110926895.08309  21108682.180    86436553.09948
  22340818.840   117401850.49808  22340818.800    91481937.75945
  24511425.440   128808418.50705  24511426.260   100370186.91145
  21624489.240   113637455.55008  21624488.040    88548662.67447
  23408310.340   123011592.34707  23408309.280    95853209.30445
  22281042.520   117087703.91808  22281044.540    91237194.40747
  23692946.180   124507239.00406  23692947.740    97018614.81244
 15 02 28 00 19  0.0000000  0  7G16G18G19G21G22G27G31
  21098146.200   110871523.58109  21098145.340    86393406.48048
  22331324.000   117351955.37608  22331324.080    91443058.46546
  24496000.940   128727360.97505  24496001.460   100307025.28444
  21633848.600   113686639.69208  21633847.480    88586987.97147
  23390787.320   122919507.89807  23390786.260    95781455.26545
  22269566.760   117027398.24208  22269568.660    91190202.98647
  23711524.400   124604868.57106  23711526.540    97094689.63045
 15 02 28 00 19 30.0000000  0  7G16G18G19G21G22G27G31
  21087679.180   110816519.09609  21087678.220    86350545.84248
  22321900.020   117302432.13208  22321900.100    91404468.93945
  24480591.620   128646384.31706  24480592.060   100243926.65744
  21643261.180   113736103.70908  21643260.200    88625531.36747
  23373283.040   122827521.71307  23373281.920    95709777.80145
  22258115.100   116967219.54408  22258117.020    91143310.52547
  23730115.480   124702565.46707  23730117.840    97170816.94644
 15 02 28 00 20  0.0000000  0  7G16G18G19G21G22G27G31
  21077280.940   110761876.14409  21077280.020    86307966.92548
  22312545.760   117253275.05808  22312545.760    91366164.75545
  24465196.380   128565481.03106  24465196.540   100180885.22444
  21652725.400   113785838.78608  21652724.440    88664285.97347
  23355796.420   122735628.61607  23355795.060    95638172.84345
  22246686.120   116907160.51608  22246688.160    91096511.29747
  23748717.560   124800318.93207  23748719.900    97246988.21345
 15 02 28 00 20 30.0000000  0  7G16G18G19G21G22G27G31
  21066953.660   110707605.88509  21066952.720    86265678.41348
  22303263.420   117204495.82508  22303263.300    91328154.97245
  24449816.620   128484659.57106  24449816.700   100117907.51645
  21662242.480   113835851.58408  21662241.500    88703256.99047
  23338329.660   122643840.57407  23338328.320    95566649.78645
  22235281.700   116847230.32308  22235283.840    91049812.46446
  23767331.800   124898135.29306  23767333.900    97323208.48245
 15 02 28 00 21  0.0000000  0  7G16G18G19G21G22G27G31
  21056696.820   110653705.38509  21056695.820    86223678.01448
  22294052.380   117156091.62208  22294052.220    91290437.43245
  24434451.720   128403916.15606  24434451.720   100054990.66545
  21671811.220   113886136.15908  21671810.320    88742439.77247
  23320882.480   122552155.61307  23320881.060    95495207.01844
  22223900.980   116787424.43608  22223903.200    91003210.50246
  23785956.520   124996006.94906  23785958.220    97399471.92044
 15 02 28 00 21 30.0000000  0  7G16G18G19G21G22G27G31
  21046509.860   110600172.35209  21046508.920    86181963.97248
  22284912.140   117108059.43708  22284911.940    91253009.75345
  24419100.840   128323245.87306  24419100.700    99992130.77244
  21681430.500   113936685.85908  21681429.620    88781829.15247
  23303454.580   122460571.73507  23303453.140    95423843.02145
  22212543.140   116727738.31308  22212545.300    90956701.84946
  23804590.220   125093926.56107  23804591.740    97475772.71545
 15 02 28 00 22  0.0000000  0  7G16G18G19G21G22G27G31
  21036395.140   110547019.02709  21036394.160    86140545.79348
  22275844.980   117060411.27908  22275844.740    91215881.34746
  24403765.600   128242658.87605  24403765.140    99929335.78744
  21691101.800   113987508.94108  21691100.880    88821431.55647
  23286048.340   122369101.80807  23286047.000    95352567.81645
  22201209.980   116668182.33408  22201212.120    90910294.62146
  23823234.400   125191900.96607  23823235.620    97552116.08444
 15 02 28 00 22 30.0000000  0  7G16G18G19G21G22G27G31
  21026351.920   110494241.63309  21026351.000    86099420.55948
  22266850.260   117013143.50908  22266849.940    91179049.32545
  24388445.080   128162149.35505  24388444.660    99866601.16744
  21700823.620   114038597.30808  21700822.700    88861240.67547
  23268663.040   122277742.16707  23268661.940    95281378.54845
  22189900.460   116608750.65208  22189902.520    90863984.24146
  23841887.620   125289921.94207  23841888.480    97628495.83644
 15 02 28 00 23  0.0000000  0  7G16G18G19G21G22G27G31
  21016381.760   110441848.38109  21016380.980    86058594.65648
  22257929.400   116966264.13908  22257929.080    91142519.95445
  24373140.380   128081724.02205  24373140.280    99803932.11144
  21710596.960   114089956.65908  21710596.080    88901260.94147
  23251300.540   122186502.61207  23251299.600    95210282.83645
  22178615.800   116549449.95508  22178617.860    90817775.93047
  23860550.440   125387992.72007  23860550.860    97704914.41145
 15 02 28 00 23 30.0000000  0  7G16G18G19G21G22G27G31
  21006482.500   110389827.83609  21006481.820    86018059.16748
  22249080.320   116919762.13808  22249080.060    91106284.64745
  24357849.280   128001369.03306  24357849.220    99741317.89544
  21720418.840   114141571.14208  21720417.980    88941480.01847
  23233958.820   122095371.81307  23233957.800    95139271.89145
  22167353.520   116490266.75208  22167355.580    90771659.16146
  23879219.420   125486096.23407  23879219.540    97781358.24944
 15 02 28 00 24  0.0000000  0  7G16G18G19G21G22G27G31
  20996656.360   110338191.27209  20996655.740    85977822.88948
  22240305.140   116873648.56608  22240304.940    91070351.99845
  24342573.420   127921093.77905  24342573.200    99678765.84145
  21730290.600   114193447.92408  21730289.820    88981903.48547
  23216640.200   122004362.31107  23216639.140    95068355.44844
  22156115.400   116431210.46908  22156117.420    90725641.29646
  23897895.800   125584239.49206  23897895.840    97857833.18643
 15 02 28 00 24 30.0000000  0  7G16G18G19G21G22G27G31
  20986903.040   110286937.50209  20986902.460    85937884.89348
  22231603.560   116827921.61008  22231603.400    91034720.61745
  24327312.140   127840895.43905  24327311.920    99616273.66044
  21740211.200   114245581.36008  21740210.520    89022526.93547
  23199344.600   121913473.03507  23199343.340    94997532.70645
  22144900.900   116372278.00008  22144902.960    90679719.91246
  23916578.280   125682416.27206  23916578.500    97934334.18145
 15 02 28 00 25  0.0000000  0  7G16G18G19G21G22G27G31
  20977223.840   110236073.22809  20977223.280    85898250.40048
  22222976.800   116782587.93708  22222976.660    90999395.69445
  24312066.220   127760778.39605  24312066.160    99553844.81944
  21750181.500   114297975.70908  21750180.820    89063353.70347
  23182073.340   121822711.43107  23182071.900    94926809.42745
  22133710.860   116313474.02708  22133712.860    90633898.65946
  23935267.200   125780628.38906  23935268.200    98010862.92445
 15 02 28 00 25 30.0000000  0  7G16G18G19G21G22G27G31
  20967618.240   110185595.77809  20967617.700    85858917.33248
  22214424.380   116737644.92708  22214424.180    90964375.18145
  24296835.020   127680738.04405  24296834.800    99491475.80844
  21760200.180   114350623.96508  21760199.480    89104378.32247
  23164825.920   121732075.40707  23164824.340    94856184.01745
  22122544.580   116254794.20108  22122546.500    90588174.14246
  23953961.580   125878868.12106  23953963.100    98087413.06644
 15 02 28 00 26  0.0000000  0  7G16G18G19G21G22G27G31
  20958089.780   110135523.77409  20958089.200    85819900.18448
  22205949.820   116693110.83508  22205949.640    90929673.31146
  24281621.340   127600777.10104  24281623.460    99429172.52944
  21770269.880   114403540.40608  21770269.180    89145611.90847
  23147605.880   121641584.26607  23147604.400    94785671.51245
  22111405.040   116196255.20008  22111406.880    90542559.35747
  23972664.140   125977149.51306  23972665.880    98163995.89245
 15 02 28 00 26 30.0000000  0  7G16G18G19G21G22G27G31
  20948631.500   110085820.26909  20948630.940    85781170.19248
  22197545.960   116648948.27608  22197545.800    90895260.93646
  24266418.520   127520884.68405  24266419.180    99366918.77844
  21780382.980   114456684.58508  21780382.220    89187022.95347
  23130406.620   121551201.74707  23130405.120    94715243.61245
  22100284.880   116137818.29208  22100286.620    90497024.11747
  23991366.560   126075430.32706  23991368.280    98240578.14844
 15 02 28 00 27  0.0000000  0  7G16G18G19G21G22G27G31
  20939251.560   110036528.01009  20939250.880    85742760.63448
  22189221.000   116605200.56308  22189220.920    90861171.83645
  24251233.620   127441087.49805  24251233.700    99304739.19545
  21790546.720   114510094.84208  21790545.840    89228641.33347
  23113236.360   121460971.59007  23113234.880    94644934.44645
  22089191.940   116079524.51908  22089193.700    90451600.41747
  24010076.120   126173748.71907  24010077.840    98317189.67444
 15 02 28 00 27 30.0000000  0  7G16G18G19G21G22G27G31
  20929946.080   109987627.21709  20929945.400    85704656.13048
  22180971.080   116561847.03308  22180971.040    90827389.86645
  24236062.900   127361363.75505  24236062.260    99242616.87844
  21800756.800   114563748.80208  21800755.860    89270449.61547
  23096091.340   121370874.25107  23096089.980    94574728.79545
  22078122.140   116021351.86808  22078123.840    90406271.10147
  24028787.980   126272079.23506  24028789.720    98393810.58945
 15 02 28 00 28  0.0000000  0  7G16G18G19G21G22G27G31
  20920717.820   109939132.15509  20920717.140    85666867.77648
  22172798.920   116518902.16808  22172798.920    90793926.35246
  24220908.340   127281726.54805  24220907.520    99180561.95044
  21811015.120   114617656.49008  21811014.160    89312455.60047
  23078974.520   121280925.08307  23078973.300    94504638.57145
  22067077.800   115963313.27008  22067079.580    90361046.23647
  24047504.180   126370432.15607  24047506.040    98470448.98045
 15 02 28 00 28 30.0000000  0  7G16G18G19G21G22G27G31
  20911564.920   109891033.15109  20911564.160    85629388.03948
  22164702.700   116476356.22908  22164702.720    90760773.67646
  24205768.040   127202163.64806  24205767.140    99118564.93544
  21821319.160   114671804.31808  21821318.160    89354648.71447
  23061884.180   121191114.93007  23061883.020    94434656.68445
  22056056.660   115905397.09608  22056058.540    90315916.76847
  24066221.960   126468792.95906  24066223.840    98547093.64945
 15 02 28 00 29  0.0000000  0  7G16G18G19G21G22G27G31
  20902489.040   109843338.80409  20902488.160    85592223.61348
  22156683.960   116434217.29508  22156683.900    90727938.16846
  24190643.060   127122681.25206  24190642.140    99056630.66644
  21831669.680   114726196.43608  21831668.620    89397032.17547
  23044822.040   121101452.93607  23044820.860    94364790.25745
  22045060.080   115847610.01408  22045062.000    90270887.88547
  24084941.640   126567164.73706  24084943.540    98623746.88744
 15 02 28 00 29 30.0000000  0  7G16G18G19G21G22G27G31
  20893490.760   109796052.04609  20893489.740    85555376.78648
  22148743.240   116392488.19408  22148742.980    90695421.99546
  24175533.720   127043281.06906  24175532.600    98994760.42844
  21842066.620   114780832.49908  21842065.480    89439605.72847
  23027788.980   121011943.37907  23027787.700    94295042.57945
  22034088.300   115789953.43108  22034090.280    90225960.70047
  24103663.040   126665546.41107  24103665.420    98700407.85144
 15 02 28 00 30  0.0000000  0  7G16G18G19G21G22G27G31
  20884570.020   109749173.05909  20884569.040    85518847.71448
  22140880.480   116351168.89508  22140880.220    90663225.15646
  24160439.580   126963961.41406  24160438.480    98932952.98044
  21852509.300   114835709.15208  21852508.100    89482366.75947
  23010784.960   120922586.59507  23010783.640    94225413.95745
  22023141.120   115732425.68808  22023143.120    90181133.91247
  24122385.320   126763932.75606  24122387.920    98777072.53244
 15 02 28 00 30 30.0000000  0  7G16G18G19G21G22G27G31
  20875727.380   109702704.54109  20875726.420    85482638.48348
  22133096.040   116310261.68408  22133095.780    90631349.42145
  24145360.840   126884722.83406  24145359.880    98871208.70144
  21862997.560   114890825.24708  21862996.380    89525314.36347
  22993810.500   120833385.99907  22993809.380    94155907.06145
  22012218.600   115675027.52108  22012220.600    90136408.09447
  24141108.060   126862321.56106  24141110.740    98853739.07044
 15 02 28 00 31  0.0000000  0  7G16G18G19G21G22G27G31
  20866962.880   109656646.86909  20866962.000    85446749.39248
  22125390.140   116269766.62208  22125389.740    90599794.83346
  24130297.240   126805563.78806  24130296.400    98809526.39044
  21873530.720   114946177.59708  21873529.680    89568446.06047
  22976866.100   120744343.01807  22976865.140    94086522.96645
  22001320.440   115617757.69808  22001322.520    90091782.27847
  24159830.440   126960708.74406  24159833.140    98930404.29944
 15 02 28 00 31 30.0000000  0  7G16G18G19G21G22G27G31
  20858276.680   109611000.85309  20858275.800    85411181.07448
  22117762.680   116229683.86308  22117762.220    90568561.53346
  24115248.700   126726483.15606  24115247.920    98747905.19144
  21884108.220   115001763.11008  21884107.360    89611759.44947
  22959951.940   120655458.95907  22959951.020    94017262.70845
  21990446.520   115560615.20408  21990448.680    90047255.68047
  24178551.680   127059090.23406  24178554.240    99007065.14044
 15 02 28 00 32  0.0000000  0  7G16G18G19G21G22G27G31
  20849670.780   109565776.56709  20849669.840    85375941.36948
  22110215.600   116190023.69308  22110215.220    90537657.52646
  24100216.460   126647489.48306  24100215.820    98686351.71544
  21894731.240   115057587.66208  21894730.420    89655259.09647
  22943070.140   120566744.83007  22943069.220    93948134.84645
  21979598.440   115503608.51108  21979600.640    90002834.89947
  24197272.980   127157471.22406  24197275.100    99083725.54445
 15 02 28 00 32 30.0000000  0  7G16G18G19G21G22G27G31
  20841142.980   109520963.12309  20841142.160    85341021.81448
  22102746.940   116150775.66908  22102746.600    90507074.66646
  24085198.600   126568569.76807  24085197.720    98624855.91145
  21905397.080   115113637.21108  21905396.220    89698934.06947
  22926218.740   120478190.41907  22926217.800    93879131.44445
  21968773.900   115446725.21708  21968776.020    89958510.26847
  24215991.320   127255836.13906  24215993.360    99160373.45244
 15 02 28 00 33  0.0000000  0  7G16G18G19G21G22G27G31
  20832695.200   109476569.76809  20832694.420    85306429.58548
  22095358.260   116111947.98808  22095357.960    90476819.34246
  24070196.300   126489731.52707  24070195.420    98563423.56244
  21916106.640   115169916.51008  21916105.780    89742788.06447
  22909399.560   120389805.42307  22909398.660    93810260.06846
  21957974.080   115389972.40708  21957976.220    89914287.31747
  24234707.460   127354189.21206  24234709.520    99237012.14344
 15 02 28 00 33 30.0000000  0  7G16G18G19G21G22G27G31
  20824328.600   109432603.18809  20824327.840    85272169.90648
  22088050.740   116073547.15308  22088050.600    90446896.63646
  24055210.280   126410979.35007  24055209.380    98502058.25244
  21926860.580   115226428.96108  21926859.740    89786823.74147
  22892614.160   120301597.56407  22892613.200    93741526.70346
  21947200.060   115333355.21208  21947202.240    89870170.04647
  24253421.800   127452532.71106  24253423.820    99313643.47943
 15 02 28 00 34  0.0000000  0  7G16G18G19G21G22G27G31
  20816042.100   109389057.37609  20816041.320    85238238.10548
  22080823.360   116035567.15708  22080823.340    90417301.83746
  24040239.260   126332305.96907  24040238.200    98440754.37744
  21937657.100   115283164.96208  21937656.340    89831033.60847
  22875861.600   120213561.98907  22875860.560    93672927.59146
  21936450.540   115276866.38208  21936452.760    89826152.80547
  24272132.280   127550856.17407  24272134.460    99390259.10444
 15 02 28 00 34 30.0000000  0  7G16G18G19G21G22G27G31
  20807837.280   109345940.63209  20807836.460    85204640.64248
  22073677.440   115998015.61908  22073677.440    90388040.92246
  24025284.280   126253717.68907  24025283.180    98379516.78244
  21948497.040   115340129.35008  21948496.360    89875421.43247
  22859143.400   120125707.63607  22859142.280    93604469.68645
  21925726.740   115220512.43008  21925729.000    89782240.65747
  24290839.460   127649162.67706  24290841.800    99466861.49444
 15 02 28 00 35  0.0000000  0  7G16G18G19G21G22G27G31
  20799713.300   109303248.68709  20799712.400    85171374.17948
  22066612.280   115960888.27908  22066612.240    90359110.54346
  24010344.480   126175208.33707  24010343.160    98318340.71144
  21959378.860   115397313.80808  21959378.260    89919980.74347
  22842458.900   120038030.82907  22842457.800    93536150.13146
  21915027.540   115164287.38908  21915029.740    89738428.95347
  24309541.480   127747443.52506  24309544.280    99543443.88644
 15 02 28 00 35 30.0000000  0  7G16G18G19G21G22G27G31
  20791670.900   109260985.48809  20791670.060    85138441.81648
  22059628.520   115924188.22208  22059628.400    90330513.10946
  23995420.120   126096780.26406  23995418.740    98257227.94944
  21970302.600   115454718.55908  21970302.040    89964711.72147
  22825809.100   119950536.24407  22825808.020    93467972.56346
  21904353.240   115108193.39308  21904355.500    89694719.37047
  24328238.460   127845697.67206  24328241.580    99620005.47544
 15 02 28 00 36  0.0000000  0  7G16G18G19G21G22G27G31
  20783710.880   109219155.39709  20783710.080    85105846.93848
  22052726.760   115887919.73308  22052726.740    90302251.97746
  23980511.540   126018435.40506  23980510.340    98196180.06244
  21981268.500   115512344.62908  21981267.980    90009615.15247
  22809195.080   119863228.94807  22809193.880    93399940.94745
  21893704.320   115052233.21208  21893706.600    89651114.04847
  24346930.500   127943925.37106  24346933.980    99696546.43744
 15 02 28 00 36 30.0000000  0  7G16G18G19G21G22G27G31
  20775833.940   109177761.91709  20775833.160    85073592.27248
  22045907.780   115852086.47908  22045907.880    90274329.97346
  23965618.980   125940175.73006  23965617.920    98135198.56344
  21992276.360   115570191.40508  21992275.820    90054690.55647
  22792617.620   119776113.52408  22792616.200    93332058.82145
  21883081.240   114996408.83308  21883083.560    89607614.54947
  24365617.340   128042124.78106  24365620.680    99773065.37444
 15 02 28 00 37  0.0000000  0  7G16G18G19G21G22G27G31
  20768039.340   109136801.30909  20768038.600    85041674.91548
  22039170.860   115816683.96008  22039171.000    90246743.60646
  23950741.660   125861996.06305  23950740.760    98074279.40144
  22003324.780   115628251.67508  22003324.220    90099932.31047
  22776076.220   119689187.11608  22776074.540    93264323.99245
  21872483.020   114940714.97908  21872485.340    89564216.76147
  24384297.400   128140288.10506  24384300.400    99849556.21044
 15 02 28 00 37 30.0000000  0  7G16G18G19G21G22G27G31
  20760328.580   109096280.72309  20760327.820    85010100.42548
  22032517.180   115781718.97908  22032517.320    90219498.19646
  23935880.480   125783901.63205  23935879.760    98013426.66644
  22014414.640   115686529.42708  22014414.060    90145343.55447
  22759572.260   119602457.60808  22759570.400    93196742.59346
  21861910.760   114885157.11808  21861912.920    89520924.93647
  24402971.060   128238417.54206  24402973.660    99926020.59844
 15 02 28 00 38  0.0000000  0  7G16G18G19G21G22G27G31
  20752700.420   109056194.60309  20752699.740    84978864.48748
  22025945.900   115747186.02608  22025945.800    90192589.40146
  23921034.240   125705885.16806  23921033.640    97952634.63843
  22025544.160   115745015.21308  22025543.460    90190916.89347
  22743104.860   119515920.53208  22743102.880    93129311.15045
  21851363.100   114829728.34908  21851365.160    89477733.70247
  24421636.320   128336503.24206  24421638.780   100002450.90144
 15 02 28 00 38 30.0000000  0  7G16G18G19G21G22G27G31
  20745156.460   109016551.05709  20745155.880    84947973.40448
  22019458.180   115713092.21808  22019457.880    90166022.81246
  23906204.060   125627952.92105  23906203.600    97891908.27843
  22036714.100   115803713.52808  22036713.320    90236655.83247
  22726675.640   119429584.50408  22726673.560    93062036.35945
  21840841.180   114774435.07608  21840843.240    89434648.04247
  24440293.780   128434548.48006  24440296.000   100078849.71043
 15 02 28 00 39  0.0000000  0  7G16G18G19G21G22G27G31
  20737697.340   108977353.25909  20737696.720    84917429.66548
  22013054.540   115679440.61808  22013054.140    90139800.81345
  23891390.160   125550106.54105  23891390.160    97831248.80044
  22047924.300   115862623.61608  22047923.520    90282559.79546
  22710285.420   119343453.51308  22710283.340    92994921.32646
  21830345.360   114719278.92808  21830347.500    89391669.23447
  24458943.220   128532551.70206  24458945.160   100155215.73044
 15 02 28 00 39 30.0000000  0  7G16G18G19G21G22G27G31
  20730322.540   108938598.28209  20730321.860    84887230.98148
  22006734.460   115646228.10008  22006733.920    90113920.94946
  23876591.780   125472341.39206  23876592.080    97770652.58945
  22059173.660   115921738.98708  22059172.840    90328623.71846
  22693933.820   119257525.70408  22693931.820    92927964.62445
  21819874.860   114664255.62508  21819876.900    89348793.94747
  24477583.140   128630505.58906  24477585.320   100231543.31244
 15 02 28 00 40  0.0000000  0  7G16G18G19G21G22G27G31
  20723033.300   108900293.19009  20723032.580    84857382.85848
  22000499.140   115613461.16008  22000498.480    90088388.27446
  23861809.940   125394662.56106  23861810.480    97710123.65944
  22070462.340   115981062.58608  22070461.980    90374852.66347
  22677622.340   119171808.68108  22677620.420    92861172.17845
  21809430.560   114609370.50808  21809432.520    89306026.33647
  24496214.000   128728412.50506  24496216.560   100307834.21043
 15 02 28 00 40 30.0000000  0  7G16G18G19G21G22G27G31
  20715827.840   108862428.50009  20715827.180    84827877.90548
  21994346.700   115581129.76708  21994346.040    90063195.00346
  23847042.660   125317059.21306  23847042.920    97649653.58044
  22081789.020   116040583.37708  22081788.160    90421232.48846
  22661349.400   119086294.19308  22661347.540    92794537.53745
  21799010.480   114554612.75408  21799012.340    89263357.97747
  24514833.400   128826258.66406  24514836.120   100384077.82144
 15 02 28 00 41  0.0000000  0  7G16G18G19G21G22G27G31
  20708708.260   108825014.87609  20708707.640    84798724.42948
  21988279.220   115549244.46308  21988278.620    90038349.33346
  23832291.420   125239540.37206  23832291.660    97589249.29245
  22093154.480   116100307.23408  22093153.080    90467770.56247
  22645117.220   119000993.85308  22645115.520    92728069.77846
  21788616.480   114499991.65308  21788618.160    89220796.09447
  24533442.680   128924050.12106  24533445.320   100460278.74145
 15 02 28 00 41 30.0000000  0  6G16G18G19G22G27G31
  20701675.600   108788057.80909  20701674.960    84769926.71548
  21982297.560   115517810.32608  21982296.940    90013855.21046
  23817556.920   125162109.68207  23817557.100    97528913.72845
  22628927.040   118915913.65208  22628925.340    92661773.55646
  21778249.200   114445510.99208  21778250.780    89178343.64147
  24552041.840   129021787.81606  24552044.440   100536437.69744
 15 02 28 00 42  0.0000000  0  7G16G18G19G21G22G27G31
  20694729.860   108751557.54609  20694729.220    84741484.95448
  21976401.600   115486827.23308  21976401.020    89989712.56746
  23802838.840   125084765.49207  23802838.840    97468645.56745
  22116000.980   116220370.57908  22115999.940    90561319.28047
  22612779.060   118831055.10808  22612777.180    92595650.02046
  21767908.400   114391169.75608  21767909.980    89135999.81747
  24570630.160   129119467.79506  24570632.420   100612551.75043
 15 02 28 00 42 30.0000000  0  7G16G18G19G21G22G27G31
  20687869.940   108715508.36509  20687869.240    84713394.68548
  21970590.240   115456288.59508  21970589.740    89965916.23446
  23788135.980   125007500.86507  23788135.780    97408439.42045
  22127480.100   116280693.37608  22127478.800    90608324.04746
  22596672.200   118746412.99808  22596670.200    92529695.16646
  21757592.740   114336960.73008  21757594.360    89093759.03247
  24589205.480   129217079.56406  24589207.480   100688612.66843
 15 02 28 00 43  0.0000000  0  7G16G18G19G21G22G27G31
  20681097.760   108679920.20609  20681096.980    84685663.65248
  21964865.280   115426204.48208  21964864.960    89942474.07646
  23773449.900   124930324.23707  23773449.560    97348301.83445
  22138997.160   116341215.46408  22138995.560    90655484.11046
  22580608.680   118661998.54108  22580606.620    92463917.70446
  21747303.940   114282892.45108  21747305.340    89051627.90947
  24607768.620   129314628.55606  24607770.960   100764624.61345
 15 02 28 00 43 30.0000000  0  7G16G18G19G21G22G27G31
  20674413.080   108644791.59509  20674412.280    84658290.70448
  21959226.480   115396573.16308  21959226.240    89919384.75146
  23758779.840   124853232.29407  23758779.360    97288230.23845
  22150551.140   116401931.83708  22150549.440    90702795.56247
  22564588.480   118577811.64608  22564586.260    92398317.54446
  21737041.400   114228962.30508  21737042.720    89009604.43747
  24626318.680   129412109.49605  24626321.520   100840583.50943
 15 02 28 00 44  0.0000000  0  7G16G18G19G21G22G27G31
  20667816.020   108610123.75009  20667815.280    84631276.80548
  21953674.020   115367395.11708  21953673.740    89896648.63246
  23744125.800   124776224.61807  23744125.220    97228224.31645
  22162141.640   116462839.90508  22162140.000    90750256.38247
  22548611.920   118493853.92808  22548609.580    92332895.97445
  21726805.060   114175170.04408  21726806.400    88967688.40047
  24644855.000   129509518.59105  24644858.800   100916486.47544
 15 02 28 00 44 30.0000000  0  7G16G18G19G21G22G27G31
  20661307.240   108575919.77509  20661306.500    84604624.35948
  21948208.220   115338672.50708  21948208.020    89874267.39346
  23729487.980   124699302.57007  23729487.460    97168285.09245
  22173768.620   116523939.51908  22173766.980    90797866.46946
  22532679.680   118410129.06908  22532677.200    92267655.85146
  21716595.200   114121517.21708  21716596.760    88925881.01047
  24663377.340   129606854.42806  24663381.780   100992332.32244
 15 02 28 00 45  0.0000000  0  7G16G18G19G21G22G27G31
  20654887.020   108542181.23109  20654886.260    84578334.58948
  21942829.320   115310406.76908  21942829.280    89852242.14746
  23714866.460   124622466.29007  23714865.980    97108412.69545
  22185431.480   116585228.34108  22185429.900    90845623.97746
  22516792.200   118326639.85008  22516789.740    92202599.34446
  21706411.900   114068004.07908  21706413.640    88884182.46647
  24681885.560   129704114.40906  24681890.120   101068119.02944
 15 02 28 00 45 30.0000000  0  7G16G18G19G21G22G27G31
  20648555.560   108508908.74509  20648554.660    84552407.96248
  21937537.560   115282598.18008  21937537.520    89830573.12746
  23700261.140   124545714.86306  23700260.600    97048606.46145
  22197129.860   116646704.26308  22197128.360    90893527.29046
  22500949.820   118243388.03308  22500947.440    92137727.82746
  21696255.020   114014630.10308  21696256.960    88842592.38147
  24700378.900   129801295.16806  24700383.300   101143843.98843
 15 02 28 00 46  0.0000000  0  6G16G18G19G21G22G27
  20642313.060   108476104.14709  20642312.140    84526845.94648
  21932333.160   115255248.31908  21932333.060    89809261.55846
  23685671.760   124469048.53806  23685671.420    96988866.52345
  22208863.540   116708365.46208  22208862.180    90941574.96646
  22485153.200   118160376.32708  22485150.840    92073043.39946
  21686124.740   113961395.70808  21686126.840    88801111.04247
 15 02 28 00 46 30.0000000  0  6G16G18G19G21G22G27
  20636160.360   108443771.50109  20636159.400    84501651.67448
  21927216.720   115228360.85708  21927216.580    89788310.31546
  23671099.380   124392470.45806  23671099.080    96929195.35445
  22220632.660   116770212.80408  22220631.420    90989767.69646
  22469403.320   118077610.14908  22469400.980    92008550.30846
  21676021.620   113908303.85908  21676023.740    88759740.78247
 15 02 28 00 47  0.0000000  0  6G16G18G19G21G22G27
  20630097.240   108411909.75809  20630096.260    84476824.34448
  21922187.860   115201933.80608  21922187.640    89767717.82246
  23656543.180   124315977.75506  23656542.940    96869590.70544
  22232436.280   116832241.64608  22232435.120    91038101.85246
  22453700.020   117995088.85308  22453697.680    91944248.01946
  21665945.220   113855352.06708  21665947.320    88718479.65647
 15 02 28 00 47 30.0000000  0  6G16G18G19G21G22G27
  20624124.300   108380522.08609  20624123.380    84452366.41548
  21917247.160   115175970.25008  21917246.860    89747486.48646
  23642003.500   124239572.20906  23642003.260    96810053.97545
  22244274.380   116894451.96908  22244273.300    91086577.40846
  22438044.180   117912816.76108  22438041.900    91880139.92546
  21655895.900   113802542.29708  21655897.940    88677329.20148
 15 02 28 00 48  0.0000000  0  6G16G18G19G21G22G27
  20618241.000   108349605.19109  20618240.080    84428275.33048
  21912393.980   115150466.37508  21912393.580    89727613.34946
  23627479.700   124163248.66706  23627479.320    96750581.14645
  22256145.860   116956837.26208  22256144.820    91135189.32346
  22422435.260   117830791.76708  22422433.120    91816224.39246
  21645872.760   113749870.04408  21645874.820    88636285.91348
 15 02 28 00 48 30.0000000  0  6G16G18G19G21G22G27
  20612449.080   108319168.42509  20612448.140    84404558.36848
  21907629.980   115125430.90308  21907629.520    89708105.19946
  23612972.980   124087015.02706  23612972.520    96691178.36845
  22268051.740   117019403.15508  22268050.700    91183941.96246
  22406875.340   117749024.24808  22406873.280    91752509.46246
  21635877.320   113697343.41608  21635879.420    88595356.08747
 15 02 28 00 49  0.0000000  0  6G16G18G19G21G22G27
  20606748.100   108289209.55909  20606747.200    84381213.79548
  21902954.560   115100861.04508  21902953.980    89688959.87146
  23598482.700   124010867.63406  23598482.000    96631842.78244
  22279990.840   117082144.10608  22279989.880    91232831.01146
  22391364.200   117667512.68608  22391362.120    91688993.98046
  21625908.920   113644958.98108  21625911.020    88554537.05948
 15 02 28 00 49 30.0000000  0  6G16G18G19G21G22G27
  20601139.160   108259734.26309  20601138.220    84358246.02848
  21898368.700   115076761.95708  21898367.980    89670181.37946
  23584009.440   123934810.80206  23584008.760    96572577.78644
  22291963.720   117145062.60108  22291962.820    91281858.39946
  22375903.060   117586263.84908  22375901.060    91625683.22146
  21615968.360   113592721.22508  21615970.460    88513832.31447
 15 02 28 00 50  0.0000000  0  6G16G18G19G21G22G27
  20595621.360   108230738.02809  20595620.400    84335651.55548
  21893871.380   115053128.72008  21893870.660    89651765.87046
  23569552.440   123858838.66406  23569551.660    96513378.77945
  22303968.960   117208150.79708  22303968.120    91331018.03546
  22360491.160   117505274.10408  22360489.200    91562574.36346
  21606054.620   113540624.48508  21606056.700    88473237.46247
 15 02 28 00 50 30.0000000  0  6G16G18G19G21G22G27
  20590195.540   108202225.18309  20590194.560    84313433.75348
  21889463.520   115029965.66408  21889462.800    89633716.75646
  23555112.160   123782954.50506  23555111.380    96454248.29245
  22316006.780   117271410.18308  22316006.000    91380311.04746
  22345129.720   117424549.47308  22345127.680    91499672.07246
  21596168.480   113488672.42908  21596170.400    88432755.34747
 15 02 28 00 51  0.0000000  0  6G16G18G19G21G22G27
  20584862.280   108174198.88609  20584861.380    84291595.07648
  21885145.460   115007274.51208  21885144.780    89616035.34646
  23540688.800   123707159.45907  23540687.980    96395187.24644
  22328077.120   117334840.35608  22328076.420    91429737.14946
  22329819.360   117344093.60108  22329817.360    91436979.19946
  21586310.140   113436866.52908  21586312.020    88392387.11947
 15 02 28 00 51 30.0000000  0  6G16G18G19G21G22G27
  20579621.420   108146658.09409  20579620.580    84270134.71948
  21880916.920   114985054.00208  21880916.440    89598720.67046
  23526282.000   123631451.06707  23526281.020    96336193.73345
  22340179.280   117398437.38108  22340178.620    91479293.26246
  22314560.200   117263906.72008  22314558.280    91374495.95246
  21576479.320   113385204.83208  21576481.060    88352131.25647
 15 02 28 00 52  0.0000000  0  6G16G18G19G21G22G27
  20574473.820   108119607.34909  20574473.060    84249056.20648
  21876778.780   114963308.45508  21876778.460    89581776.09246
  23511892.240   123555832.94107  23511891.240    96277270.56545
  22352313.380   117462202.21508  22352312.760    91528980.15046
  22299353.320   117183994.29708  22299351.380    91312226.54046
  21566676.540   113333690.62608  21566678.240    88311990.32648
 15 02 28 00 52 30.0000000  0  6G16G18G19G21G22G27
  20569419.000   108093044.19309  20569418.260    84228357.64148
  21872730.480   114942034.49808  21872730.120    89565198.99546
  23497519.060   123480301.68607  23497518.040    96218415.09045
  22364478.400   117526129.61608  22364477.840    91578793.70646
  22284198.520   117104355.25408  22284196.540    91250170.16546
  21556901.160   113282320.69908  21556902.820    88271961.82248
 15 02 28 00 53  0.0000000  0  6G16G18G19G21G22G27
  20564457.800   108066972.83309  20564457.080    84208042.29348
  21868772.700   114921236.11308  21868772.280    89548992.48246
  23483163.000   123404859.85307  23483162.100    96159629.27345
  22376674.500   117590220.38608  22376674.000    91628734.55946
  22269096.680   117024994.76208  22269094.700    91188330.84546
  21547153.840   113231098.11908  21547155.520    88232048.13348
 15 02 28 00 53 30.0000000  0  6G16G18G19G21G22G27
  20559590.480   108041394.86209  20559589.760    84188111.40748
  21864905.620   114900914.28408  21864905.240    89533157.29946
  23468823.980   123329507.54207  23468823.000    96100913.20545
  22388901.380   117654472.79108  22388900.920    91678801.35946
  22254048.340   116945915.35408  22254046.300    91126710.55846
  21537434.600   113180023.28609  21537436.400    88192249.57748
 15 02 28 00 54  0.0000000  0  6G16G18G19G21G22G27
  20554816.740   108016308.67609  20554816.040    84168563.72348
  21861128.860   114881067.16608  21861128.500    89517692.02846
  23454501.560   123254242.08607  23454500.340    96042264.84545
  22401158.200   117718882.31308  22401157.760    91728990.58546
  22239053.520   116867116.59608  22239051.380    91065308.95546
  21527743.040   113129093.94208  21527744.920    88152564.37948
 15 02 28 00 54 30.0000000  0  6G16G18G19G21G22G27
  20550137.860   107991721.14809  20550137.180    84149404.60648
  21857443.520   114861700.73408  21857443.220    89502601.30046
  23440196.600   123179068.99007  23440195.380    95983688.44945
  22413445.680   117783452.92008  22413445.200    91779305.33646
  22224113.580   116788606.49008  22224111.400    91004132.26946
  21518080.260   113078315.84208  21518082.160    88112997.03348
 15 02 28 00 55  0.0000000  0  6G16G18G19G21G22G27
  20545553.320   107967629.27209  20545552.660    84130631.71448
  21853848.980   114842811.31208  21853848.700    89487882.28846
  23425908.620   123103984.31807  23425907.180    95925180.95845
  22425762.640   117848178.46408  22425762.100    91829740.80646
  22209228.200   116710383.21708  22209226.000    90943179.09046
  21508445.560   113027685.17609  21508447.400    88073544.57048
 15 02 28 00 55 30.0000000  0  6G16G18G19G21G22G27
  20541063.980   107944037.56509  20541063.320    84112248.55648
  21850345.980   114824403.05408  21850345.680    89473538.20346
  23411637.960   123028990.83107  23411636.340    95866744.50145
  22438109.280   117913060.21408  22438108.580    91880298.01246
  22194398.420   116632452.30208  22194396.260    90882453.72446
  21498839.560   112977205.17109  21498841.320    88034209.49347
 15 02 28 00 56  0.0000000  0  6G16G18G19G21G22G27
  20536670.240   107920948.42109  20536669.640    84094257.01548
  21846934.860   114806477.69708  21846934.540    89459570.39546
  23397384.780   122954090.00706  23397383.280    95808380.28245
