     2.11           OBSERVATION DATA    G                   RINEX VERSION / TYPE
SPIDER V4,0,0,3554                      2015 03 13 04:49    PGM / RUN BY / DATE 
ADJF                                                        MARKER NAME         
ADJF                                                        MARKER NUMBER       
                                                            OBSERVER / AGENCY   
496631              LEICA GRX1200+GNSS  8.20/4.007          REC # / TYPE / VERS 
103293              LEIAT504                                ANT # / TYPE        
  5273000.2084   285396.0090  3566759.2257                  APPROX POSITION XYZ 
        0.0480        0.0000        0.0000                  ANTENNA: DELTA H/E/N
     1     1                                                WAVELENGTH FACT L1/2
     4    C1    L1    P2    L2                              # / TYPES OF OBSERV 
    30.000                                                  INTERVAL            
  2015    02    28    00    00    0.0000000     GPS         TIME OF FIRST OBS   
  2015    02    28    23    59   30.0000000     GPS         TIME OF LAST OBS    
    16                                                      LEAP SECONDS        
    30                                                      # OF SATELLITES     
   G 1   835   834   834   834                              PRN / # OF OBS      
   G 2   932   932   932   932                              PRN / # OF OBS      
   G 3   853   853   853   853                              PRN / # OF OBS      
   G 4   853   853   852   852                              PRN / # OF OBS      
   G 5   667   667   667   667                              PRN / # OF OBS      
   G 6   760   760   760   760                              PRN / # OF OBS      
   G 7   657   657   657   657                              PRN / # OF OBS      
   G 9   799   798   798   798                              PRN / # OF OBS      
   G10   781   781   781   781                              PRN / # OF OBS      
   G11   797   797   797   797                              PRN / # OF OBS      
   G12   827   827   827   827                              PRN / # OF OBS      
   G13   821   821   821   821                              PRN / # OF OBS      
   G14   924   916   913   909                              PRN / # OF OBS      
   G15   726   726   726   726                              PRN / # OF OBS      
   G16   687   687   687   687                              PRN / # OF OBS      
   G17   935   935   935   935                              PRN / # OF OBS      
   G18   929   929   929   929                              PRN / # OF OBS      
   G19   778   778   777   777                              PRN / # OF OBS      
   G20   799   799   799   799                              PRN / # OF OBS      
   G21   719   719   719   719                              PRN / # OF OBS      
   G22   731   731   731   731                              PRN / # OF OBS      
   G23   741   740   740   740                              PRN / # OF OBS      
   G24   837   829   826   826                              PRN / # OF OBS      
   G25   859   859   859   859                              PRN / # OF OBS      
   G27   831   831   831   831                              PRN / # OF OBS      
   G28   897   896   896   896                              PRN / # OF OBS      
   G29   761   761   761   761                              PRN / # OF OBS      
   G30   704   704   704   704                              PRN / # OF OBS      
   G31   807   807   807   807                              PRN / # OF OBS      
   G32   754   754   754   754                              PRN / # OF OBS      
BIT 2 OF LLI FLAGS DATA COLLECTED UNDER A/S CONDITION       COMMENT             
SNR is mapped to RINEX snr flag value [2-9]                 COMMENT             
Lx:     = 25dBHz -> 1; 26-27dBHz -> 2; 28-31dBHz -> 3       COMMENT             
       32-35dBHz -> 4; 36-38dBHz -> 5; 39-41dBHz -> 6       COMMENT             
       42-44dBHz -> 7; 45-48dBHz -> 8; >=49dBHz -> 9        COMMENT             
                                                            END OF HEADER       
 15 02 28 00 00  0.0000000  0  7G16G18G21G22G27G29G31
  21697139.100   114019243.57509  21697136.560    88846168.15348
  22579658.120   118657004.61308  22579655.820    92460046.04146
  21389249.300   112401268.96509  21389246.500    87585396.74548
  23796555.940   125051783.04208  23796555.900    97442947.25646
  22794923.220   119788162.61108  22794923.940    93341444.59547
  24148558.640   126901515.51707  24148557.200    98884286.39645
  22791886.500   119772148.17708  22791885.020    93328930.70647
 15 02 28 00 00 30.0000000  0  7G16G18G21G22G27G29G31
  21683773.600   113949007.40109  21683771.000    88791438.67548
  22568779.460   118599837.01808  22568777.140    92415499.88646
  21397328.320   112443724.53309  21397325.520    87618479.00248
  23779094.640   124960024.12607  23779094.500    97371447.11546
  22783320.040   119727187.64308  22783320.800    93293931.66247
  24162441.840   126974472.29907  24162440.440    98941135.80945
  22808954.540   119861840.36308  22808953.120    93398820.53547
 15 02 28 00 01  0.0000000  0  7G16G18G21G22G27G29G31
  21670456.640   113879026.24809  21670454.000    88736907.90748
  22557958.700   118542973.87208  22557956.440    92371190.97047
  21405468.540   112486501.74909  21405465.760    87651811.89549
  23761636.860   124868284.89107  23761636.860    97299962.34546
  22771737.360   119666320.16508  22771738.080    93246502.49347
  24176326.840   127047439.01907  24176325.980    98997992.93646
  22826060.240   119951730.58008  22826058.800    93468864.70447
 15 02 28 00 01 30.0000000  0  7G16G18G21G22G27G29G31
  21657187.200   113809294.98109  21657184.600    88682571.86248
  22547194.820   118486409.99708  22547192.720    92327115.26246
  21413668.280   112529591.65509  21413665.540    87685388.43749
  23744182.080   124776560.81207  23744182.000    97228489.33746
  22760173.800   119605552.97408  22760174.460    93199151.45847
  24190212.560   127120408.49407  24190211.900    99054852.23546
  22843201.720   120041808.76408  22843200.240    93539055.40747
 15 02 28 00 02  0.0000000  0  7G16G18G21G22G27G29G31
  21643967.220   113739823.67209  21643964.640    88628438.38748
  22536489.920   118430155.71208  22536487.900    92283280.78146
  21421928.660   112573000.27409  21421925.920    87719213.33748
  23726732.200   124684862.37107  23726731.860    97157036.31646
  22748630.680   119544893.58508  22748631.260    93151884.43447
  24204100.180   127193387.87807  24204099.580    99111719.27346
  22860379.700   120132079.28708  22860378.260    93609395.96047
 15 02 28 00 02 30.0000000  0  7G16G18G21G22G27G29G31
  21630796.040   113670608.69909  21630793.440    88574504.65648
  22525843.240   118374207.63308  22525841.360    92239684.91246
  21430248.160   112616719.48609  21430245.400    87753280.25648
  23709286.720   124593186.64907  23709286.180    97085600.97145
  22737106.940   119484336.27208  22737107.580    93104696.95247
  24217988.740   127266372.52207  24217987.920    99168590.40645
  22877592.700   120222533.79808  22877591.360    93679879.90847
 15 02 28 00 03  0.0000000  0  7G16G18G21G22G27G29G31
  21617674.840   113601656.47709  21617672.300    88520775.66448
  22515256.040   118318571.96508  22515254.140    92196332.47046
  21438627.260   112660751.92209  21438624.520    87787591.24548
  23691846.740   124501540.21507  23691846.300    97014188.51546
  22725603.340   119423884.91608  22725604.060    93057592.03947
  24231879.020   127339365.88206  24231878.060    99225468.33045
  22894840.840   120313173.12208  22894839.500    93750507.82347
 15 02 28 00 03 30.0000000  0  7G16G18G21G22G27G29G31
  21604603.400   113532965.91409  21604600.980    88467250.56948
  22504728.060   118263247.62208  22504726.160    92153222.61547
  21447065.060   112705092.77609  21447062.300    87822142.56048
  23674412.320   124409922.50708  23674411.700    96942798.40146
  22714119.320   119363536.16708  22714120.120    93010567.06247
  24245770.120   127412364.74607  24245769.180    99282350.53545
  22912123.000   120403990.94008  22912121.580    93821274.76447
 15 02 28 00 04  0.0000000  0  7G16G18G21G22G27G29G31
  21591582.160   113464539.04909  21591579.760    88413930.94648
  22494259.840   118208237.47708  22494258.060    92110357.59847
  21455561.060   112749739.53909  21455558.300    87856932.24149
  23656983.820   124318336.23107  23656983.080    96871432.83146
  22702654.820   119303289.96608  22702655.640    92963621.99748
  24259662.280   127485368.95507  24259661.400    99339236.92845
  22929438.640   120494984.63008  22929437.260    93892178.73647
 15 02 28 00 04 30.0000000  0  7G16G18G21G22G27G29G31
  21578612.040   113396380.66609  21578609.640    88360820.52848
  22483852.280   118153545.84008  22483850.680    92067740.75847
  21464115.560   112794693.68809  21464112.800    87891961.44649
  23639562.200   124226786.24508  23639561.460    96800095.48146
  22691210.320   119243148.74108  22691211.140    92916758.73347
  24273556.100   127558381.20407  24273555.280    99396129.53845
  22946787.600   120586153.42608  22946786.400    93963219.19047
 15 02 28 00 05  0.0000000  0  7G16G18G21G22G27G29G31
  21565692.800   113328489.56009  21565690.380    88307918.38148
  22473505.160   118099171.63308  22473503.680    92025371.27147
  21472727.560   112839949.95609  21472724.760    87927226.07048
  23622147.240   124135271.85707  23622146.680    96728785.90046
  22679785.220   119183108.98408  22679785.820    92869974.51947
  24287450.920   127631398.08507  24287449.880    99453025.83145
  22964168.660   120677490.93408  22964167.540    94034390.94547
 15 02 28 00 05 30.0000000  0  7G16G18G21G22G27G29G31
  21552825.520   113260871.57609  21552823.100    88255229.06248
  22463219.640   118045120.91808  22463218.220    91983253.86147
  21481397.320   112885509.83109  21481394.480    87962727.27648
  23604740.400   124043799.78808  23604739.740    96657509.24646
  22668380.060   119123174.43208  22668380.620    92823272.29947
  24301347.360   127704423.81107  24301345.960    99509928.99645
  22981582.140   120768998.55708  22981581.040    94105695.30547
 15 02 28 00 06  0.0000000  0  7G16G18G21G22G27G29G31
  21540010.100   113193525.96309  21540007.640    88202751.96748
  22452995.620   117991393.21808  22452994.180    91941388.13547
  21490124.000   112931368.85709  21490121.160    87998461.57648
  23587341.640   123952369.62807  23587340.600    96586265.22946
  22656994.280   119063341.95908  22656994.920    92776649.61648
  24315244.880   127777455.16106  24315243.740    99566836.53045
  22999026.860   120860670.22008  22999025.820    94177127.56847
 15 02 28 00 06 30.0000000  0  7G16G18G21G22G27G29G31
  21527248.260   113126461.86309  21527245.700    88150494.24148
  22442834.760   117937997.56408  22442833.440    91899781.16147
  21498908.560   112977532.04709  21498905.680    88034432.89748
  23569952.520   123860990.73307  23569951.400    96515061.17846
  22645629.200   119003618.27808  22645629.940    92730111.72448
  24329144.460   127850498.99606  24329143.600    99623753.75045
  23016503.440   120952509.24508  23016502.340    94248690.11547
 15 02 28 00 07  0.0000000  0  7G16G18G21G22G27G29G31
  21514538.620   113059672.14609  21514535.980    88098450.31248
  22432735.740   117884926.84308  22432734.400    91858427.37347
  21507748.840   113023988.03509  21507745.940    88070632.36448
  23552572.040   123769656.41908  23552570.780    96443891.84546
  22634283.060   118943993.98408  22634283.860    92683651.25748
  24343044.680   127923545.65507  24343043.900    99680673.23745
  23034009.680   121044503.82308  23034008.660    94320374.03847
 15 02 28 00 07 30.0000000  0  7G16G18G21G22G27G29G31
  21501882.400   112993163.22109  21501879.780    88046625.18448
  22422699.720   117832187.18308  22422698.260    91817331.55947
  21516645.340   113070739.44209  21516642.420    88107062.03048
  23535201.220   123678373.42407  23535200.060    96372762.50646
  22622956.600   118884473.10308  22622957.360    92637271.36548
  24356946.380   127996599.49706  24356945.480    99737598.32345
  23051545.580   121136654.51708  23051544.580    94392179.57247
 15 02 28 00 08  0.0000000  0  7G16G18G21G22G27G29G31
  21489279.800   112926936.08209  21489277.200    87995019.63848
  22412726.960   117779780.20208  22412725.520    91776494.97447
  21525597.500   113117783.39209  21525594.580    88143719.65948
  23517840.660   123587143.94008  23517839.260    96301674.85346
  22611649.660   118825054.80908  22611650.320    92590971.42547
  24370849.280   128069659.95806  24370848.480    99794528.54145
  23069110.460   121228957.70708  23069109.480    94464103.82347
 15 02 28 00 08 30.0000000  0  7G16G18G21G22G27G29G31
  21476732.000   112860997.04009  21476729.340    87943638.57248
  22402818.680   117727711.95708  22402817.220    91735922.33247
  21534605.680   113165121.86309  21534602.820    88180606.77348
  23500491.560   123495974.47908  23500490.000    96230633.95446
  22600362.960   118765742.95708  22600363.620    92544754.42347
  24384754.120   128142730.57207  24384753.380    99851466.66145
  23086704.540   121321414.37808  23086703.620    94536147.57747
 15 02 28 00 09  0.0000000  0  7G16G18G21G22G27G29G31
  21464238.200   112795341.66009  21464235.480    87892478.54148
  22392974.040   117675978.06208  22392972.620    91695610.23147
  21543668.380   113212746.72609  21543665.540    88217717.06448
  23483152.980   123404860.65707  23483151.440    96159636.42846
  22589095.220   118706530.67308  22589095.800    92498615.00647
  24398659.760   128215805.04906  24398659.060    99908407.80546
  23104326.140   121414015.52008  23104325.420    94608304.13547
 15 02 28 00 09 30.0000000  0  7G16G18G21G22G27G29G31
  21451799.980   112729978.44609  21451797.320    87841546.17748
  22383194.620   117624586.87808  22383193.220    91655565.18347
  21552786.300   113260661.69009  21552783.460    88255053.40448
  23465826.780   123313811.74908  23465825.100    96088689.45546
  22577847.640   118647424.26308  22577848.140    92452558.08947
  24412567.340   128288889.78806  24412566.880    99965356.95745
  23121975.720   121506763.65608  23121975.200    94680575.04347
 15 02 28 00 10  0.0000000  0  7G16G18G21G22G27G29G31
  21439417.200   112664906.77109  21439414.580    87790840.98848
  22373480.340   117573537.87208  22373478.960    91615786.74947
  21561958.740   113308863.14309  21561955.920    88292612.97548
  23448513.060   123222828.02008  23448511.200    96017793.24946
  22566619.700   118588420.97108  22566620.060    92406581.51047
  24426476.260   128361982.23106  24426475.520   100022312.07345
  23139652.280   121599653.35308  23139651.780    94752956.31647
 15 02 28 00 10 30.0000000  0  7G16G18G21G22G27G29G31
  21427089.820   112600126.20709  21427087.180    87740362.62548
  22363831.120   117522830.48708  22363829.680    91576274.51347
  21571184.700   113357346.00809  21571181.940    88330391.82748
  23431211.620   123131908.94908  23431209.760    95946947.43146
  22555410.860   118529517.92008  22555411.040    92360683.04147
  24440386.220   128435079.37307  24440385.380   100079270.87845
  23157354.760   121692679.07608  23157354.260    94825443.71447
 15 02 28 00 11  0.0000000  0  7G16G18G21G22G27G29G31
  21414819.040   112535642.90209  21414816.380    87690115.90148
  22354248.100   117472471.12208  22354246.620    91537033.47447
  21580464.660   113406112.52109  21580461.920    88368391.71048
  23413923.760   123041061.38008  23413921.820    95876157.34146
  22544221.780   118470719.20708  22544221.920    92314865.88947
  24454297.980   128508185.39307  24454297.240   100136236.58145
  23175083.240   121785841.43508  23175082.700    94898037.33847
 15 02 28 00 11 30.0000000  0  7G16G18G21G22G27G29G31
  21402605.100   112471458.33209  21402602.500    87640101.96748
  22344731.480   117422460.84908  22344730.000    91498064.45347
  21589798.040   113455159.74309  21589795.320    88406610.32248
  23396649.940   122950287.18208  23396647.720    95805424.39646
  22533052.340   118412023.74808  22533052.520    92269129.18448
  24468211.220   128581299.52607  24468210.360   100193208.63544
  23192837.100   121879137.03608  23192836.680    94970734.86347
 15 02 28 00 12  0.0000000  0  7G16G18G21G22G27G29G31
  21390448.580   112407575.39109  21390446.000    87590323.06048
  22335281.760   117372802.42508  22335280.340    91459369.59147
  21599184.740   113504487.24009  21599182.040    88445047.33348
  23379390.640   122859589.71808  23379388.240    95734751.23446
  22521902.760   118353432.45908  22521903.120    92223473.65748
  24482126.020   128654422.78006  24482125.060   100250187.81445
  23210615.920   121972563.99908  23210615.620    95043534.93047
 15 02 28 00 12 30.0000000  0  7G16G18G21G22G27G29G31
  21378349.620   112343994.85309  21378347.020    87540779.78648
  22325899.240   117323497.10408  22325897.760    91420949.88147
  21608624.120   113554091.66609  21608621.460    88483700.13348
  23362146.240   122768970.56808  23362143.780    95664139.09946
  22510772.760   118294943.83608  22510773.320    92177898.13148
  24496042.200   128727553.66406  24496041.680   100307172.86845
  23228418.840   122066117.90608  23228418.400    95116434.18947
 15 02 28 00 13  0.0000000  0  7G16G18G21G22G27G29G31
  21366308.740   112280719.47309  21366306.140    87491474.30648
  22316584.380   117274546.90909  22316582.700    91382806.88247
  21618115.840   113603970.98909  21618113.140    88522567.13948
  23344917.360   122678432.64908  23344914.940    95593590.25446
  22499662.380   118236558.18508  22499663.040    92132402.85748
  24509960.080   128800692.34306  24509959.480   100364164.03245
  23246245.060   122159795.20808  23246244.640    95189429.33047
 15 02 28 00 13 30.0000000  0  7G16G18G21G22G27G29G31
  21354326.600   112217752.78209  21354324.020    87442409.35748
  22307337.860   117225955.72409  22307336.060    91344943.63847
  21627659.980   113654125.76509  21627657.240    88561648.78548
  23327704.640   122587980.28008  23327702.220    95523108.06746
  22488571.860   118178277.09608  22488572.520    92086989.04647
  24523879.840   128873841.00506  24523879.300   100421162.99245
  23264094.660   122253595.22408  23264094.360    95262520.12746
 15 02 28 00 14  0.0000000  0  7G16G18G21G22G27G29G31
  21342403.120   112155094.32209  21342400.560    87393584.58548
  22298159.520   117177723.00408  22298157.700    91307359.70847
  21637255.460   113704550.23709  21637252.640    88600940.57748
  23310508.240   122497613.46108  23310505.780    95452692.52746
  22477500.720   118120097.85408  22477501.260    92041654.58647
  24537801.040   128946996.90806  24537800.560   100478167.54845
  23281966.560   122347512.65008  23281966.520    95335702.55747
 15 02 28 00 14 30.0000000  0  7G16G18G21G22G27G29G31
  21330539.160   112092748.91209  21330536.620    87345003.76148
  22289050.160   117129853.14308  22289048.380    91270058.54947
  21646902.560   113755245.91909  21646899.680    88640443.71448
  23293329.060   122407337.15108  23293326.800    95382347.53746
  22466449.360   118062022.65208  22466449.660    91996401.19747
  24551723.900   129020162.27106  24551723.540   100535179.47645
  23299860.600   122441545.81608  23299860.480    95408975.08746
 15 02 28 00 15  0.0000000  0  6G16G18G21G22G27G31
  21318736.160   112030724.04409  21318733.660    87296672.70348
  22280011.220   117082353.54308  22280009.520    91233045.88947
  21656601.880   113806216.12409  21656598.960    88680160.75748
  23276168.780   122317159.75708  23276166.500    95312079.60446
  22455418.840   118004056.97308  22455418.960    91951233.14547
  23317777.140   122535697.93008  23317777.020    95482340.37246
 15 02 28 00 15 30.0000000  0  6G16G18G21G22G27G31
  21306992.220   111969009.48509  21306989.780    87248583.44548
  22271040.780   117035213.77809  22271039.040    91196313.62547
  21666350.720   113857446.47909  21666347.760    88720080.51048
  23259025.360   122227071.23708  23259022.860    95241880.91246
  22444406.760   117946188.52008  22444406.960    91906140.86648
  23335713.460   122629953.80208  23335713.100    95555786.54546
 15 02 28 00 16  0.0000000  0  6G16G18G21G22G27G31
  21295308.720   111907612.35409  21295306.260    87200741.52548
  22262140.180   116988440.75109  22262138.260    91159867.12447
  21676149.580   113908939.79209  21676146.660    88760205.16348
  23241900.360   122137079.42208  23241897.780    95171757.56746
  22433414.120   117888421.98008  22433414.480    91861127.99948
  23353669.740   122724314.85308  23353669.380    95629314.66547
 15 02 28 00 16 30.0000000  0  6G16G18G21G22G27G31
  21283685.960   111846534.41209  21283683.480    87153148.32748
  22253309.720   116942036.33708  22253307.720    91123707.86047
  21685998.180   113960694.60509  21685995.320    88800533.58748
  23224794.300   122047186.87208  23224791.780    95101711.56847
  22422440.860   117830756.99708  22422441.300    91816194.26648
  23371645.440   122818778.00707  23371645.100    95702922.44846
 15 02 28 00 17  0.0000000  0  6G16G18G21G22G27G31
  21272125.340   111785783.02509  21272122.840    87105809.58848
  22244550.700   116896007.24209  22244548.620    91087841.04547
  21695896.980   114012713.17609  21695894.220    88841067.53348
  23207708.420   121957400.76508  23207705.980    95031748.51346
  22411487.880   117773198.54108  22411488.340    91771343.53948
  23389640.900   122913345.21808  23389640.620    95776611.40647
 15 02 28 00 17 30.0000000  0  6G16G18G21G22G27G31
  21260626.560   111725356.34709  21260623.980    87058723.87348
  22235862.840   116850352.10109  22235860.680    91052265.63547
  21705845.100   114064990.89209  21705842.400    88881803.41748
  23190642.640   121867720.40008  23190640.260    94961867.87147
  22400554.400   117715742.85508  22400554.900    91726572.90648
  23407654.760   123008009.63708  23407654.660    95850376.02346
 15 02 28 00 18  0.0000000  0  6G16G18G21G22G27G31
  21249190.020   111665256.68709  21249187.340    87011892.97348
  22227246.420   116805072.51609  22227244.220    91016982.85647
  21715842.020   114117525.01909  21715839.300    88922739.09848
  23173597.500   121778148.38408  23173595.040    94892071.61747
  22389640.480   117658389.95508  22389641.020    91681882.35548
  23425686.540   123102768.28208  23425686.640    95924213.94347
 15 02 28 00 18 30.0000000  0  7G16G18G19G21G22G27G31
  21237816.080   111605486.21109  21237813.400    86965318.57448
  22218701.840   116760170.75209  22218699.680    90981994.48147
  24544906.820   128984354.32206                                
  21725887.480   114170314.24909  21725884.740    88963873.55748
  23156573.560   121688687.65308  23156570.940    94822362.08047
  22378746.100   117601139.86908  22378746.620    91637271.92148
  23443735.780   123197618.36908  23443735.880    95998123.17346
 15 02 28 00 19  0.0000000  0  7G16G18G19G21G22G27G31
  21226501.000   111546025.08809  21226498.320    86918985.24048
  22210225.260   116715626.62309  22210223.200    90947284.79247
  24530306.000   128907623.81306  24530304.380   100447484.30544
  21735976.920   114223334.58809  21735974.140    89005188.10748
  23139567.080   121599318.87208  23139564.460    94752724.20047
  22367867.140   117543970.77708  22367867.620    91592724.60148
  23461797.800   123292535.32207  23461797.720    96072084.62546
 15 02 28 00 19 30.0000000  0  7G16G18G19G21G22G27G31
  21215254.640   111486925.20109  21215251.980    86872933.38248
  22201826.540   116671491.55609  22201824.580    90912893.85147
  24515723.920   128830993.25407  24515721.980   100387772.26145
  21746119.320   114276633.33609  21746116.540    89046719.60148
  23122588.160   121510094.35008  23122585.540    94683198.72447
  22357013.000   117486931.97108  22357013.400    91548278.78848
  23479881.340   123387564.99208  23479881.140    96146133.75446
 15 02 28 00 20  0.0000000  0  7G16G18G19G21G22G27G31
  21204071.140   111428155.62009  21204068.540    86827138.90948
  22193499.740   116627734.25009  22193497.820    90878797.26847
  24501154.400   128754429.52607  24501152.520   100328112.29745
  21756308.160   114330176.07209  21756305.360    89088441.21448
  23105630.760   121420983.34008  23105628.240    94613761.70546
  22346177.380   117429990.39308  22346177.800    91503908.76048
  23497979.440   123482671.57308  23497979.280    96220242.76946
 15 02 28 00 20 30.0000000  0  7G16G18G19G21G22G27G31
  21192952.620   111369727.32409  21192950.000    86781610.37348
  22185246.980   116584365.95509  22185245.040    90845003.81247
  24486599.120   128677940.64806  24486596.980   100268510.65846
  21766544.660   114383969.12509  21766541.820    89130357.88248
  23088697.240   121331997.62808  23088694.780    94544422.31847
  22335361.960   117373154.85108  22335362.360    91459621.35248
  23516093.460   123577860.99908  23516093.180    96294416.42246
 15 02 28 00 21  0.0000000  0  7G16G18G19G21G22G27G31
  21181898.660   111311638.50109  21181896.080    86736346.35749
  22177067.880   116541384.79209  22177065.960    90811512.00647
  24472057.440   128601523.76406  24472055.200   100208965.12445
  21776827.840   114438007.50309  21776824.940    89172465.70348
  23071787.460   121243136.26508  23071784.860    94475179.80946
  22324566.020   117316421.71108  22324566.360    91415413.72148
  23534221.920   123673126.47808  23534221.540    96368649.27846
 15 02 28 00 21 30.0000000  0  7G16G18G19G21G22G27G31
  21170909.800   111253891.69609  21170907.260    86691348.85349
  22168962.700   116498792.32209  22168960.860    90778323.08747
  24457529.460   128525178.56106  24457527.140   100149475.42545
  21787157.300   114492289.21609  21787154.420    89214763.14648
  23054901.880   121154402.02208  23054898.920    94406036.34147
  22313789.520   117259790.99008  22313789.880    91371285.91048
  23552364.340   123768465.33108  23552364.040    96442939.29346
 15 02 28 00 22  0.0000000  0  7G16G18G19G21G22G27G31
  21159987.380   111196493.97909  21159984.860    86646623.36548
  22160932.860   116456595.30909  22160931.100    90745442.31547
  24443015.920   128448909.65106  24443013.400   100090045.16945
  21797533.620   114546817.22209  21797530.780    89257252.50548
  23038041.800   121065802.51308  23038038.800    94336997.87847
  22303033.440   117203267.74408  22303033.800    91327241.84148
  23570521.140   123863879.41008  23570520.620    96517287.94246
 15 02 28 00 22 30.0000000  0  7G16G18G19G21G22G27G31
  21149130.920   111139443.02509  21149128.400    86602168.07948
  22152977.820   116414791.25809  22152976.000    90712867.74647
  24428515.920   128372712.47006  24428513.540   100030670.85745
  21807955.500   114601584.67109  21807952.680    89299928.43348
  23021207.000   120977335.47308  23021204.080    94268062.62647
  22292297.000   117146847.35808  22292297.380    91283277.92048
  23588690.860   123959361.45508  23588690.220    96591689.51946
 15 02 28 00 23  0.0000000  0  7G16G18G19G21G22G27G31
  21138341.080   111082742.09609  21138338.560    86557985.54149
  22145098.160   116373383.01809  22145096.160    90680601.60947
  24414029.820   128296588.57806  24414027.760    99971353.61845
  21818423.060   114656592.18309  21818420.240    89342791.43448
  23004398.400   120889005.68908  23004395.580    94199234.32347
  22281580.360   117090531.29008  22281580.840    91239395.30048
  23606873.100   124054909.70808  23606872.560    96666142.68946
 15 02 28 00 23 30.0000000  0  7G16G18G19G21G22G27G31
  21127617.880   111026391.38109  21127615.380    86514075.89948
  22137293.860   116332371.08409  22137291.720    90648644.26947
  24399557.200   128220535.50806  24399555.120    99912091.53345
  21828935.480   114711835.39109  21828932.680    89385838.08348
  22987615.900   120800813.34808  22987613.040    94130513.12747
  22270883.220   117034317.46608  22270883.720    91195592.34748
  23625067.040   124150519.10308  23625066.460    96740643.49846
 15 02 28 00 24  0.0000000  0  7G16G18G19G21G22G27G31
  21116962.260   110970395.71209  21116959.720    86470442.90649
  22129565.820   116291759.75809  22129563.600    90616999.08947
  24385098.640   128144556.02206  24385096.800    99852886.81646
  21839492.820   114767314.82909  21839490.100    89429068.80848
  22970860.640   120712764.45608  22970857.540    94061903.67947
  22260206.060   116978208.66408  22260206.600    91151871.22148
  23643272.520   124246189.25008  23643271.880    96815191.51747
 15 02 28 00 24 30.0000000  0  7G16G18G19G21G22G27G31
  21106374.580   110914756.95809  21106371.960    86427088.04449
  22121914.220   116251550.05309  22121911.920    90585666.87647
  24370654.120   128068649.96106  24370652.380    99793739.33946
  21850094.660   114823027.73809  21850091.940    89472481.47448
  22954133.180   120624860.96608  22954129.980    93993407.55147
  22249548.820   116922204.55308  22249549.260    91108231.68748
  23661488.960   124341917.30408  23661488.360    96889784.69747
 15 02 28 00 25  0.0000000  0  7G16G18G19G21G22G27G31
  21095854.840   110859475.41409  21095852.180    86384011.51349
  22114339.060   116211742.05009  22114336.720    90554647.66147
  24356223.160   127992815.17506  24356221.240    99734647.34745
  21860740.460   114878971.74709  21860737.760    89516074.19748
  22937433.500   120537103.73408  22937430.340    93925025.38047
  22238911.140   116866303.23008  22238911.520    91064672.22948
  23679715.520   124437698.07108  23679715.040    96964418.93046
 15 02 28 00 25 30.0000000  0  7G16G18G19G21G22G27G31
  21085403.840   110804555.24809  21085401.220    86341216.58748
  22106841.060   116172339.74409  22106838.820    90523944.58647
  24341806.080   127917053.52606  24341804.000    99675612.36145
  21871430.180   114935146.61509  21871427.540    89559846.82348
  22920762.560   120449497.56808  22920759.440    93856760.92647
  22228293.380   116810506.96108  22228293.820    91021194.64948
  23697952.020   124533531.21007  23697951.500    97039094.00346
 15 02 28 00 26  0.0000000  0  7G16G18G19G21G22G27G31
  21075021.300   110749994.59309  21075018.660    86298701.79049
  22099419.800   116133340.66009  22099417.680    90493555.70447
  24327402.260   127841361.07806  24327399.940    99616631.31745
  21882162.640   114991545.92609  21882160.000    89603794.33648
  22904120.080   120362041.02908  22904116.880    93788613.04946
  22217694.900   116754811.65408  22217695.340    90977795.74048
  23716197.100   124629409.46108  23716196.620    97113804.27146
 15 02 28 00 26 30.0000000  0  7G16G18G19G21G22G27G31
  21064708.960   110695802.82809  21064706.320    86256474.44149
  22092076.920   116094753.51809  22092074.960    90463487.81747
  24313012.860   127765744.90106  24313010.600    99557709.67045
  21892938.860   115048175.44709  21892936.260    89647921.23348
  22887507.920   120274744.13608  22887504.780    93720589.58247
  22207117.060   116699224.68508  22207117.400    90934481.24548
  23734451.740   124725337.15608  23734451.120    97188553.06146
 15 02 28 00 27  0.0000000  0  7G16G18G19G21G22G27G31
  21054466.380   110641977.76209  21054463.780    86214532.84649
  22084812.060   116056576.50709  22084810.100    90433739.51847
  24298637.140   127690200.55006  24298634.860    99498844.04845
  21903757.580   115105028.35109  21903755.020    89692222.20648
  22870925.920   120187605.70808  22870922.880    93652689.60447
  22196559.080   116643741.97308  22196559.340    90891247.99648
  23752714.400   124821307.32307  23752713.680    97263334.93146
 15 02 28 00 27 30.0000000  0  7G16G18G19G21G22G27G31
  21044294.140   110588522.29309  21044291.600    86172879.23849
  22077625.540   116018811.30009  22077623.660    90404312.09247
  24284275.460   127614728.83107  24284273.200    99440034.96646
  21914618.800   115162104.74709  21914616.280    89736697.31448
  22854374.660   120100628.65208  22854371.560    93584915.34047
  22186020.920   116588363.88108  22186021.240    90848096.25848
  23770984.520   124917317.16308  23770983.900    97338147.64246
 15 02 28 00 28  0.0000000  0  7G16G18G19G21G22G27G31
  21034192.500   110535437.80609  21034189.980    86131514.70049
  22070517.660   115981459.33609  22070515.860    90375206.67747
  24269927.440   127539329.42007  24269925.140    99381282.25545
  21925521.980   115219401.65509  21925519.460    89781344.25148
  22837854.600   120013815.37608  22837851.440    93517268.70647
  22175502.600   116533090.21508  22175503.000    90805025.89048
  23789261.520   125013363.64607  23789261.060    97412988.89846
 15 02 28 00 28 30.0000000  0  7G16G18G19G21G22G27G31
  21024161.460   110482724.23509  21024158.940    86090439.20149
  22063488.300   115944520.16509  22063486.580    90346422.92647
  24255592.680   127463999.43207  24255590.340    99322583.62746
  21936466.400   115276914.91709  21936463.840    89826159.78248
  22821365.840   119927166.26308  22821362.620    93449749.99047
  22165003.760   116477918.76908  22165004.240    90762035.18348
  23807544.580   125109441.72708  23807544.020    97487854.89246
 15 02 28 00 29  0.0000000  0  7G16G18G19G21G22G27G31
  21014202.640   110430390.30909  21014200.160    86049659.52049
  22056539.020   115908001.87009  22056537.340    90317967.12447
  24241272.320   127388745.20906  24241269.940    99263944.01646
  21947452.780   115334648.67409  21947450.160    89871147.12548
  22804910.020   119840690.48208  22804906.720    93382366.33847
  22154525.640   116422856.06408  22154526.040    90719129.20448
  23825834.340   125205554.35807  23825833.580    97562747.66145
 15 02 28 00 29 30.0000000  0  7G16G18G19G21G22G27G31
  21004316.200   110378436.63809  21004313.700    86009176.14649
  22049669.860   115871904.62909  22049668.160    90289839.42147
  24226966.060   127313565.49706  24226963.680    99205362.49646
  21958480.580   115392600.06209  21958477.940    89916304.04648
  22788487.480   119754389.79908  22788484.200    93315119.12447
  22144068.060   116367900.98408  22144068.420    90676307.08248
  23844130.040   125301697.95108  23844129.320    97637664.54846
 15 02 28 00 30  0.0000000  0  7G16G18G19G21G22G27G31
  20994501.940   110326862.47409  20994499.440    85968988.48449
  22042880.620   115836227.26809  22042878.840    90262038.89447
  24212673.320   127238457.67706  24212671.020    99146836.99745
  21969548.940   115450764.64109  21969546.260    89961627.08748
  22772098.120   119668263.57508  22772094.860    93248007.84647
  22133630.440   116313050.67308  22133630.720    90633566.59748
  23862430.460   125397866.40907  23862429.840    97712600.74446
 15 02 28 00 30 30.0000000  0  7G16G18G19G21G22G27G31
  20984760.240   110275669.60309  20984757.740    85929097.94149
  22036171.480   115800970.87509  22036169.660    90234566.39947
  24198394.160   127163421.07506  24198392.020    99088367.00245
  21980657.460   115509140.15009  21980654.780    90007114.49948
  22755742.420   119582314.19808  22755739.100    93181034.37247
  22123212.620   116258304.71708  22123212.920    90590907.43948
  23880734.940   125494056.49608  23880734.560    97787553.75846
 15 02 28 00 31  0.0000000  0  7G16G18G19G21G22G27G31
  20975091.840   110224861.81809  20975089.320    85889507.46349
  22029543.100   115766138.68209  22029541.260    90207424.44847
  24184128.920   127088457.14006  24184126.700    99029953.54845
  21991806.140   115567726.66709  21991803.480    90052766.33248
  22739421.240   119496546.32608  22739417.920    93114202.33147
  22112814.940   116203665.04508  22112815.300    90548331.09948
  23899043.420   125590267.28008  23899043.120    97862522.93446
 15 02 28 00 31 30.0000000  0  7G16G18G19G21G22G27G31
  20965497.300   110174442.17209  20965494.780    85850219.43449
  22022995.940   115731732.88509  22022994.060    90180614.74947
  24169877.640   127013566.85507  24169875.280    98971597.56844
  22002994.780   115626523.16809  22002992.120    90098581.78748
  22723135.280   119410963.49308  22723132.100    93047514.47547
  22102437.700   116149132.65608  22102438.140    90505838.34948
  23917355.520   125686496.85108  23917355.180    97937506.77646
 15 02 28 00 32  0.0000000  0  7G16G18G19G21G22G27G31
  20955976.460   110124409.73609  20955973.880    85811233.12049
  22016529.720   115697752.43309  22016527.760    90154136.49147
  24155639.920   126938747.45206  24155637.620    98913296.76745
  22014222.360   115685524.35409  22014219.700    90144556.73448
  22706884.520   119325565.51508  22706881.300    92980970.65347
  22092080.380   116094704.79808  22092080.860    90463427.05448
  23935670.060   125782739.18207  23935669.460    98012500.55446
 15 02 28 00 32 30.0000000  0  7G16G18G19G21G22G27G31
  20946530.220   110074769.36309  20946527.640    85772552.31249
  22010145.460   115664202.40009  22010143.400    90127993.62447
  24141416.160   126864001.45406  24141413.980    98855053.18746
  22025489.160   115744731.75409  22025486.480    90190692.36848
  22690669.980   119240357.80208  22690666.740    92914575.09047
  22081743.580   116040384.49508  22081744.060    90421099.56248
  23953986.980   125878994.24507  23953986.520    98087504.23746
 15 02 28 00 33  0.0000000  0  7G16G18G19G21G22G27G31
  20937158.300   110025519.73009  20937155.780    85734175.98349
  22003842.580   115631080.10309  22003840.440    90102184.06147
  24127205.760   126789325.44506  24127203.500    98796864.15145
  22036794.060   115804139.36209  22036791.380    90236984.01148
  22674491.460   119155339.40308  22674488.240    92848327.05847
  22071426.560   115986168.09708  22071427.040    90378853.04048
  23972305.080   125975255.55908  23972304.820    98162512.81046
 15 02 28 00 33 30.0000000  0  7G16G18G19G21G22G27G31
  20927861.900   109976666.84509  20927859.380    85696108.80149
  21997622.160   115598391.15809  21997619.920    90076712.16547
  24113009.380   126714723.02207  24113007.140    98738732.44646
  22048137.500   115863749.76009  22048134.840    90283433.66148
  22658350.320   119070517.19708  22658347.080    92782231.88247
  22061130.060   115932059.75008  22061130.520    90336690.70648
  23990624.580   126071524.48207  23990624.500    98237527.32446
 15 02 28 00 34  0.0000000  0  7G16G18G19G21G22G27G31
  20918640.840   109928209.80509  20918638.300    85658350.07549
  21991483.880   115566134.33609  21991481.680    90051577.00047
  24098826.700   126640191.78407  24098824.280    98680656.21646
  22059518.660   115923558.25709  22059516.040    90330037.67848
  22642246.500   118985891.30708  22642243.260    92716289.70047
  22050853.620   115878057.10408  22050854.060    90294610.74248
  24008944.520   126167795.63107  24008944.620    98312543.61146
 15 02 28 00 34 30.0000000  0  7G16G18G19G21G22G27G31
  20909496.140   109880154.12709  20909493.660    85620904.09949
  21985428.640   115534314.28709  21985426.520    90026782.16947
  24084658.100   126565734.95007  24084655.720    98622637.96746
  22070937.880   115983566.72109  22070935.240    90376797.51448
  22626181.160   118901467.74908  22626177.820    92650505.15647
  22040597.980   115824163.59108  22040598.380    90252615.80648
  24027264.900   126264069.13207  24027265.100    98387561.72046
 15 02 28 00 35  0.0000000  0  7G16G18G19G21G22G27G31
  20900428.120   109832501.18209  20900425.640    85583771.93949
  21979456.620   115502932.01209  21979454.680    90002328.46848
  24070503.460   126491351.70906  24070501.100    98564677.06046
  22082394.600   116043772.30609  22082391.940    90423710.95148
  22610154.700   118817248.35408  22610151.320    92584879.70847
  22030363.040   115770378.64208  22030363.440    90210705.46848
  24045585.040   126360341.56807  24045585.240    98462578.99646
 15 02 28 00 35 30.0000000  0  7G16G18G19G21G22G27G31
  20891436.500   109785249.87909  20891433.980    85546952.74649
  21973567.500   115471985.33109  21973565.780    89978214.18248
  24056362.240   126417039.05507  24056359.820    98506771.14546
  22093887.920   116104170.03909  22093885.220    90470774.11448
  22594167.000   118733232.58308  22594163.600    92519412.93247
  22020148.220   115716699.13208  22020148.600    90168877.28348
  24063903.800   126456606.73607  24063904.180    98537590.64046
 15 02 28 00 36  0.0000000  0  7G16G18G19G21G22G27G31
  20882522.380   109738405.88309  20882519.820    85510450.93149
  21967762.360   115441479.60909  21967760.780    89954443.50247
  24042234.960   126342799.99407  24042232.380    98448922.59246
  22105418.240   116164762.06409  22105415.460    90517988.67748
  22578219.320   118649426.76708  22578215.940    92454109.75247
  22009954.160   115663128.86208  22009954.620    90127134.22748
  24082221.440   126552866.09007  24082222.000    98612597.74446
 15 02 28 00 36 30.0000000  0  7G16G18G19G21G22G27G31
  20873685.840   109691969.79109  20873683.320    85474266.97249
  21962041.280   115411415.24909  21962039.660    89931016.74447
  24028121.420   126268633.33507  24028119.080    98391130.43746
  22116984.800   116225544.67909  22116982.040    90565351.75148
  22562311.820   118565832.33008  22562308.400    92388971.28547
  21999780.640   115609666.66708  21999781.140    90085475.38848
  24100537.000   126649114.59807  24100537.660    98687596.38946
 15 02 28 00 37  0.0000000  0  7G16G18G19G21G22G27G31
  20864927.160   109645942.86109  20864924.660    85438401.83849
  21956404.280   115381792.44309  21956402.560    89907934.05947
  24014021.540   126194538.46707  24014019.300    98333394.21946
  22128587.220   116286515.46909  22128584.400    90612861.45348
  22546444.980   118482451.38408  22546441.420    92323999.16447
  21989627.560   115556312.01008  21989628.020    90043900.34648
  24118849.980   126745349.06108  24118850.700    98762584.11546
 15 02 28 00 37 30.0000000  0  7G16G18G19G21G22G27G31
  20856246.760   109600327.15409  20856244.220    85402857.13149
  21950851.640   115352612.68909  21950849.720    89885196.60548
  23999935.440   126120515.33107  23999933.120    98275713.89646
  22140225.220   116347673.20609  22140222.340    90660516.83148
  22530619.160   118399286.43008  22530615.560    92259195.35347
  21979495.020   115503065.03009  21979495.340    90002409.20048
  24137159.580   126841566.69307  24137160.380    98837558.68045
 15 02 28 00 38  0.0000000  0  7G16G18G19G21G22G27G31
  20847645.300   109555126.41309  20847642.760    85367635.77449
  21945383.980   115323879.39309  21945381.840    89862807.03748
  23985863.240   126046565.62807  23985860.680    98218090.78446
  22151898.720   116409017.50609  22151895.780    90708317.57348
  22514835.300   118316342.21708  22514831.820    92194563.54748
  21969383.440   115449927.81609  21969383.600    89961003.57348
  24155465.940   126937766.62607  24155466.560    98912519.45545
 15 02 28 00 38 30.0000000  0  7G16G18G19G21G22G27G31
  20839123.140   109510342.01309  20839120.560    85332738.83949
  21940001.320   115295592.74009  21939998.980    89840765.50648
  23971804.800   125972688.58207  23971802.380    98160524.31446
  22163607.240   116470546.02309  22163604.340    90756261.86448
  22499093.860   118233620.49608  22499090.440    92130105.11948
  21959292.600   115396899.86309  21959292.720    89919683.10048
  24173768.300   127033945.20407  24173768.920    98987463.58346
 15 02 28 00 39  0.0000000  0  7G16G18G19G21G22G27G31
  20830680.620   109465976.10209  20830678.020    85298168.01049
  21934703.920   115267754.43909  21934701.460    89819073.34648
  23957760.240   125898884.44907  23957757.860    98103014.66746
  22175350.380   116532256.70608  22175347.560    90804348.10548
  22483395.300   118151124.03808  22483391.880    92065822.21248
  21949222.520   115343981.43008  21949222.720    89878447.97248
  24192066.040   127130099.69707  24192066.960    99062388.92846
 15 02 28 00 39 30.0000000  0  7G16G18G19G21G22G27G31
  20822318.240   109422031.33109  20822315.640    85263925.33349
  21929492.220   115240366.62109  21929489.740    89797732.20048
  23943729.740   125825153.93407  23943727.380    98045562.36946
  22187128.000   116594148.54808  22187125.160    90852575.50448
  22467740.300   118068856.41908  22467736.760    92001717.61247
  21939173.440   115291173.58108  21939173.820    89837299.00948
  24210358.740   127226228.14807  24210360.160    99137293.93646
 15 02 28 00 40  0.0000000  0  7G16G18G19G21G22G27G31
  20814036.060   109378508.07309  20814033.480    85230011.11149
  21924366.120   115213428.81309  21924363.740    89776741.71848
  23929712.880   125751495.07707  23929710.480    97988165.90046
  22198939.480   116656218.56209  22198936.680    90900941.74548
  22452128.940   117986818.38408  22452125.340    91937791.91247
  21929145.140   115238474.73009  21929145.640    89796234.98348
  24228645.720   127322326.04107  24228647.100    99212175.21546
 15 02 28 00 40 30.0000000  0  7G16G18G19G21G22G27G31
  20805834.700   109335409.79309  20805832.180    85196428.05049
  21919326.140   115186943.62609  21919323.860    89756103.93048
  23915710.020   125677909.85807  23915707.580    97930826.80145
  22210784.820   116718466.49408  22210782.080    90949446.62248
  22436562.060   117905014.43908  22436558.540    91874048.63247
  21919138.000   115185886.75709  21919138.420    89755257.36348
  24246926.520   127418392.26407  24246927.880    99287031.73045
 15 02 28 00 41  0.0000000  0  7G16G18G19G21G22G27G31
  20797714.040   109292735.70209  20797711.560    85163175.50749
  21914372.040   115160909.85209  21914369.840    89735817.87947
  23901720.640   125604395.30707  23901718.240    97873542.78946
  22222663.160   116780887.61808  22222660.400    90998086.45148
  22421039.760   117823444.66208  22421036.280    91810487.80147
  21909151.540   115133407.23509  21909151.740    89714364.23348
  24265200.420   127514421.34007  24265201.800    99361859.32745
 15 02 28 00 41 30.0000000  0  7G16G18G19G21G22G27G31
  20789674.640   109250488.61209  20789672.180    85130255.69849
  21909504.220   115135329.55309  21909502.100    89715885.18948
  23887744.900   125530952.25807  23887742.400    97816314.47845
  22234574.280   116843480.81608  22234571.440    91046860.36348
  22405562.680   117742112.11808  22405559.220    91747111.83047
  21899185.800   115081036.97009  21899185.820    89673556.24048
  24283466.980   127610411.17107  24283468.420    99436656.35446
 15 02 28 00 42  0.0000000  0  7G16G18G19G21G22G27G31
  20781717.780   109208675.04109  20781715.340    85097673.69149
  21904723.800   115110208.60509  21904721.740    89696310.43648
  23873783.560   125457584.90807  23873781.060    97759145.16946
  22246518.720   116906249.25308  22246515.840    91095770.83048
  22390132.180   117661024.40908  22390128.700    91683926.64347
  21889241.760   115028780.92909  21889241.760    89632837.26448
  24301726.320   127706364.01707  24301727.900    99511424.51145
 15 02 28 00 42 30.0000000  0  7G16G18G19G21G22G27G31
  20773843.160   109167293.58109  20773840.720    85065428.40249
  21900030.280   115085544.39809  21900028.240    89677091.59048
  23859836.080   125384290.40307  23859833.460    97702032.61746
  22258495.440   116969187.31008  22258492.560    91144813.47448
  22374748.000   117580180.54108  22374744.620    91620931.47048
  21879318.880   114976636.02109  21879319.000    89592204.88948
  24319977.320   127802273.33807  24319978.940    99586158.76946
 15 02 28 00 43  0.0000000  0  7G16G18G19G21G22G27G31
  20766050.940   109126344.89709  20766048.460    85033520.33849
  21895423.780   115061337.38209  21895421.780    89658228.99448
  23845902.140   125311067.49307  23845899.720    97644975.85846
  22270503.980   117032292.64008  22270501.100    91193986.45648
  22359410.600   117499582.21508  22359407.180    91558127.62147
  21869417.020   114924601.22809  21869417.240    89551658.31248
  24338219.380   127898135.05707  24338221.280    99660855.91146
 15 02 28 00 43 30.0000000  0  7G16G18G19G21G22G27G31
  20758341.880   109085833.37709  20758339.340    85001952.92649
  21890905.020   115037591.42209  21890903.060    89639725.66548
  23831982.220   125237918.51807  23831979.880    97587976.72646
  22282544.500   117095565.92608  22282541.620    91243290.32248
  22344120.980   117419235.00608  22344117.580    91495519.44548
  21859536.660   114872679.52009  21859536.900    89511199.85948
  24356452.360   127993949.60307  24356454.320    99735516.30646
 15 02 28 00 44  0.0000000  0  7G16G18G19G21G22G27G31
  20750716.320   109045760.79409  20750713.760    84970727.53049
  21886474.120   115014307.18709  21886472.200    89621582.11248
  23818076.380   125164843.29807  23818073.980    97531035.01346
  22294616.560   117159004.94308  22294613.680    91292723.30548
  22328879.560   117339140.94008  22328876.100    91433108.51947
  21849677.800   114820870.91109  21849678.000    89470829.53148
  24374675.780   128089713.59407  24374677.760    99810137.26946
 15 02 28 00 44 30.0000000  0  7G16G18G19G21G22G27G31
  20743173.980   109006125.48509  20743171.400    84939842.87449
  21882130.560   114991481.78609  21882128.660    89603796.09948
  23804183.900   125091838.01807  23804181.460    97474147.83446
  22306719.160   117222604.59808  22306716.340    91342281.47248
  22313686.100   117259298.73508  22313682.580    91370893.84648
  21839839.800   114769171.93009  21839839.900    89430544.62748
  24392888.460   128185420.52306  24392890.440    99884713.79046
 15 02 28 00 45  0.0000000  0  7G16G18G19G21G22G27G31
  20735716.160   108966934.35809  20735713.580    84909304.33549
  21877875.560   114969121.62509  21877873.620    89586372.62248
  23790305.760   125018907.87407  23790303.200    97417319.19446
  22318852.860   117286367.66408  22318850.100    91391966.97848
  22298542.060   117179716.29108  22298538.520    91308881.59647
  21830023.620   114717587.90009  21830023.720    89390349.29548
  24411090.740   128281072.95207  24411092.640    99959247.85345
 15 02 28 00 45 30.0000000  0  7G16G18G19G21G22G27G31
  20728342.120   108928183.55809  20728339.540    84879108.90949
  21873708.280   114947222.25809  21873706.240    89569308.19148
  23776440.820   124946047.24007  23776438.160    97360544.72546
  22331016.380   117350287.45908  22331013.620    91441774.60848
  22283446.860   117100390.74808  22283443.360    91247069.52548
  21820228.380   114666113.55609  21820228.480    89350239.43748
  24429281.160   128376662.79307  24429283.260   100033733.07546
 15 02 28 00 46  0.0000000  0  7G16G18G19G21G22G27G31
  20721053.640   108889882.50009  20721051.100    84849263.92549
  21869630.340   114925792.42309  21869628.220    89552609.63048
  23762590.560   124873263.58507  23762587.860    97303830.25745
  22343210.780   117414369.45308  22343208.040    91491708.61747
  22268402.440   117021332.12309  22268398.960    91185465.43748
  21810455.480   114614756.66109  21810455.660    89310221.09348
  24447460.520   128472194.67107  24447462.500   100108173.17745
 15 02 28 00 46 30.0000000  0  7G16G18G19G21G22G27G31
  20713850.100   108852027.73609  20713847.580    84819766.70249
  21865640.940   114904828.00609  21865638.800    89536273.73348
  23748754.040   124800552.17207  23748751.320    97247172.06946
  22355434.740   117478606.84108  22355432.060    91541763.72347
  22253408.440   116942538.23409  22253404.960    91124067.63048
  21800703.980   114563512.34609  21800704.240    89270290.47648
  24465627.380   128567661.02007  24465629.420   100182562.16445
 15 02 28 00 47  0.0000000  0  7G16G18G19G21G22G27G31
  20706732.280   108814623.31609  20706729.740    84790620.40349
  21861740.660   114884331.76509  21861738.500    89520302.65448
  23734931.640   124727914.90607  23734928.940    97190571.67746
  22367688.300   117542999.93008  22367685.660    91591940.15448
  22238465.660   116864013.24609  22238462.120    91062879.36448
  21790974.340   114512382.95009  21790974.580    89230449.40448
  24483781.420   128663060.46606  24483783.780   100256899.05145
 15 02 28 00 47 30.0000000  0  7G16G18G19G21G22G27G31
  20699700.200   108777669.47309  20699697.680    84761825.20149
  21857929.460   114864303.49009  21857927.260    89504696.22548
  23721122.980   124655350.32107  23721120.400    97134027.91746
  22379970.940   117607545.53408  22379968.220    91642235.43048
  22223574.260   116785758.40009  22223570.640    91001901.59948
  21781266.360   114461367.26609  21781266.540    89190696.93948
  24501922.080   128758389.26107  24501924.340   100331180.88345
 15 02 28 00 48  0.0000000  0  7G16G18G19G21G22G27G31
  20692753.980   108741166.83309  20692751.480    84733381.58549
  21854207.260   114844742.97909  21854205.000    89489454.27648
  23707327.940   124582856.91207  23707325.300    97077539.61246
  22392282.100   117672240.89908  22392279.380    91692647.39648
  22208734.580   116707775.30509  22208731.000    90941135.58448
  21771579.880   114410464.38809  21771580.000    89151032.37248
  24520048.720   128853643.59907  24520051.200   100405404.66246
 15 02 28 00 48 30.0000000  0  7G16G18G19G21G22G27G31
  20685894.680   108705120.77609  20685892.140    84705293.74449
  21850574.860   114825654.66709  21850572.700    89474580.28348
  23693547.140   124510438.23007  23693544.400    97021109.50946
  22404622.020   117737087.49208  22404619.280    91743177.20547
  22193947.740   116630070.11809  22193944.160    90880586.11648
  21761915.600   114359678.20409  21761915.700    89111458.73248
  24538161.360   128948824.05307  24538164.020   100479570.85246
 15 02 28 00 49  0.0000000  0  7G16G18G19G21G22G27G31
  20679122.420   108669532.17809  20679119.860    84677562.36749
  21847032.280   114807038.47809  21847030.160    89460074.17248
  23679780.400   124438093.39707  23679777.560    96964736.97646
  22416990.220   117802082.62508  22416987.400    91793822.76147
  22179214.060   116552644.21709  22179210.500    90820254.28248
  21752273.360   114309008.09309  21752273.540    89071975.54548
  24556259.240   129043927.11206  24556262.020   100553676.71045
 15 02 28 00 49 30.0000000  0  7G16G18G19G21G22G27G31
  20672438.140   108634406.05009  20672435.580    84650191.35649
  21843580.340   114788898.58609  21843578.260    89445939.21448
  23666028.160   124365825.77607  23666025.380    96908424.61846
  22429386.980   117867228.02008  22429384.160    91844585.40447
  22164534.660   116475503.51809  22164531.120    90760144.68548
  21742653.920   114258457.65009  21742654.140    89032585.60648
  24574342.260   129138953.45306  24574345.060   100627722.81945
 15 02 28 00 50  0.0000000  0  7G16G18G19G21G22G27G31
  20665841.120   108599738.57809  20665838.580    84623177.73249
  21840218.160   114771230.40309  21840216.120    89432171.80148
  23652289.540   124293629.84407  23652286.940    96852168.11146
  22441810.900   117932516.28908  22441808.040    91895459.36847
  22149908.920   116398644.89309  22149905.320    90700254.86848
  21733056.240   114208021.60909  21733056.480    88993284.79648
  24592409.240   129233894.53207  24592412.000   100701702.47645
 15 02 28 00 50 30.0000000  0  7G16G18G19G21G22G27G31
  20659331.400   108565529.93709  20659328.860    84596521.64949
  21836945.700   114754033.76509  21836943.640    89418771.84148
  23638564.340   124221504.30607  23638561.760    96795966.47146
  22454261.440   117997944.55208  22454258.620    91946442.42847
  22135337.100   116322069.92509  22135333.500    90640586.09848
  21723480.200   114157699.19209  21723480.360    88954072.54048
  24610459.540   129328746.76606  24610462.420   100775612.87246
 15 02 28 00 51  0.0000000  0  7G16G18G19G21G22G27G31
  20652910.680   108531788.86209  20652908.120    84570229.89549
  21833764.300   114737315.58709  21833762.200    89405744.70248
  23624853.860   124149455.65807  23624851.320    96739824.73246
  22466739.600   118063517.80708  22466736.840    91997538.46347
  22120821.000   116245787.65109  22120817.360    90581145.39448
  21713927.080   114107497.18209  21713927.220    88914954.09648
  24628493.520   129423514.50706  24628496.760   100849457.41145
 15 02 28 00 51 30.0000000  0  7G16G18G19G21G22G27G31
  20646578.360   108498512.39309  20646575.800    84544300.17749
  21830673.300   114721072.36709  21830671.160    89393087.66248
  23611157.200   124077479.13907  23611154.580    96683739.18346
  22479244.220   118129229.99508  22479241.440    92048742.75847
  22106360.240   116169796.14109  22106356.680    90521931.26448
  21704396.060   114057411.41009  21704396.180    88875926.23248
  24646509.980   129518190.00606  24646513.380   100923230.02345
 15 02 28 00 52  0.0000000  0  7G16G18G19G21G22G27G31
  20640334.700   108465701.81509  20640332.200    84518733.49249
  21827672.860   114705304.84509  21827670.660    89380801.30248
  23597474.260   124005574.83307  23597471.300    96627709.90746
  22491774.800   118195078.67908  22491772.040    92100053.41347
  22091955.280   116094097.43209  22091951.580    90462945.28548
  21694887.100   114007441.67109  21694887.220    88836988.79048
  24664508.460   129612769.92407  24664511.560   100996928.25844
 15 02 28 00 52 30.0000000  0  7G16G18G19G21G22G27G31
  20634181.220   108433364.79109  20634178.680    84493535.80749
  21824764.140   114690019.35309  21824761.880    89368890.53948
  23583806.220   123933749.02707  23583803.320    96571741.80347
  22504332.260   118261068.49008  22504329.460    92151474.02947
  22077607.700   116018700.26609  22077603.960    90404194.27348
  21685401.480   113957594.52809  21685401.620    88798146.86548
  24682489.560   129707258.27407  24682492.540   101070555.08844
 15 02 28 00 53  0.0000000  0  6G16G18G19G21G22G27
  20628116.540   108401494.58809  20628113.980    84468701.88149
  21821945.740   114675208.61909  21821943.520    89357349.72348
  23570151.440   123861993.03407  23570148.720    96515828.11646
  22516914.560   118327189.10408  22516911.820    92202996.58147
  22063316.340   115943598.71509  22063312.600    90345673.62148
  21675937.680   113907861.90509  21675937.800    88759394.18848
 15 02 28 00 53 30.0000000  0  6G16G18G19G21G22G27
  20622142.660   108370101.49809  20622140.080    84444239.73449
  21819219.460   114660881.90509  21819217.300    89346186.06948
  23556511.580   123790315.25107  23556508.880    96459975.37846
  22529523.100   118393447.27408  22529520.360    92254626.31647
  22049083.300   115868803.69309  22049079.520    90287391.81448
  21666497.340   113858252.56809  21666497.480    88720737.57648
 15 02 28 00 54  0.0000000  0  6G16G18G19G21G22G27
  20616258.900   108339182.10609  20616256.320    84420146.70249
  21816584.500   114647035.24409  21816582.360    89335396.47348
  23542885.740   123718710.98407  23542883.020    96404179.91546
  22542156.580   118459836.50708  22542153.780    92306358.18047
  22034908.140   115794312.78009  22034904.300    90229346.97548
  21657079.620   113808762.19609  21657079.740    88682173.66048
 15 02 28 00 54 30.0000000  0  6G16G18G19G21G22G27
  20610465.580   108308738.07509  20610462.980    84396424.07749
  21814041.000   114633668.99309  21814038.860    89324981.22348
  23529273.820   123647180.07207  23529270.980    96348441.59546
  22554814.700   118526355.36308  22554811.920    92358191.04947
  22020791.340   115720128.49509  22020787.460    90171541.06848
  21647684.600   113759391.04109  21647684.660    88643702.63848
 15 02 28 00 55  0.0000000  0  6G16G18G19G21G22G27
  20604763.480   108278773.55309  20604760.900    84373075.10249
  21811589.520   114620786.31509  21811587.360    89314942.78948
  23515676.440   123575725.51807  23515673.440    96292762.76746
  22567497.640   118593004.60008  22567494.900    92410125.50647
  22006733.860   115646255.95509  22006730.000    90113978.08048
  21638312.860   113710142.15409  21638312.880    88605326.89748
 15 02 28 00 55 30.0000000  0  6G16G18G19G21G22G27
