     2.11           OBSERVATION DATA    G                   RINEX VERSION / TYPE
SPIDER V4,0,0,3554                      2015 04 17 04:19    PGM / RUN BY / DATE 
CABS                                                        MARKER NAME         
CABS                                                        MARKER NUMBER       
                                                            OBSERVER / AGENCY   
462287              LEICA GRX1200PRO    8.10/2.127          REC # / TYPE / VERS 
103298              LEIAT504                                ANT # / TYPE        
  5116912.3402   671231.6412  3737143.4301                  APPROX POSITION XYZ 
        0.0600        0.0000        0.0000                  ANTENNA: DELTA H/E/N
     1     1                                                WAVELENGTH FACT L1/2
     4    C1    L1    P2    L2                              # / TYPES OF OBSERV 
    30.000                                                  INTERVAL            
  2015    02    28    00    00    0.0000000     GPS         TIME OF FIRST OBS   
  2015    02    28    23    59   30.0000000     GPS         TIME OF LAST OBS    
    16                                                      LEAP SECONDS        
    30                                                      # OF SATELLITES     
   G 1   803   803   803   803                              PRN / # OF OBS      
   G 2   941   941   941   941                              PRN / # OF OBS      
   G 3   848   848   848   848                              PRN / # OF OBS      
   G 4   831   831   831   831                              PRN / # OF OBS      
   G 5   669   669   669   669                              PRN / # OF OBS      
   G 6   841   841   841   841                              PRN / # OF OBS      
   G 7   674   674   674   674                              PRN / # OF OBS      
   G 9   808   808   808   808                              PRN / # OF OBS      
   G10   752   752   752   752                              PRN / # OF OBS      
   G11   770   770   770   770                              PRN / # OF OBS      
   G12   830   830   830   830                              PRN / # OF OBS      
   G13   782   782   782   782                              PRN / # OF OBS      
   G14   938   938   937   937                              PRN / # OF OBS      
   G15   672   672   672   672                              PRN / # OF OBS      
   G16   664   664   664   664                              PRN / # OF OBS      
   G17   942   942   942   942                              PRN / # OF OBS      
   G18   903   903   903   903                              PRN / # OF OBS      
   G19   749   749   749   749                              PRN / # OF OBS      
   G20   769   769   769   769                              PRN / # OF OBS      
   G21   727   727   727   727                              PRN / # OF OBS      
   G22   665   665   665   665                              PRN / # OF OBS      
   G23   755   755   755   755                              PRN / # OF OBS      
   G24   817   817   817   817                              PRN / # OF OBS      
   G25   846   846   846   846                              PRN / # OF OBS      
   G27   800   800   800   800                              PRN / # OF OBS      
   G28   872   872   872   872                              PRN / # OF OBS      
   G29   761   761   761   761                              PRN / # OF OBS      
   G30   720   720   720   720                              PRN / # OF OBS      
   G31   872   872   872   872                              PRN / # OF OBS      
   G32   766   766   766   766                              PRN / # OF OBS      
BIT 2 OF LLI FLAGS DATA COLLECTED UNDER A/S CONDITION       COMMENT             
SNR is mapped to RINEX snr flag value [2-9]                 COMMENT             
Lx:     = 25dBHz -> 1; 26-27dBHz -> 2; 28-31dBHz -> 3       COMMENT             
       32-35dBHz -> 4; 36-38dBHz -> 5; 39-41dBHz -> 6       COMMENT             
       42-44dBHz -> 7; 45-48dBHz -> 8; >=49dBHz -> 9        COMMENT             
                                                            END OF HEADER       
 15 02 28 00 00  0.0000000  0  7G16G18G21G22G27G29G31
  21757799.800   114338017.34508  21757801.020    89094572.47747
  22459788.440   118027036.39708  22459790.200    91969158.83346
  21213506.500   111477728.55308  21213507.300    86865766.81048
  23932636.900   125766901.30106  23932638.400    98000201.83045
  23072610.660   121247401.21807  23072614.600    94478512.26646
  23720633.880   124653157.01906  23720636.440    97132524.85446
  23126202.480   121529020.98108  23126204.240    94697953.99146
 15 02 28 00 00 30.0000000  0  7G16G18G21G22G27G29G31
  21744103.320   114266042.08808  21744104.560    89038487.86547
  22447894.700   117964535.48308  22447896.580    91920456.84046
  21220200.320   111512904.75608  21220201.100    86893176.84148
  23914329.060   125670694.01606  23914330.380    97925235.33845
  23059632.200   121179198.87407  23059636.160    94425367.61147
  23734534.380   124726203.88306  23734536.800    97189444.46946
  23143460.040   121619710.03407  23143461.780    94768620.73246
 15 02 28 00 01  0.0000000  0  7G16G18G21G22G27G29G31
  21730461.900   114194356.12308  21730463.160    88982628.68647
  22436059.860   117902343.82008  22436061.820    91871995.82646
  21226956.420   111548408.25908  21226957.200    86920841.91348
  23896024.440   125574504.02606  23896025.700    97850282.32445
  23046671.120   121111087.86507  23046675.060    94372294.12746
  23748444.000   124799299.15007  23748446.340    97246401.75446
  23160749.120   121710564.84407  23160750.860    94839416.63146
 15 02 28 00 01 30.0000000  0  7G16G18G21G22G27G29G31
  21716875.480   114122959.10108  21716876.780    88926994.65147
  22424283.900   117840460.94008  22424285.940    91823775.41946
  21233774.060   111584234.94708  21233774.800    86948758.81848
  23877722.920   125478331.30406  23877724.240    97775342.72545
  23033726.920   121043065.81907  23033730.880    94319289.95147
  23762362.220   124872440.21106  23762364.540    97303394.77546
  23178068.740   121801579.89607  23178070.400    94910337.39546
 15 02 28 00 02  0.0000000  0  7G16G18G21G22G27G29G31
  21703344.320   114051852.34108  21703345.620    88871586.79948
  22412567.100   117778888.26708  22412569.200    91775796.74246
  21240652.700   111620382.12108  21240653.400    86976925.44948
  23859424.840   125382177.38706  23859426.400    97700417.78146
  23020799.380   120975131.59807  23020803.380    94266354.21947
  23776288.740   124945625.42906  23776291.260    97360422.19245
  23195417.960   121892750.83607  23195419.660    94981379.63546
 15 02 28 00 02 30.0000000  0  7G16G18G21G22G27G29G31
  21689868.760   113981037.77708  21689870.040    88816406.62348
  22400909.820   117717628.02008  22400911.920    91728061.49846
  21247591.820   111656847.29808  21247592.520    87005339.87548
  23841130.760   125286044.91406  23841132.720    97625509.54445
  23007888.520   120907285.11207  23007892.600    94213486.85246
  23790223.740   125018855.46506  23790226.680    97417484.54345
  23212796.240   121984074.78607  23212798.140    95052541.09846
 15 02 28 00 03  0.0000000  0  7G16G18G21G22G27G29G31
  21676448.640   113910514.70708  21676449.900    88761453.58848
  22389311.780   117656679.04608  22389313.860    91680568.82046
  21254590.560   111693625.99908  21254591.300    87033998.60348
  23822840.760   125189933.09506  23822843.000    97550617.39845
  22994993.780   120839523.29807  22994997.940    94160685.45447
  23804166.580   125092126.56106  23804169.780    97474578.86145
  23230202.500   122075545.34507  23230204.500    95123816.80246
 15 02 28 00 03 30.0000000  0  7G16G18G21G22G27G29G31
  21663084.340   113840284.80808  21663085.540    88706728.99948
  22377773.220   117596043.12108  22377775.220    91633320.05746
  21261648.580   111730716.30508  21261649.360    87062900.14048
  23804555.340   125093844.07806  23804557.620    97475743.00945
  22982115.040   120771845.61407  22982119.300    94107949.61747
  23818117.480   125165438.03706  23818120.460    97531704.70646
  23247635.980   122167158.93207  23247638.100    95195203.96446
 15 02 28 00 04  0.0000000  0  7G16G18G21G22G27G29G31
  21649776.420   113770351.29508  21649777.600    88652235.36548
  22366294.940   117535724.14208  22366296.760    91586318.26446
  21268765.660   111768116.93908  21268766.460    87092043.49348
  23786275.180   124997781.48306  23786277.360    97400889.19745
  22969252.640   120704253.41607  22969256.920    94055280.39947
  23832076.440   125238790.85207  23832079.100    97588862.73145
  23265096.420   122258913.95607  23265098.600    95266701.33446
 15 02 28 00 04 30.0000000  0  7G16G18G21G22G27G29G31
  21636525.940   113700719.69708  21636527.160    88597976.98748
  22354877.860   117475727.06008  22354879.500    91539567.30646
  21275942.200   111805830.15008  21275943.040    87121430.41548
  23768001.340   124901751.00106  23768003.240    97326060.41045
  22956407.160   120636749.80107  22956411.420    94002680.20447
  23846043.880   125312188.30007  23846046.320    97646055.48145
  23282583.760   122350810.11207  23282586.000    95338308.66746
 15 02 28 00 05  0.0000000  0  7G16G18G21G22G27G29G31
  21623333.380   113631392.40308  21623334.640    88543955.72748
  22343522.480   117416054.38008  22343523.980    91493069.12846
  21283177.940   111843854.38308  21283178.820    87151059.68448
  23749734.200   124805755.33206  23749735.720    97251258.73546
  22943578.580   120569335.09207  22943582.840    93950149.29047
  23860019.740   125385630.45506  23860022.020    97703283.10646
  23300097.520   122442844.95007  23300099.800    95410024.06046
 15 02 28 00 05 30.0000000  0  7G16G18G21G22G27G29G31
  21610199.400   113562372.84808  21610200.680    88490174.26848
  22332229.560   117356709.64808  22332230.920    91446826.49846
  21290472.720   111882188.73408  21290473.600    87180930.60348
  23731474.460   124709798.63706  23731475.800    97176487.43845
  22930767.140   120502010.71507  22930771.440    93897688.75947
  23874004.220   125459118.79507  23874006.440    97760546.73646
  23317637.380   122535016.89807  23317639.640    95481846.31046
 15 02 28 00 06  0.0000000  0  7G16G18G21G22G27G29G31
  21597124.120   113493661.78608  21597125.400    88436633.18648
  22320999.280   117297693.80508  22321000.480    91400840.14346
  21297825.980   111920830.34008  21297826.860    87211040.94448
  23713222.280   124613881.96406  23713223.420    97101747.31645
  22917972.600   120434775.20007  22917976.940    93845297.47647
  23887996.940   125532651.68406  23887999.280    97817845.05946
  23335202.380   122627321.29207  23335204.640    95553771.74846
 15 02 28 00 06 30.0000000  0  7G16G18G21G22G27G29G31
  21584108.280   113425263.08208  21584109.540    88383335.50848
  22309832.340   117239010.57508  22309833.380    91355112.97347
  21305237.660   111959778.97608  21305238.540    87241390.53348
  23694978.340   124518009.22306  23694979.520    97027041.41145
  22905195.300   120367630.06207  22905199.640    93792976.61647
  23901998.060   125606230.29706  23902000.900    97875179.00246
  23352792.280   122719756.41707  23352794.480    95625799.04246
 15 02 28 00 07  0.0000000  0  7G16G18G21G22G27G29G31
  21571151.520   113357175.16908  21571152.840    88330280.00348
  22298728.300   117180658.35908  22298729.380    91309643.73046
  21312706.680   111999028.94608  21312707.580    87271974.92348
  23676742.460   124422179.14206  23676743.660    96952368.75046
  22892434.520   120300571.57407  22892438.800    93740723.27947
  23916007.180   125679850.61906  23916010.460    97932545.46046
  23370405.680   122812315.44007  23370407.800    95697922.88946
 15 02 28 00 07 30.0000000  0  7G16G18G21G22G27G29G31
  21558254.520   113289401.25508  21558255.880    88277469.17248
  22287687.720   117122640.00008  22287688.980    91264434.64646
  21320232.940   112038579.71708  21320233.880    87302793.70448
  23658515.220   124326395.15606  23658516.600    96877732.02146
  22879690.400   120233600.74507  22879694.660    93688538.24047
  23930024.500   125753513.58306  23930027.980    97989945.15845
  23388042.160   122904995.98107  23388044.220    95770141.41446
 15 02 28 00 08  0.0000000  0  7G16G18G21G22G27G29G31
  21545417.760   113221943.76508  21545419.140    88224904.90448
  22276711.120   117064958.50608  22276712.660    91219488.04147
  21327816.180   112078429.92308  21327817.120    87333845.81248
  23640297.400   124230660.78806  23640298.960    96803133.92346
  22866963.060   120166718.22207  22866967.260    93636422.01747
  23944050.240   125827219.96206  23944053.700    98047378.65946
  23405701.360   122997795.92407  23405703.420    95842453.00546
 15 02 28 00 08 30.0000000  0  7G16G18G21G22G27G29G31
  21532640.900   113154800.95508  21532642.240    88172585.83548
  22265798.180   117007611.79608  22265800.000    91174802.31047
  21335455.280   112118573.58308  21335456.220    87365126.57848
  23622088.840   124134974.43507  23622090.400    96728573.25845
  22854251.820   120099920.03907  22854255.960    93584371.50747
  23958083.700   125900965.08806  23958086.920    98104842.37846
  23423381.940   123090708.09407  23423384.040    95914852.02246
 15 02 28 00 09  0.0000000  0  7G16G18G21G22G27G29G31
  21519925.740   113087982.26508  21519927.000    88120519.33148
  22254950.700   116950609.31708  22254952.800    91130384.80846
  21343151.340   112159016.52208  21343152.280    87396640.56148
  23603891.220   124039345.41006  23603892.740    96654057.22246
  22841557.880   120033213.24908  22841562.020    93532392.21147
  23972126.040   125974756.39607  23972128.980    98162342.03046
  23441084.700   123183736.68907  23441086.840    95987341.76946
 15 02 28 00 09 30.0000000  0  7G16G18G21G22G27G29G31
  21507272.580   113021489.14208  21507273.760    88068706.52148
  22244169.080   116893952.33608  22244171.220    91086236.53046
  21350903.720   112199755.41808  21350904.660    87428385.15348
  23585704.920   123943775.79206  23585706.340    96579587.50346
  22828881.220   119966597.24807  22828885.360    93480483.66846
  23986176.880   126048592.94506  23986179.680    98219876.97745
  23458808.900   123276877.82007  23458811.120    96059919.20546
 15 02 28 00 10  0.0000000  0  7G16G18G21G22G27G29G31
  21494681.640   112955323.15108  21494682.800    88017148.61448
  22233453.660   116837642.40808  22233455.660    91042358.67846
  21358712.180   112240788.97308  21358713.080    87460359.35448
  23567530.340   123848268.06307  23567531.660    96505166.02346
  22816221.760   119900071.65507  22816225.900    93428645.57247
  24000236.200   126122474.44706  24000238.900    98277446.94845
  23476553.900   123370127.76007  23476556.160    96132581.40946
 15 02 28 00 10 30.0000000  0  7G16G18G21G22G27G29G31
  21482153.280   112889486.05908  21482154.460    87965846.99248
  22222804.720   116781681.17008  22222806.460    90998752.54146
  21366576.140   112282114.37508  21366577.060    87492560.96448
  23549367.700   123752823.68906  23549369.020    96430793.91246
  22803579.360   119833635.94107  22803583.540    93376877.51447
  24014303.800   126196399.84806  24014306.340    98335051.12645
  23494319.040   123463483.00007  23494321.280    96205325.68746
 15 02 28 00 11  0.0000000  0  7G16G18G21G22G27G29G31
  21469687.920   112823980.13408  21469689.160    87914803.41848
  22212222.600   116726071.07408  22212224.100    90955420.02346
  21374495.320   112323730.05508  21374496.280    87524988.76048
  23531217.560   123657445.61507  23531218.920    96356473.48045
  22790954.160   119767290.40407  22790958.360    93325179.73147
  24028379.680   126270369.36506  24028382.400    98392689.68146
  23512103.660   123556940.82107  23512105.840    96278149.88546
 15 02 28 00 11 30.0000000  0  7G16G18G21G22G27G29G31
  21457285.980   112758807.51009  21457287.220    87864019.56248
  22201707.660   116670813.79508  22201708.940    90912362.41846
  21382469.340   112365633.84908  21382470.320    87557641.06748
  23513080.460   123562136.09906  23513081.820    96282206.42546
  22778346.140   119701034.81908  22778350.340    93273552.04247
  24042463.840   126344382.71106  24042466.900    98450362.34545
  23529907.100   123650497.89307  23529909.240    96351051.41845
 15 02 28 00 12  0.0000000  0  7G16G18G21G22G27G29G31
  21444947.620   112693968.94109  21444948.820    87813496.00748
  22191259.840   116615909.96508  22191261.060    90869580.22947
  21390497.700   112407823.24708  21390498.680    87590515.92348
  23494956.700   123466896.39206  23494957.940    96207993.75546
  22765755.040   119634868.08708  22765759.200    93221993.57647
  24056556.160   126418438.57806  24056559.320    98508068.23444
  23547728.480   123744149.91407  23547730.700    96424026.93745
 15 02 28 00 12 30.0000000  0  7G16G18G21G22G27G29G31
  21432673.440   112629467.80009  21432674.620    87763235.38848
  22180879.900   116561363.33808  22180881.180    90827076.38247
  21398580.240   112450297.58408  21398581.280    87623612.80648
  23476847.100   123371730.48206  23476848.220    96133838.57845
  22753181.160   119568791.46308  22753185.220    93170505.32647
  24070656.720   126492537.95006  24070659.880    98565808.03144
  23565567.440   123837894.75707  23565569.780    96497074.78146
 15 02 28 00 13  0.0000000  0  7G16G18G21G22G27G29G31
  21420464.020   112565307.04909  21420465.180    87713239.99848
  22170568.340   116507176.10608  22170569.740    90784852.57747
  21406716.660   112493055.13008  21406717.740    87656930.37348
  23458752.300   123276641.45907  23458753.220    96059743.30946
  22740624.520   119502805.56708  22740628.500    93119087.76947
  24084765.620   126566681.26306  24084768.860    98623581.98244
  23583423.660   123931730.22106  23583426.060    96570193.23646
 15 02 28 00 13 30.0000000  0  7G16G18G21G22G27G29G31
  21408319.760   112501488.60809  21408320.900    87663511.34748
  22160325.640   116453350.54608  22160327.100    90742910.59847
  21414906.780   112536094.91608  21414907.920    87690467.86548
  23440672.700   123181631.96807  23440673.380    95985710.02545
  22728085.160   119436910.62208  22728089.140    93067741.08847
  24098883.020   126640868.70406  24098885.940    98681390.39544
  23601296.560   124025653.24707  23601299.020    96643379.92546
 15 02 28 00 14  0.0000000  0  7G16G18G21G22G27G29G31
  21396240.720   112438012.71409  21396241.840    87614049.61548
  22150151.860   116399886.72108  22150153.320    90701250.49447
  21423149.720   112579411.96608  21423150.880    87724221.41048
  23422608.360   123086702.38007  23422608.720    95911738.92645
  22715562.760   119371104.73808  22715566.700    93016463.80247
  24113008.600   126715098.20306  24113011.240    98739231.51844
  23619185.360   124119659.00207  23619187.700    96716631.07346
 15 02 28 00 14 30.0000000  0  7G16G18G21G22G27G29G31
  21384227.560   112374882.94009  21384228.680    87564857.58848
  22140047.520   116346787.79108  22140048.940    90659874.72047
  21431445.540   112623006.66608  21431446.660    87758191.30848
  23404559.900   122991856.60707  23404560.160    95837833.18446
  22703057.480   119305389.01907  22703061.420    92965256.77747
  24127142.440   126789370.58306  24127144.660    98797106.11545
  23637089.520   124213745.09406  23637091.780    96789944.82346
 15 02 28 00 15  0.0000000  0  7G16G18G21G22G27G29G31
  21372281.100   112312103.93809  21372282.240    87515938.89048
  22130013.440   116294058.26308  22130014.860    90618786.79147
  21439794.320   112666879.57708  21439795.380    87792377.99448
  23386528.340   122897100.14007  23386528.660    95763997.09146
  22690569.820   119239766.24007  22690573.820    92914122.17147
  24141284.940   126863688.55005  24141286.780    98855016.16646
  23655009.040   124307911.36207  23655011.140    96863321.01946
 15 02 28 00 15 30.0000000  0  7G16G18G21G22G27G29G31
  21360401.680   112249677.30109  21360402.840    87467294.76248
  22120049.860   116241699.49108  22120051.320    90577987.77047
  21448195.600   112711028.22308  21448196.560    87826779.53648
  23368513.960   122802434.53606  23368514.460    95690231.79246
  22678099.800   119174236.14007  22678103.840    92863059.77547
  24155435.880   126938051.30906  24155437.580    98912961.08345
  23672943.100   124402154.58807  23672945.180    96936757.20046
 15 02 28 00 16  0.0000000  0  7G16G18G21G22G27G29G31
  21348589.760   112187605.31809  21348590.920    87418926.98848
  22110157.160   116189713.53508  22110158.760    90537479.25046
  21456648.980   112755450.68308  21456649.860    87861394.44248
  23350517.320   122707862.76606  23350518.000    95616539.60846
  22665647.420   119108798.70907  22665651.480    92812069.59647
  24169595.320   127012458.88607  24169597.120    98970940.96545
  23690891.140   124496471.33407  23690893.220    97010250.66046
 15 02 28 00 16 30.0000000  0  7G16G18G21G22G27G29G31
  21336845.760   112125890.33409  21336846.920    87370837.39848
  22100335.880   116138102.86508  22100337.580    90497263.15747
  21465154.300   112800146.23408  21465155.160    87896222.15048
  23332539.180   122613387.84107  23332539.960    95542922.87546
  22653212.740   119043454.38507  22653216.780    92761151.97047
  24183763.180   127086911.77606  24183765.360    99028956.18645
  23708852.620   124590858.99907  23708854.740    97083799.36946
 15 02 28 00 17  0.0000000  0  7G16G18G21G22G27G29G31
  21325169.940   112064533.60409  21325171.140    87323026.96348
  22090586.160   116086868.00908  22090587.900    90457339.90947
  21473710.820   112845111.08908  21473711.700    87931259.69848
  23314579.700   122519010.77207  23314580.580    95469382.37646
  22640795.580   118978202.17107  22640799.620    92710306.10947
  24197939.320   127161408.80406  24197941.700    99087005.90646
  23726826.720   124685313.30606  23726828.940    97157400.01946
 15 02 28 00 17 30.0000000  0  7G16G18G21G22G27G29G31
  21313563.000   112003538.74709  21313564.200    87275498.50648
  22080908.800   116036013.04908  22080910.500    90417712.68247
  21482318.760   112890346.19008  21482319.680    87966507.83348
  23296639.800   122424736.14007  23296640.720    95395921.67146
  22628396.320   118913043.97408  22628400.360    92659533.51947
  24212124.120   127235951.13006  24212127.020    99145090.77446
  23744813.320   124779833.19107  23744815.620    97231051.75946
 15 02 28 00 18  0.0000000  0  7G16G18G21G22G27G29G31
  21302024.940   111942905.90809  21302026.160    87228252.14348
  22071303.620   115985537.40308  22071305.240    90378381.02747
  21490977.220   112935846.75408  21490978.140    88001962.82048
  23278719.500   122330564.30707  23278720.320    95322541.03646
  22616014.580   118847977.79608  22616018.580    92608832.63247
  24226317.100   127310536.99406  24226320.340    99203209.64645
  23762811.480   124874413.57606  23762813.860    97304750.65846
 15 02 28 00 18 30.0000000  0  7G16G18G21G22G27G29G31
  21290555.660   111882634.63209  21290556.900    87181287.51448
  22061770.600   115935440.72708  22061772.100    90339344.68047
  21499685.460   112981608.96208  21499686.400    88037621.68548
  23260818.800   122236495.75607  23260819.660    95249240.93446
  22603649.980   118783001.24808  22603653.900    92558201.58247
  24240518.040   127385163.81805  24240521.660    99261360.30746
  23780820.020   124969048.67206  23780822.400    97378492.17546
 15 02 28 00 19  0.0000000  0  7G16G18G21G22G27G29G31
  21279156.420   111822731.52109  21279157.700    87134609.77648
  22052310.880   115885729.23708  22052312.280    90300608.47747
  21508443.960   113027635.37408  21508444.920    88073486.42148
  23242939.000   122142537.22006  23242939.980    95176026.50446
  22591303.320   118718119.14108  22591307.240    92507644.12247
  24254727.800   127459835.96506  24254730.960    99319546.43945
  23798839.300   125063740.35506  23798841.740    97452277.78146
 15 02 28 00 19 30.0000000  0  7G16G18G21G22G27G29G31
  21267827.240   111763196.56009  21267828.560    87088218.90348
  22042924.320   115836402.45808  22042925.660    90262172.04447
  21517251.900   113073921.46608  21517252.860    88109553.50848
  23225080.080   122048689.21806  23225081.340    95102898.24446
  22578974.200   118653329.01808  22578978.120    92457158.34147
  24268945.820   127534551.16606  24268948.520    99377766.00445
  23816868.220   125158482.92406  23816870.780    97526103.03246
 15 02 28 00 20  0.0000000  0  7G16G18G21G22G27G29G31
  21256569.180   111704035.30509  21256570.520    87042119.23448
  22033611.880   115787465.54208  22033613.260    90224039.40547
  21526109.660   113120469.45408  21526110.660    88145824.66948
  23207243.340   121954957.37606  23207244.840    95029860.49447
  22566663.300   118588634.56508  22566667.220    92406747.10347
  24283172.620   127609312.50106  24283175.080    99436021.51844
  23834906.780   125253276.78506  23834909.620    97599968.26445
 15 02 28 00 20 30.0000000  0  7G16G18G21G22G27G29G31
  21245382.420   111645248.60509  21245383.800    86996311.42448
  22024373.860   115738919.60808  22024375.240    90186211.41347
  21535016.520   113167275.61808  21535017.580    88182297.00448
  23189429.200   121861343.42007  23189430.700    94956914.67146
  22554370.360   118524034.58208  22554374.280    92356409.47547
  24297407.960   127684118.55107  24297409.840    99494311.95144
  23852954.300   125348117.68406  23852957.380    97673870.12846
 15 02 28 00 21  0.0000000  0  7G16G18G21G22G27G29G31
  21234267.480   111586839.14609  21234268.880    86950797.56448
  22015210.780   115690767.30908  22015212.180    90148690.15847
  21543972.440   113214339.61608  21543973.540    88218970.24948
  23171638.240   121767850.62907  23171639.560    94884063.22646
  22542095.580   118459530.16208  22542099.460    92306146.30747
  24311651.800   127758970.67907  24311653.680    99552638.16245
  23871010.520   125443003.39806  23871013.680    97747806.90546
 15 02 28 00 21 30.0000000  0  7G16G18G21G22G27G29G31
  21223224.440   111528807.34009  21223225.800    86905577.98748
  22006122.560   115643008.07008  22006123.960    90111475.17947
  21552976.680   113261657.45308  21552977.820    88255841.29248
  23153870.520   121674479.55307  23153871.500    94811306.57046
  22529838.640   118395119.44708  22529842.460    92255956.16047
  24325903.800   127833866.39106  24325905.880    99610998.39744
  23889074.540   125537929.17406  23889077.560    97821774.89845
 15 02 28 00 22  0.0000000  0  7G16G18G21G22G27G29G31
  21212253.880   111471156.51109  21212255.220    86860655.26948
  21997109.680   115595644.85808  21997111.120    90074568.79947
  21562029.120   113309228.40708  21562030.280    88292909.56448
  23136126.660   121581234.20407  23136127.400    94738647.96146
  22517599.720   118330803.84108  22517603.540    92205840.12147
  24340164.380   127908806.64606  24340166.340    99669393.54344
  23907145.900   125632893.08306  23907148.640    97895772.59446
 15 02 28 00 22 30.0000000  0  7G16G18G21G22G27G29G31
  21201356.900   111413892.41009  21201358.240    86816033.90248
  21988173.220   115548683.26808  21988174.640    90037975.36247
  21571130.040   113357053.85908  21571131.140    88330176.15048
  23118407.760   121488120.17507  23118408.260    94666091.66146
  22505379.580   118266587.01808  22505383.440    92155801.05547
  24354433.960   127983795.29006  24354436.240    99727826.19345
  23925224.600   125727895.89206  23925227.120    97969800.60346
 15 02 28 00 23  0.0000000  0  7G16G18G21G22G27G29G31
  21190532.500   111357009.59909  21190533.800    86771709.63448
  21979312.040   115502117.50508  21979313.460    90001690.36047
  21580277.880   113405125.85408  21580278.960    88367634.84648
  23100713.000   121395133.52107  23100713.440    94593634.59546
  22493176.940   118202462.03008  22493180.840    92105833.55247
  24368711.480   128058824.75305  24368714.120    99786290.70745
  23943308.700   125822927.27006  23943311.040    98043850.87846
 15 02 28 00 23 30.0000000  0  7G16G18G21G22G27G29G31
  21179782.340   111300516.99109  21179783.600    86727689.42848
  21970527.840   115455956.71908  21970529.380    89965720.92947
  21589473.520   113453448.85908  21589474.560    88405289.13948
  23083044.040   121302283.13707  23083044.520    94521283.74746
  22480993.080   118138435.65308  22480997.000    92055942.88548
  24382998.040   128133902.16806  24383000.960    99844792.52144
  23961398.860   125917990.79406  23961401.140    98117926.20046
 15 02 28 00 24  0.0000000  0  7G16G18G21G22G27G29G31
  21169105.160   111244408.08409  21169106.420    86683968.21448
  21961819.380   115410193.93408  21961821.000    89930061.64347
  21598714.880   113502012.20008  21598715.880    88443130.70348
  23065399.900   121209563.58807  23065400.480    94449034.80746
  22468826.420   118074499.58808  22468830.380    92006122.59847
  24397292.100   128209018.54304  24397295.100    99903324.78745
  23979492.860   126013074.88006  23979495.220    98192017.50346
 15 02 28 00 24 30.0000000  0  7G16G18G21G22G27G29G31
  21158501.420   111188685.34809  21158502.700    86640547.90948
  21953186.940   115364830.77308  21953188.640    89894713.74347
  21608001.580   113550813.86408  21608002.500    88481157.97048
  23047781.120   121116977.31007  23047781.660    94376889.68846
  22456677.100   118010654.30508  22456681.040    91956373.04748
  24411596.080   128283773.99806  24411596.760    99961396.47344
  23997590.140   126108177.21406  23997592.840    98266123.05045
 15 02 28 00 25  0.0000000  0  7G16G18G21G22G27G29G31
  21147977.000   111133379.27109  21147978.280    86597452.27048
  21944636.360   115319897.49208  21944638.020    89859700.81247
  21617338.900   113599881.78608  21617339.820    88519392.71948
  23030193.680   121024555.41707  23030194.140    94304872.66146
  22444550.500   117946928.32108  22444554.380    91906716.45047
  24425909.080   128358997.03006  24425911.340   100020011.69045
  24015695.700   126203322.78206  24015698.680    98340262.28445
 15 02 28 00 25 30.0000000  0  7G16G18G21G22G27G29G31
  21137525.220   111078454.70709  21137526.480    86554653.91348
  21936160.920   115275358.82308  21936162.460    89824995.36747
  21626719.380   113649176.54108  21626720.280    88557804.21048
  23012631.020   120932263.29107  23012631.340    94232956.78346
  22432439.540   117883284.74208  22432443.380    91857124.07547
  24440229.220   128434250.40406  24440231.900   100078650.68345
  24033801.900   126298471.84406  24033805.120    98414404.22445
 15 02 28 00 26  0.0000000  0  7G16G18G21G22G27G29G31
  21127149.680   111023930.75009  21127150.940    86512167.71748
  21927764.140   115231233.24408  21927765.540    89790611.81447
  21636145.840   113698712.82308  21636146.720    88596403.90848
  22995096.820   120840120.50907  22995096.980    94161157.27746
  22420347.560   117819740.75308  22420351.300    91807609.30347
  24454558.240   128509551.33704  24454561.360   100137326.70146
  24051911.520   126393638.20006  24051914.900    98488559.63645
 15 02 28 00 26 30.0000000  0  7G16G18G21G22G27G29G31
  21116850.820   110969809.76809  21116852.040    86469995.52548
  21919446.300   115187522.51008  21919447.640    89756551.51647
  21645618.060   113748489.50708  21645618.880    88635190.93848
  22977591.600   120748129.96707  22977591.720    94089476.41246
  22408274.600   117756296.90908  22408278.260    91758172.56547
  24468896.400   128584899.71105  24468899.620   100196039.75446
  24070023.960   126488819.26306  24070027.520    98562726.49946
 15 02 28 00 27  0.0000000  0  7G16G18G21G22G27G29G31
  21106628.460   110916091.01709  21106629.680    86428136.76448
  21911207.320   115144226.26808  21911208.640    89722814.20147
  21655135.020   113798501.36108  21655135.820    88674161.21348
  22960115.400   120656291.90607  22960115.560    94017914.33946
  22396220.180   117692950.78308  22396223.800    91708811.96347
  24483242.920   128660292.81706  24483246.500   100254787.50145
  24088138.180   126584009.63506  24088141.880    98636900.60846
 15 02 28 00 27 30.0000000  0  7G16G18G21G22G27G29G31
  21096482.380   110862773.31109  21096483.640    86386590.50648
  21903046.700   115101342.13608  21903048.080    89689398.00247
  21664695.980   113848744.56908  21664696.800    88713311.76848
  22942667.940   120564605.07107  22942668.200    93946470.11246
  22384183.660   117629698.91908  22384187.300    91659524.81547
  24497597.700   128735727.14106  24497601.300   100313567.47945
  24106252.960   126679202.46906  24106256.660    98711076.69146
 15 02 28 00 28  0.0000000  0  7G16G18G21G22G27G29G31
  21086414.400   110809865.98709  21086415.700    86345364.02248
  21894966.240   115058879.51808  21894967.760    89656310.25847
  21674301.880   113899224.21408  21674302.760    88752646.55648
  22925251.200   120473079.77408  22925251.660    93875151.72947
  22372166.660   117566549.27108  22372170.320    91610317.31547
  24511961.660   128811210.36505  24511965.360   100372385.50945
  24124369.200   126774402.44706  24124372.820    98785258.26946
 15 02 28 00 28 30.0000000  0  7G16G18G21G22G27G29G31
  21076423.700   110757364.64909  21076425.040    86304453.89048
  21886965.080   115016833.68508  21886966.780    89623547.28647
  21683951.200   113949931.94308  21683952.140    88792159.07048
  22907864.460   120381712.03807  22907865.140    93803956.12147
  22360167.900   117503495.57208  22360171.600    91561184.58147
  24526333.860   128886735.84305  24526337.420   100431236.57545
  24142485.140   126869600.40206  24142488.620    98859438.29346
 15 02 28 00 29  0.0000000  0  7G16G18G21G22G27G29G31
  21066511.560   110705276.06709  21066512.900    86263865.38948
  21879044.440   114975210.76608  21879046.220    89591113.85947
  21693644.400   114000870.09708  21693645.360    88831851.13548
  22890509.040   120290509.13707  22890509.940    93732888.97546
  22348188.260   117440542.61408  22348192.080    91512130.33948
  24540715.000   128962308.04006  24540718.380   100490123.93245
  24160600.980   126964797.49306  24160604.220    98933617.55746
 15 02 28 00 29 30.0000000  0  7G16G18G21G22G27G29G31
  21056678.360   110653602.32109  21056679.720    86223600.13448
  21871204.660   114934012.46808  21871206.460    89559011.29947
  21703381.200   114052037.45308  21703382.200    88871721.80148
  22873185.640   120199474.21107  22873186.580    93661952.71646
  22336227.940   117377690.96108  22336231.820    91463155.04347
  24555105.100   129037927.28106  24555108.320   100549047.95444
  24178716.160   127059991.66206  24178719.240    99007794.58445
 15 02 28 00 30  0.0000000  0  6G16G18G21G22G27G31
  21046922.380   110602334.29709  21046923.740    86183651.02348
  21863443.960   114893229.26208  21863445.680    89527232.19047
  21713159.200   114103421.30008  21713160.240    88911761.15748
  22855892.560   120108598.16007  22855893.380    93591140.23746
  22324284.800   117314929.65208  22324288.740    91414250.13947
  24196827.920   127155168.27806  24196830.940    99081957.88745
 15 02 28 00 30 30.0000000  0  7G16G18G19G21G22G27G31
  21037249.520   110551502.92809  21037250.860    86144042.16648
  21855768.000   114852891.42408  21855769.660    89495800.12447
  24537755.920   128946776.61505  24537756.700   100478013.68745
  21722983.520   114155048.71508  21722984.640    88951990.30348
  22838635.760   120017912.54107  22838636.260    93520476.14346
  22312364.380   117252287.66408  22312368.340    91365438.21048
  24214941.180   127250353.50606  24214944.220    99156127.92346
 15 02 28 00 31  0.0000000  0  7G16G18G19G21G22G27G31
  21027649.800   110501055.90109  21027651.100    86104732.79648
  21848166.680   114812946.19108  21848168.340    89464673.97747
  24522421.540   128866193.17305  24522422.080   100415221.47144
  21732843.520   114206863.82208  21732844.740    88992365.70548
  22821405.360   119927365.97007  22821405.520    93449920.40546
  22300456.440   117189711.07708  22300460.380    91316677.25248
  24233045.120   127345490.14206  24233048.240    99230259.97645
 15 02 28 00 31 30.0000000  0  7G16G18G19G21G22G27G31
  21018136.940   110451065.44809  21018138.220    86065779.19648
  21840653.600   114773464.90708  21840655.240    89433909.35547
  24507102.660   128785692.45205  24507103.320   100352493.68745
  21742752.260   114258934.93308  21742753.540    89032940.59548
  22804215.140   119837031.08307  22804215.020    93379529.61446
  22288574.360   117127270.32208  22288578.300    91268022.13347
  24251152.660   127440645.60806  24251155.920    99304406.72244
 15 02 28 00 32  0.0000000  0  7G16G18G19G21G22G27G31
  21008704.060   110401495.41809  21008705.320    86027153.19948
  21833221.920   114734411.37008  21833223.560    89403478.03247
  24491792.220   128705236.56605  24491793.020   100289800.81845
  21752702.060   114311221.65308  21752703.380    89073683.48848
  22787058.360   119746872.47007  22787058.180    93309276.18946
  22276710.940   117064927.64308  22276714.900    91219443.43447
  24269256.040   127535779.08606  24269259.500    99378536.47846
 15 02 28 00 32 30.0000000  0  7G16G18G19G21G22G27G31
  20999352.020   110352350.15809  20999353.260    85988858.18948
  21825872.520   114695790.20408  21825874.180    89373383.63147
  24476490.700   128624827.71805  24476491.740   100227144.66345
  21762693.180   114363725.19408  21762694.480    89114595.33548
  22769936.000   119656895.01707  22769935.900    93239163.93146
  22264866.740   117002685.83608  22264870.720    91170943.34348
  24287355.140   127630889.94206  24287358.740    99452648.68945
 15 02 28 00 33  0.0000000  0  7G16G18G19G21G22G27G31
  20990081.540   110303633.25409  20990082.780    85950896.97248
  21818605.900   114657603.68208  21818607.560    89343627.91247
  24461198.560   128544467.57905  24461199.700   100164526.41344
  21772725.380   114416444.60808  21772726.700    89155675.39248
  22752848.880   119567102.62307  22752849.000    93169195.87846
  22253042.040   116940546.45508  22253045.980    91122523.06348
  24305449.660   127725976.62906  24305453.440    99526742.11145
 15 02 28 00 33 30.0000000  0  7G16G18G19G21G22G27G31
  20980893.100   110255347.45809  20980894.340    85913271.67848
  21811422.460   114619854.19308  21811424.120    89314212.73447
  24445915.800   128464156.72705  24445916.980   100101946.59445
  21782798.600   114469379.36308  21782799.880    89196923.25148
  22735797.820   119477498.93407  22735798.080    93099374.85747
  22241237.020   116878510.62508  22241240.940    91074183.47548
  24323539.180   127821036.80806  24323543.060    99600814.73646
 15 02 28 00 34  0.0000000  0  7G16G18G19G21G22G27G31
  20971786.940   110207494.04609  20971788.180    85875983.30348
  21804322.360   114582542.77408  21804324.000    89285138.91347
  24430642.440   128383895.04905  24430643.720   100039405.10344
  21792912.360   114522527.13108  21792913.580    89238337.09248
  22718783.200   119388086.22408  22718783.540    93029702.65447
  22229451.720   116816578.40808  22229455.600    91025924.62447
  24341623.200   127916067.85506  24341627.160    99674864.72346
 15 02 28 00 34 30.0000000  0  7G16G18G19G21G22G27G31
  20962763.520   110160075.51209  20962764.740    85839033.80648
  21797305.900   114545671.08808  21797307.580    89256407.74347
  24415378.580   128303683.01006  24415379.900    99976902.28745
  21803066.420   114575886.91708  21803067.620    89279916.14248
  22701805.580   119298867.52008  22701805.900    92960181.62047
  22217686.300   116754750.53808  22217690.140    90977747.08148
  24359701.140   128011066.94106  24359705.100    99748889.80445
 15 02 28 00 35  0.0000000  0  7G16G18G19G21G22G27G31
  20953822.860   110113091.89309  20953824.000    85802423.19648
  21790373.020   114509238.90208  21790374.780    89228019.03947
  24400123.840   128223518.60506  24400125.060    99914436.58944
  21813260.100   114629454.73608  21813261.240    89321657.29148
  22684864.940   119209843.29608  22684865.240    92890812.12447
  22205940.380   116693025.36408  22205944.220    90929649.56148
  24377772.100   128106029.20506  24377776.060    99822886.15746
 15 02 28 00 35 30.0000000  0  7G16G18G19G21G22G27G31
  20944965.600   110066546.70409  20944966.720    85766154.21548
  21783524.200   114473248.67208  21783526.080    89199974.71247
  24384878.560   128143403.69506  24384879.600    99852009.47846
  21823493.320   114683230.32308  21823494.400    89363560.34848
  22667962.000   119121017.61508  22667962.400    92821597.34347
  22194214.360   116631404.58408  22194218.180    90881633.39048
  24395835.820   128200953.34106  24395839.880    99896852.85645
 15 02 28 00 36  0.0000000  0  7G16G18G19G21G22G27G31
  20936192.700   110020444.79809  20936193.820    85730230.65848
  21776760.340   114437704.99408  21776762.320    89172278.35047
  24369643.040   128063340.57606  24369644.020    99789622.68745
  21833766.360   114737215.24708  21833767.380    89405626.52148
  22651097.820   119032395.97708  22651098.340    92752541.55447
  22182508.840   116569891.52508  22182512.640    90833701.13848
  24413892.480   128295839.88306  24413896.480    99970790.21445
 15 02 28 00 36 30.0000000  0  7G16G18G19G21G22G27G31
  20927503.800   109974784.39609  20927504.940    85694651.12748
  21770081.200   114402606.04008  21770083.140    89144928.52647
  24354416.720   127983325.96606  24354417.580    99727273.70044
  21844078.080   114791403.55708  21844079.080    89447851.17648
  22634272.260   118943977.48608  22634272.840    92683644.06147
  22170823.140   116508482.89608  22170826.960    90785850.27748
  24431940.540   128390681.52806  24431944.600   100044692.52746
 15 02 28 00 37  0.0000000  0  7G16G18G19G21G22G27G31
  20918899.660   109929569.54609  20918900.840    85659418.77848
  21763487.360   114367954.80108  21763489.120    89117927.57347
  24339200.080   127903362.18806  24339200.880    99664964.34045
  21854428.600   114845795.84308  21854429.560    89490234.76848
  22617486.280   118855766.97008  22617486.880    92614908.62947
  22159157.840   116447181.26308  22159161.660    90738082.77648
  24449980.060   128485478.16906  24449984.020   100118559.80646
 15 02 28 00 37 30.0000000  0  7G16G18G19G21G22G27G31
  20910380.360   109884800.75809  20910381.600    85624534.01248
  21756978.780   114333751.32808  21756980.380    89091275.53047
  24323992.840   127823447.87006  24323993.700    99602693.51145
  21864817.440   114900389.49508  21864818.380    89532775.27548
  22600740.080   118767765.51608  22600740.600    92546336.09747
  22147512.680   116385985.45008  22147516.480    90690397.74148
  24468010.180   128580225.56206  24468014.060   100192388.72745
 15 02 28 00 38  0.0000000  0  7G16G18G19G21G22G27G31
  20901946.580   109840481.16309  20901947.840    85589999.26349
  21750555.980   114299998.48208  21750557.400    89064974.63647
  24308795.280   127743584.32206  24308796.180    99540462.25446
  21875244.420   114955183.69208  21875245.340    89575472.05048
  22584034.380   118679977.17608  22584034.820    92477929.63247
  22135888.000   116324897.24708  22135891.760    90642796.56148
  24486030.560   128674922.27906  24486034.500   100266178.17846
 15 02 28 00 38 30.0000000  0  7G16G18G19G21G22G27G31
  20893599.160   109796615.14909  20893600.420    85555817.95548
  21744219.440   114266699.55308  21744220.780    89039027.42347
  24293607.800   127663774.01706  24293608.820    99478272.47645
  21885709.720   115010179.27008  21885710.640    89618325.74548
  22567370.180   118592406.76608  22567370.520    92409692.98146
  22124284.280   116263919.42308  22124288.060    90595281.38048
  24504040.980   128769567.66406  24504045.120   100339927.55045
 15 02 28 00 39  0.0000000  0  7G16G18G19G21G22G27G31
  20885338.260   109753203.55609  20885339.460    85521990.74248
  21737969.280   114233854.99808  21737970.640    89013434.27347
  24278430.240   127584016.17306  24278431.420    99416123.54045
  21896212.760   115065373.07808  21896213.660    89661333.89948
  22550747.800   118505055.74008  22550748.020    92341627.28046
  22112701.420   116203051.25108  22112705.200    90547851.64148
  24522040.800   128864157.83806  24522045.320   100413633.92946
 15 02 28 00 39 30.0000000  0  7G16G18G19G21G22G27G31
  20877163.660   109710245.78209  20877164.860    85488517.15248
  21731805.320   114201463.79808  21731806.780    88988194.37747
  24263262.200   127504308.28706  24263263.520    99354013.54145
  21906752.720   115120761.00208  21906753.620    89704493.31948
  22534167.280   118417924.45408  22534167.400    92273732.81247
  22101139.040   116142290.82908  22101142.820    90500505.86848
  24540029.120   128958687.72306  24540033.960   100487293.27245
 15 02 28 00 40  0.0000000  0  7G16G18G19G21G22G27G31
  20869075.700   109667743.47809  20869076.920    85455398.47449
  21725727.820   114169526.83708  21725729.420    88963308.44047
  24248103.680   127424650.08106  24248105.060    99291942.27845
  21917329.320   115176342.54008  21917330.120    89747801.82548
  22517629.060   118331014.98508  22517629.080    92206011.17747
  22089597.180   116081638.12408  22089600.960    90453244.03448
  24558005.360   129053154.20606  24558010.460   100560903.24446
 15 02 28 00 40 30.0000000  0  7G16G18G19G21G22G27G31
  20861075.280   109625701.10309  20861076.500    85422638.17949
  21719737.500   114138047.82908  21719739.240    88938779.35147
  24232955.220   127345044.64106  24232956.580    99229912.12445
  21927942.700   115232116.64408  21927943.620    89791262.16748
  22501134.100   118244332.82008  22501134.120    92138466.66647
  22078076.440   116021096.31608  22078080.220    90406068.60748
  24575969.640   129147557.26606  24575974.860   100634463.74545
 15 02 28 00 41  0.0000000  0  7G16G18G19G21G22G27G31
  20853162.020   109584116.63609  20853163.260    85390234.70049
  21713833.940   114107024.37508  21713835.700    88914605.23547
  24217816.160   127265488.06306  24217817.400    99167920.02246
  21938591.880   115288078.49108  21938592.820    89834868.79548
  22484682.080   118157876.82208  22484682.200    92071098.38647
  22066576.180   115960662.02008  22066579.960    90358976.95948
  24593920.800   129241890.33406  24593926.020   100707969.70245
 15 02 28 00 41 30.0000000  0  6G16G18G19G22G27G31
  20845336.400   109542992.86209  20845337.700    85358190.20349
  21708017.540   114076458.64808  21708019.240    88890787.79347
  24202686.580   127185981.32906  24202687.620    99105966.78846
  22468273.600   118071650.08708  22468273.880    92003908.75147
  22055096.640   115900336.38608  22055100.380    90311969.98448
  24611858.440   129336151.47406  24611863.420   100781419.64445
 15 02 28 00 42  0.0000000  0  7G16G18G19G21G22G27G31
  20837600.620   109502340.84009  20837601.900    85326513.29948
  21702290.180   114046361.14708  21702291.920    88867335.20548
  24187568.120   127106533.49006  24187569.060    99044059.41645
  21959998.320   115400571.58508  21959999.160    89922524.96148
  22451911.020   117985664.78808  22451911.480    91936907.24547
  22043639.620   115840129.20008  22043643.300    90265055.30048
  24629783.780   129430347.59006  24629788.560   100854818.93945
 15 02 28 00 42 30.0000000  0  7G16G18G19G21G22G27G31
  20829953.020   109462152.19409  20829954.240    85295197.47349
  21696650.040   114016722.39008  21696651.880    88844240.09247
  24172459.060   127027134.89406  24172459.800    98982190.45845
  21970754.760   115457097.31708  21970755.720    89966570.98048
  22435592.820   117899913.00308  22435593.460    91870087.68547
  22032203.240   115780030.67108  22032206.900    90218225.28648
  24647694.260   129524465.33306  24647698.780   100928157.16045
 15 02 28 00 43  0.0000000  0  7G16G18G19G21G22G27G31
  20822394.340   109422430.83409  20822395.500    85264245.76049
  21691097.920   113987546.20708  21691099.860    88821505.41547
  24157359.800   126947787.85506  24157360.480    98920361.65045
  21981546.160   115513806.50908  21981547.220    90010759.95548
  22419320.080   117814399.72908  22419320.760    91803453.99047
  22020788.020   115720043.37908  22020791.680    90171481.95548
  24665589.720   129618504.09606  24665593.980   101001433.89644
 15 02 28 00 43 30.0000000  0  7G16G18G19G21G22G27G31
  20814925.100   109383179.78209  20814926.260    85233660.52249
  21685634.360   113958835.16608  21685636.300    88799133.18147
  24142270.580   126868493.56306  24142271.180    98858573.94746
  21992372.340   115570698.63708  21992373.460    90055091.47948
  22403093.620   117729129.17708  22403094.220    91737009.42947
  22009394.300   115660169.25208  22009398.000    90124826.80748
  24683469.880   129712462.77706  24683473.980   101074648.16645
 15 02 28 00 44  0.0000000  0  7G16G18G19G21G22G27G31
  20807545.940   109344402.05509  20807547.080    85203444.11049
  21680259.720   113930591.31308  21680261.680    88777124.99247
  24127191.620   126789253.30606  24127192.180    98796828.35445
  22003233.200   115627772.93908  22003234.340    90099564.95248
  22386914.080   117644104.66608  22386914.520    91670756.59847
  21998022.460   115600409.81408  21998026.180    90078261.02248
  24701334.300   129806339.60806  24701338.360   101147798.70445
 15 02 28 00 44 30.0000000  0  6G16G18G19G21G22G27
  20800256.460   109306095.38709  20800257.560    85173594.75848
  21674973.360   113902811.23508  21674975.340    88755478.18847
  24112122.120   126710062.99606  24112122.720    98735121.65646
  22014127.760   115685023.92508  22014128.860    90144176.10548
  22370781.080   117559324.40408  22370781.240    91604694.09047
  21986671.740   115540761.38008  21986675.500    90031781.73148
 15 02 28 00 45  0.0000000  0  6G16G18G19G21G22G27
  20793058.140   109268267.80509  20793059.180    85144118.71649
  21669776.720   113875502.58408  21669778.700    88734198.72847
  24097063.340   126630929.13806  24097064.080    98673458.93645
  22025056.740   115742455.68008  22025057.760    90188928.11548
  22354696.280   117474797.42908  22354696.100    91538828.95247
  21975343.420   115481230.65408  21975347.180    89985394.16048
 15 02 28 00 45 30.0000000  0  6G16G18G19G21G22G27
  20785950.740   109230918.22409  20785951.800    85115015.14049
  21664669.480   113848663.77808  21664671.440    88713285.38747
  24082014.840   126551849.19906  24082015.680    98611838.24145
  22036019.420   115800064.51808  22036020.340    90233818.11348
  22338659.640   117390523.71008  22338659.180    91473161.14447
  21964037.060   115421815.50208  21964040.840    89939096.65448
 15 02 28 00 46  0.0000000  0  6G16G18G19G21G22G27
  20778934.380   109194047.09509  20778935.500    85086284.39049
  21659651.680   113822294.75108  21659653.540    88692738.09848
  24066976.380   126472821.88706  24066977.300    98550258.58146
  22047015.140   115857847.16008  22047016.000    90278843.54448
  22322671.280   117306504.37408  22322670.760    91407691.56447
  21952752.480   115362515.04108  21952756.340    89892888.51048
 15 02 28 00 46 30.0000000  0  6G16G18G19G21G22G27
  20772009.380   109157656.11709  20772010.580    85057927.78449
  21654723.460   113796396.62808  21654725.220    88672557.75447
  24051948.220   126393847.90806  24051949.000    98488720.44846
  22058043.660   115915802.15008  22058044.460    90324003.27048
  22306731.780   117222742.40608  22306731.420    91342422.51947
  21941489.900   115303329.85508  21941493.760    89846770.19448
 15 02 28 00 47  0.0000000  0  6G16G18G19G21G22G27
  20765176.400   109121748.70608  20765177.660    85029947.98149
  21649885.240   113770971.67308  21649886.940    88652746.10947
  24036930.460   126314928.85505  24036931.180    98427225.09647
  22069104.940   115973929.36908  22069105.680    90369297.20147
  22290841.840   117139241.41908  22290841.860    91277356.82547
  21930249.580   115244262.01608  21930253.480    89800743.31248
 15 02 28 00 47 30.0000000  0  6G16G18G19G21G22G27
  20758435.860   109086327.00809  20758437.120    85002346.65449
  21645137.360   113746021.69008  21645139.040    88633304.57247
  24021923.240   126236065.43406  24021923.960    98365773.11546
  22080198.780   116032227.77108  22080199.500    90414724.52348
  22275002.220   117056004.61608  22275002.580    91212496.99247
  21919031.820   115185312.54408  21919035.720    89754808.66348
 15 02 28 00 48  0.0000000  0  6G16G18G19G21G22G27
  20751787.980   109051391.98209  20751789.200    84975124.55849
  21640479.960   113721546.95308  21640481.580    88614233.35947
  24006926.380   126157256.66006  24006927.160    98304363.74646
  22091324.740   116090695.17208  22091325.480    90460283.53147
  22259213.400   116973034.04908  22259213.920    91147844.61947
  21907836.580   115126481.21108  21907840.400    89708966.07648
 15 02 28 00 48 30.0000000  0  6G16G18G19G21G22G27
  20745232.880   109016944.56209  20745234.060    84948282.40449
  21635913.000   113697547.56308  21635914.580    88595532.54247
  23991939.860   126078501.95006  23991940.560    98242996.48946
  22102482.280   116149328.77908  22102483.100    90505972.04048
  22243475.680   116890331.44908  22243476.180    91083401.05347
  21896663.740   115067767.79508  21896667.540    89663215.36948
 15 02 28 00 49  0.0000000  0  6G16G18G19G21G22G27
  20738770.940   108982987.07509  20738772.180    84921822.02249
  21631436.820   113674025.04508  21631438.340    88577203.31947
  23976963.800   125999802.27106  23976964.460    98181672.10646
  22113671.320   116208127.61608  22113672.180    90551789.30647
  22227789.560   116807899.73508  22227789.880    91019168.56547
  21885513.640   115009173.50108  21885517.400    89617557.48748
 15 02 28 00 49 30.0000000  0  6G16G18G19G21G22G27
  20732402.760   108949522.10809  20732404.040    84895745.42349
  21627051.720   113650981.26208  21627053.220    88559247.14147
  23961998.400   125921158.76006  23961999.060    98120391.50246
  22124891.720   116267091.14708  22124892.600    90597734.90747
  22212155.600   116725742.45308  22212155.740    90955149.93247
  21874386.500   114950699.78608  21874390.220    89571993.56148
 15 02 28 00 50  0.0000000  0  6G16G18G19G21G22G27
  20726128.840   108916552.38609  20726130.120    84870054.73049
  21622758.160   113628418.32908  21622759.660    88541665.63648
  23947043.880   125842572.75306  23947044.580    98059155.71546
  22136143.360   116326218.79608  22136144.240    90643808.39447
  22196574.480   116643863.13808  22196574.420    90891347.89147
  21863282.640   114892348.29508  21863286.320    89526524.87348
 15 02 28 00 50 30.0000000  0  6G16G18G19G21G22G27
  20719948.920   108884076.64009  20719950.180    84844748.95249
  21618555.820   113606334.76208  21618557.340    88524457.66647
  23932099.860   125764041.77106  23932100.600    97997962.80846
  22147425.400   116385506.45908  22147426.340    90690006.56648
  22181046.220   116562262.00408  22181046.060    90827762.61947
  21852201.620   114834117.15208  21852205.360    89481149.97148
 15 02 28 00 51  0.0000000  0  6G16G18G19G21G22G27
  20713863.940   108852099.61709  20713865.140    84819831.78849
  21614445.220   113584733.65708  21614446.820    88507625.64348
  23917166.820   125685568.62306  23917167.620    97936814.96046
  22158738.100   116444955.41108  22158739.100    90736330.41347
  22165571.840   116480944.15408  22165571.740    90764398.08647
  21841144.080   114776009.51908  21841147.880    89435871.31048
 15 02 28 00 51 30.0000000  0  6G16G18G19G21G22G27
  20707873.660   108820620.23909  20707874.840    84795302.40049
  21610426.100   113563613.51208  21610427.820    88491168.39148
  23902244.380   125607150.83206  23902245.140    97875710.24746
  22170080.740   116504561.68108  22170081.800    90782776.84947
  22150151.380   116399909.66508  22150151.440    90701254.35147
  21830109.740   114718023.48708  21830113.540    89390687.39748
 15 02 28 00 52  0.0000000  0  6G16G18G19G21G22G27
  20701978.700   108789641.77909  20701979.820    84771163.33449
  21606499.060   113542977.20308  21606500.900    88475088.15948
  23887332.860   125528790.67505  23887333.600    97814650.44246
  22181453.260   116564325.01808  22181454.360    90829345.67147
  22134785.640   116319162.60308  22134785.880    90638334.56747
  21819098.940   114660161.11608  21819102.700    89345599.84848
 15 02 28 00 52 30.0000000  0  6G16G18G19G21G22G27
  20696178.920   108759163.79508  20696180.040    84747414.25549
  21602663.880   113522823.11008  21602665.720    88459383.68048
  23872431.980   125450486.68206  23872432.740    97753634.38645
  22192855.100   116624242.22608  22192856.200    90876034.39647
  22119474.780   116238703.72408  22119475.160    90575639.34747
  21808111.440   114602421.30708  21808115.140    89300607.80548
 15 02 28 00 53  0.0000000  0  6G16G18G19G21G22G27
  20690474.580   108729187.54908  20690475.720    84724056.13749
  21598920.680   113503152.13008  21598922.500    88444055.65448
  23857541.720   125372238.41506  23857542.440    97692661.78545
  22204285.880   116684311.20708  22204286.980    90922841.39247
  22104219.240   116158535.18408  22104219.680    90513170.36747
  21797147.280   114544804.29908  21797150.980    89255711.44448
 15 02 28 00 53 30.0000000  0  6G16G18G19G21G22G27
  20684866.520   108699717.43308  20684867.760    84701092.40549
  21595270.140   113483967.75308  21595271.820    88429106.80247
  23842662.640   125294048.79505  23842663.340    97631734.88845
  22215745.740   116744533.04408  22215746.840    90969767.48847
  22089019.920   116078662.11308  22089020.400    90450931.62947
  21786207.100   114487313.33108  21786210.800    89210913.29748
 15 02 28 00 54  0.0000000  0  6G16G18G19G21G22G27
  20679354.940   108670753.98508  20679356.200    84678523.48849
  21591712.200   113465270.14308  21591713.760    88414537.24948
  23827794.680   125215917.31905  23827795.360    97570853.27046
  22227234.300   116804905.45608  22227235.340    91016810.92247
  22073877.120   115999086.12808  22073877.580    90388924.39247
  21775290.920   114429948.39908  21775294.580    89166213.36248
 15 02 28 00 54 30.0000000  0  6G16G18G19G21G22G27
  20673940.140   108642299.01908  20673941.420    84656350.77749
  21588246.980   113447059.93908  21588248.380    88400347.48548
  23812937.900   125137844.35005  23812938.600    97510017.22345
  22238751.300   116865427.37608  22238752.300    91063970.85247
  22058791.400   115919809.99208  22058791.740    90327150.79047
  21764398.860   114372710.24808  21764402.460    89121612.21048
 15 02 28 00 55  0.0000000  0  6G16G18G19G21G22G27
  20668622.380   108614354.11709  20668623.700    84634575.52949
  21584874.580   113429337.93408  21584875.880    88386538.13847
  23798092.340   125059830.56905  23798093.000    97449227.30046
  22250296.480   116926097.27508  22250297.420    91111246.09647
  22043763.180   115840836.40008  22043763.440    90265612.95247
  21753531.060   114315599.79708  21753534.700    89077110.57248
 15 02 28 00 55 30.0000000  0  6G16G18G19G21G22G27
  20663402.320   108586922.51108  20663403.660    84613200.24649
  21581595.440   113412106.72008  21581596.780    88373111.22448
  23783258.220   124981877.36206  23783258.960    97388484.60346
  22261869.840   116986915.18608  22261870.700    91158636.66747
  22028793.240   115762169.38308  22028793.460    90204314.00547
  21742687.940   114258619.04008  21742691.640    89032709.98848
 15 02 28 00 56  0.0000000  0  6G16G18G19G21G22G27
  20658279.260   108560000.72808  20658280.640    84592222.22949
  21578408.840   113395362.00408  21578410.300    88360063.39748
  23768434.920   124903980.41606  23768435.620    97327785.73546
  22273470.120   117047874.81608  22273470.940    91206137.66847
  22013881.260   115683806.85908  22013881.460    90143252.31747
  21731868.720   114201763.84208  21731872.500    88988407.25348
