     2.11           OBSERVATION DATA    G                   RINEX VERSION / TYPE
SPIDER V4,0,0,3554                      2015 03 24 00:19    PGM / RUN BY / DATE 
CBEJ                                                        MARKER NAME         
CBEJ                                                        MARKER NUMBER       
                                                            OBSERVER / AGENCY   
496519              LEICA GRX1200+GNSS  8.10/4.007          REC # / TYPE / VERS 
                    LEIAR25         NONE                    ANT # / TYPE        
  5095766.4657   453329.2088  3797108.6657                  APPROX POSITION XYZ 
        0.0730        0.0000        0.0000                  ANTENNA: DELTA H/E/N
     1     1                                                WAVELENGTH FACT L1/2
     4    C1    L1    P2    L2                              # / TYPES OF OBSERV 
    30.000                                                  INTERVAL            
  2015    02    28    10    41    0.0000000     GPS         TIME OF FIRST OBS   
  2015    02    28    23    59   30.0000000     GPS         TIME OF LAST OBS    
    16                                                      LEAP SECONDS        
    24                                                      # OF SATELLITES     
   G 2   724   724   723   723                              PRN / # OF OBS      
   G 5   633   632   632   632                              PRN / # OF OBS      
   G 6   327   327   326   326                              PRN / # OF OBS      
   G 7   360   360   357   357                              PRN / # OF OBS      
   G 9   276   276   276   276                              PRN / # OF OBS      
   G10   427   427   427   427                              PRN / # OF OBS      
   G12   816   816   815   815                              PRN / # OF OBS      
   G13   792   792   792   792                              PRN / # OF OBS      
   G14   436   434   435   434                              PRN / # OF OBS      
   G15   687   686   686   686                              PRN / # OF OBS      
   G16   188   185   184   184                              PRN / # OF OBS      
   G17   412   411   410   410                              PRN / # OF OBS      
   G18   427   427   426   426                              PRN / # OF OBS      
   G20   368   368   368   368                              PRN / # OF OBS      
   G21   389   389   389   389                              PRN / # OF OBS      
   G22    91    91    90    90                              PRN / # OF OBS      
   G23    89    89    87    87                              PRN / # OF OBS      
   G24   817   817   817   817                              PRN / # OF OBS      
   G25   829   829   828   828                              PRN / # OF OBS      
   G27   133   133   133   133                              PRN / # OF OBS      
   G28   564   564   563   563                              PRN / # OF OBS      
   G29   686   686   685   685                              PRN / # OF OBS      
   G30   493   492   487   486                              PRN / # OF OBS      
   G31   471   470   470   470                              PRN / # OF OBS      
BIT 2 OF LLI FLAGS DATA COLLECTED UNDER A/S CONDITION       COMMENT             
SNR is mapped to RINEX snr flag value [2-9]                 COMMENT             
Lx:     = 25dBHz -> 1; 26-27dBHz -> 2; 28-31dBHz -> 3       COMMENT             
       32-35dBHz -> 4; 36-38dBHz -> 5; 39-41dBHz -> 6       COMMENT             
       42-44dBHz -> 7; 45-48dBHz -> 8; >=49dBHz -> 9        COMMENT             
                                                            END OF HEADER       
 15 02 28 10 41  0.0000000  0  9G02G05G06G07G09G10G20G23G30
  21971230.340   115459593.30609  21971228.800    89968507.92248
  24442771.840                                                  
  21132087.040   111049866.73909  21132091.740    86532382.29348
  20520727.140   107837149.43509  20520726.420    84028944.11849
  21195443.320   111382806.26406  21195445.200    86791810.53643
  20300083.060   106677655.84409  20300083.480    83125448.13948
  20079999.500   105521110.14409  20079998.540    82224236.59549
  23180033.900   121811896.53908  23180033.480    94918361.39045
  21444366.720   112690907.49409  21444369.600    87811109.27948
 15 02 28 10 41 30.0000000  0  9G02G05G06G07G09G10G20G23G30
  21963172.500   115417247.70709  21963170.460    89935511.35148
  24424864.680   128353536.80605  24424869.420   100015752.38844
  21142139.440   111102692.34209  21142143.960    86573545.05449
  20517401.240   107819672.87109  20517400.620    84015326.03349
  21204699.800   111431453.68805  21204702.620    86829717.60743
  20295377.960   106652930.22609  20295378.320    83106181.43048
  20078887.520   105515267.02209  20078886.620    82219683.51149
  23193992.660   121885248.24209  23193991.780    94975518.43745
  21429579.880   112613201.84709  21429582.560    87750559.48548
 15 02 28 10 42  0.0000000  0  9G02G05G06G07G09G10G20G23G30
  21955208.320   115375394.25609  21955205.720    89902898.27648
  24406951.780   128259396.55815  24406959.400    99942418.06854
  21152283.780   111156000.01809  21152287.880    86615083.42348
  20514173.280   107802711.06709  20514172.800    84002109.04549
  21213984.780   111480249.91906  21213988.540    86867740.53641
  20290738.080   106628546.95909  20290738.340    83087181.48448
  20077847.940   105509803.73509  20077846.980    82215426.40649
  23207956.760   121958627.74008  23207955.280    95032697.11244
  21414864.800   112535873.76309  21414867.560    87690303.88148
 15 02 28 10 42 30.0000000  0  9G02G05G06G07G09G10G20G23G30
  21947356.960   115334133.32509  21947353.600    89870746.89247
  24389055.840   128165351.04105  24389063.440    99869135.94242
  21162538.240   111209886.72309  21162542.260    86657073.00048
  20511062.220   107786363.14509  20511061.920    83989370.40949
  21223317.060   111529292.90805  21223321.820    86905955.78743
  20286182.460   106604606.31309  20286182.500    83068526.43148
  20076899.780   105504820.32509  20076898.580    82211543.22548
  23221944.680   122032133.27609  23221942.760    95089974.01244
  21400240.800   112459024.35309  21400243.500    87630421.27148
 15 02 28 10 43  0.0000000  0  9G02G05G06G07G09G10G20G23G30
  21939600.540   115293371.97308  21939596.620    89838984.78848
  24371154.760   128071283.22804  24371162.980    99795836.34444
  21172884.360   111264256.15508  21172888.720    86699438.74448
  20508050.040   107770534.80509  20508049.880    83977036.64449
  21232677.980   111578487.23104  21232684.120    86944288.98744
  20281693.340   106581015.08709  20281693.260    83050143.66849
  20076025.300   105500223.67708  20076023.860    82207961.42648
  23235938.340   122105669.94808  23235936.420    95147275.15845
  21385690.460   112382561.27509  21385692.940    87570839.71149
 15 02 28 10 43 30.0000000  0  8G02G05G06G07G10G20G23G30
  21931944.560   115253139.11909  21931940.540    89807634.50748
  24353255.440   127977221.76707  24353263.400    99722541.73445
  21183327.020   111319133.66609  21183331.760    86742200.38549
  20505142.040   107755253.62409  20505141.940    83965129.22648
  20277276.220   106557802.19809  20277276.060    83032055.68748
  20075229.780   105496042.16609  20075228.260    82204703.09249
  23249943.000   122179264.99408  23249941.480    95204621.77844
  21371219.240   112306514.28509  21371221.840    87511582.33448
 15 02 28 10 44  0.0000000  0  9G02G05G06G07G09G10G20G23G30
  21924387.480   115213426.66109  21924383.640    89776689.73648
  24335356.360   127883158.22107  24335363.180    99649245.49345
  21193864.200   111374507.52009  21193868.980    86785348.77948
  20502336.380   107740510.06809  20502336.480    83953640.74049
  21251504.840   111677410.82806  21251502.780    87021361.44342
  20272929.360   106534959.08709  20272929.220    83014255.83848
  20074511.360   105492266.92808  20074510.000    82201761.33148
  23263956.640   122252907.94408  23263955.780    95262005.73044
  21356825.800   112230875.62209  21356828.280    87452643.16848
 15 02 28 10 44 30.0000000  0  9G02G05G06G07G09G10G20G23G30
  21916932.120   115174249.28609  21916928.660    89746161.89148
  24317459.960   127789107.58808  24317464.680    99575959.33444
  21204498.100   111430389.25409  21204502.740    86828892.92948
  20499635.800   107726318.12709  20499636.080    83942582.09249
  21260965.620   111727129.63506  21260964.980    87060103.27743
  20268655.620   106512500.65209  20268655.460    82996755.74148
  20073872.900   105488912.90408  20073871.760    82199147.78748
  23277981.600   122326611.85608  23277981.680    95319437.21444
  21342512.980   112155660.97709  21342515.240    87394034.41348
 15 02 28 10 45  0.0000000  0  9G02G05G06G07G09G10G20G23G30
  21909577.420   115135602.24708  21909574.720    89716047.32447
  24299565.060   127695065.04208  24299567.220    99502679.54543
  21215227.140   111486770.70609  21215231.840    86872826.44948
  20497039.020   107712671.19409  20497039.300    83931948.10149
  21270458.860   111777021.13606  21270460.120    87098979.62043
  20264454.080   106490421.69409  20264453.940    82979551.33748
  20073313.560   105485974.61708  20073312.660    82196858.17648
  23292016.540   122400369.66508  23292017.780    95376910.70744
  21328279.980   112080866.31009  21328282.360    87335752.89148
 15 02 28 10 45 30.0000000  0  9G02G05G06G07G09G10G20G23G30
  21902324.280   115097489.99008  21902322.400    89686349.47748
  24281672.260   127601034.50108  24281672.940    99429409.09244
  21226051.600   111543652.66809  21226056.320    86917149.98548
  20494546.680   107699572.58509  20494546.720    83921741.38749
  21279985.260   111827086.98406  21279988.720    87137991.88244
  20260325.640   106468726.51709  20260325.540    82962645.99248
  20072834.260   105483456.07509  20072833.420    82194895.65048
  23306062.540   122474183.71208  23306064.640    95434428.01944
  21314127.820   112006496.50909  21314130.340    87277802.44448
 15 02 28 10 46  0.0000000  0  9G02G05G06G07G09G10G20G23G30
  21895172.900   115059913.47208  21895171.820    89657069.10248
  24263781.780   127507017.72008  24263782.380    99356149.31045
  21236970.920   111601033.05209  21236975.500    86961861.90048
  20492158.560   107687022.06809  20492158.300    83911961.75749
  21289544.780   111877326.38906  21289548.960    87177139.34444
  20256270.520   106447416.73309  20256270.540    82946040.93548
  20072435.040   105481357.98908  20072434.160    82193260.75149
  23320119.640   122548053.69308  23320122.320    95491988.92044
  21300056.620   111932553.69109  21300059.500    87220184.71048
 15 02 28 10 46 30.0000000  0  9G02G05G06G07G09G10G20G23G30
  21888124.720   115022877.71408  21888123.720    89628210.07847
  24245894.640   127413019.27908  24245896.060    99282903.79045
  21247985.280   111658913.08709  21247989.500    87006963.16148
  20489875.300   107675023.07709  20489874.740    83902611.88449
  21299138.160   111927741.65707  21299142.880    87216423.84644
  20252289.580   106426496.79709  20252289.640    82929739.65748
  20072116.720   105479685.06709  20072115.780    82191957.15049
  23334188.180   122621982.40708  23334190.780    95549595.54644
  21286067.520   111859043.24109  21286071.160    87162903.86348
 15 02 28 10 47  0.0000000  0  9G02G05G06G07G09G10G20G23G30
  21881179.680   114986381.92308  21881178.300    89599771.79248
  24228010.760   127319038.60608  24228012.840    99209672.10345
  21259094.020   111717288.71409  21259097.920    87052450.58548
  20487696.580   107663573.77409  20487695.820    83893690.35749
  21308765.020   111978329.77107  21308769.600    87255843.09644
  20248382.640   106405966.03509  20248382.720    82913741.64948
  20071879.060   105478436.24709  20071878.100    82190984.03049
  23348267.460   122695967.29407  23348269.720    95607245.95341
  21272160.760   111785965.22809  21272164.960    87105959.99549
 15 02 28 10 47 30.0000000  0  9G02G05G06G07G09G10G20G23G30
  21874336.620   114950421.07708  21874335.060    89571750.36148
  24210129.440   127225070.57608  24210131.620    99136450.26846
  21270295.540   111776151.43109  21270299.420    87098317.54348
  20485621.140   107652667.68109  20485620.420    83885192.09449
  21318423.480   112029083.57907  21318427.760    87295391.44844
  20244548.860   106385819.43009  20244548.900    82898042.97548
  20071721.140   105477606.22209  20071720.160    82190337.22649
  23362356.260   122770001.48007  23362357.560    95664934.71141
  21258335.480   111713315.30609  21258340.000    87049349.68748
 15 02 28 10 48  0.0000000  0  9G02G05G06G07G09G10G20G23G30
  21867596.420   114914998.32309  21867594.400    89544148.21148
  24192251.260   127131118.43808  24192253.460    99063240.85646
  21281589.680   111835501.00209  21281593.660    87144563.89748
  20483649.400   107642306.81609  20483648.940    83877118.68749
  21328113.380   112080004.04007  21328117.120    87335069.67044
  20240788.820   106366060.03709  20240788.880    82882646.02148
  20071643.400   105477197.74808  20071642.440    82190018.90848
  23376454.920   122844086.42307  23376454.740    95722663.00743
  21244592.880   111641097.41109  21244597.320    86993076.04948
 15 02 28 10 48 30.0000000  0  9G02G05G06G07G09G10G20G23G30
  21860959.920   114880119.04509  21860957.180    89516969.52448
  24174376.980   127037187.56608  24174378.940    98990048.01245
  21292976.700   111895339.19309  21292980.640    87191190.98648
  20481782.040   107632494.95509  20481782.060    83869473.05349
  21337835.420   112131094.20407  21337838.720    87374880.09144
  20237103.480   106346693.17409  20237103.560    82867554.93648
  20071646.820   105477216.01508  20071645.840    82190033.11348
  23390563.620   122918225.17006  23390563.680    95780433.28343
  21230933.840   111569317.47309  21230937.900    86937143.68648
 15 02 28 10 49  0.0000000  0  9G02G05G06G07G09G10G20G23G30
  21854429.120   114845795.20009  21854425.660    89490223.64648
  24156508.780   126943290.69008  24156510.320    98916881.64045
  21304458.240   111955674.92409  21304462.160    87238205.77548
  20480021.280   107623243.03209  20480021.780    83862263.73149
  21347591.800   112182364.13308  21347594.740    87414830.64244
  20233495.200   106327731.10109  20233495.300    82852779.26748
  20071733.660   105477672.63009  20071732.720    82190388.89149
  23404684.140   122992428.88305  23404684.260    95838254.16844
  21217360.440   111497988.59609  21217364.320    86881562.79248
 15 02 28 10 49 30.0000000  0  8G02G05G06G07G09G10G20G30
  21848009.560   114812056.83409  21848005.620    89463933.98848
  24138652.260   126849457.77807  24138654.300    98843765.12645
  21316039.440   112016534.61209  21316043.500    87285628.82648
  20478372.660   107614579.55709  20478373.360    83855512.94449
  21357387.740   112233841.56108  21357390.300    87454942.88345
  20229969.620   106309203.86609  20229969.640    82838342.45048
  20071909.600   105478597.09609  20071908.680    82191109.22349
  21203878.800   111427141.34009  21203882.440    86826357.18748
 15 02 28 10 50  0.0000000  0  8G02G05G06G07G09G10G20G30
  21841685.580   114778822.23209  21841681.480    89438036.86548
  24120792.200   126755607.65507  24120795.300    98770635.16645
  21327704.240   112077833.33709  21327708.340    87333393.99249
  20476820.460   107606421.75509  20476821.060    83849156.20849
  21367207.240   112285442.87008  21367209.620    87495151.61945
  20226511.220   106291029.72309  20226511.140    82824180.75348
  20072159.080   105479907.88308  20072158.180    82192130.58148
  21190473.240   111356694.96709  21190476.900    86771463.93648
 15 02 28 10 50 30.0000000  0  9G02G05G06G07G09G10G20G23G30
  21835458.240   114746097.10609  21835454.500    89412536.76248
  24102930.220   126661745.77507  24102933.600    98697496.12445
  21339452.840   112139573.21709  21339456.960    87381502.93248
  20475365.340   107598773.92109  20475365.660    83843196.84849
  21377050.960   112337171.57908  21377052.740    87535459.67745
  20223120.980   106273214.31709  20223120.900    82810298.61948
  20072483.000   105481610.06508  20072482.160    82193456.92848
  23447104.180   123215348.58604  23447106.220    96011986.70144
  21177145.000   111286655.79709  21177148.800    86716887.98848
 15 02 28 10 51  0.0000000  0  9G02G05G06G07G09G10G20G23G30
  21829338.860   114713940.29809  21829335.880    89387479.49148
  24085077.640   126567931.46007  24085081.560    98624394.14346
  21351296.020   112201809.65309  21351300.080    87429998.78749
  20474018.080   107591693.45209  20474017.980    83837679.60149
  21386929.600   112389084.38508  21386930.400    87575911.16745
  20219810.220   106255816.72109  20219810.220    82796742.04248
  20072892.460   105483762.36208  20072891.820    82195134.01048
  23461260.960   123289739.14104  23461261.760    96069953.15643
  21163905.780   111217083.35509  21163909.580    86662675.73449
 15 02 28 10 51 30.0000000  0  8G02G05G06G07G09G10G20G30
  21823332.520   114682378.92309  21823330.340    89362886.20148
  24067239.640   126474192.09808  24067243.880    98551350.55445
  21363238.500   112264566.55609  21363242.260    87478900.20048
  20472783.700   107585206.38609  20472783.320    83832624.76449
  21396848.180   112441206.64308  21396848.680    87616525.86945
  20216584.220   106238864.09209  20216584.280    82783532.19548
  20073392.800   105486392.05609  20073392.400    82197183.09349
  21150760.840   111148005.75909  21150764.640    86608849.07149
 15 02 28 10 52  0.0000000  0  8G02G05G06G07G09G10G20G30
  21817421.580   114651320.98308  21817420.420    89338685.19348
  24049398.660   126380436.23808  24049402.580    98478294.09745
  21375261.900   112327748.44609  21375265.220    87528132.75048
  20471644.360   107579219.26409  20471644.000    83827959.47249
  21406788.740   112493444.20008  21406789.420    87657230.40745
  20213425.480   106222264.58609  20213425.580    82770597.49548
  20073966.460   105489406.60408  20073966.280    82199532.04548
  21137692.920   111079331.67809  21137696.560    86555336.81448
 15 02 28 10 52 30.0000000  0  9G02G05G06G07G09G10G20G23G30
  21811616.760   114620819.98209  21811616.140    89314918.17348
  24031564.740   126286717.69908  24031568.420    98405266.69645
  21387375.340   112391405.40809  21387378.740    87577735.50748
  20470610.160   107573784.47709  20470609.860    83823724.56549
  21416761.000   112545848.64808  21416762.160    87698064.98745
  20210343.980   106206071.70609  20210344.160    82757979.66348
  20074623.480   105492859.04109  20074623.480    82202222.21949
  23503797.680   123513293.49706  23503797.120    96244119.80544
  21124712.060   111011115.42709  21124715.340    86502181.33548
 15 02 28 10 53  0.0000000  0  9G02G05G06G07G09G10G20G23G30
  21805910.280   114590834.05309  21805909.440    89291552.47947
  24013730.020   126192995.08708  24013733.520    98332236.11445
  21399570.560   112455492.32009  21399574.440    87627673.30248
  20469672.760   107568858.67809  20469672.600    83819886.26548
  21426756.800   112598376.27007  21426758.220    87738995.56345
  20207331.900   106190244.00209  20207332.240    82745646.38048
  20075355.960   105496707.54009  20075356.060    82205221.01848
  23517984.620   123587849.58607  23517983.880    96302215.22842
  21111810.360   110943316.06809  21111813.400    86449350.70548
 15 02 28 10 53 30.0000000  0  9G02G05G06G07G09G10G20G23G30
  21800316.060   114561436.36509  21800314.780    89268645.16147
  23995908.460   126099341.45008  23995911.580    98259259.33445
  21411861.140   112520078.89809  21411865.280    87678000.42748
  20468845.820   107564513.73309  20468845.840    83816500.57949
  21436789.680   112651098.19607  21436791.420    87780077.50945
  20204403.360   106174854.75709  20204403.700    82733654.75048
  20076177.700   105501025.18508  20076177.820    82208585.38448
  23532187.920   123662488.48907  23532186.220    96360375.15243
  21099001.900   110876007.41609  21099005.080    86396902.42748
 15 02 28 10 54  0.0000000  0  9G02G05G06G07G09G10G20G23G30
  21794828.240   114532596.15509  21794826.260    89246172.22748
  23978094.340   126005727.04208  23978097.160    98186313.10846
  21424240.400   112585131.03409  21424244.460    87728690.31848
  20468123.320   107560717.67709  20468123.440    83813542.60149
  21446853.620   112703981.84606  21446855.300    87821285.51045
  20201552.580   106159873.30209  20201552.780    82721980.87548
  20077082.840   105505781.13209  20077082.860    82212291.27549
  23546401.080   123737178.18207  23546399.100    96418574.60343
  21086280.920   110809159.59509  21086284.260    86344813.23848
 15 02 28 10 54 30.0000000  0  9G02G05G06G07G09G10G20G23G30
  21789448.120   114504321.28209  21789445.320    89224139.82848
  23960289.420   125912160.93608  23960292.100    98113404.53446
  21436708.900   112650653.63609  21436713.060    87779746.82548
  20467506.540   107557477.06409  20467506.740    83811017.43749
  21456949.660   112757033.66505  21456951.280    87862624.58544
  20198781.040   106145307.93609  20198781.080    82710631.22748
  20078072.900   105510983.21709  20078072.820    82216344.81849
  23560624.680   123811925.57606  23560624.480    96476819.16643
  21073649.180   110742781.73409  21073652.580    86293090.26248
 15 02 28 10 55  0.0000000  0  8G02G05G06G07G10G20G23G30
  21784175.180   114476609.62209  21784171.940    89202546.27848
  23942493.160   125818640.41208  23942495.560    98040531.47446
  21449265.640   112716640.81909  21449270.280    87831165.36248
  20466994.860   107554788.46209  20466995.060    83808922.40549
  20196088.260   106131156.63009  20196088.180    82699604.23648
  20079147.440   105516628.84409  20079147.160    82220743.97549
  23574858.040   123886726.85106  23574860.240    96535105.63744
  21061106.740   110676872.07809  21061110.500    86241732.11749
 15 02 28 10 55 30.0000000  0  8G02G05G06G07G10G20G23G30
  21779006.340   114449446.38109  21779003.100    89181380.07548
  23924702.840   125725151.57308  23924705.020    97967683.07745
  21461907.460   112783074.10309  21461912.320    87882931.48448
  20466585.120   107552635.28009  20466585.240    83807244.59549
  20193471.400   106117404.37809  20193471.220    82688888.19148
  20080303.540   105522702.64009  20080302.920    82225476.77249
  23589098.780   123961565.37006  23589102.060    96593421.20843
  21048650.860   110611416.32309  21048654.960    86190727.63148
 15 02 28 10 56  0.0000000  0  9G02G05G06G07G09G10G20G23G30
  21773942.800   114422838.42808  21773939.800    89160646.57648
  23906920.040   125631702.20508  23906921.760    97894865.43145
  21474634.960   112849957.46909  21474639.660    87935048.31948
  20466278.460   107551023.68109  20466278.680    83805988.78549
  21487417.380   112917137.28604  21487415.660    87987375.43644
  20190931.820   106104058.67509  20190931.600    82678488.93548
  20081542.400   105529211.77709  20081541.540    82230548.79049
  23603348.320   124036447.09206  23603351.900    96651770.39343
  21036283.020   110546422.67209  21036286.820    86140083.25948
 15 02 28 10 56 30.0000000  0  9G02G05G06G07G09G10G20G23G30
  21768984.160   114396782.34408  21768981.740    89140343.10548
  23889144.200   125538289.36508  23889145.020    97822076.27845
  21487446.720   112917284.27709  21487451.420    87987510.69948
  20466074.000   107549949.04709  20466074.380    83805151.38049
  21497628.540   112970799.65604  21497627.180    88029190.28144
  20188469.000   106091116.28909  20188468.720    82668403.94848
  20082863.300   105536152.97709  20082862.460    82235957.48749
  23617605.200   124111367.31604  23617608.640    96710149.48743
  21024002.640   110481888.62409  21024006.080    86089797.01848
 15 02 28 10 57  0.0000000  0  8G02G05G06G07G09G10G20G30
  21764131.640   114371283.80009  21764130.080    89120474.09448
  23871376.460   125444919.59408  23871377.360    97749320.64846
  21500343.460   112985056.80109  21500348.260    88040320.36848
  20465972.500   107549415.36209  20465973.020    83804735.49649
  21507868.620   113024613.33404  21507867.300    88071122.87643
  20186084.060   106078583.32909  20186083.920    82658637.99448
  20084267.440   105543531.66709  20084266.540    82241707.08249
  21011810.880   110417820.65309  21011814.440    86039873.92848
 15 02 28 10 57 30.0000000  0  8G02G05G06G07G10G20G23G30
  21759382.680   114346327.43209  21759381.720    89101027.55348
  23853613.960   125351577.82308  23853615.600    97676586.89246
  21513321.640   113053256.33109  21513326.300    88093462.77948
  20465970.820   107549406.11809  20465971.340    83804728.27749
  20183774.180   106066444.55209  20183774.140    82649179.19948
  20085751.840   105551332.32009  20085750.820    82247785.48949
  23646145.260   124261337.78305  23646143.960    96827007.43344
  20999705.200   110354204.11909  20999708.460    85990302.63148
 15 02 28 10 58  0.0000000  0  8G02G05G06G07G10G20G23G30
  21754747.020   114321965.23509  21754746.240    89082043.99448
  23835866.880   125258317.07408  23835868.860    97603916.27546
  21526390.240   113121931.55909  21526394.560    88146975.86248
  20466078.720   107549971.99909  20466078.980    83805169.22149
  20181549.280   106054752.34809  20181549.280    82640068.37248
  20087326.340   105559606.65509  20087325.220    82254233.00048
  23660429.120   124336404.22206  23660429.820    96885500.60744
  20987695.620   110291092.00709  20987698.340    85941124.41848
 15 02 28 10 58 30.0000000  0  8G02G05G06G07G10G20G23G30
  21750217.740   114298161.95809  21750217.060    89063495.96748
  23818128.640   125165102.56908  23818130.800    97531281.63446
  21539541.820   113191043.97009  21539546.200    88200829.62548
  20466289.020   107551076.31309  20466288.920    83806029.72149
  20179402.700   106043471.73909  20179402.620    82631278.27548
  20088984.440   105568319.75909  20088983.160    82261022.40549
  23674720.400   124411511.44606  23674722.140    96944025.54143
  20975775.240   110228449.97709  20975778.040    85892312.47749
 15 02 28 10 59  0.0000000  0  9G02G05G06G07G09G10G20G23G30
  21745794.660   114274916.33409  21745793.680    89045382.46048
  23800399.360   125071933.86708  23800401.380    97458682.72446
  21552775.740   113260589.02309  21552780.660    88255020.50448
  20466601.220   107552716.82209  20466600.980    83807308.03449
  21549120.620   113241367.57206  21549120.380    88240043.68544
  20177334.240   106032601.85609  20177334.120    82622808.22148
  20090725.760   105577470.27809  20090724.420    82268152.64949
  23689019.380   124486656.85906  23689021.060    97002580.06343
  20963944.160   110166277.57409  20963947.240    85843866.47149
 15 02 28 10 59 30.0000000  0  9G02G05G06G07G09G10G20G23G30
  21741477.320   114252227.14309  21741475.840    89027702.56348
  23782678.740   124978811.19408  23782680.260    97386119.68646
  21566091.280   113330562.16709  21566096.600    88309544.96248
  20467014.760   107554890.83309  20467014.600    83809002.06449
  21559505.300   113295934.74607  21559503.780    88282563.51243
  20175343.780   106022141.61009  20175343.600    82614657.37148
  20092549.960   105587056.74809  20092548.720    82275622.60949
  23703325.700   124561838.07306  23703327.360    97061162.59943
  20952202.480   110104574.41109  20952205.620    85795786.10049
 15 02 28 11 00  0.0000000  0  9G02G05G06G07G09G10G20G23G30
  21737266.380   114230098.41809  21737264.300    89010459.37548
  23764967.520   124885738.59008  23764969.340    97313595.66146
  21579488.640   113400964.15009  21579493.680    88364403.55248
  20467530.360   107557601.33809  20467530.400    83811114.13249
  21569917.200   113350646.47907  21569915.320    88325195.99244
  20173432.140   106012095.50709  20173431.880    82606829.22148
  20094457.780   105597082.89609  20094456.800    82283435.16749
  23717639.460   124637057.88904                                
  20940551.060   110043345.39109  20940554.260    85748075.19749
 15 02 28 11 00 30.0000000  0  9G02G05G06G07G09G10G20G23G30
  21733162.900   114208535.09709  21733160.060    88993656.75748
  23747266.820   124792722.66508  23747269.480    97241115.76247
  21592967.920   113471796.88109  21592972.340    88419597.78348
  20468148.900   107560851.57009  20468148.960    83813646.77049
  21580356.800   113405506.56107  21580355.300    88367943.95244
  20171600.360   106002469.00209  20171600.020    82599328.02648
  20096450.260   105607554.05009  20096449.520    82291594.48049
  23731961.700   124712284.33406                                
  20928991.020   109982596.61109  20928994.260    85700738.50149
 15 02 28 11 01  0.0000000  0  9G02G05G06G07G09G10G20G23G30
  21729162.840   114187515.88009  21729159.440    88977278.15848
  23729573.180   124699742.71608  23729576.000    97168663.92447
  21606524.140   113543035.71309  21606528.340    88475108.47948
  20468866.040   107564619.08309  20468865.960    83816582.49549
  21590819.420   113460492.04406  21590818.840    88410789.68744
  20169844.420   105993241.20909  20169843.980    82592137.53748
  20098523.440   105618448.71909  20098522.820    82300083.81449
  23746290.200   124787567.17907  23746290.960    97237069.97842
  20917518.480   109922307.55709  20917521.720    85653760.05849
 15 02 28 11 01 30.0000000  0  9G02G05G06G07G09G10G20G23G30
  21725272.380   114167071.79009  21725268.700    88961347.66048
  23711892.760   124606830.51808  23711895.300    97096264.92947
  21620162.820   113614708.25909  21620167.260    88530957.12448
  20469687.280   107568933.57209  20469686.940    83819944.43448
  21601311.240   113515632.26407  21601312.600    88453755.94145
  20168170.220   105984443.05309  20168169.680    82585281.81648
  20100683.100   105629797.76209  20100682.580    82308927.18948
  23760626.980   124862900.13306  23760626.200    97295770.78644
  20906139.400   109862509.95909  20906142.800    85607164.56548
 15 02 28 11 02  0.0000000  0  9G02G05G06G07G09G10G20G23G30
  21721496.640   114147230.24209  21721492.900    88945886.70548
  23694230.800   124514015.16708  23694233.280    97023941.36147
  21633888.880   113686839.02809  21633893.620    88587162.81248
  20470617.480   107573821.53109  20470617.000    83823753.23349
  21611838.080   113570953.55907  21611840.280    88496863.31545
  20166583.180   105976102.90209  20166582.500    82578782.98048
  20102934.480   105641629.03309  20102934.020    82318146.33449
  23774976.580   124938310.17306  23774976.880    97354531.70343
  20894859.220   109803232.44209  20894862.760    85560974.32048
 15 02 28 11 02 30.0000000  0  9G02G05G06G07G09G10G20G23G30
  21717828.220   114127951.67409  21717824.480    88930864.41448
  23676579.660   124421257.63508  23676582.360    96951662.84247
  21647693.820   113759385.16609  21647698.780    88643692.18248
  20471648.860   107579241.95009  20471648.440    83827976.91848
  21622391.920   113626414.97807  21622394.020    88540079.92245
  20165075.780   105968181.44809  20165075.120    82572610.40548
  20105270.200   105653902.70609  20105269.600    82327710.19949
  23789332.600   125013756.34407  23789334.020    97413320.77143
  20883670.560   109744436.40409  20883674.020    85515159.24648
 15 02 28 11 03  0.0000000  0  9G02G05G06G07G09G10G20G23G30
  21714266.220   114109231.59509  21714262.640    88916277.31348
  23658938.640   124328554.36108  23658941.240    96879426.59647
  21661576.200   113832338.88209  21661581.160    88700539.14748
  20472780.440   107585188.92109  20472780.080    83832610.90749
  21632971.180   113682010.54107  21632973.060    88583401.11844
  20163647.300   105960674.78209  20163646.820    82566761.04148
  20107689.240   105666614.29309  20107688.580    82337615.30349
  23803694.920   125089233.27307  23803696.220    97472133.69342
  20872572.640   109686118.10909  20872576.000    85469716.41948
 15 02 28 11 03 30.0000000  0  9G02G05G06G07G09G10G20G23G30
  21710809.900   114091068.44009  21710806.920    88902124.19748
  23641307.920   124235905.02208  23641310.540    96807232.39047
  21675535.720   113905695.60309  21675540.400    88757700.11248
  20474011.760   107591659.89609  20474011.520    83837653.20649
  21643574.960   113737737.67505  21643577.180    88626824.71444
  20162297.560   105953582.01109  20162297.280    82561234.18948
  20110191.340   105679762.49709  20110190.640    82347860.62449
  23818062.920   125164738.67306  23818063.440    97530968.80141
  20861565.780   109628277.04309  20861568.980    85424645.47449
 15 02 28 11 04  0.0000000  0  9G02G05G06G07G09G10G20G23G30
  21707463.180   114073481.87309  21707460.840    88888420.35648
  23623691.480   124143330.30708  23623694.460    96735096.34347
  21689575.260   113979471.54809  21689579.680    88815187.74348
  20475346.380   107598673.05309  20475346.160    83843118.00248
  21654207.020   113793614.25204  21654210.240    88670364.88144
  20161030.260   105946922.64909  20161030.200    82556045.06048
  20112780.260   105693366.73009  20112779.420    82358461.28648
  23832439.260   125240291.04104  23832440.000    97589840.57743
  20850653.880   109570933.57009  20850656.920    85379962.27648
 15 02 28 11 04 30.0000000  0  9G02G05G06G07G09G10G20G23G30
  21704226.440   114056473.91109  21704224.660    88875167.37048
  23606089.860   124050833.42708  23606092.900    96663020.94046
  21703694.160   114053665.81709  21703698.520    88873001.36548
  20476784.360   107606229.38709  20476784.040    83849006.05249
  21664867.880   113849641.52504  21664872.040    88714022.46743
  20159845.920   105940699.39709  20159845.960    82551195.74648
  20115456.280   105707429.26309  20115455.440    82369419.07749
  23846824.300   125315891.90705  23846826.880    97648750.23144
  20839837.320   109514090.96309  20839840.240    85335669.36148
 15 02 28 11 05  0.0000000  0  9G02G05G06G07G09G10G20G23G30
  21701095.220   114040020.50009  21701093.980    88862346.52048
  23588498.820   123958392.17708  23588501.320    96590988.92046
  21717887.260   114128251.44209  21717891.820    88931119.93348
  20478320.980   107614304.01709  20478320.580    83855297.97049
  21675556.280   113905815.26604  21675556.740    88757786.80044
  20158740.160   105934889.22409  20158740.280    82546668.32648
  20118214.980   105721926.29509  20118214.220    82380715.42948
  23861214.920   125391516.37406  23861218.500    97707678.25144
  20829111.660   109457726.32009  20829114.500    85291748.88948
 15 02 28 11 05 30.0000000  0  9G02G05G06G07G09G10G20G23G30
  21698072.580   114024137.83109  21698071.740    88849970.39948
  23570921.480   123866023.12808  23570923.140    96519013.12245
  21732157.300   114203240.99509  21732162.100    88989553.25748
  20479958.820   107622910.72409  20479958.420    83862004.48149
  21686268.240   113962108.09105  21686269.200    88801651.33544
  20157716.100   105929508.25709  20157716.220    82542475.34348
  20121059.400   105736873.64709  20121058.680    82392362.68648
  23875613.460   125467179.43306  23875615.720    97766636.22441
  20818479.900   109401856.29809  20818482.840    85248213.82848
 15 02 28 11 06  0.0000000  0  8G02G05G06G07G09G10G20G30
  21695159.460   114008830.07509  21695158.380    88838042.25848
  23553359.000   123773731.95708  23553359.680    96447097.99346
  21746504.780   114278635.86409  21746509.680    89048302.39948
  20481698.660   107632053.15409  20481698.060    83869128.44849
  21697007.820   114018544.37406  21697008.840    88845627.59645
  20156774.720   105924561.52909  20156774.860    82538620.73348
  20123990.400   105752275.93009  20123989.660    82404364.42849
  20807943.080   109346486.36509  20807946.380    85205068.41749
 15 02 28 11 06 30.0000000  0  9G02G05G06G07G09G10G20G23G30
  21692350.900   113994070.58109  21692349.100    88826541.31248
  23535806.560   123681493.38808  23535807.080    96375223.89046
  21760923.860   114354406.23709  21760928.380    89107344.11948
  20483534.980   107641703.22509  20483534.360    83876647.97249
  21707769.880   114075096.28007  21707770.300    88889693.93545
  20155911.040   105920022.81609  20155911.140    82535084.05148
  20127002.900   105768106.57709  20127002.140    82416699.96649
  23904429.760   125618607.46605  23904440.000    97884682.28841
  20797496.620   109291590.79809  20797500.240    85162292.65549
 15 02 28 11 07  0.0000000  0  9G02G05G06G07G09G10G20G23G30
  21689654.540   113979900.30609  21689652.080    88815499.48948
  23518272.240   123589349.51008  23518273.280    96303423.54346
  21775421.260   114430589.83708  21775425.500    89166707.85448
  20485475.420   107651900.70609  20485475.020    83884594.04449
  21718561.180   114131803.54706  21718561.660    88933881.34145
  20155132.800   105915933.46809  20155132.940    82531897.53848
  20130104.660   105784406.77009  20130104.000    82429401.38448
  23918851.280   125694383.18806  23918852.940    97943704.15042
  20787148.580   109237211.37109  20787152.320    85119919.09649
 15 02 28 11 07 30.0000000  0  9G02G05G06G07G09G10G20G23G30
  21687067.340   113966303.42009  21687064.440    88804904.47348
  23500753.160   123497286.05708  23500754.700    96231685.88647
  21789993.260   114507167.77208  21789997.940    89226378.89148
  20487516.780   107662628.46409  20487516.520    83892953.33049
  21729378.520   114188649.28306  21729379.540    88978176.62445
  20154437.120   105912278.25209  20154437.380    82529049.29548
  20133292.720   105801160.28809  20133292.060    82442456.04149
  23933279.460   125770197.70606  23933277.560    98002781.15542
  20776896.120   109183333.28709  20776899.640    85077936.19349
 15 02 28 11 08  0.0000000  0  9G02G05G06G07G09G10G20G23G30
  21684589.960   113953283.27109  21684586.780    88794758.84948
  23483249.920   123405307.82608  23483252.060    96160014.56446
  21804640.620   114584140.46709  21804645.640    89286357.50648
  20489659.500   107673888.90909  20489659.400    83901727.68449
  21740222.460   114245635.90206  21740223.620    89022581.64945
  20153824.920   105909061.50009  20153825.240    82526542.70048
  20136567.840   105818370.96309  20136567.100    82455866.90949
  23947714.880   125846053.74906  23947710.200    98061876.35943
  20766739.960   109129961.00809  20766743.100    85036347.42349
 15 02 28 11 08 30.0000000  0  9G02G05G06G07G09G10G20G23G30
  21682209.800   113940774.33409  21682206.680    88785011.57948
  23465750.680   123313350.53608  23465753.400    96088359.60047
  21819350.360   114661439.21209  21819355.040    89346590.17748
  20491890.960   107685615.09809  20491890.860    83910864.96849
  21751080.240   114302696.76105  21751081.780    89067044.59044
  20153283.820   105906218.02909  20153284.200    82524326.97648
  20139917.480   105835973.18209  20139916.660    82469582.88549
  23962145.240   125921885.06406  23962141.740    98120965.44043
  20756667.660   109077029.88609  20756670.580    84995102.41849
 15 02 28 11 09  0.0000000  0  9G02G05G06G07G09G10G20G23G30
  21679951.940   113928908.18009  21679949.160    88775765.17248
  23448280.960   123221547.70708  23448283.600    96016825.00446
  21834147.000   114739193.03709  21834150.980    89407177.45748
  20494236.000   107697937.90409  20494235.700    83920467.14848
  21761976.840   114359963.03506  21761979.280    89111667.51144
  20152839.040   105903880.66809  20152839.500    82522505.61348
  20143366.920   105854099.58609  20143365.940    82483707.30949
  23976595.720   125997822.98005  23976593.940    98180137.62543
  20746704.560   109024672.97209  20746707.380    84954304.83748
 15 02 28 11 09 30.0000000  0  9G02G05G06G07G09G10G20G23G30
  21677801.000   113917604.29409  21677798.580    88766956.90648
  23430825.580   123129819.35208  23430827.500    95945348.46046
  21849014.200   114817317.69209  21849017.940    89468053.69548
  20496678.840   107710774.86509  20496678.420    83930469.97549
  21772897.220   114417352.40006  21772899.760    89156386.45444
  20152475.280   105901968.56909  20152475.760    82521015.63848
  20146900.620   105872668.69009  20146899.560    82498176.69849
  23991050.180   126073785.86805  23991050.140    98239329.35342
  20736835.340   108972810.07909  20736838.220    84913892.20149
 15 02 28 11 10  0.0000000  0  9G02G05G06G07G09G10G20G23G30
  21675760.540   113906881.23109  21675758.420    88758601.22948
  23413388.220   123038186.51008  23413389.760    95873946.34246
  21863954.560   114895829.19909  21863958.500    89529231.39848
  20499222.820   107724143.94109  20499222.540    83940887.41048
  21783844.460   114474883.12205  21783847.140    89201215.51644
  20152196.200   105900501.36809  20152196.740    82519872.34248
  20150522.240   105891699.96109  20150521.180    82513006.22149
  24005512.560   126149792.13405  24005513.760    98298554.82244
  20727063.800   108921461.30609  20727066.780    84873880.18848
 15 02 28 11 10 30.0000000  0  9G02G05G06G07G09G10G20G23G30
  21673827.140   113896721.61609  21673825.340    88750684.60948
  23395965.680   122946632.97208  23395967.940    95802605.99247
  21878964.360   114974707.07109  21878968.320    89590694.57948
  20501864.440   107738026.36709  20501864.360    83951704.86348
  21794815.360   114532536.77106  21794818.200    89246140.40444
  20151998.680   105899462.50009  20151999.140    82519062.80648
  20154228.420   105911175.82709  20154227.360    82528182.17148
  24019980.340   126225824.12605  24019982.660    98357800.35644
  20717387.000   108870610.09409  20717390.000    84834255.89049
 15 02 28 11 11  0.0000000  0  9G02G05G06G07G09G10G20G23G30
  21672002.080   113887132.16409  21672000.400    88743212.28348
  23378559.540   122855167.01007  23378562.740    95731333.87547
  21894044.720   115053955.10009  21894048.680    89652446.17348
  20504604.860   107752427.65509  20504604.760    83962926.63448
  21805811.140   114590319.35405  21805814.380    89291165.69645
  20151884.040   105898859.29009  20151884.400    82518592.74048
  20158020.600   105931103.62809  20158019.540    82543710.28748
  24034454.660   126301887.88805  24034457.680    98417070.76443
  20707806.420   108820264.26009  20707809.500    84795025.40149
 15 02 28 11 11 30.0000000  0  9G02G05G06G07G09G10G20G23G30
  21670285.420   113878112.51308  21670283.860    88736183.94248
  23361170.500   122763790.09608  23361174.700    95660131.12847
  21909195.020   115133570.13809  21909199.380    89714483.77348
  20507443.880   107767346.24909  20507443.600    83974551.50049
  21816831.480   114648229.75506  21816834.920    89336290.60046
  20151852.360   105898692.14309  20151852.640    82518462.46748
  20161898.700   105951483.13709  20161897.660    82559590.38449
  24048935.460   126377982.73207  24048938.660    98476365.26944
  20698322.200   108770424.62609  20698325.200    84756189.34949
 15 02 28 11 12  0.0000000  0 10G02G05G06G07G09G10G13G20G23G30
  21668676.860   113869660.10709  21668675.280    88729597.60448
  23343798.720   122672500.95708  23343803.460    95588996.78548
  21924414.040   115213546.21309  21924418.940    89776802.70848
  20510380.620   107782778.30709  20510380.260    83986576.46649
  21827875.760   114706264.24707  21827878.920    89381512.21246
  20151903.180   105898958.91809  20151903.480    82518670.31649
  24767881.500   130156094.20807  24767882.500   101420338.17844
  20165862.220   105972311.74009  20165861.180    82575820.42648
  24063422.020   126454105.58407  24063424.880    98535681.57444
  20688933.920   108721089.18209  20688936.680    84717746.18649
 15 02 28 11 12 30.0000000  0 10G02G05G06G07G09G10G13G20G23G30
  21667171.100   113861746.80609  21667169.440    88723431.33748
  23326439.000   122581273.28708  23326443.480    95517910.36347
  21939695.820   115293852.57209  21939700.820    89839378.96948
  20513409.400   107798694.73809  20513409.080    83998978.84249
  21838938.300   114764394.29607  21838941.240    89426808.25046
  20152031.340   105899632.56109  20152031.620    82519195.20248
  24752283.920   130074127.93907  24752284.200   101356468.59543
  20169905.800   105993561.45109  20169904.880    82592378.59348
  24077908.640   126530228.01806  24077910.220    98594997.52643
  20679636.440   108672231.21209  20679639.140    84679675.06448
 15 02 28 11 13  0.0000000  0 10G02G05G06G07G09G10G13G20G23G30
  21665783.940   113854456.49809  21665782.200    88717750.52248
  23309107.480   122490192.87008  23309111.400    95446938.70347
  21955055.580   115374570.19809  21955060.620    89902275.72248
  20516546.020   107815178.29909  20516545.820    84011823.15149
  21850034.860   114822703.03707  21850037.340    89472243.55646
  20152252.940   105900797.53909  20152253.220    82520102.94148
  24736712.420   129992303.93607  24736713.480   101292709.89844
  20174045.600   106015316.84109  20174044.860    82609330.80448
  24092410.660   126606433.63605  24092410.480    98654378.23943
  20670445.980   108623935.63609  20670448.680    84642042.16649
 15 02 28 11 13 30.0000000  0  9G02G05G06G07G09G10G13G20G30
  21664506.320   113847741.67709  21664504.440    88712518.14948
  23291795.280   122399214.12508  23291798.460    95376046.28847
  21970484.120   115455648.72109  21970489.160    89965453.69848
  20519781.280   107832180.18909  20519781.180    84025071.34649
  21861156.020   114881142.30506  21861157.980    89517780.54845
  20152559.140   105902407.12509  20152559.520    82521357.14348
  24721158.620   129910574.78706  24721161.460   101229025.08844
  20178272.580   106037530.54009  20178271.940    82626640.15049
  20661353.860   108576155.98409  20661356.400    84604811.31349
 15 02 28 11 14  0.0000000  0  9G02G05G06G07G09G10G13G20G30
  21663337.620   113841598.96309  21663335.640    88707731.57448
  23274501.980   122308335.28408  23274504.480    95305231.68246
  21985980.380   115537081.77609  21985985.180    90028907.90848
  20523114.420   107849695.98409  20523114.360    84038719.98549
  21872300.740   114939708.05205  21872302.700    89563416.05645
  20152949.520   105904458.84609  20152950.000    82522955.85448
  24705622.480   129828937.33506  24705626.600   101165411.68044
  20182586.220   106060199.27609  20182585.580    82644304.05748
  20652359.440   108528889.86409  20652361.880    84567980.60748
 15 02 28 11 14 30.0000000  0 10G02G05G06G07G09G10G13G20G23G30
  21662277.720   113836028.72809  21662275.760    88703391.07948
  23257227.860   122217558.12708  23257229.620    95234496.35846
  22001543.520   115618866.84909  22001548.100    90092636.40348
  20526545.200   107867724.93609  20526545.280    84052768.46849
  21883466.900   114998384.85505  21883471.480    89609154.77345
  20153424.220   105906953.45809  20153424.640    82524899.68148
  24690104.200   129747392.17807  24690108.880   101101870.18542
  20186986.700   106083323.63709  20186986.060    82662323.00248
  24135952.940   126835284.43206  24135959.980    98832718.34443
  20643463.080   108482138.68809  20643465.460    84531551.15049
 15 02 28 11 15  0.0000000  0 10G02G05G06G07G09G10G13G20G23G30
  21661328.220   113831039.29309  21661326.320    88699503.15248
  23239974.840   122126893.40508  23239976.420    95163848.59847
  22017174.580   115701009.68808  22017179.300    90156643.70248
  20530075.080   107886274.46209  20530075.200    84067222.59549
  21894661.680   115057210.86505  21894665.400    89654993.09445
  20153985.040   105909900.36909  20153985.380    82527195.94748
  24674605.720   129665947.73807  24674610.580   101038407.15744
  20191475.640   106106912.60609  20191474.980    82680703.97848
  24150480.660   126911629.08806  24150483.720    98892199.41441
  20634666.660   108435912.14109  20634668.920    84495530.50149
 15 02 28 11 15 30.0000000  0 10G02G05G06G07G09G10G13G20G23G30
  21660482.640   113826596.29209  21660480.880    88696041.03948
  23222736.960   122036308.60408  23222739.080    95093263.08847
  22032866.720   115783472.95309  22032872.060    90220900.68648
  20533697.220   107905308.59209  20533697.300    84082054.35249
  21905875.120   115116135.79606  21905878.420    89700908.54245
  20154625.520   105913265.92309  20154625.860    82529818.43148
  24659120.380   129584569.96707  24659125.340   100974996.03844
  20196046.520   106130931.98509  20196045.800    82699420.34149
  24165009.660   126987979.09407  24165012.200    98951681.62844
  20625963.580   108390176.69709  20625965.700    84459892.53449
 15 02 28 11 16  0.0000000  0 10G02G05G06G07G09G10G13G20G23G30
  21659743.800   113822713.26509  21659741.780    88693015.25248
  23205517.420   121945818.79608  23205519.760    95022751.65647
  22048622.080   115866267.17709  22048627.840    90285415.55448
  20537413.880   107924839.79409  20537413.960    84097273.41549
  21917109.540   115175172.67806  21917112.980    89746911.20946
  20155348.320   105917064.20709  20155348.660    82532778.10148
  24643650.260   129503272.44807  24643655.480   100911647.42844
  20200701.940   106155395.47109  20200701.120    82718482.75449
  24179542.600   127064347.71507  24179545.580    99011189.46442
  20617356.540   108344946.91209  20617358.600    84424648.56649
 15 02 28 11 16 30.0000000  0 10G02G05G06G07G09G10G13G20G23G30
  21659118.220   113819424.77909  21659115.620    88690452.73948
  23188322.920   121855460.97508  23188325.240    94952343.01147
  22064446.680   115949424.47909  22064452.340    90350213.33148
  20541231.640   107944902.35509  20541231.720    84112906.54049
  21928372.100   115234355.77007  21928375.520    89793027.81846
  20156160.300   105921331.27809  20156160.700    82536103.05248
  24628201.840   129422089.96707  24628207.460   100848388.47144
  20205448.520   106180338.09209  20205447.680    82737918.51649
  24194085.880   127140769.82506  24194089.420    99070739.05643
  20608852.500   108300258.66609  20608854.720    84389826.57249
 15 02 28 11 17  0.0000000  0 10G02G05G06G07G09G10G13G20G23G30
  21658601.660   113816709.73609  21658598.660    88688337.06948
  23171149.800   121765215.99109  23171152.440    94882022.29848
  22080335.800   116032921.09909  22080341.120    90415275.52048
  20545146.340   107965473.55909  20545146.320    84128936.03249
  21939658.380   115293663.73207  21939661.700    89839241.72147
  20157057.600   105926046.74709  20157058.140    82539777.42748
  24612771.180   129341002.23107  24612776.800   100785203.34745
  20210282.340   106205739.48309  20210281.500    82757711.76849
  24208635.040   127217224.32206  24208638.640    99130313.78843
  20600447.740   108256092.11009  20600450.280    84355411.08349
 15 02 28 11 17 30.0000000  0  9G02G05G06G07G09G10G13G20G30
  21658193.620   113814565.82309  21658190.760    88686666.43948
  23153998.080   121675083.14408  23154000.840    94811788.94947
  22096288.160   116116751.46908  22096293.640    90480597.78448
  20549157.080   107986549.75709  20549157.060    84145358.99649
  21950967.700   115353093.30407  21950970.880    89885550.38247
  20158039.960   105931208.71609  20158040.500    82543799.70848
  24597357.840   129260006.55907  24597362.540   100722089.90043
  20215202.840   106231596.82509  20215202.020    82777860.29949
  20592141.960   108212445.53809  20592144.640    84321400.77149
 15 02 28 11 18  0.0000000  0 10G02G05G06G07G09G10G13G20G23G30
  21657898.840   113813017.48009  21657896.480    88685459.89548
  23136872.740   121585089.15108  23136875.420    94741663.82347
  22112307.940   116200937.45808  22112314.060    90546197.15948
  20553268.420   108008154.36609  20553268.340    84162193.73449
  21962304.380   115412668.66407  21962307.720    89931972.67047
  20159112.260   105936842.87109  20159112.660    82548189.92148
  24581966.940   129179127.93407  24581969.720   100659067.74244
  20220214.800   106257935.39609  20220214.180    82798383.82048
  24237752.140   127370236.11206  24237749.560    99249520.14142
  20583939.980   108169344.64409  20583942.620    84287815.67148
 15 02 28 11 18 30.0000000  0 10G02G05G06G07G09G10G13G20G23G30
  21657703.860   113811992.72209  21657701.880    88684661.34748
  23119760.520   121495163.88009  23119763.100    94671592.24547
  22128381.420   116285404.43909  22128387.820    90612015.49448
  20557466.400   108030214.45109  20557466.320    84179383.37549
  21973654.940   115472317.59108  21973658.500    89978452.26246
  20160260.920   105942878.06309  20160261.220    82552892.63648
  24566585.000   129098294.72608  24566587.040   100596080.90144
  20225304.640   106284683.62908  20225304.360    82819226.56148
  24252314.040   127446756.13706  24252314.660    99309145.96742
  20575828.380   108126718.62109  20575830.920    84254600.59249
 15 02 28 11 19  0.0000000  0 10G02G05G06G07G09G10G13G20G23G30
  21657623.740   113811570.31109  21657621.860    88684332.13548
  23102676.840   121405388.56008  23102679.420    94601637.52847
  22144523.360   116370228.51209  22144529.340    90678112.04748
  20561765.920   108052807.87909  20561765.840    84196988.62249
  21985034.400   115532118.45808  21985038.060    90025050.26647
  20161500.960   105949393.78209  20161501.280    82557969.79548
  24551226.920   129017586.21808  24551229.060   100533191.25244
  20230487.420   106311920.51508  20230487.460    82840450.06348
  24266887.460   127523337.24307  24266889.860    99368819.38842
  20567822.540   108084647.32209  20567824.980    84221817.77049
 15 02 28 11 19 30.0000000  0 10G02G05G06G07G09G10G13G20G23G30
  21657650.940   113811711.32209  21657648.920    88684441.98348
  23085614.760   121315726.80508  23085616.580    94531771.30847
  22160725.640   116455368.23009  22160730.720    90744454.56748
  20566159.260   108075894.71909  20566159.260    84214978.34449
  21996435.460   115592032.27808  21996439.100    90071736.28847
  20162825.240   105956352.57109  20162825.520    82563392.19548
  24535885.080   128936963.81308  24535887.600   100470368.69444
  20235756.000   106339607.74108  20235756.160    82862024.48048
  24281464.900   127599940.46507  24281467.420    99428509.96542
  20559915.100   108043093.20009  20559917.560    84189437.93049
 15 02 28 11 20  0.0000000  0 10G02G05G06G07G09G10G13G20G23G30
  21657786.640   113812422.43609  21657784.480    88684996.05448
  23068575.780   121226186.80309  23068577.060    94461999.93447
  22176988.700   116540827.46909  22176992.780    90811046.05348
  20570647.560   108099480.83709  20570647.600    84233357.10149
  22007859.400   115652065.27308  22007862.880    90118515.15147
  20164235.120   105963761.59309  20164235.320    82569165.41848
  24520560.820   128856434.60907  24520563.540   100407618.72044
  20241111.720   106367752.28208  20241111.900    82883955.23148
  24296047.640   127676572.74507  24296049.500    99488223.24742
  20552107.500   108002063.85609  20552109.900    84157467.01549
 15 02 28 11 20 30.0000000  0 10G02G05G06G07G09G10G13G20G23G30
  21658030.920   113813704.69109  21658028.620    88685995.17148
  23051560.680   121136771.95609  23051561.820    94392326.12247
  22193311.920   116626604.58809  22193315.700    90877885.24448
  20575230.760   108123565.75209  20575230.780    84252124.54949
  22019306.240   115712218.19508  22019309.640    90165387.47247
  20165731.000   105971622.59509  20165731.180    82575290.84248
  24505254.800   128776000.18807  24505257.600   100344942.64144
  20246554.680   106396355.53708  20246554.940    82906243.43748
  24310636.220   127753234.93408  24310638.200    99547959.80744
  20544400.280   107961561.40309  20544402.520    84125906.68349
 15 02 28 11 21  0.0000000  0 10G02G05G06G07G09G10G13G20G23G30
  21658384.240   113815561.40609  21658381.820    88687441.93148
  23034570.380   121047488.00009  23034571.380    94322754.27647
  22209695.480   116712700.46709  22209699.340    90944972.82348
  20579909.320   108148152.06909  20579909.340    84271282.68749
  22030776.680   115772494.39309  22030779.980    90212355.85547
  20167313.760   105979940.14709  20167313.960    82581772.02848
  24489967.700   128695664.25607  24489970.500   100282343.27944
  20252085.740   106425421.53509  20252085.980    82928892.21148
  24325231.240   127829930.75808  24325233.840    99607722.58244
  20536794.280   107921590.55509  20536796.460    84094760.56949
 15 02 28 11 21 30.0000000  0 10G02G05G06G07G09G10G13G20G23G30
  21658846.120   113817990.43309  21658843.800    88689334.64448
  23017605.000   120958335.06509  23017605.820    94253284.53247
  22226138.600   116799110.15009  22226142.540    91012304.92148
  20584682.600   108173236.18709  20584682.640    84290828.73349
  22042270.080   115832891.31909  22042273.300    90259418.32048
  20168983.160   105988713.07709  20168983.360    82588608.04048
  24474698.780   128615425.04607  24474701.340   100219819.27944
  20257704.520   106454948.04509  20257704.680    82951899.82648
  24339832.240   127906658.18808  24339835.580    99667510.02844
  20529289.280   107882150.05609  20529291.380    84064027.71549
 15 02 28 11 22  0.0000000  0 10G02G05G06G07G09G10G13G20G23G30
  21659415.840   113820987.61908  21659413.920    88691670.08348
  23000664.320   120869311.26408  23000665.360    94183915.38647
  22242640.020   116885826.94509  22242644.160    91079876.33348
  20589549.780   108198813.38509  20589549.880    84310759.01349
  22053785.480   115893404.70309  22053788.760    90306571.53248
  20170738.580   105997938.20709  20170738.820    82595796.42748
  24459447.320   128535279.01008  24459450.180   100157367.94744
  20263410.380   106484931.65109  20263410.380    82975263.63048
  24354438.500   127983413.41508  24354441.960    99727319.11244
  20521884.580   107843236.89909  20521886.640    84033705.80149
 15 02 28 11 22 30.0000000  0 10G02G05G06G07G09G10G13G20G23G30
  21660094.500   113824556.83909  21660092.900    88694451.27148
  22983749.240   120780422.72808  22983750.960    94114651.63048
  22259200.220   116972852.20909  22259204.740    91147688.11248
  20594511.240   108224886.58809  20594511.520    84331075.76349
  22065323.660   115954038.36409  22065327.140    90353818.46948
  20172580.920   106007620.51809  20172581.300    82603341.05948
  24444214.140   128455230.59507  24444217.940   100094992.65944
  20269204.100   106515376.82009  20269203.920    82998987.08549
  24369050.700   128060200.17508  24369053.900    99787152.73944
  20514581.000   107804856.20109  20514583.160    84003798.76849
 15 02 28 11 23  0.0000000  0 10G02G05G06G07G09G10G13G20G23G30
  21660882.120   113828695.76509  21660880.300    88697676.34748
  22966859.820   120691669.75808  22966862.140    94045493.50148
  22275818.400   117060181.15009  22275823.420    91215736.50348
  20599566.520   108251452.30009  20599566.840    84351776.31049
  22076884.280   116014789.95309  22076887.880    90401157.29648
  20174510.000   106017758.73009  20174510.560    82611240.93348
  24428999.000   128375278.10707  24429003.900   100032692.10745
  20275085.180   106546281.57309  20275084.880    83023068.64749
  24383668.240   128137016.84307  24383671.560    99847009.67544
  20507378.440   107767006.82109  20507380.840    83974305.74649
 15 02 28 11 23 30.0000000  0 10G02G05G06G07G09G10G13G20G23G30
  21661778.660   113833405.77509  21661776.600    88701346.43948
  22949996.940   120603056.06908  22949999.840    93976443.88148
  22292494.200   117147812.54208  22292499.580    91284020.58248
  20604715.720   108278511.04809  20604715.920    84372861.03549
  22088467.700   116075660.75209  22088471.240    90448589.01248
  20176526.420   106028355.32709  20176527.060    82619498.00448
  24413802.640   128295423.51307  24413807.500    99970467.84345
  20281054.040   106577647.74209  20281053.740    83047509.76349
  24398291.320   128213864.64007  24398295.680    99906890.91745
  20500277.400   107729691.22209  20500280.020    83945228.66849
 15 02 28 11 24  0.0000000  0 10G02G05G06G07G09G10G13G20G23G30
  21662782.780   113838681.02909  21662780.780    88705456.99648
