     2.11           OBSERVATION DATA    G                   RINEX VERSION / TYPE
SPIDER V4,0,0,3554                      2015 03 24 01:32    PGM / RUN BY / DATE 
CFKZ                                                        MARKER NAME         
CFKZ                                                        MARKER NUMBER       
                                                            OBSERVER / AGENCY   
496632              LEICA GRX1200+GNSS  8.10/4.007          REC # / TYPE / VERS 
10301036            LEIAR25         NONE                    ANT # / TYPE        
  5212138.8290   540257.5452  3624418.8863                  APPROX POSITION XYZ 
        0.0720        0.0000        0.0000                  ANTENNA: DELTA H/E/N
     1     1                                                WAVELENGTH FACT L1/2
     4    C1    L1    P2    L2                              # / TYPES OF OBSERV 
    30.000                                                  INTERVAL            
  2015    02    28    00    00    0.0000000     GPS         TIME OF FIRST OBS   
  2015    02    28    23    59   30.0000000     GPS         TIME OF LAST OBS    
    16                                                      LEAP SECONDS        
    30                                                      # OF SATELLITES     
   G 1   820   820   820   820                              PRN / # OF OBS      
   G 2   941   940   940   940                              PRN / # OF OBS      
   G 3   855   855   855   855                              PRN / # OF OBS      
   G 4   844   844   844   844                              PRN / # OF OBS      
   G 5   637   637   637   637                              PRN / # OF OBS      
   G 6   814   814   813   813                              PRN / # OF OBS      
   G 7   669   669   669   669                              PRN / # OF OBS      
   G 9   809   809   809   809                              PRN / # OF OBS      
   G10   763   762   762   762                              PRN / # OF OBS      
   G11   783   783   783   783                              PRN / # OF OBS      
   G12   835   835   835   835                              PRN / # OF OBS      
   G13   769   768   768   768                              PRN / # OF OBS      
   G14   938   933   931   930                              PRN / # OF OBS      
   G15   657   656   656   656                              PRN / # OF OBS      
   G16   673   673   673   673                              PRN / # OF OBS      
   G17   940   939   939   939                              PRN / # OF OBS      
   G18   914   913   913   913                              PRN / # OF OBS      
   G19   762   762   762   762                              PRN / # OF OBS      
   G20   782   782   782   782                              PRN / # OF OBS      
   G21   713   712   712   712                              PRN / # OF OBS      
   G22   662   660   660   660                              PRN / # OF OBS      
   G23   752   752   752   752                              PRN / # OF OBS      
   G24   822   820   814   814                              PRN / # OF OBS      
   G25   854   854   854   854                              PRN / # OF OBS      
   G27   816   816   815   815                              PRN / # OF OBS      
   G28   868   868   867   867                              PRN / # OF OBS      
   G29   740   740   739   739                              PRN / # OF OBS      
   G30   716   716   716   716                              PRN / # OF OBS      
   G31   846   846   845   845                              PRN / # OF OBS      
   G32   767   766   766   766                              PRN / # OF OBS      
BIT 2 OF LLI FLAGS DATA COLLECTED UNDER A/S CONDITION       COMMENT             
SNR is mapped to RINEX snr flag value [2-9]                 COMMENT             
Lx:     = 25dBHz -> 1; 26-27dBHz -> 2; 28-31dBHz -> 3       COMMENT             
       32-35dBHz -> 4; 36-38dBHz -> 5; 39-41dBHz -> 6       COMMENT             
       42-44dBHz -> 7; 45-48dBHz -> 8; >=49dBHz -> 9        COMMENT             
                                                            END OF HEADER       
 15 02 28 00 00  0.0000000  0  7G16G18G21G22G27G29G31
  21777078.540   114439337.57909  21777075.140    89173501.51048
  22454555.360   117999585.71009  22454552.360    91947754.95947
  21291760.500   111888961.30908  21291756.680    87186191.32448
  23808118.900   125112561.41008  23808117.000    97490308.57346
  22994667.100   120837820.86608  22994666.880    94159351.16547
  23890080.660   125543206.70908  23890078.720    97825860.62246
  22944627.240   120574810.17909  22944624.880    93954379.87547
 15 02 28 00 00 30.0000000  0  7G16G18G21G22G27G29G31
  21763336.220   114367120.96309  21763332.760    89117228.84148
  22443270.400   117940282.69009  22443267.380    91901544.84647
  21299197.700   111928043.87408  21299193.820    87216645.27448
  23790200.300   125018399.61408  23790198.300    97416936.03446
  22982361.740   120773155.73408  22982361.240    94108962.78147
  23903774.920   125615171.23008  23903772.960    97881936.84246
  22961638.780   120664206.35709  22961636.560    94024039.16547
 15 02 28 00 01  0.0000000  0  7G16G18G21G22G27G29G31
  21749644.000   114295167.76209  21749640.500    89061161.41148
  22432043.900   117881286.98509  22432040.880    91855574.19547
  21306694.660   111967440.79708  21306690.740    87247344.17448
  23772285.340   124924256.70808  23772283.160    97343578.22046
  22970072.860   120708578.18708  22970072.700    94058642.66947
  23917474.180   125687162.00207  23917472.240    97938033.51145
  22978684.180   120753780.57809  22978682.060    94093837.18147
 15 02 28 00 01 30.0000000  0  7G16G18G21G22G27G29G31
  21736002.460   114223481.14609  21735998.980    89005301.72448
  22420876.500   117822601.71209  22420873.460    91809845.43247
  21314251.320   112007151.42109  21314247.400    87278287.51848
  23754374.640   124830136.33708  23754372.440    97270237.96646
  22957800.900   120644089.37208  22957800.920    94008391.66847
  23931178.780   125759180.05408  23931177.160    97994151.45046
  22995763.120   120843530.95609  22995760.980    94163772.45947
 15 02 28 00 02  0.0000000  0  7G16G18G21G22G27G29G31
  21722412.360   114152064.98009  21722408.900    88949652.79748
  22409768.880   117764230.80209  22409765.860    91764361.64547
  21321867.660   112047175.54409  21321863.680    87309475.14648
  23736468.960   124736042.56708  23736466.620    97196918.39346
  22945546.100   120579690.58308  22945546.060    93958210.82347
  23944888.720   125831226.49508  23944887.340    98050291.52246
  23012875.260   120933455.66709  23012873.080    94233843.58647
 15 02 28 00 02 30.0000000  0  7G16G18G21G22G27G29G31
  21708872.980   114080915.37309  21708869.560    88894211.55548
  22398720.380   117706170.60509  22398717.400    91719119.96047
  21329542.120   112087504.71809  21329538.140    87340900.47848
  23718567.680   124641972.20108  23718565.300    97123617.10846
  22933307.380   120515375.85408  22933307.500    93908095.47047
  23958603.380   125903296.14108  23958601.760    98106449.67146
  23030019.000   121023546.01909  23030016.720    94304043.79347
 15 02 28 00 03  0.0000000  0  7G16G18G21G22G27G29G31
  21695386.060   114010041.15609  21695382.640    88838984.91348
  22387732.620   117648429.55509  22387729.640    91674126.96947
  21337275.580   112128144.00609  21337271.540    87372567.46148
  23700672.500   124547934.12208  23700670.140    97050340.93646
  22921085.900   120451151.47808  22921086.060    93858050.52447
  23972323.560   125975394.83008  23972321.860    98162630.41345
  23047194.920   121113805.19409  23047192.520    94374375.54647
 15 02 28 00 03 30.0000000  0  7G16G18G21G22G27G29G31
  21681951.580   113939442.44009  21681948.120    88783972.93448
  22376805.680   117591007.84809  22376802.640    91629382.80647
  21345067.320   112169089.82109  21345063.280    87404473.29048
  23682783.620   124453928.91008  23682781.200    96977090.39446
  22908881.280   120387015.27808  22908881.180    93808074.28747
  23986048.920   126047520.45808  23986046.840    98218832.21146
  23064401.980   121204228.00409  23064399.440    94444834.80347
 15 02 28 00 04  0.0000000  0  7G16G18G21G22G27G29G31
  21668570.040   113869122.07509  21668566.600    88729177.87248
  22365940.140   117533909.02609  22365937.100    91584890.23847
  21352917.080   112210340.49409  21352912.960    87436616.67048
  23664901.700   124359959.96108  23664899.020    96903868.07046
  22896693.640   120322968.22208  22896693.500    93758167.51647
  23999779.260   126119673.63208  23999777.380    98275055.45546
  23081639.780   121294812.59709  23081637.200    94515420.11047
 15 02 28 00 04 30.0000000  0  7G16G18G21G22G27G29G31
  21655242.560   113799085.75509  21655239.080    88674604.12048
  22355136.960   117477138.17209  22355133.940    91540653.23947
  21360825.280   112251898.34708  21360821.140    87468999.41848
  23647027.780   124266033.07508  23647025.100    96830678.54546
  22884523.620   120259013.47908  22884523.220    93708332.67447
  24013515.200   126191857.96308  24013513.600    98331302.98046
  23098908.280   121385558.84109  23098905.760    94586131.39347
 15 02 28 00 05  0.0000000  0  7G16G18G21G22G27G29G31
  21641969.020   113729332.85009  21641965.500    88620251.22548
  22344396.040   117420694.79209  22344393.060    91496671.40147
  21368791.060   112293758.73509  21368786.860    87501617.90948
  23629161.820   124172148.01508  23629159.060    96757521.58446
  22872370.520   120195148.18908  22872370.040    93658567.55447
  24027256.480   126264070.56308  24027254.940    98387572.52846
  23116206.500   121476461.24309  23116204.040    94656964.35247
 15 02 28 00 05 30.0000000  0  7G16G18G21G22G27G29G31
  21628749.120   113659861.87309  21628745.580    88566118.00448
  22333717.140   117364577.44509  22333714.240    91452943.63747
  21376813.280   112335915.76509  21376809.120    87534467.53848
  23611303.660   124078304.05408  23611300.940    96684396.64946
  22860233.740   120131368.79608  22860233.220    93608869.36347
  24041002.500   126336308.09407  24041001.660    98443861.48346
  23133533.280   121567513.36909  23133530.840    94727913.97947
 15 02 28 00 06  0.0000000  0  7G16G18G21G22G27G29G31
  21615583.960   113590678.47409  21615580.380    88512208.87548
  22323101.420   117308792.00109  22323098.560    91409474.48747
  21384892.280   112378371.40409  21384888.160    87567549.85848
  23593454.560   123984507.19108  23593451.720    96611308.40846
  22848113.920   120067678.65208  22848113.420    93559240.68747
  24054754.120   126408573.83408  24054752.860    98500172.38946
  23150888.560   121658715.41909  23150886.160    94798980.41947
 15 02 28 00 06 30.0000000  0  7G16G18G21G22G27G29G31
  21602473.300   113521781.68509  21602469.800    88458523.07648
  22312548.720   117253337.36509  22312545.800    91366263.11047
  21393027.140   112421120.54209  21393023.060    87600860.87748
  23575614.260   123890756.45708  23575611.280    96538256.11346
  22836010.340   120004074.32508  22836009.780    93509678.90247
  24068510.780   126480864.25608  24068509.420    98556502.58646
  23168271.120   121750060.91009  23168268.780    94870158.62947
 15 02 28 00 07  0.0000000  0  7G16G18G21G22G27G29G31
  21589418.720   113453179.50909  21589415.280    88405066.83948
  22302060.500   117198221.42009  22302057.540    91323315.63647
  21401218.620   112464166.95209  21401214.520    87634403.53748
  23557784.360   123797060.36508  23557781.260    96465246.38046
  22823924.160   119940561.55108  22823923.700    93460188.47247
  24082273.180   126553184.95308  24082271.980    98612856.30846
  23185681.480   121841552.55209  23185679.220    94941450.70347
 15 02 28 00 07 30.0000000  0  7G16G18G21G22G27G29G31
  21576420.540   113384873.49409  21576417.100    88351841.38148
  22291636.940   117143445.39309  22291633.980    91280633.05347
  21409466.240   112507508.42208  21409462.220    87668176.10648
  23539965.200   123703420.58808  23539961.860    96392280.53746
  22811855.260   119877139.60008  22811854.860    93410768.78947
  24096041.080   126625535.33808  24096039.320    98669233.23845
  23203118.920   121933186.31309  23203116.680    95012853.54247
 15 02 28 00 08  0.0000000  0  7G16G18G21G22G27G29G31
  21563478.520   113316862.74409  21563475.060    88298845.99948
  22281278.020   117089008.93209  22281275.000    91238215.05547
  21417769.120   112551140.14108  21417765.160    87702174.85248
  23522156.720   123609837.36708  23522153.300    96319358.71646
  22799803.080   119813805.69909  22799802.620    93361417.73447
  24109814.100   126697912.81308  24109812.500    98725631.28146
  23220582.340   122024956.81809  23220580.120    95084362.92047
 15 02 28 00 08 30.0000000  0  7G16G18G21G22G27G29G31
  21550593.760   113249152.84909  21550590.300    88246085.03448
  22270984.720   117034917.31009  22270981.680    91196065.75747
  21426127.440   112595063.40109  21426123.400    87736400.75748
  23504360.100   123516316.45408  23504356.700    96246485.46047
  22787768.280   119750563.13209  22787767.860    93312137.83247
  24123592.700   126770320.25708  24123591.420    98782052.59446
  23238071.760   122116864.15709  23238069.580    95155978.91147
 15 02 28 00 09  0.0000000  0  7G16G18G21G22G27G29G31
  21537765.000   113181737.17409  21537761.520    88193553.33948
  22260755.760   116981163.82209  22260752.740    91154179.94147
  21434539.320   112639267.90009  21434535.280    87770845.82348
  23486574.100   123422851.28908  23486570.680    96173655.67446
  22775749.160   119687402.74208  22775748.920    93262921.98547
  24137375.600   126842748.93908  24137373.780    98838490.51645
  23255585.020   122208896.46809  23255582.840    95227692.30247
 15 02 28 00 09 30.0000000  0  7G16G18G21G22G27G29G31
  21524995.440   113114632.60209  21524991.980    88141264.07448
  22250594.320   116927765.18409  22250591.260    91112570.63747
  21443007.020   112683765.65609  21443002.960    87805519.41048
  23468802.020   123329459.27108  23468798.640    96100882.84846
  22763748.520   119624339.31109  22763748.360    93213781.67747
  24151165.260   126915213.60308  24151163.700    98894956.44946
  23273124.260   122301065.37809  23273122.040    95299512.13647
 15 02 28 00 10  0.0000000  0  7G16G18G21G22G27G29G31
  21512283.360   113047829.88709  21512279.820    88089210.00848
  22240498.640   116874712.12009  22240495.500    91071230.60847
  21451528.140   112728544.51509  21451524.100    87840412.02748
  23451042.260   123236132.03308  23451038.960    96028160.47146
  22751764.200   119561361.47109  22751764.060    93164708.06847
  24164959.700   126987703.07308  24164958.280    98951441.72245
  23290686.680   122393356.26109  23290684.380    95371426.99347
 15 02 28 00 10 30.0000000  0  7G16G18G21G22G27G29G31
  21499630.300   112981337.37109  21499626.680    88037397.66248
  22230470.320   116822012.81409  22230467.040    91030166.22547
  21460103.460   112773608.13409  21460099.460    87875526.53548
  23433296.400   123142877.79208  23433293.100    95955495.02046
  22739797.320   119498475.21009  22739797.080    93115705.81848
  24178759.780   127060223.06208  24178758.180    99007950.77545
  23308272.900   122485772.24708  23308270.600    95443439.33947
 15 02 28 00 11  0.0000000  0  7G16G18G21G22G27G29G31
  21487035.760   112915152.48009  21487032.060    87985825.02048
  22220508.840   116769664.86209  22220505.480    90989375.64247
  21468731.740   112818950.07509  21468727.740    87910857.92048
  23415564.040   123049694.62008  23415560.840    95882884.89347
  22727846.980   119435675.91009  22727846.800    93066771.34147
  24192565.040   127132768.94208  24192563.180    99064479.99345
  23325881.520   122578305.76509  23325879.240    95515543.28547
 15 02 28 00 11 30.0000000  0  7G16G18G21G22G27G29G31
  21474500.940   112849281.43009  21474497.180    87934496.92748
  22210615.300   116717673.96609  22210611.900    90948863.27947
  21477413.260   112864572.11209  21477409.360    87946407.55348
  23397846.480   122956588.96308  23397843.320    95810335.19247
  22715913.920   119372967.29009  22715913.840    93017907.50748
  24206375.840   127205344.53708  24206373.660    99121032.38746
  23343512.660   122670957.50308  23343510.360    95587739.34047
 15 02 28 00 12  0.0000000  0  7G16G18G21G22G27G29G31
  21462025.720   112783723.71409  21462021.980    87883412.99948
  22200789.520   116666039.48509  22200786.260    90908628.64147
  21486147.380   112910470.44609  21486143.500    87982172.49548
  23380143.680   122863560.77508  23380140.420    95737845.83647
  22703997.660   119310346.85009  22703997.560    92969112.38947
  24220191.660   127277947.56808  24220189.000    99177606.17345
  23361165.260   122763721.91409  23361162.920    95660023.19246
 15 02 28 00 12 30.0000000  0  7G16G18G21G22G27G29G31
  21449611.420   112718485.99109  21449607.700    87832578.41848
  22191032.900   116614768.45109  22191029.780    90868677.20447
  21494934.540   112956647.58508  21494930.780    88018154.67948
  23362457.120   122770617.44108  23362453.780    95665422.60847
  22692099.040   119247819.03009  22692098.860    92920389.45047
  24234013.420   127350582.18008  24234011.200    99234204.53346
  23378839.520   122856600.23908  23378837.140    95732395.80247
 15 02 28 00 13  0.0000000  0  7G16G18G21G22G27G29G31
  21437257.680   112653566.52809  21437254.020    87781991.82948
  22181344.960   116563858.31109  22181341.920    90829006.96947
  21503773.500   113003097.06208  21503769.780    88054349.07748
  23344786.360   122677757.25408  23344782.960    95593064.17547
  22680217.260   119185379.70309  22680217.000    92871735.44048
  24247840.380   127423244.15708  24247838.340    99290824.22946
  23396534.000   122949585.31208  23396531.720    95804851.53547
 15 02 28 00 13 30.0000000  0  7G16G18G21G22G27G29G31
  21424965.160   112588968.66109  21424961.500    87731655.84148
  22171726.320   116513312.71309  22171723.440    90789620.81747
  21512664.300   113049819.24908  21512660.740    88090755.97348
  23327132.240   122584984.35308  23327128.680    95520773.72447
  22668352.600   119123030.33309  22668352.280    92823151.56147
  24261672.860   127495935.27608  24261671.100    99347466.64346
  23414248.520   123042675.80608  23414246.300    95877389.46647
 15 02 28 00 14  0.0000000  0  7G16G18G21G22G27G29G31
  21412734.700   112524697.19909  21412731.100    87681574.18548
  22162177.940   116463136.28109  22162175.140    90750522.32147
  21521606.960   113096813.64908  21521603.480    88127374.98948
  23309495.640   122492303.83608  23309492.080    95448555.26846
  22656505.500   119060773.51309  22656505.160    92774639.77847
  24275511.380   127568658.11408  24275510.160    99404133.72446
  23431983.020   123135871.28708  23431980.900    95950009.18846
 15 02 28 00 14 30.0000000  0  7G16G18G21G22G27G29G31
  21400565.900   112460750.03309  21400562.360    87631745.23048
  22152699.420   116413326.43009  22152696.580    90711709.48347
  21530600.460   113144074.86809  21530596.980    88164201.91548
  23291876.280   122399713.72908  23291872.640    95376407.24347
  22644675.100   118998604.55209  22644674.740    92726196.45247
  24289355.360   127641407.72708  24289354.160    99460821.71145
  23449736.020   123229163.69008  23449734.040    96022704.42046
 15 02 28 00 15  0.0000000  0  7G16G18G21G22G27G29G31
  21388459.040   112397128.16509  21388455.480    87582169.75748
  22143290.840   116363884.02409  22143287.940    90673182.93947
  21539644.160   113191599.76109  21539640.620    88201234.29148
  23274274.440   122307215.88208  23274270.880    95304331.14047
  22632861.260   118936522.47409  22632860.800    92677820.83047
  24303204.220   127714183.39408  24303203.180    99517529.96046
  23467506.780   123322549.17008  23467504.840    96095472.16747
 15 02 28 00 15 30.0000000  0  7G16G18G21G22G27G29G31
  21376415.820   112333840.69309  21376412.260    87532854.85848
  22133953.880   116314817.87609  22133950.920    90634949.61447
  21548738.960   113239393.28908  21548735.460    88238475.99548
  23256691.880   122214819.53408  23256688.320    95232334.10047
  22621065.300   118874534.40409  22621064.840    92629518.46648
  24317059.380   127786991.85508  24317058.400    99574263.81846
  23485296.200   123416031.95509  23485294.140    96168315.72547
 15 02 28 00 16  0.0000000  0  7G16G18G21G22G27G29G31
  21364436.100   112270886.81809  21364432.580    87483799.89748
  22124688.360   116266126.90309  22124685.280    90597008.60147
  21557883.940   113287450.31808  21557880.360    88275923.04148
  23239128.580   122122524.50508  23239125.040    95160416.03746
  22609286.580   118812637.09709  22609286.180    92581286.83947
  24330920.140   127859830.08608  24330918.980    99631020.86045
  23503102.940   123509605.63909  23503100.800    96241230.16047
 15 02 28 00 16 30.0000000  0  7G16G18G21G22G27G29G31
  21352519.820   112208266.30509  21352516.300    87435004.69848
  22115494.120   116217810.92209  22115490.980    90559359.81547
  21567078.400   113335767.50008  21567074.800    88313572.78548
  23221584.600   122030331.28208  23221581.120    95088577.26246
  22597524.760   118750828.30509  22597524.320    92533124.17747
  24344786.240   127932696.06108  24344784.780    99687799.55446
  23520925.960   123603264.99409  23520923.760    96314211.36247
 15 02 28 00 17  0.0000000  0  7G16G18G21G22G27G29G31
  21340667.460   112145981.71409  21340663.900    87386471.25948
  22106371.580   116169871.76909  22106368.460    90522004.65147
  21576321.820   113384342.25508  21576318.300    88351423.24348
  23204060.380   121938242.20408  23204056.920    95016819.64347
  22585779.860   118689108.27609  22585779.400    92485030.66848
  24358657.800   128005589.91908  24358656.140    99744599.97246
  23538764.640   123697006.97009  23538762.440    96387256.97047
 15 02 28 00 17 30.0000000  0  7G16G18G21G22G27G29G31
  21328880.920   112084043.19909  21328877.400    87338207.48548
  22097322.760   116122320.02309  22097319.720    90484951.35047
  21585615.680   113433181.99209  21585612.180    88389480.17348
  23186558.160   121846268.44708  23186554.720    94945151.89347
  22574053.420   118627485.24409  22574052.980    92437012.76847
  24372535.960   128078519.58808  24372533.880    99801428.21545
  23556619.980   123790836.98209  23556617.880    96460371.11747
 15 02 28 00 18  0.0000000  0  7G16G18G21G22G27G29G31
  21317158.820   112022443.49209  21317155.320    87290207.72748
  22088346.160   116075147.64509  22088343.180    90448193.67447
  21594957.700   113482274.43608  21594954.140    88427734.02548
  23169076.600   121754402.99308  23169073.220    94873568.53446
  22562343.560   118565949.76209  22562343.140    92389063.06648
  24386419.180   128151475.78208  24386416.840    99858277.19346
  23574489.680   123884742.53208  23574487.680    96533544.11947
 15 02 28 00 18 30.0000000  0  7G16G18G21G22G27G29G31
  21305502.780   111961191.12509  21305499.320    87242478.62248
  22079443.320   116028363.18909  22079440.300    90411738.28247
  21604348.740   113531624.64309  21604345.160    88466188.73848
  23151617.480   121662655.13008  23151614.120    94802076.76647
  22550651.560   118504508.26009  22550651.160    92341186.59448
  24400308.340   128224465.09007  24400306.580    99915151.92346
  23592374.340   123978726.76809  23592372.560    96606778.44047
 15 02 28 00 19  0.0000000  0  7G16G18G21G22G27G29G31
  21293912.900   111900286.62509  21293909.540    87195020.58048
  22070614.380   115981966.78609  22070611.320    90375585.25547
  21613788.200   113581229.05309  21613784.520    88504841.50948
  23134180.980   121571025.72208  23134177.500    94730677.32347
  22538977.180   118443159.37109  22538976.760    92293382.27548
  24414203.380   128297485.79608  24414202.040    99972051.15346
  23610273.140   124072785.45208  23610271.580    96680070.73347
 15 02 28 00 19 30.0000000  0  7G16G18G21G22G27G29G31
  21282389.520   111839731.38209  21282386.180    87147834.68748
  22061859.500   115935959.26809  22061856.340    90339735.26247
  21623275.500   113631084.39709  21623271.700    88543689.83348
  23116767.360   121479516.59708  23116763.860    94659371.58147
  22527320.180   118381901.81609  22527319.760    92245649.16348
  24428104.280   128370537.04308  24428103.480   100028974.16546
  23628185.240   124166914.37808  23628183.940    96753417.79847
 15 02 28 00 20  0.0000000  0  7G16G18G21G22G27G29G31
  21270932.680   111779525.56809  21270929.340    87100921.07648
  22053178.540   115890340.39709  22053175.340    90304188.11047
  21632810.000   113681187.46609  21632805.940    88582731.18348
  23099376.680   121388128.03008  23099373.160    94588159.80147
  22515680.300   118320733.86809  22515679.820    92197985.84948
  24442010.720   128443616.68508  24442010.300   100085919.28346
  23646109.760   124261108.47708  23646108.620    96826815.63147
 15 02 28 00 20 30.0000000  0  7G16G18G21G22G27G29G31
  21259542.860   111719671.71809  21259539.480    87054281.71448
  22044572.000   115845112.94709  22044568.900    90268945.94647
  21642391.180   113731536.14509  21642387.040    88621963.91048
  23082009.500   121296863.26408  23082006.060    94517044.49547
  22504057.580   118259655.90009  22504057.040    92150392.63348
  24455923.060   128516724.95408  24455922.460   100142886.76846
  23664046.200   124355365.15508  23664045.260    96900262.23247
 15 02 28 00 21  0.0000000  0  7G16G18G21G22G27G29G31
  21248220.360   111660171.53409  21248216.940    87007917.93948
  22036040.180   115800278.47209  22036037.200    90234010.01747
  21652018.760   113782129.00708  21652014.560    88661386.92348
  23064666.360   121205724.89008  23064663.020    94446027.65847
  22492451.980   118198667.89409  22492451.340    92102869.50848
  24469840.980   128589862.34407  24469839.720   100199876.93345
  23681994.040   124449681.14908  23681993.140    96973755.06346
 15 02 28 00 21 30.0000000  0  7G16G18G21G22G27G29G31
  21236966.620   111601032.73609  21236963.260    86961835.76748
  22027584.460   115755843.67609  22027581.560    90199385.49947
  21661693.340   113832969.26009  21661689.160    88701002.69048
  23047348.700   121114720.67908  23047345.360    94375115.34347
  22480864.460   118137775.03208  22480863.780    92055420.56348
  24483765.140   128663033.75207  24483763.540   100256893.53746
  23699953.720   124544058.94308  23699952.780    97047296.03346
 15 02 28 00 22  0.0000000  0  7G16G18G21G22G27G29G31
  21225781.320   111542253.68009  21225778.020    86916033.92248
  22019204.460   115711806.47909  22019201.500    90165070.83547
  21671413.840   113884051.13709  21671409.720    88740806.75048
  23030056.440   121023849.60008  23030053.060    94304306.77547
  22469294.320   118076973.74809  22469293.620    92008042.99148
  24497695.060   128736235.24008  24497693.460   100313933.66646
  23717923.880   124638491.63408  23717922.840    97120879.76146
 15 02 28 00 22 30.0000000  0  7G16G18G21G22G27G29G31
  21214665.480   111483839.49709  21214662.180    86870516.38648
  22010901.100   115668171.81209  22010898.060    90131069.81447
  21681180.440   113935375.29709  21681176.420    88780799.59548
  23012790.580   120933116.64109  23012786.960    94233605.82847
  22457742.160   118016266.97409  22457741.500    91960739.01947
  24511631.080   128809469.92908  24511629.260   100370999.63345
  23735904.560   124732979.36308  23735903.340    97194506.41646
 15 02 28 00 23  0.0000000  0  7G16G18G21G22G27G29G31
  21203618.860   111425788.99309  21203615.520    86825282.22648
  22002673.980   115624938.08409  22002670.960    90097381.21547
  21690992.400   113986937.97109  21690988.440    88820978.29548
  22995551.200   120842522.20209  22995547.220    94163012.78547
  22446207.420   117955651.81909  22446206.820    91913506.43347
  24525572.880   128882734.76908  24525570.740   100428089.10046
  23753894.520   124827515.78209  23753893.160    97268170.92746
 15 02 28 00 23 30.0000000  0  7G16G18G21G22G27G29G31
  21192642.040   111368105.12309  21192638.640    86780333.76248
  21994523.700   115582108.40109  21994520.800    90064007.45547
  21700849.460   114038737.51209  21700845.580    88861341.58048
  22978338.740   120752069.09209  22978334.440    94092529.89647
  22434690.260   117895128.94209  22434689.680    91866345.80348
  24539520.620   128956030.79208  24539518.740   100485202.89545
  23771893.340   124922098.70908  23771891.960    97341871.71246
 15 02 28 00 24  0.0000000  0  7G16G18G21G22G27G29G31
  21181736.120   111310793.90909  21181732.720    86735675.66448
  21986451.360   115539688.27609  21986448.540    90030952.82447
  21710752.020   114090775.74309  21710748.120    88901890.84548
  22961154.520   120661764.51009  22961149.980    94022162.72247
  22423191.500   117834702.48509  22423190.840    91819260.27447
  24553474.820   129029361.62008  24553473.480   100542343.72645
  23789901.060   125016728.83408  23789899.740    97415609.14847
 15 02 28 00 24 30.0000000  0  6G16G18G21G22G27G31
  21170906.140   111253881.72709  21170902.740    86691328.51448
  21978461.800   115497703.12009  21978458.980    89998237.13547
  21720704.140   114143074.41509  21720700.240    88942643.06548
  22944003.460   120571634.80809  22943998.800    93951931.84147
  22411715.700   117774396.66009  22411714.940    91772268.70948
  23807921.860   125111427.95408  23807920.620    97489400.46046
 15 02 28 00 25  0.0000000  0  6G16G18G21G22G27G31
  21160141.380   111197312.36109  21160138.000    86647248.49948
  21970544.280   115456096.45609  21970541.500    89965816.37647
  21730694.620   114195574.70009  21730690.720    88983552.37048
  22926874.960   120481624.31409  22926870.240    93881793.86547
  22400251.700   117714153.14609  22400250.980    91725325.74248
  23825944.020   125206134.11408  23825942.780    97563197.18946
 15 02 28 00 25 30.0000000  0  6G16G18G21G22G27G31
  21149448.400   111141120.44009  21149445.080    86603462.58848
  21962705.320   115414902.74009  21962702.560    89933717.38647
  21740729.280   114248306.82909  21740725.380    89024642.34048
  22909775.820   120391768.23709  22909771.060    93811776.20447
  22388805.780   117654004.68009  22388805.100    91678456.85548
  23843973.120   125300877.26408  23843972.000    97637022.69146
 15 02 28 00 26  0.0000000  0  6G16G18G21G22G27G31
  21138826.940   111085304.30209  21138823.620    86559969.49748
  21954944.560   115374119.60209  21954941.760    89901938.33547
  21750806.880   114301264.68509  21750802.980    89065908.19848
  22892705.840   120302065.32809  22892701.040    93741877.91147
  22377377.260   117593947.61209  22377376.600    91631659.12848
  23862007.940   125395650.68108  23862007.120    97710871.78746
 15 02 28 00 26 30.0000000  0  6G16G18G21G22G27G31
  21128278.580   111029872.34609  21128275.240    86516775.77448
  21947263.340   115333754.68409  21947260.600    89870485.18947
  21760928.300   114354453.02309  21760924.400    89107353.65448
  22875666.700   120212524.51109  22875661.920    93672105.89947
  22365967.320   117533988.26209  22365966.800    91584937.61748
  23880049.160   125490457.45608  23880048.480    97784746.86746
 15 02 28 00 27  0.0000000  0  7G16G18G19G21G22G27G31
  21117803.020   110974822.72809  21117799.620    86473879.97248
  21939661.400   115293806.60909  21939658.700    89839356.81247
  24537103.120   128943359.64307  24537102.320   100475324.05345
  21771092.380   114407865.46109  21771088.420    89148973.74248
  22858658.240   120123144.93109  22858653.500    93602459.52447
  22354575.300   117474123.07909  22354574.940    91538289.42548
  23898095.560   125585291.10908  23898094.920    97858642.87546
 15 02 28 00 27 30.0000000  0  7G16G18G19G21G22G27G31
  21107406.880   110920190.67009  21107403.460    86431309.53348
  21932145.240   115254309.16109  21932142.460    89808579.60247
  24522290.080   128865521.77208  24522290.180   100414671.39446
  21781305.240   114461534.44109  21781301.300    89190793.71648
  22841687.120   120033961.69009  22841682.520    93532966.15347
  22343207.420   117414384.75609  22343207.200    91491740.11748
  23916152.780   125680181.05808  23916152.200    97932582.70046
 15 02 28 00 28  0.0000000  0  7G16G18G19G21G22G27G31
  21097070.440   110865872.27409  21097067.040    86388983.51048
  21924695.220   115215158.56309  21924692.280    89778072.65947
  24507475.260   128787665.23908  24507473.400   100354003.94144
  21791546.260   114515351.75609  21791542.400    89232729.28848
  22824733.780   119944871.97009  22824729.420    93463545.65447
  22331843.660   117354667.99309  22331843.460    91445207.58948
  23934200.060   125775018.11008  23934199.440    98006480.91846
 15 02 28 00 28 30.0000000  0  7G16G18G19G21G22G27G31
  21086814.540   110811977.15009  21086811.160    86346987.32648
  21917331.980   115176463.94809  21917328.920    89747921.02347
  24492676.320   128709896.54207  24492674.120   100293405.04946
  21801835.540   114569422.91809  21801831.840    89274862.66848
  22807819.180   119855985.64609  22807815.000    93394283.65747
  22320504.440   117295080.25809  22320504.240    91398775.59448
  23952257.600   125869908.62708  23952257.040    98080421.25346
 15 02 28 00 29  0.0000000  0  7G16G18G19G21G22G27G31
  21076633.660   110758476.08109  21076630.240    86305298.18348
  21910049.800   115138195.38409  21910046.780    89718101.37248
  24477888.380   128632184.19208  24477886.340   100232850.07346
  21812166.740   114623714.21409  21812163.180    89317167.56348
  22790937.860   119767274.02609  22790933.800    93325157.77747
  22309183.820   117235590.26909  22309183.560    91352419.78748
  23970318.620   125964817.54008  23970318.000    98154376.17246
 15 02 28 00 29 30.0000000  0  7G16G18G19G21G22G27G31
  21066528.700   110705373.95509  21066525.220    86263919.91648
  21902849.540   115100357.32409  21902846.460    89688617.19347
  24463111.460   128554531.31107  24463108.820   100172341.36544
  21822540.120   114678227.10909  21822536.640    89359645.14948
  22774091.000   119678743.06409  22774086.840    93256172.66047
  22297882.440   117176201.26608  22297882.120    91306142.64848
  23988382.860   126059744.35308  23988382.220    98228344.78845
 15 02 28 00 30  0.0000000  0  7G16G18G19G21G22G27G31
  21056498.240   110652663.22509  21056494.680    86222846.61748
  21895729.620   115062941.71509  21895726.440    89659462.18047
  24448344.220   128476928.49408  24448341.180   100111871.66246
  21832953.640   114732950.37809  21832950.160    89402286.66748
  22757277.080   119590385.24709  22757272.800    93187322.47947
  22286598.440   117116903.64309  22286598.120    91259936.74548
  24006448.160   126154676.83408  24006447.480    98302318.05446
 15 02 28 00 30 30.0000000  0  7G16G18G19G21G22G27G31
  21046543.900   110600352.46809  21046540.220    86182084.99548
  21888691.500   115025956.37109  21888688.320    89630642.44847
  24433587.720   128399381.79607  24433585.160   100051445.77046
  21843408.020   114787888.59509  21843404.600    89445095.66048
  22740497.860   119502209.71109  22740493.360    93118614.31047
  22275333.100   117057703.92609  22275332.800    91213807.09348
  24024515.100   126249617.91008  24024514.400    98376297.84446
 15 02 28 00 31  0.0000000  0  7G16G18G19G21G22G27G31
  21036667.000   110548448.61709  21036663.240    86141640.44048
  21881736.460   114989407.70709  21881733.300    89602162.97347
  24418842.600   128321895.86408  24418839.680    99991067.18444
  21853903.880   114843045.05609  21853900.540    89488074.71348
  22723754.800   119414224.21609  22723750.040    93050054.23347
  22264087.360   116998607.21909  22264087.120    91167757.75648
  24042584.180   126344570.25808  24042583.440    98450286.42946
 15 02 28 00 31 30.0000000  0  7G16G18G19G21G22G27G31
  21026864.460   110496935.83009  21026860.660    86101500.61148
  21874861.320   114953278.89709  21874858.180    89574010.67647
  24404106.020   128244453.03708  24404102.720    99930722.11646
  21864437.520   114898399.89109  21864434.180    89531208.34548
  22707044.980   119326413.38009  22707040.000    92981630.25247
  22252857.900   116939595.80609  22252857.660    91121774.84548
  24060651.440   126439512.94408  24060650.860    98524267.58546
 15 02 28 00 32  0.0000000  0  7G16G18G19G21G22G27G31
  21017140.740   110445837.32309  21017136.940    86061683.60448
  21868070.480   114917593.01809  21868067.300    89546203.51247
  24389381.160   128167074.31608  24389378.460    99870427.20546
  21875012.520   114953971.97009  21875009.160    89574511.27648
  22690372.980   119238801.08009  22690367.920    92913360.97647
  22241648.780   116880691.09709  22241648.440    91075875.09448
  24078720.280   126534464.10708  24078719.660    98598255.36147
 15 02 28 00 32 30.0000000  0  7G16G18G19G21G22G27G31
  21007493.060   110395138.77509  21007489.320    86022178.24748
  21861361.220   114882335.94209  21861358.040    89518730.47447
  24374665.880   128089743.52908  24374662.600    99810169.38345
  21885625.580   115009743.72509  21885622.160    89617969.78148
  22673736.080   119151373.55609  22673731.060    92845235.66647
  22230456.920   116821877.09709  22230456.480    91030046.02248
  24096786.880   126629404.14208  24096786.460    98672234.27846
 15 02 28 00 33  0.0000000  0  7G16G18G19G21G22G27G31
  20997924.200   110344854.58309  20997920.560    85982995.76448
  21854736.060   114847520.66209  21854732.940    89491601.69947
  24359961.520   128012472.57608  24359958.200    99749958.37846
  21896278.580   115065724.89209  21896274.960    89661591.47348
  22657137.060   119064145.45909  22657132.060    92777265.76547
  22219284.600   116763165.93609  22219284.080    90984297.07948
  24114853.160   126724342.95608  24114852.980    98746212.42446
 15 02 28 00 33 30.0000000  0  7G16G18G19G21G22G27G31
  20988433.160   110294979.49609  20988429.640    85944132.06248
  21848193.920   114813141.46609  21848190.820    89464812.73547
  24345267.400   127935254.23108  24345264.400    99689788.31245
  21906969.720   115121906.86809  21906965.920    89705369.64248
  22640575.120   118977112.41309  22640570.180    92709447.85947
  22208130.520   116704550.65809  22208129.960    90938622.85148
  24132917.200   126819270.33908  24132917.380    98820181.70046
 15 02 28 00 34  0.0000000  0  7G16G18G19G21G22G27G31
  20979020.780   110245517.84909  20979017.380    85905590.51548
  21841735.520   114779202.37609  21841732.340    89438366.69747
  24330583.560   127858091.09007  24330579.920    99629661.21045
  21917699.220   115178290.24809  21917695.360    89749304.72948
  22624051.360   118890279.75409  22624046.420    92641786.07547
  22196995.240   116646034.14309  22196994.660    90893025.58348
  24150979.080   126914185.96808  24150979.420    98894141.79646
 15 02 28 00 34 30.0000000  0  7G16G18G19G21G22G27G31
  20969687.400   110196471.24409  20969684.120    85867372.39448
  21835360.980   114745704.00509  21835357.740    89412264.09147
  24315910.280   127780982.69108  24315906.700    99569576.80646
  21928466.620   115234873.03109  21928462.720    89793395.21348
  22607566.100   118803649.51509  22607561.280    92574282.04847
  22185878.640   116587616.13409  22185878.060    90847505.06548
  24169038.060   127009086.27008  24169038.740    98968089.96146
 15 02 28 00 35  0.0000000  0  7G16G18G19G21G22G27G31
  20960434.000   110147844.85909  20960430.860    85829481.70848
  21829071.320   114712651.18809  21829067.960    89386508.66847
  24301247.740   127703931.88908  24301244.300    99509537.33645
  21939272.120   115291656.26409  21939268.180    89837641.89448
  22591120.400   118717227.31109  22591115.760    92506940.12047
  22174781.320   116529299.92309  22174780.820    90802063.88248
  24187094.220   127103971.44008  24187094.900    99042026.32646
 15 02 28 00 35 30.0000000  0  7G16G18G19G21G22G27G31
  20951259.300   110099631.83209  20951256.260    85791913.12448
  21822864.900   114680035.92309  21822861.580    89361094.20247
  24286594.960   127626930.24908  24286591.160    99449536.02046
  21950113.620   115348629.25109  21950109.740    89882036.42148
  22574713.080   118631006.83009  22574708.540    92439755.38747
  22163701.660   116471076.67609  22163701.280    90756695.14148
  24205145.280   127198829.71208  24205145.680    99115941.72346
 15 02 28 00 36  0.0000000  0  7G16G18G19G21G22G27G31
  20942166.120   110051846.77209  20942163.120    85754678.01048
  21816744.400   114647872.45209  21816741.120    89336031.76247
  24271953.460   127549989.46708  24271949.860    99389582.27945
  21960993.340   115405803.12009  21960989.620    89926587.48247
  22558347.040   118545003.23209  22558342.580    92372739.64047
  22152642.220   116412959.33909  22152641.900    90711408.92548
  24223193.160   127293671.15508  24223193.380    99189843.98045
 15 02 28 00 36 30.0000000  0  7G16G18G19G21G22G27G31
  20933153.660   110004485.83109  20933150.680    85717773.37648
  21810709.100   114616156.75509  21810705.820    89311318.25647
  24257322.600   127473104.13008  24257319.480    99329671.69545
  21971909.720   115463169.76209  21971906.080    89971288.76547
  22542021.720   118459213.51209  22542017.220    92305890.53547
  22141601.940   116354942.33109  22141601.640    90666200.88148
  24241236.180   127388486.71108  24241236.140    99263726.14245
 15 02 28 00 37  0.0000000  0  7G16G18G19G21G22G27G31
  20924221.620   109957547.47809  20924218.640    85681198.04548
  21804758.460   114584886.18309  21804755.260    89286951.58347
  24242701.600   127396270.80908  24242698.200    99269801.60346
  21982861.780   115520724.13209  21982858.280    90016136.30848
  22525736.960   118373636.93009  22525732.480    92239207.51847
  22130580.140   116297022.51609  22130579.880    90621068.56148
  24259273.160   127483270.19608  24259272.960    99337583.22145
 15 02 28 00 37 30.0000000  0  7G16G18G19G21G22G27G31
  20915371.480   109911039.46809  20915368.480    85644958.04348
  21798893.800   114554067.86009  21798890.780    89262937.33347
  24228091.680   127319495.28408  24228088.620    99209976.59946
  21993850.460   115578470.65808  21993847.200    90061133.60748
  22509494.280   118288281.68809  22509489.900    92172696.97847
  22119577.960   116239205.76709  22119577.760    90576016.57548
  24277304.500   127578024.51308  24277304.240    99411417.49845
 15 02 28 00 38  0.0000000  0  7G16G18G19G21G22G27G31
  20906602.820   109864959.20009  20906599.700    85609051.34348
  21793114.600   114523698.83609  21793111.780    89239273.16947
  24213491.860   127242772.85208  24213488.680    99150192.93045
  22004874.520   115636402.69808  22004871.380    90106275.45448
  22493293.360   118203146.09409  22493289.060    92106357.59947
  22108594.620   116181487.96209  22108594.400    90531041.67748
  24295328.860   127672742.45008  24295328.500    99485223.45146
 15 02 28 00 38 30.0000000  0  7G16G18G19G21G22G27G31
  20897916.940   109819314.10409  20897913.700    85573483.73548
  21787422.160   114493785.34009  21787419.420    89215963.95647
  24198903.200   127166108.97308  24198899.880    99090454.88646
  22015934.580   115694524.04108  22015931.540    90151564.80348
  22477135.740   118118237.94209  22477131.500    92040195.44647
  22097631.180   116123874.78509  22097630.980    90486148.30148
  24313346.760   127767426.64408  24313346.460    99559003.13346
 15 02 28 00 39  0.0000000  0  7G16G18G19G21G22G27G31
  20889313.180   109774100.75309  20889309.860    85538252.55548
  21781815.760   114464323.42309  21781812.920    89193006.62847
  24184324.720   127089498.33908  24184321.360    99030758.35946
  22027029.260   115752827.14408  22027026.220    90196995.79248
  22461020.960   118033554.42209  22461016.660    91974208.31447
  22086686.660   116066361.00809  22086686.420    90441332.37448
  24331356.580   127862068.66008  24331356.420    99632749.94645
 15 02 28 00 39 30.0000000  0  7G16G18G19G21G22G27G31
  20880791.700   109729319.99509  20880788.340    85503358.46248
  21776295.360   114435313.41709  21776292.460    89170401.44347
  24169756.120   127012939.82108  24169752.300    98971102.39646
  22038158.060   115811309.22009  22038154.820    90242566.24047
  22444949.300   117949097.23709  22444944.960    91908397.56447
  22075760.980   116008946.01209  22075760.680    90396593.43248
  24349357.800   127956664.77708  24349357.780    99706461.04046
 15 02 28 00 40  0.0000000  0  7G16G18G19G21G22G27G31
  20872354.500   109684981.94709  20872351.040    85468809.32948
  21770862.760   114406764.56509  21770859.800    89148155.60047
  24155199.120   126936441.49008  24155195.480    98911493.37846
  22049322.260   115869977.11909  22049318.960    90288281.48247
  22428922.760   117864876.90409  22428918.360    91842771.36947
  22064855.720   115951638.09709  22064855.340    90351937.91948
  24367351.260   128051220.23908  24367351.320    99780140.48145
 15 02 28 00 40 30.0000000  0  7G16G18G19G21G22G27G31
  20864001.080   109641084.17109  20863997.560    85434603.27748
  21765517.280   114378673.53409  21765514.260    89126266.49947
  24140652.580   126859999.23708  24140648.660    98851928.01745
  22060520.700   115928824.73209  22060517.360    90334136.76547
  22412941.040   117780891.96809  22412936.580    91777328.58847
  22053970.100   115894433.34409  22053969.600    90307362.79548
  24385335.560   128145728.18908  24385335.980    99853782.93246
 15 02 28 00 41  0.0000000  0  7G16G18G19G21G22G27G31
  20855731.540   109597627.03009  20855727.920    85400740.56948
  21760258.860   114351040.22109  21760255.780    89104734.06647
  24126116.480   126783611.52108  24126112.820    98792405.18946
  22071752.700   115987848.54709  22071749.280    90380129.35047
  22397004.340   117697143.57609  22396999.720    91712070.14647
  22043103.860   115837330.57109  22043103.300    90262867.14048
  24403309.960   128240184.03008  24403310.640    99927384.75146
 15 02 28 00 41 30.0000000  0  7G16G18G19G21G22G27G31
  20847547.020   109554616.48809  20847543.260    85367225.85548
  21755088.500   114323869.85609  21755085.380    89083562.35647
  24111591.280   126707282.16808  24111587.880    98732927.86146
  22083018.560   116047050.70709  22083015.120    90426260.88347
  22381113.860   117613637.99409  22381109.060    91647000.87747
  22032257.780   115780333.96209  22032257.220    90218454.20648
  24421274.700   128334589.20308  24421275.500   100000947.17046
 15 02 28 00 42  0.0000000  0  7G16G18G19G21G22G27G31
  20839447.120   109512050.63209  20839443.220    85334057.65648
  21750005.660   114297159.85109  21750002.660    89062749.38147
  24097076.580   126631007.25408  24097073.200    98673492.89046
  22094317.340   116106426.01009  22094313.900    90472527.35347
  22365269.440   117530374.35009  22365264.500    91582120.14747
  22021431.200   115723440.07109  22021430.620    90174121.31448
  24439228.620   128428937.21108  24439229.460   100074465.07846
 15 02 28 00 42 30.0000000  0  7G16G18G19G21G22G27G31
  20831432.780   109469935.05409  20831428.900    85301240.32848
  21745011.240   114270914.53009  21745008.400    89042298.49048
  24082572.760   126554790.81508  24082569.620    98614103.56046
  22105649.320   116165975.88608  22105645.840    90518929.84548
  22349472.140   117447358.59209  22349467.200    91517432.57847
  22010625.000   115666652.95209  22010624.380    90129871.63748
  24457171.700   128523228.75408  24457172.720   100147938.93645
 15 02 28 00 43  0.0000000  0  7G16G18G19G21G22G27G31
  20823503.240   109428265.32409  20823499.440    85268770.40348
  21740104.400   114245129.26409  21740101.660    89022206.07947
  24068079.140   126478626.72808  24068075.980    98554754.97746
  22117013.060   116225692.97908  22117009.720    90565462.63347
  22333721.300   117364587.31709  22333716.380    91452935.50747
  21999837.980   115609966.63509  21999837.360    90085700.47948
  24475102.360   128617454.64808  24475103.420   100221361.73545
 15 02 28 00 43 30.0000000  0  7G16G18G19G21G22G27G31
  20815659.800   109387048.27309  20815656.120    85236653.21648
  21735286.360   114219810.33209  21735283.720    89002477.05748
  24053596.500   126402519.77308  24053593.120    98495450.90846
  22128409.200   116285580.50308  22128405.920    90612128.21247
  22318018.440   117282068.55909  22318013.560    91388635.20348
  21989071.180   115553386.68209  21989070.540    90041612.22348
  24493020.980   128711617.74008  24493022.240   100294735.54846
 15 02 28 00 44  0.0000000  0  7G16G18G19G21G22G27G31
  20807902.780   109346285.42009  20807899.240    85204889.95848
  21730557.100   114194958.13709  21730554.440    88983111.72547
  24039124.640   126326469.55608  24039121.100    98436191.08546
  22139837.320   116345636.01808  22139834.060    90658924.71747
  22302363.960   117199804.01909  22302359.020    91324532.99347
  21978324.500   115496912.94409  21978323.940    89997606.71748
  24510926.980   128805714.29708  24510928.280   100368057.51446
 15 02 28 00 44 30.0000000  0  7G16G18G19G21G22G27G31
  20800232.180   109305976.63709  20800228.740    85173480.51848
  21725916.360   114170571.30209  21725913.780    88964109.00247
  24024663.320   126250473.98408  24024659.540    98376973.82346
  22151296.800   116405856.10009  22151293.480    90705849.44647
  22286757.940   117117793.94109  22286752.920    91260629.06647
  21967597.660   115440543.68909  21967597.180    89953682.64348
  24528819.400   128899739.39408  24528820.740   100441323.72145
 15 02 28 00 45  0.0000000  0  7G16G18G19G21G22G27G31
  20792649.280   109266128.81209  20792645.960    85142430.27148
  21721365.420   114146656.17109  21721362.920    88945473.86247
  24010213.220   126174538.24908  24010209.060    98317803.19246
  22162788.100   116466243.54708  22162784.760    90752904.60347
  22271201.860   117036046.21709  22271196.740    91196929.57647
  21956891.700   115384284.27809  21956891.280    89909844.16548
  24546698.780   128993695.79408  24546699.940   100514536.45346
 15 02 28 00 45 30.0000000  0  7G16G18G19G21G22G27G31
  20785153.540   109226738.88909  20785150.280    85111736.82348
  21716903.560   114123209.02609  21716901.020    88927203.36547
  23995773.600   126098657.56008  23995769.680    98258675.45246
  22174310.180   116526792.51208  22174306.840    90800085.59747
  22255695.240   116954558.70809  22255690.080    91133432.85047
  21946205.900   115328130.40909  21946205.480    89866087.90748
  24564563.620   129087576.09908  24564564.600   100587689.86245
 15 02 28 00 46  0.0000000  0  7G16G18G19G21G22G27G31
  20777745.520   109187810.21709  20777742.400    85081402.80548
  21712531.320   114100232.63409  21712528.660    88909299.68748
  23981344.800   126022833.45408  23981340.760    98199591.82046
  22185862.860   116587502.56008  22185859.640    90847392.12747
  22240238.820   116873335.38709  22240233.780    91070141.98848
  21935540.600   115272083.92709  21935540.140    89822415.33448
  24582413.700   129181378.91308  24582414.560   100660782.92545
 15 02 28 00 46 30.0000000  0  7G16G18G19G21G22G27G31
  20770426.600   109149349.54309  20770423.560    85051433.44648
  21708249.740   114077733.01509  21708247.140    88891767.52348
  23966927.680   125947071.47908  23966923.780    98140556.59046
  22197446.820   116648377.14608  22197443.720    90894826.85147
  22224834.200   116792384.25609  22224829.360    91007063.20947
  21924896.820   115216150.27009  21924896.280    89778830.67648
  24600249.600   129275106.74508  24600250.300   100733817.40145
 15 02 28 00 47  0.0000000  0  7G16G18G19G21G22G27G31
  20763195.160   109111348.32109  20763192.140    85021822.10948
  21704057.100   114055700.32309  21704054.420    88874599.19348
  23952520.520   125871361.02708  23952516.660    98081561.49846
  22209059.800   116709404.03808  22209056.660    90942380.27647
  22209479.840   116711696.85709  22209475.120    90944189.95048
  21914272.560   115160319.35909  21914271.900    89735326.07548
  24618068.600   129368745.66808  24618069.400   100806782.51444
 15 02 28 00 47 30.0000000  0  7G16G18G19G21G22G27G31
  20756053.220   109073817.10209  20756050.160    84992577.00748
  21699955.280   114034144.61909  21699952.520    88857802.55548
  23938124.740   125795711.04008  23938120.920    98022613.53246
  22220703.220   116770590.46808  22220700.060    90990057.99547
  22194177.920   116631284.74609  22194173.220    90881531.17948
  21903669.600   115104600.41809  21903668.840    89691908.71648
  24635872.000   129462302.46808  24635872.740   100879683.60344
 15 02 28 00 48  0.0000000  0  7G16G18G19G21G22G27G31
  20749000.540   109036754.62209  20748997.400    84963697.16348
  21695943.840   114013063.81809  21695941.020    88841375.97648
  23923739.800   125720118.16408  23923735.940    97963710.08246
  22232376.140   116831931.88708  22232373.000    91037856.50247
  22178928.320   116551147.60209  22178923.580    90819086.68348
  21893087.500   115048990.77309  21893086.660    89648576.55648
  24653658.820   129555771.51308  24653659.620   100952516.35445
 15 02 28 00 48 30.0000000  0  7G16G18G19G21G22G27G31
  20742037.340   109000162.03109  20742034.020    84935183.46248
  21692022.760   113992458.11009  21692019.920    88825319.58448
  23909365.700   125644581.86608  23909361.860    97904850.68747
  22244078.080   116893425.59508  22244074.860    91085773.66847
  22163731.340   116471287.34809  22163726.580    90756857.95148
  21882526.180   114993490.28609  21882525.260    89605329.41548
  24671428.300   129649149.22708  24671429.140   101025277.91344
 15 02 28 00 49  0.0000000  0  7G16G18G19G21G22G27G31
  20735164.900   108964046.49009  20735161.400    84907041.48648
  21688193.220   113972333.68109  21688190.400    88809638.22348
  23895003.160   125569107.59408  23894999.280    97846039.63547
  22255809.680   116955075.30708  22255806.420    91133812.39047
  22148588.560   116391711.62309  22148583.760    90694850.90748
  21871986.680   114938104.70909  21871985.760    89562171.84148
  24689180.900   129742438.21108  24689181.620   101097970.28145
 15 02 28 00 49 30.0000000  0  6G16G18G19G21G22G27
  20728381.560   108928399.33809  20728377.920    84879264.48848
  21684453.380   113952681.00709  21684450.640    88794324.46948
  23880650.640   125493685.21508  23880646.880    97787269.02846
  22267568.760   117016869.12409  22267565.460    91181963.39247
  22133498.420   116312412.69409  22133493.720    90633059.55448
  21861467.140   114882824.13409  21861466.260    89519096.08548
 15 02 28 00 50  0.0000000  0  6G16G18G19G21G22G27
  20721689.300   108893230.85109  20721685.620    84851860.47948
  21680805.100   113933509.61809  21680802.460    88779385.74348
  23866309.720   125418323.34508  23866305.660    97728545.52446
  22279356.620   117078813.84809  22279353.120    91230232.00247
  22118463.060   116233401.49609  22118458.420    90571492.40748
  21850969.220   114827657.52609  21850968.420    89476109.12648
 15 02 28 00 50 30.0000000  0  6G16G18G19G21G22G27
  20715088.420   108858542.75909  20715084.720    84824830.80548
  21677248.720   113914820.89609  21677246.040    88764823.10547
  23851980.220   125343022.32308  23851976.620    97669869.51746
  22291172.920   117140908.26108  22291169.300    91278617.25547
  22103483.100   116154681.17209  22103478.420    90510151.92648
  21840493.180   114772605.82709  21840492.480    89433211.70848
 15 02 28 00 51  0.0000000  0  6G16G18G19G21G22G27
  20708578.500   108824332.48609  20708574.760    84798173.44148
  21673783.420   113896610.40909  21673780.660    88750633.13548
  23837661.560   125267777.50608  23837657.780    97611237.17946
  22303016.500   117203146.15609  22303012.900    91327114.29747
  22088558.100   116076249.43709  22088553.320    90449036.30148
  21830038.220   114717664.63909  21830037.580    89390400.40148
 15 02 28 00 51 30.0000000  0  6G16G18G19G21G22G27
  20702160.360   108790604.79809  20702156.640    84771892.11848
  21670410.000   113878882.42109  21670407.080    88736819.11048
  23823354.200   125192591.92708  23823350.720    97552651.11546
  22314887.760   117265529.24709  22314884.100    91375724.48847
  22073689.100   115998112.08609  22073684.200    90388150.07848
  21819605.060   114662837.67709  21819604.400    89347678.10348
 15 02 28 00 52  0.0000000  0  6G16G18G19G21G22G27
  20695834.840   108757363.99809  20695831.120    84745990.19348
  21667129.000   113861640.65509  21667126.000    88723383.97048
  23809058.520   125117468.75208  23809054.860    97494113.60547
  22326786.680   117328058.27808  22326782.900    91424448.39847
  22058876.940   115920274.13509  22058872.060    90327497.16248
  21809194.200   114608127.91009  21809193.480    89305047.12848
 15 02 28 00 52 30.0000000  0  6G16G18G19G21G22G27
  20689600.040   108724599.95809  20689596.300    84720459.77348
  21663938.300   113844873.64109  21663935.260    88710318.77748
  23794772.960   125042396.74408  23794769.480    97435615.96346
  22338710.840   117390720.12709  22338706.980    91473275.79947
  22044119.980   115842726.56509  22044115.260    90267070.50848
  21798803.500   114553524.31609  21798802.740    89262498.88548
 15 02 28 00 53  0.0000000  0  6G16G18G19G21G22G27
  20683459.520   108692331.44909  20683455.800    84695315.47448
  21660841.380   113828599.63209  21660838.240    88697637.73348
  23780500.040   124967392.58708  23780496.240    97377171.18846
  22350663.180   117453530.09309  22350659.340    91522218.62347
  22029422.040   115765488.93409  22029417.400    90206885.35948
  21788436.320   114499044.40409  21788435.540    89220047.01448
 15 02 28 00 53 30.0000000  0  6G16G18G19G21G22G27
  20677410.980   108660546.47209  20677407.360    84670547.95448
  21657835.780   113812805.56809  21657832.660    88685330.69247
  23766237.420   124892442.65708  23766233.520    97318768.71546
  22362640.820   117516472.70109  22362636.880    91571264.80947
  22014780.980   115688549.88909  22014776.380    90146932.88748
  21778090.140   114444674.82209  21778089.360    89177681.11048
 15 02 28 00 54  0.0000000  0  6G16G18G19G21G22G27
  20671455.500   108629250.76509  20671452.020    84646161.68848
  21654922.580   113797496.61209  21654919.460    88673401.64248
  23751986.100   124817551.53608  23751982.220    97260412.02846
  22374644.180   117579550.74909  22374640.260    91620416.52747
  22000198.020   115611916.11909  22000193.440    90087218.29048
  21767765.900   114390420.54009  21767765.060    89135405.06348
 15 02 28 00 54 30.0000000  0  6G16G18G19G21G22G27
  20665594.320   108598450.64009  20665590.980    84622161.58248
  21652102.760   113782677.80309  21652099.540    88661854.53048
  23737746.780   124742723.76208  23737742.880    97202104.69146
  22386673.860   117642767.52808  22386670.140    91669676.33247
  21985674.500   115535594.81109  21985669.960    90027747.17048
  21757464.560   114336286.67509  21757463.700    89093222.82648
 15 02 28 00 55  0.0000000  0  6G16G18G19G21G22G27
  20659826.020   108568138.40309  20659822.780    84598541.65348
  21649374.480   113768340.45309  21649371.300    88650682.58248
  23723518.000   124667950.62408  23723514.160    97143839.95446
  22398727.900   117706112.07209  22398724.200    91719035.71347
  21971209.220   115459579.26509  21971204.680    89968514.30548
  21747184.500   114282264.57909  21747183.660    89051127.69348
 15 02 28 00 55 30.0000000  0  6G16G18G19G21G22G27
  20654152.920   108538326.34209  20654149.740    84575311.47848
  21646739.960   113754496.11209  21646736.860    88639894.79447
  23709301.580   124593242.36008  23709297.720    97085625.74246
  22410807.960   117769593.38408  22410804.280    91768501.67047
  21956804.660   115383882.51009  21956800.040    89909529.83348
  21736927.800   114228365.14709  21736926.960    89009128.15748
