     2.11           OBSERVATION DATA    G                   RINEX VERSION / TYPE
SPIDER V4,0,0,3554                      2015 03 21 01:41    PGM / RUN BY / DATE 
CNGR                                                        MARKER NAME         
CNGR                                                        MARKER NUMBER       
                                                            OBSERVER / AGENCY   
496521              LEICA GRX1200+GNSS  8.10/4.007          REC # / TYPE / VERS 
10321004            LEIAR25         NONE                    ANT # / TYPE        
  5218738.7445   688113.1521  3590185.5476                  APPROX POSITION XYZ 
        0.0720        0.0000        0.0000                  ANTENNA: DELTA H/E/N
     1     1                                                WAVELENGTH FACT L1/2
     4    C1    L1    P2    L2                              # / TYPES OF OBSERV 
    30.000                                                  INTERVAL            
  2015    02    28    00    00    0.0000000     GPS         TIME OF FIRST OBS   
  2015    02    28    23    59   30.0000000     GPS         TIME OF LAST OBS    
    16                                                      LEAP SECONDS        
    30                                                      # OF SATELLITES     
   G 1   786   786   786   786                              PRN / # OF OBS      
   G 2   914   914   914   914                              PRN / # OF OBS      
   G 3   835   835   834   834                              PRN / # OF OBS      
   G 4   812   812   812   812                              PRN / # OF OBS      
   G 5   595   595   595   595                              PRN / # OF OBS      
   G 6   802   802   801   801                              PRN / # OF OBS      
   G 7   656   656   656   656                              PRN / # OF OBS      
   G 9   792   792   792   792                              PRN / # OF OBS      
   G10   718   718   717   717                              PRN / # OF OBS      
   G11   749   749   749   749                              PRN / # OF OBS      
   G12   807   807   806   806                              PRN / # OF OBS      
   G13   761   761   761   761                              PRN / # OF OBS      
   G14   865   862   860   860                              PRN / # OF OBS      
   G15   567   567   567   567                              PRN / # OF OBS      
   G16   617   617   617   617                              PRN / # OF OBS      
   G17   923   922   922   922                              PRN / # OF OBS      
   G18   884   884   884   884                              PRN / # OF OBS      
   G19   700   700   699   699                              PRN / # OF OBS      
   G20   728   728   728   728                              PRN / # OF OBS      
   G21   710   710   710   710                              PRN / # OF OBS      
   G22   640   640   640   640                              PRN / # OF OBS      
   G23   679   679   679   679                              PRN / # OF OBS      
   G24   783   783   782   782                              PRN / # OF OBS      
   G25   834   834   834   834                              PRN / # OF OBS      
   G27   788   788   787   787                              PRN / # OF OBS      
   G28   839   839   838   838                              PRN / # OF OBS      
   G29   731   731   731   731                              PRN / # OF OBS      
   G30   701   701   701   701                              PRN / # OF OBS      
   G31   799   799   799   799                              PRN / # OF OBS      
   G32   751   751   751   751                              PRN / # OF OBS      
BIT 2 OF LLI FLAGS DATA COLLECTED UNDER A/S CONDITION       COMMENT             
SNR is mapped to RINEX snr flag value [2-9]                 COMMENT             
Lx:     = 25dBHz -> 1; 26-27dBHz -> 2; 28-31dBHz -> 3       COMMENT             
       32-35dBHz -> 4; 36-38dBHz -> 5; 39-41dBHz -> 6       COMMENT             
       42-44dBHz -> 7; 45-48dBHz -> 8; >=49dBHz -> 9        COMMENT             
                                                            END OF HEADER       
 15 02 28 00 00  0.0000000  0  8G16G18G21G22G25G27G29G31
 -13143990.420   -69072118.53509 -13143993.420   -53822439.49048
 -12668915.080   -66575504.57509 -12668917.660   -51876982.41347
 -13750506.540   -72259393.46709 -13750510.040   -56306032.83248
 -11269345.120   -59220732.98508 -11269347.740   -46145997.55946
 -10232578.780   -53772607.85708 -10232577.680   -41900741.20845
 -11882600.340   -62443468.17108 -11882600.300   -48657229.42547
 -11246872.040   -59102726.24208 -11246873.500   -46054084.32946
 -12040292.420   -63272183.75709 -12040294.640   -49303018.94947
 15 02 28 00 00 30.0000000  0  8G16G18G21G22G25G27G29G31
 -13358329.660   -70198478.73809 -13358332.660   -54700122.76448
 -12880416.120   -67686950.12109 -12880418.860   -52743043.85347
 -13943446.680   -73273300.54408 -13943450.120   -57096090.29448
 -11487655.540   -60367960.97408 -11487658.220   -47039941.20046
 -10413343.420   -54722531.67108 -10413341.700   -42640941.79845
 -12095340.560   -63561425.45208 -12095340.500   -49528364.94447
 -11433752.040   -60084786.69508 -11433753.480   -46819326.25946
 -12223765.900   -64236343.26209 -12223768.000   -50054312.14447
 15 02 28 00 01  0.0000000  0  8G16G18G21G22G25G27G29G31
 -13572614.360   -71324552.24009 -13572617.280   -55577582.62748
 -13091852.280   -68798054.81709 -13091855.240   -53608839.69147
 -14136323.740   -74286876.33009 -14136327.160   -57885889.61648
 -11705956.200   -61515137.21308 -11705958.740   -47933844.52446
 -10594078.500   -55672300.25708 -10594076.420   -43381021.38145
 -12308061.840   -64679282.96008 -12308061.720   -50399422.69047
 -11620620.620   -61066787.28808 -11620621.840   -47584521.57346
 -12407201.300   -65200302.41409 -12407203.200   -50805449.21347
 15 02 28 00 01 30.0000000  0  7G16G18G21G22G27G29G31
 -13786842.660   -72450329.23209 -13786845.540   -56454811.44648
 -13303221.800   -69908809.14709 -13303224.880   -54474362.51147
 -14329136.620   -75300114.97909 -14329140.160   -58675426.21848
 -11924245.160   -62662251.62708 -11924247.540   -48827699.66846
 -12520762.740   -65797033.10608 -12520762.520   -51270396.80047
 -11807476.300   -62048720.27508 -11807477.700   -48349664.19546
 -12590597.660   -66164056.57309 -12590599.400   -51556426.56647
 15 02 28 00 02  0.0000000  0  7G16G18G21G22G27G29G31
 -14001010.300   -73575787.76609 -14001013.220   -57331792.11348
 -13514520.400   -71019191.07309 -13514523.680   -55339595.15447
 -14521881.940   -76312998.60109 -14521885.620   -59464686.18148
 -12142518.120   -63809281.94508 -12142520.260   -49721489.30146
 -12733439.520   -66914656.45608 -12733439.160   -52141272.09747
 -11994315.340   -63030566.69508 -11994316.980   -49114739.31746
 -12773951.940   -67127589.53109 -12773953.500   -52307231.52647
 15 02 28 00 02 30.0000000  0  7G16G18G21G22G27G29G31
 -14215116.300   -74700922.45809 -14215119.240   -58208520.43748
 -13725747.080   -72129195.02109 -13725750.540   -56204533.27747
 -14714559.520   -77325526.35709 -14714563.340   -60253668.85048
 -12360773.860   -64956222.12108 -12360775.800   -50615208.69746
 -12946091.520   -68032149.76408 -12946091.140   -53012046.06747
 -12181137.160   -64012322.24108 -12181138.780   -49879743.69246
 -12957263.920   -68090900.72209 -12957265.400   -53057863.69447
 15 02 28 00 03  0.0000000  0  7G16G18G21G22G27G29G31
 -14429162.220   -75825741.85909 -14429165.320   -59085003.08348
 -13936903.600   -73238830.05409 -13936907.100   -57069183.92647
 -14907171.740   -78337710.66509 -14907175.680   -61042383.89748
 -12579014.100   -66103080.80108 -12579015.980   -51508864.58346
 -13158720.800   -69149524.14108 -13158720.400   -53882727.36247
 -12367943.820   -64993998.56308 -12367945.360   -50644686.32246
 -13140536.380   -69054004.40709 -13140537.860   -53808334.18247
 15 02 28 00 03 30.0000000  0  7G16G18G21G22G27G29G31
 -14643149.700   -76950254.33409 -14643152.960   -59961246.56848
 -14147991.560   -74348104.54509 -14147995.140   -57933553.62847
 -15099720.960   -79349563.63508 -15099724.940   -61830840.75348
 -12797240.260   -67249865.88308 -12797242.120   -52402463.13846
 -13371329.440   -70266790.21908 -13371329.080   -54753324.27347
 -12554737.480   -65975606.26108 -12554739.320   -51409575.43546
 -13323771.880   -70016914.31209 -13323773.420   -54558653.65847
 15 02 28 00 04  0.0000000  0  7G16G18G21G22G27G29G31
 -14857077.300   -78074451.70409 -14857080.660   -60837244.51648
 -14359009.300   -75457009.68609 -14359012.860   -58797635.53447
 -15292206.460   -80361081.63009 -15292210.420   -62619036.59448
 -13015450.700   -68396568.68608 -13015452.640   -53295997.58546
 -13583916.280   -71383941.83208 -13583915.940   -55623831.99347
 -12741516.980   -66957139.30008 -12741518.760   -52174406.41746
 -13506969.880   -70979627.05709 -13506971.480   -55308819.52347
 15 02 28 00 04 30.0000000  0  7G16G18G21G22G27G29G31
 -15070942.900   -79198323.20909 -15070946.360   -61712988.54248
 -14569954.780   -76565535.36609 -14569958.260   -59661421.75547
 -15484626.800   -81372257.26109 -15484630.720   -63406965.66248
 -13233643.360   -69543178.39308 -13233645.420   -54189459.48646
 -13796479.760   -72500970.77108 -13796479.520   -56494244.11947
 -12928280.600   -67938589.17808 -12928282.260   -52939172.54446
 -13690129.360   -71942137.71909 -13690131.100   -56058827.91947
 15 02 28 00 05  0.0000000  0  7G16G18G21G22G27G29G31
 -15284745.920   -80321865.85509 -15284749.440   -62588476.31448
 -14780827.400   -77673678.57609 -14780830.860   -60524909.95747
 -15676982.200   -82383091.63409 -15676986.120   -64194628.81048
 -13451817.680   -70689691.65808 -13451820.020   -55082846.24747
 -14009019.740   -73617876.20908 -14009019.660   -57364560.01247
 -13115028.380   -68919955.09408 -13115029.620   -53703873.32347
 -13873250.780   -72904448.22209 -13873252.660   -56808680.34947
 15 02 28 00 05 30.0000000  0  7G16G18G21G22G27G29G31
 -15498487.620   -81445086.00109 -15498491.140   -63463712.77948
 -14991628.440   -78781445.61309 -14991631.820   -61388105.02547
 -15869274.740   -83393595.50508 -15869278.600   -64982034.41448
 -13669974.620   -71836114.06008 -13669977.040   -55976162.20646
 -14221537.880   -74734666.65708 -14221537.980   -58234786.30047
 -13301761.720   -69901245.18508 -13301762.700   -54468514.95746
 -14056336.300   -73866569.93509 -14056338.260   -57558385.65447
 15 02 28 00 06  0.0000000  0  7G16G18G21G22G27G29G31
 -15712169.240   -82567990.37209 -15712172.740   -64338703.20048
 -15202359.160   -79888843.13909 -15202362.540   -62251012.17047
 -16061506.400   -84403779.33409 -16061510.160   -65769190.65948
 -13888115.500   -72982452.07408 -13888118.120   -56869412.43947
 -14434035.900   -75851351.21808 -14434036.060   -59104930.08147
 -13488482.400   -70882468.67708 -13488483.020   -55233104.71547
 -14239388.260   -74828515.05809 -14239390.260   -58307953.38547
 15 02 28 00 06 30.0000000  0  7G16G18G21G22G27G29G31
 -15925789.760   -83690573.11409 -15925793.120   -65213442.98548
 -15413018.460   -80995865.48409 -15413021.840   -63113626.97547
 -16253676.880   -85413641.49408 -16253680.500   -66556096.23048
 -14106239.180   -74128699.82809 -14106241.900   -57762592.29646
 -14646513.160   -76967926.49008 -14646513.280   -59974988.70647
 -13675189.860   -71863622.17108 -13675190.200   -55997639.97946
 -14422406.660   -75790283.41009 -14422408.600   -59057383.35147
 15 02 28 00 07  0.0000000  0  7G16G18G21G22G27G29G31
 -16139346.800   -84812822.40809 -16139350.040   -66087922.95048
 -15623604.180   -82102501.03809 -15623607.580   -63975940.37747
 -16445784.680   -86423174.35808 -16445788.140   -67342745.22148
 -14324343.460   -75274845.18708 -14324346.460   -58655692.40646
 -14858967.840   -78084382.96408 -14858967.900   -60844954.75547
 -13861882.260   -72844696.36908 -13861882.880   -56762113.35446
 -14605390.180   -76751868.43209 -14605392.060   -59806670.48247
 15 02 28 00 07 30.0000000  0  7G16G18G21G22G27G29G31
 -16352839.940   -85934735.97409 -16352843.060   -66962141.29348
 -15834116.000   -83208747.89809 -15834119.380   -64837950.87847
 -16637830.060   -87432379.48109 -16637833.440   -68129138.80948
 -14542427.820   -76420885.62509 -14542431.020   -59548710.74646
 -15071399.920   -79200720.66208 -15071399.880   -61714828.23647
 -14048559.400   -73825691.08008 -14048559.840   -57526524.83746
 -14788339.440   -77713273.46309 -14788341.280   -60555817.34147
 15 02 28 00 08  0.0000000  0  7G16G18G21G22G27G29G31
 -16566269.840   -87056317.40909 -16566272.940   -67836100.84448
 -16044554.500   -84314609.22209 -16044557.820   -65699660.98347
 -16829814.420   -88441264.38909 -16829817.800   -68915282.89548
 -14760492.700   -77566823.72308 -14760496.000   -60441649.35846
 -15283810.420   -80316945.08108 -15283810.340   -62584613.46847
 -14235222.260   -74806611.56608 -14235222.800   -58290878.51246
 -14971256.040   -78674506.67609 -14971257.760   -61304830.34347
 15 02 28 00 08 30.0000000  0  7G16G18G21G22G27G29G31
 -16779638.080   -88177574.99609 -16779641.140   -68709808.04148
 -16254921.320   -85420093.64209 -16254924.480   -66561077.39747
 -17021740.200   -89449841.67708 -17021743.620   -69701187.27848
 -14978539.700   -78712667.60309 -14978543.060   -61334514.53346
 -15496201.360   -81433066.87008 -15496201.260   -63454318.72547
 -14421873.040   -75787468.86808 -14421873.820   -59055182.89946
 -15154142.560   -79635581.88609 -15154144.220   -62053720.21347
 15 02 28 00 09  0.0000000  0  7G16G18G21G22G27G29G31
 -16992942.720   -89298498.36109 -16992945.720   -69583254.80448
 -16465214.500   -86525190.97409 -16465217.440   -67422192.18147
 -17213606.180   -90458104.73309 -17213609.680   -70486846.79348
 -15196566.800   -79858406.95308 -15196570.320   -62227298.29946
 -15708571.300   -82549078.18008 -15708571.220   -64323937.89847
 -14608510.340   -76768254.75408 -14608510.940   -59819431.70046
 -15336998.020   -80596494.00608 -15336999.640   -62802483.01647
 15 02 28 00 09 30.0000000  0  7G16G18G21G22G27G29G31
 -17206181.760   -90419077.01909 -17206184.700   -70456432.96148
 -16675432.040   -87629890.94809 -16675434.820   -68282997.33147
 -17405411.360   -91466047.88609 -17405414.900   -71272257.03648
 -15414572.020   -81004030.75108 -15414575.620   -63119991.97746
 -15920918.660   -83664970.71308 -15920918.560   -65193464.49847
 -14795132.420   -77748960.84308 -14795132.960   -60583618.27146
 -15519821.420   -81557237.89909 -15519823.000   -63551114.72147
 15 02 28 00 10  0.0000000  0  7G16G18G21G22G27G29G31
 -17419353.840   -91539303.54509 -17419356.740   -71329336.72948
 -16885572.500   -88734186.24809 -16885575.080   -69143487.15147
 -17597154.880   -92473666.70809 -17597158.420   -72057414.56448
 -15632553.520   -82149530.68708 -15632557.260   -64012589.19046
 -16133242.380   -84780739.07408 -16133242.240   -66062894.34747
 -14981738.420   -78729581.61008 -14981738.920   -61347738.36246
 -15702612.360   -82517811.50209 -15702614.000   -64299613.73647
 15 02 28 00 10 30.0000000  0  7G16G18G21G22G27G29G31
 -17632460.180   -92659184.78609 -17632463.080   -72201971.46048
 -17095637.300   -89838084.02409 -17095639.820   -70003667.22747
 -17788838.900   -93480972.76609 -17788842.420   -72842328.38648
 -15850512.760   -83294913.89008 -15850516.540   -64905095.43946
 -16345544.160   -85896392.60308 -16345544.020   -66932234.74547
 -15168329.960   -79710126.67408 -15168330.440   -62111799.48946
 -15885373.240   -83478226.98408 -15885374.860   -65047989.56547
 15 02 28 00 11  0.0000000  0  7G16G18G21G22G27G29G31
 -17845502.620   -93778730.27609 -17845505.480   -73074344.54848
 -17305628.140   -90941593.62509 -17305630.700   -70863544.82047
 -17980465.960   -94487979.47508 -17980469.480   -73627008.93048
 -16068451.500   -84440189.26708 -16068455.320   -65797517.65846
 -16557826.300   -87011942.85708 -16557826.280   -67801494.65247
 -15354909.220   -80690607.53108 -15354909.780   -62875810.58246
 -16068106.800   -84438498.92508 -16068108.440   -65796253.54447
 15 02 28 00 11 30.0000000  0  7G16G18G21G22G27G29G31
 -18058479.080   -94897929.40009 -18058481.980   -73946447.75248
 -17515543.260   -92044705.11209 -17515545.800   -71723112.18647
 -18172034.900   -95494680.66309 -18172038.380   -74411451.41648
 -16286367.680   -85585346.01308 -16286371.580   -66689847.45246
 -16770087.300   -88127381.80408 -16770087.380   -68670667.83548
 -15541474.520   -81671015.96708 -15541475.440   -63639765.21346
 -16250812.120   -85398622.24808 -16250813.740   -66544401.69647
 15 02 28 00 12  0.0000000  0  7G16G18G21G22G27G29G31
 -18271387.280   -96016769.86109 -18271390.240   -74818271.47148
 -17725380.280   -93147406.34009 -17725382.900   -72582359.88647
 -18363543.960   -96501067.36809 -18363547.440   -75195648.85348
 -16504258.860   -86730371.37708 -16504262.760   -67582074.87747
 -16982325.140   -89242699.08908 -16982325.280   -69539746.21647
 -15728023.980   -82651341.57008 -15728024.960   -64403655.32447
 -16433487.820   -86358589.80408 -16433489.420   -67292428.48447
 15 02 28 00 12 30.0000000  0  7G16G18G21G22G27G29G31
 -18484226.200   -97135246.17109 -18484229.180   -75689811.44148
 -17935138.200   -94249691.57509 -17935140.800   -73441283.41947
 -18554992.960   -97507138.29909 -18554996.380   -75979600.22448
 -16722123.900   -87875259.27509 -16722127.860   -68474195.17046
 -17194539.200   -90357891.49808 -17194539.300   -70408727.28448
 -15914557.040   -83631581.24008 -15914558.000   -65167478.49546
 -16616133.860   -87318401.53208 -16616135.380   -68040333.85447
 15 02 28 00 13  0.0000000  0  7G16G18G21G22G27G29G31
 -18696997.360   -98253366.29709 -18697000.380   -76561073.85648
 -18144818.660   -95351569.66409 -18144821.340   -74299889.70847
 -18746384.200   -98512906.16909 -18746387.640   -76763315.45148
 -16939964.320   -89020017.64608 -16939968.180   -69366214.55347
 -17406731.420   -91472969.42908 -17406731.540   -71277619.16247
 -16101075.860   -84611745.47608 -16101077.080   -65931242.83546
 -16798752.760   -88278070.75008 -16798754.240   -68788128.18647
 15 02 28 00 13 30.0000000  0  7G16G18G21G22G27G29G31
 -18909702.280   -99371138.21709 -18909705.280   -77432064.95948
 -18354423.080   -96453048.32009 -18354425.900   -75158184.74447
 -18937719.880   -99518381.95708 -18937723.360   -77546803.09248
 -17157781.440   -90164653.64408 -17157785.380   -70258138.59347
 -17618903.740   -92587942.74608 -17618903.940   -72146429.52248
 -16287582.100   -85591843.86908 -16287583.720   -66694955.89146
 -16981346.980   -89237610.40108 -16981348.460   -69535821.55947
 15 02 28 00 14  0.0000000  0  7G16G18G21G22G27G29G31
 -19122339.380  -100488553.99309 -19122342.440   -78302778.53648
 -18563950.020   -97554119.91409 -18563952.880   -76016162.59347
 -19128999.460  -100523563.05209 -19129003.020   -78330061.08948
 -17375573.700   -91309159.10408 -17375577.660   -71149960.91247
 -17831055.140   -93702805.73108 -17831055.360   -73015153.89547
 -16474074.840   -86571870.74508 -16474076.600   -67458613.23346
 -17163915.980   -90197017.67308 -17163917.480   -70283411.76047
 15 02 28 00 14 30.0000000  0  7G16G18G21G22G27G29G31
 -19334906.260  -101605600.47909 -19334909.380   -79173204.35348
 -18773397.120   -98654771.82909 -18773400.020   -76873813.41247
 -19320221.020  -101528439.61909 -19320224.640   -79113081.78748
 -17593338.560   -92453520.87008 -17593342.600   -72041671.24247
 -18043183.580   -94817547.90508 -18043183.860   -73883784.12647
 -16660552.100   -87551815.71708 -16660553.920   -68222206.71446
 -17346458.440   -91156285.55008 -17346459.960   -71030893.34147
 15 02 28 00 15  0.0000000  0  7G16G18G21G22G27G29G31
 -19547403.000  -102722278.47909 -19547406.180   -80043343.04848
 -18982764.580   -99755005.14509 -18982767.440   -77731138.06347
 -19511385.620  -102533016.65609 -19511389.280   -79895869.09548
 -17811076.080   -93597738.91109 -17811080.080   -72933269.60746
 -18255289.540   -95932172.02708 -18255289.860   -74752322.38047
 -16847014.360   -88531681.39908 -16847016.120   -68985738.44346
 -17528975.440   -92115419.63709 -17528977.000   -71778270.71347
 15 02 28 00 15 30.0000000  0  7G16G18G21G22G27G29G31
 -19759830.240  -103838590.82609 -19759833.380   -80913196.82148
 -19192053.000  -100854823.04709 -19192055.780   -78588139.00347
 -19702494.580  -103537301.14009 -19702498.260   -80678428.43848
 -18028786.780   -94741816.04908 -18028790.720   -73824758.19447
 -18467373.940   -97046682.95808 -18467374.280   -75620772.44947
 -17033462.580   -89511472.92208 -17033464.120   -69749212.40046
 -17711468.440   -93074427.65708 -17711470.080   -72525549.82147
 15 02 28 00 16  0.0000000  0  7G16G18G21G22G27G29G31
 -19972190.060  -104954548.71309 -19972193.160   -81782774.38748
 -19401264.540  -101954237.06009 -19401267.240   -79444825.23247
 -19893550.880  -104541308.61208 -19893554.480   -81460771.92948
 -18246472.700   -95885762.80908 -18246476.600   -74716145.16947
 -18679439.460   -98161094.32008 -18679439.760   -76489144.91847
 -17219899.380   -90491203.79208 -17219900.760   -70512639.08346
 -17893940.740   -94033326.60208 -17893942.400   -73272743.95347
 15 02 28 00 16 30.0000000  0  7G16G18G21G22G27G29G31
 -20184480.840  -106070143.89209 -20184483.900   -82652069.30748
 -19610397.640  -103053238.98109 -19610400.260   -80301190.33547
 -20084553.540  -105545034.01108 -20084556.960   -82242895.59948
 -18464132.100   -97029570.28708 -18464135.960   -75607423.60547
 -18891484.880   -99275399.92408 -18891485.180   -77357434.95847
 -17406323.220   -91470867.52008 -17406324.620   -71276013.43746
 -18076391.680   -94992113.26208 -18076393.340   -74019850.57146
 15 02 28 00 17  0.0000000  0  7G16G18G21G22G27G29G31
 -20396700.280  -107185364.52709 -20396703.340   -83521072.39948
 -19819450.180  -104151817.80909 -19819452.940   -81157225.76147
 -20275501.220  -106548470.61809 -20275504.540   -83024794.26348
 -18681762.760   -98173226.91208 -18681766.580   -76498584.52147
 -19103508.280  -100389590.28508 -19103508.640   -78225635.22747
 -17592732.440   -92450454.69308 -17592733.800   -72039328.17746
 -18258820.080   -95950781.41308 -18258821.760   -74766864.86446
 15 02 28 00 17 30.0000000  0  7G16G18G21G22G27G29G31
 -20608847.840  -108300207.74209 -20608850.980   -84389781.39648
 -20028421.600  -105249970.30409 -20028424.420   -82012928.99347
 -20466393.940  -107551618.34609 -20466397.200   -83806467.81548
 -18899364.000   -99316728.84109 -18899367.880   -77389624.88147
 -19315509.500  -101503664.43608 -19315509.940   -79093744.94747
 -17779126.960   -93429964.74408 -17779128.540   -72802582.77246
 -18441226.240   -96909332.84508 -18441227.880   -75513788.19546
 15 02 28 00 18  0.0000000  0  7G16G18G21G22G27G29G31
 -20820924.540  -109414678.58509 -20820927.700   -85258200.22648
 -20237313.080  -106347702.38809 -20237315.880   -82868304.62948
 -20657233.540  -108554487.28709 -20657236.840   -84587924.13648
 -19116936.680  -100460080.91509 -19116940.500   -78280548.49747
 -19527489.980  -102617629.71908 -19527490.460   -79961769.81847
 -17965508.040   -94409404.69208 -17965509.720   -73565782.74346
 -18623612.160   -97867778.04308 -18623613.820   -76260628.74846
 15 02 28 00 18 30.0000000  0  7G16G18G21G22G27G29G31
 -21032932.520  -110528788.23909 -21032935.720   -86126337.61748
 -20446126.720  -107445025.28609 -20446129.540   -83723361.41047
 -20848022.860  -109557092.10109 -20848026.220   -85369174.63348
 -19334482.800  -101603293.64709 -19334486.720   -79171363.52147
 -19739452.300  -103731499.32508 -19739452.780   -80829720.13448
 -18151878.280   -95388787.68808 -18151879.940   -74328938.40346
 -18805981.020   -98826133.50708 -18805982.720   -77007399.39947
 15 02 28 00 19  0.0000000  0  7G16G18G21G22G27G29G31
 -21244869.620  -111642525.09309 -21244872.800   -86994184.51048
 -20654860.380  -108541927.90409 -20654863.220   -84578090.70547
 -21038760.500  -110559425.33309 -21038763.920   -86150213.52348
 -19552000.160  -102746355.07309 -19552004.040   -80062060.64047
 -19951394.620  -104845263.62108 -19951395.060   -81697588.39447
 -18338236.000   -96368104.40108 -18338237.920   -75092042.33946
 -18988331.580   -99784392.49908 -18988333.320   -77754094.87746
 15 02 28 00 19 30.0000000  0  7G16G18G21G22G27G29G31
 -21456733.960  -112755879.55409 -21456737.120   -87861733.43148
 -20863512.340  -109638401.25209 -20863515.280   -85432485.49448
 -21229445.520  -111561482.00209 -21229448.960   -86931036.89848
 -19769486.920  -103889255.29009 -19769490.840   -80952632.14747
 -20163315.620  -105958915.64608 -20163315.960   -82565369.17648
 -18524579.820   -97347347.47408 -18524581.680   -75855088.91246
 -19170663.020  -100742551.12908 -19170664.780   -78500712.13147
 15 02 28 00 20  0.0000000  0  7G16G18G21G22G27G29G31
 -21668524.920  -113868848.64009 -21668528.100   -88728982.06748
 -21072082.140  -110734442.86209 -21072085.120   -86286543.87547
 -21420077.980  -112563262.56209 -21420081.440   -87711645.13248
 -19986942.520  -105031991.22209 -19986946.400   -81843075.65947
 -20375215.060  -107072454.36708 -20375215.280   -83433061.66147
 -18710909.560   -98326516.23308 -18710911.040   -76618077.58246
 -19352975.760  -101700611.67008 -19352977.540   -79247252.97646
 15 02 28 00 20 30.0000000  0  7G16G18G21G22G27G29G31
 -21880243.500  -114981437.62109 -21880246.720   -89595934.51348
 -21280570.720  -111830057.88909 -21280573.820   -87140269.84647
 -21610659.840  -113564776.98808 -21610663.320   -88492045.98648
 -20204367.820  -106174567.54009 -20204371.580   -82733394.78647
 -20587094.360  -108185887.31408 -20587094.560   -84300671.72248
 -18897226.640   -99305618.32508 -18897227.760   -77381014.32046
 -19535271.860  -102658584.60108 -19535273.600   -79993725.53946
 15 02 28 00 21  0.0000000  0  7G16G18G21G22G27G29G31
 -22091891.640  -116093656.36609 -22091894.960   -90462598.47548
 -21488980.080  -112925256.37109 -21488983.300   -87993671.24847
 -21801193.500  -114566038.26309 -21801197.040   -89272249.57748
 -20421764.360  -107316993.23609 -20421768.020   -83623596.55347
 -20798955.720  -109299226.06008 -20798955.960   -85168208.38647
 -19083533.100  -100284664.80708 -19083534.140   -78143907.75446
 -19717554.080  -103616484.75508 -19717555.760   -80740141.40746
 15 02 28 00 21 30.0000000  0  7G16G18G21G22G27G29G31
 -22303467.980  -117205497.60509 -22303471.320   -91328968.25548
 -21697308.940  -114020032.19809 -21697312.280   -88846743.30347
 -21991678.440  -115567043.64709 -21991682.080   -90052253.76248
 -20639130.740  -108459260.95209 -20639134.460   -84513675.21947
 -21010798.160  -110412465.76708 -21010798.460   -86035667.86548
 -19269828.080  -101263651.29008 -19269829.360   -78906754.35445
 -19899822.100  -104574310.10608 -19899823.640   -81486498.98846
 15 02 28 00 22  0.0000000  0  7G16G18G21G22G27G29G31
 -22514969.300  -118316944.11809 -22514972.560   -92195030.46548
 -21905554.180  -115114368.65609 -21905557.620   -89699472.99248
 -22182112.220  -116567780.10409 -22182115.900   -90832048.40048
 -20856463.720  -109601353.06309 -20856467.440   -85403617.03847
 -21222618.920  -111525591.32408 -21222619.260   -86903038.40948
 -19456108.800  -102242562.87908 -19456110.200   -79669542.57446
 -20082073.600  -105532048.81308 -20082075.040   -82232789.05046
 15 02 28 00 22 30.0000000  0  7G16G18G21G22G27G29G31
 -22726395.780  -119427997.06809 -22726398.940   -93060785.99648
 -22113716.060  -116208267.17109 -22113719.600   -90551861.42747
 -22372495.880  -117568253.24209 -22372499.580   -91611637.85648
 -21073763.480  -110743270.71709 -21073767.280   -86293422.90047
 -21434418.640  -112638606.02608 -21434418.960   -87770322.56548
 -19642375.820  -103221402.62808 -19642377.280   -80432274.90846
 -20264309.800  -106489707.12208 -20264311.160   -82979016.48946
 15 02 28 00 23  0.0000000  0  7G16G18G21G22G27G29G31
 -22937747.660  -120538657.65109 -22937750.640   -93926235.79848
 -22321795.000  -117301729.46209 -22321798.580   -91403909.95148
 -22562830.140  -118568466.88209 -22562833.880   -92391025.10948
 -21291029.980  -111885013.76009 -21291033.940   -87183092.71947
 -21646197.800  -113751512.80208 -21646198.120   -88637522.64148
 -19828629.760  -104200173.76008 -19828631.380   -81194953.74346
 -20446531.860  -107447291.22808 -20446533.220   -83725186.10646
 15 02 28 00 23 30.0000000  0  7G16G18G21G22G27G29G31
 -23149026.920  -121648937.10409 -23149029.800   -94791388.59948
 -22529793.160  -118394766.69009 -22529796.620   -92255627.25348
 -22753118.080  -119568436.82709 -22753121.800   -93170222.46548
 -21508265.420  -113026593.58109 -21508269.500   -88072635.34347
 -21857959.000  -114864325.15608 -21857959.200   -89504649.11148
 -20014873.160  -105178889.41208 -20014874.960   -81957589.34045
 -20628742.940  -108404817.76008 -20628744.240   -84471310.87346
 15 02 28 00 24  0.0000000  0  7G16G18G21G22G27G29G31
 -23360231.900  -122758826.49409 -23360234.760   -95656237.46448
 -22737709.000  -119487370.56309 -22737712.200   -93107006.87047
 -22943358.780  -120568158.44509 -22943362.460   -93949226.32948
 -21725467.880  -114168000.13109 -21725472.020   -88962042.96447
 -22069700.840  -115977036.14909 -22069700.980   -90371696.60948
 -20201104.700  -106157543.08008 -20201106.640   -82720176.62745
 -20810942.360  -109362282.88908 -20810943.600   -85217387.78746
 15 02 28 00 24 30.0000000  0  7G16G18G21G22G27G29G31
 -23571359.620  -123868310.44309 -23571362.540   -96520770.40948
 -22945539.640  -120579526.67609 -22945542.640   -93958037.58747
 -23133550.160  -121567620.94209 -23133553.820   -94728028.27648
 -21942634.460  -115309218.05909 -21942638.540   -89851303.60647
 -22281420.880  -117089632.51009 -22281420.940   -91238654.79348
 -20387322.040  -107136121.38608 -20387324.000   -83482705.22445
 -20993128.140  -110319676.28908 -20993129.300   -85963408.83446
 15 02 28 00 25  0.0000000  0  7G16G18G21G22G27G29G31
 -23782409.180  -124977383.87309 -23782412.260   -97384983.46448
 -23153284.120  -121671230.33809 -23153287.000   -94808715.74348
 -23323691.800  -122566821.88909 -23323695.440   -95506626.41048
 -22159764.160  -116450241.86409 -22159768.360   -90740412.97847
 -22493118.540  -118202111.29309 -22493118.520   -92105521.35048
 -20573524.540  -108114621.72608 -20573526.420   -84245173.03346
 -21175300.300  -111276998.39208 -21175301.380   -86709374.32646
 15 02 28 00 25 30.0000000  0  7G16G18G21G22G27G29G31
 -23993382.000  -126086053.87009 -23993385.240   -98248882.15448
 -23360943.800  -122762488.95409 -23360946.680   -95659047.10947
 -23513785.900  -123565772.77009 -23513789.460   -96285029.69948
 -22376858.120  -117591078.15309 -22376862.460   -91629376.27547
 -22704795.480  -119314481.49109 -22704795.480   -92972303.29248
 -20759713.940  -109093052.78608 -20759715.560   -85007586.89846
 -21357461.140  -112234260.92108 -21357462.060   -87455293.39546
 15 02 28 00 26  0.0000000  0  7G16G18G21G22G27G29G31
 -24204279.380  -127194327.33709 -24204282.700   -99112471.86448
 -23568520.160  -123853310.16209 -23568523.040   -96509037.65247
 -23703834.580  -124564485.02409 -23703838.060   -97063247.03148
 -22593917.700  -118731733.37709 -22593922.020   -92518198.45447
 -22916453.460  -120426752.07209 -22916453.580   -93839007.62048
 -20945891.820  -110071423.62608 -20945893.440   -85769953.77645
 -21539612.980  -113191476.09708 -21539613.840   -88201175.54446
 15 02 28 00 26 30.0000000  0  7G16G18G21G22G27G29G31
 -24415100.020  -128302197.53209 -24415103.400   -99975747.33548
 -23776012.140  -124943688.04509 -23776014.960   -97358682.74147
 -23893837.220  -125562955.50009 -23893840.680   -97841275.97548
 -22810941.480  -119872200.32909 -22810945.800   -93406873.95147
 -23128091.640  -121538918.30709 -23128091.860   -94705630.63848
 -21132057.340  -111049729.70608 -21132058.880   -86532270.22645
 -21721755.560  -114148642.37508 -21721756.340   -88947019.59046
 15 02 28 00 27  0.0000000  0  7G16G18G21G22G27G29G31
 -24625841.460  -129409651.33209 -24625844.840  -100838698.34048
 -23983417.180  -126033609.21509 -23983420.060   -98207971.95448
 -24083792.260  -126561175.67609 -24083795.640   -98619109.87248
 -23027926.760  -121012464.95409 -23027931.040   -94295391.77647
 -23339707.860  -122650968.83809 -23339708.160   -95572163.50548
 -21318208.400  -112027960.11008 -21318209.860   -87294527.71746
 -21903887.240  -115105751.38608 -21903888.020   -89692819.02046
 15 02 28 00 27 30.0000000  0  7G16G18G21G22G27G29G31
 -24836502.740  -130516684.25309 -24836506.200  -101701321.39348
 -24190734.700  -127123070.59009 -24190737.700   -99056902.87648
 -24273699.300  -127559143.83609 -24273702.660   -99396747.39548
 -23244872.660  -122152522.93009 -23244876.920   -95183748.58947
 -23551301.760  -123762901.70709 -23551302.060   -96438604.68348
 -21504344.540  -113006112.48808 -21504346.020   -88056724.42446
 -22086008.280  -116062804.53408 -22086009.080   -90438574.92646
 15 02 28 00 28  0.0000000  0  7G16G18G21G22G27G29G31
 -25047085.300  -131623303.39009 -25047088.840  -102563622.00948
 -24397966.100  -128212079.31809 -24397969.160   -99905481.09148
 -24463560.540  -128556871.38909 -24463563.940  -100174197.43248
 -23461780.420  -123292380.36409 -23461784.600   -96071949.11347
 -23762874.900  -124874725.44709 -23762875.140   -97304960.82448
 -21690467.480  -113984195.66708 -21690468.960   -88818867.18345
 -22268120.840  -117019813.42608 -22268121.520   -91184296.37846
 15 02 28 00 28 30.0000000  0  7G16G18G21G22G27G29G31
 -25257590.520  -132729516.11609 -25257594.120  -103425605.95248
 -24605112.960  -129300643.34909 -24605116.040  -100753712.78748
 -24653378.220  -129554369.85909 -24653381.620  -100951468.96948
 -23678651.320  -124432044.39909 -23678655.500   -96959998.97047
 -23974428.960  -125986449.57509 -23974429.200   -98171239.34948
 -21876579.100  -114962219.16508 -21876580.440   -89580963.44046
 -22450227.380  -117976790.58008 -22450227.840   -91929993.15946
 15 02 28 00 29  0.0000000  0  7G16G18G21G22G27G29G31
 -25468016.500  -133835312.33809 -25468020.180  -104287265.33348
 -24812173.420  -130388753.33409 -24812176.500  -101601590.68148
 -24843151.220  -130551633.62309 -24843154.540  -101728557.62348
 -23895483.360  -125571504.46309 -23895487.540   -97847889.85447
 -24185962.420  -127098066.02509 -24185962.720   -99037433.97748
 -22062677.900  -115940175.19108 -22062679.140   -90343007.15245
 -22632326.960  -118933731.20208 -22632327.340   -92675661.39946
 15 02 28 00 29 30.0000000  0  6G16G18G21G22G27G31
 -25678361.660  -134940683.43609 -25678365.340  -105148593.45548
 -25019145.940  -131476401.21509 -25019149.060  -102449108.50048
 -25032878.540  -131548657.50909 -25032881.820  -102505459.35848
 -24112274.720  -126710750.93809 -24112278.900   -98735614.33447
 -24397474.080  -128209567.90209 -24397474.460   -99903539.31948
 -22814418.740  -119890630.95508 -22814419.080   -93421297.64646
 15 02 28 00 30  0.0000000  0  6G16G18G21G22G27G31
 -25888624.420  -136045621.57409 -25888628.100  -106009584.21648
 -25226029.120  -132563579.77409 -25226032.300  -103296260.61048
 -25222559.460  -132545437.43909 -25222562.740  -103282170.98848
 -24329023.980  -127849776.01609 -24329028.180   -99623166.27347
 -24608962.940  -129320949.41509 -24608963.300  -100769550.86348
 -22996502.420  -120847488.24408 -22996502.780   -94166901.08945
 15 02 28 00 30 30.0000000  0  6G16G18G21G22G27G31
 -26098805.760  -137150131.81809 -26098809.360  -106870241.54548
 -25432824.120  -133650294.88609 -25432827.340  -104143051.59448
 -25412195.580  -133541982.38109 -25412198.900  -104058699.51448
 -24545732.000  -128988584.26609 -24545736.240  -100510549.29247
 -24820430.340  -130432217.71108 -24820430.660  -101635474.19248
 -23178579.760  -121804312.61108 -23178580.120   -94912478.78446
 15 02 28 00 31  0.0000000  0  6G16G18G21G22G27G31
 -26308918.400  -138254281.05209 -26308921.920  -107730617.56748
 -25639543.860  -134736614.11609 -25639547.040  -104989534.09847
 -25601800.420  -134538362.95209 -25601803.820  -104835099.95548
 -24762411.360  -130127241.79909 -24762415.560  -101397814.84947
 -25031889.300  -131543441.45808 -25031889.560  -102501362.80348
 -23360664.560  -122761175.88108 -23360664.820   -95658086.88346
 15 02 28 00 31 30.0000000  0  6G16G18G21G22G27G31
 -26518945.440  -139357980.57309 -26518948.900  -108590643.16448
 -25846171.620  -135822449.79809 -25846174.780  -105835639.80848
 -25791357.900  -135534494.43009 -25791361.400  -105611306.30848
 -24979045.060  -131265659.52309 -24979049.220  -102284893.55647
 -25243323.320  -132654533.93808 -25243323.480  -103367149.12548
 -23542740.780  -123717993.97108 -23542740.920   -96403659.56446
 15 02 28 00 32  0.0000000  0  6G16G18G21G22G27G31
 -26728882.620  -140461207.90809 -26728886.020  -109450300.82448
 -26052703.140  -136907779.68009 -26052706.260  -106681351.38648
 -25980864.600  -136530358.74509 -25980868.140  -106387304.47748
 -25195628.700  -132403814.29709 -25195632.840  -103171767.37347
 -25454728.380  -133765474.37309 -25454728.460  -104232816.97848
 -23724805.220  -124674750.06208 -23724805.240   -97149184.02046
 15 02 28 00 32 30.0000000  0  7G16G18G19G21G22G27G31
 -26938734.620  -141563987.63709 -26938737.960  -110309609.70448
 -26259143.040  -137992628.27709 -26259146.080  -107526687.92948
 -23492257.280  -123452645.72714                                
 -26170325.760  -137525983.74009 -26170329.280  -107163116.16148
 -25412166.900  -133541730.26509 -25412171.000  -104058455.09147
 -25666109.460  -134876289.13509 -25666109.420  -105098386.89848
 -23906863.500  -125631473.71108 -23906863.480   -97894683.29346
 15 02 28 00 33  0.0000000  0  7G16G18G19G21G22G27G31
 -27148503.540  -142666330.94709 -27148506.920  -111168578.51448
 -26465493.720  -139077008.26509 -26465496.740  -108371659.33647
 -23706861.740  -124580399.92505 -23706867.140   -97075654.05543
 -26359744.360  -138521385.24809 -26359747.840  -107938753.70548
 -25628661.800  -134679418.39409 -25628665.880  -104944965.27647
 -25877469.120  -135986991.62709 -25877469.140  -105963869.34348
 -24088918.640  -126588180.86908 -24088918.580   -98640169.59346
 15 02 28 00 33 30.0000000  0  7G16G18G19G21G22G27G31
 -27358190.540  -143768243.50809 -27358193.880  -112027211.66948
 -26671756.360  -140160925.83309 -26671759.420  -109216270.41147
 -23921455.260  -125708093.36004 -23921459.420   -97954376.10741
 -26549122.140  -139516572.32309 -26549125.640  -108714224.14848
 -25845114.300  -135816883.49609 -25845118.360  -105831301.68347
 -26088808.760  -137097589.23609 -26088808.900  -106829270.06748
 -24270972.680  -127544882.34708 -24270972.620   -99385651.54946
 15 02 28 00 34  0.0000000  0  7G16G18G19G21G22G27G31
 -27567794.460  -144869719.45009 -27567797.780  -112885504.61148
 -26877929.940  -141244375.60509 -26877933.020  -110060516.97548
 -24136036.380  -126835721.80905 -24136040.020   -98833047.59941
 -26738458.680  -140511542.82609 -26738462.300  -109489525.85248
 -26061523.100  -136954118.85409 -26061526.960  -106717459.07847
 -26300127.620  -138208077.54509 -26300127.820  -107694585.61448
 -24453025.360  -128501576.69708 -24453025.280  -100131127.95846
 15 02 28 00 34 30.0000000  0  7G16G18G19G21G22G27G31
 -27777312.980  -145970746.48409 -27777316.320  -113743447.74748
 -27084012.340  -142327346.29709 -27084015.420  -110904390.21948
 -24350602.920  -127963275.22005 -24350606.360   -99711660.52844
 -26927752.320  -141506288.06309 -26927756.060  -110264652.01448
 -26277885.780  -138091111.71509 -26277889.640  -107603427.50247
 -26511423.740  -139318446.17409 -26511423.920  -108559807.91048
 -24635075.360  -129458256.91008 -24635075.320  -100876593.35646
 15 02 28 00 35  0.0000000  0  7G16G18G19G21G22G27G31
 -27986745.540  -147071321.76309 -27986748.880  -114601038.87248
 -27290003.100  -143409835.52509 -27290006.260  -111747888.30648
 -24565154.780  -129090752.93605 -24565157.760  -100590214.60344
 -27117003.300  -142500809.37409 -27117007.240  -111039603.68548
 -26494201.720  -139227858.95809 -26494205.500  -108489204.56147
 -26722696.880  -140428694.12309 -26722697.100  -109424936.16648
 -24817123.080  -130414924.99208 -24817122.900  -101622049.30146
 15 02 28 00 35 30.0000000  0  7G16G18G19G21G22G27G31
 -28196092.780  -148171449.03909 -28196096.180  -115458280.89948
 -27495903.160  -144491848.29509 -27495906.400  -112591015.12448
 -24779693.200  -130218160.59405 -24779696.240  -101468714.02544
 -27306213.160  -143495114.35409 -27306217.260  -111814386.78448
 -26710471.440  -140364363.74209 -26710475.300  -109374792.68847
 -26933948.120  -141538827.14009 -26933948.380  -110289974.86148
 -24999170.200  -131371589.84008 -24999169.900  -102367502.64046
 15 02 28 00 36  0.0000000  0  7G16G18G19G21G22G27G31
 -28405356.460  -149271137.48309 -28405359.900  -116315180.98448
 -27701714.440  -145573394.25809 -27701717.740  -113433778.19148
 -24994220.560  -131345510.08205 -24994223.460  -102347168.10043
 -27495384.340  -144489215.63509 -27495388.460  -112589011.16448
 -26926696.580  -141500634.75109 -26926700.580  -110260198.63847
 -27145179.540  -142648856.11709 -27145179.860  -111154932.49248
 -25181219.280  -132328264.95108 -25181218.820  -103112964.01146
 15 02 28 00 36 30.0000000  0  7G16G18G19G21G22G27G31
 -28614535.080  -150370379.11809 -28614538.560  -117171732.90748
 -27907435.460  -146654465.66409 -27907438.720  -114276171.48248
 -25208735.740  -132472795.20005 -25208738.680  -103225572.05544
 -27684516.080  -145483109.50109 -27684520.180  -113363473.92848
 -27142875.520  -142636663.26309 -27142879.680  -111145415.61948
 -27356389.980  -143758774.74409 -27356390.360  -112019804.12948
 -25363269.820  -133284947.69708 -25363269.100  -103858431.19146
 15 02 28 00 37  0.0000000  0  7G16G18G19G21G22G27G31
 -28823626.260  -151469160.89809 -28823629.700  -118027926.49948
 -28113063.980  -147735050.73009 -28113067.280  -115118185.81148
 -25423236.660  -133600004.78305 -25423239.500  -104103917.11544
 -27873606.580  -146476786.49309 -27873610.600  -114137767.69948
 -27359005.620  -143772435.48709 -27359010.060  -112030432.91048
 -27567577.320  -144868571.64009 -27567577.660  -112884580.91548
 -25545320.260  -134241629.92008 -25545319.560  -104603898.04746
 15 02 28 00 37 30.0000000  0  7G16G18G19G21G22G27G31
 -29032628.860  -152567476.60409 -29032632.160  -118883756.91148
 -28318598.960  -148815143.90409 -28318602.240  -115959816.84548
 -25637722.640  -134727134.59905 -25637725.280  -104982199.98945
 -28062655.140  -147470243.62009 -28062659.160  -114911890.14048
 -27575085.740  -144907944.79409 -27575090.420  -112915245.31848
 -27778740.680  -145978242.42109 -27778740.980  -113749259.42148
 -25727370.320  -135198310.04508 -25727369.540  -105349363.25846
 15 02 28 00 38  0.0000000  0  7G16G18G19G21G22G27G31
 -29241544.560  -153665335.40009 -29241547.720  -119739231.28748
 -28524042.240  -149894754.81809 -28524045.420  -116801072.08548
 -25852195.420  -135854195.96606 -25852198.260  -105860429.56644
 -28251664.360  -148463494.14309 -28251668.440  -115685851.59448
 -27791117.460  -146043199.51809 -27791122.220  -113799859.35447
 -27989882.040  -147087797.76509 -27989882.420  -114613847.99048
 -25909422.560  -136155001.71908 -25909421.720  -106094837.29746
 15 02 28 00 38 30.0000000  0  7G16G18G19G21G22G27G31
 -29450374.680  -154762744.27509 -29450377.680  -120594355.07048
 -28729395.360  -150973891.79309 -28729398.480  -117641958.02748
 -26066656.780  -136981197.98806 -26066659.520  -106738612.85344
 -28440636.320  -149456548.74309 -28440640.460  -116459660.37348
 -28007102.100  -147178206.32509 -28007106.920  -114684280.20848
 -28201003.120  -148197246.48409 -28201003.580  -115478353.47148
 -26091479.420  -137111717.10208 -26091478.400  -106840329.79946
 15 02 28 00 39  0.0000000  0  7G16G18G19G21G22G27G31
 -29659117.320  -155859693.71409 -29659120.260  -121449120.87048
 -28934656.540  -152052545.88609 -28934659.600  -118482467.71048
 -26281105.340  -138108132.88006 -26281108.200  -107616743.89244
 -28629570.060  -150449401.98509 -28629574.200  -117233312.26648
 -28223037.740  -148312955.22309 -28223042.540  -115568500.07947
 -28412102.460  -149306580.80609 -28412102.960  -116342769.82148
 -26273539.920  -138068452.00208 -26273539.180  -107585837.58945
 15 02 28 00 39 30.0000000  0  7G16G18G19G21G22G27G31
 -29867770.040  -156956170.94509 -29867772.980  -122303518.70548
 -29139823.500  -153130704.98309 -29139826.460  -119322591.65948
 -26495539.080  -139234990.04406 -26495542.300  -108494814.32644
 -28818463.820  -151442044.74709 -28818467.860  -118006800.12948
 -28438921.740  -149447432.55909 -28438926.380  -116452508.34647
 -28623177.960  -150415789.42509 -28623178.420  -117207088.20348
 -26455602.560  -139025197.84008 -26455601.820  -108331353.90045
 15 02 28 00 40  0.0000000  0  7G16G18G19G21G22G27G31
 -30076333.420  -158052178.98309 -30076336.460  -123157550.93248
 -29344897.000  -154208373.05009 -29344899.880  -120162333.00048
 -26709958.840  -140361774.56806 -26709962.500  -109372828.18344
 -29007318.780  -152434483.29109 -29007322.620  -118780128.87048
 -28654754.580  -150581641.05009 -28654759.120  -117336307.13347
 -28834230.540  -151524877.22809 -28834230.780  -118071312.43948
 -26637668.820  -139981962.97508 -26637668.060  -109076885.32145
 15 02 28 00 40 30.0000000  0  7G16G18G19G21G22G27G31
 -30284810.340  -159147732.70809 -30284813.480  -124011229.16348
 -29549879.960  -155285565.95409 -29549882.880  -121001704.07548
 -26924367.960  -141488502.98606 -26924371.680  -110250798.29445
 -29196138.360  -153426736.21109 -29196142.060  -119553312.97448
 -28870538.920  -151715594.64609 -28870543.320  -118219907.29347
 -29045263.140  -152633860.53409 -29045263.200  -118935455.25948
 -26819742.320  -140938766.41608 -26819741.620  -109822446.43846
 15 02 28 00 41  0.0000000  0  7G16G18G19G21G22G27G31
 -30493200.920  -160242832.53709 -30493204.100  -124864553.70548
 -29754772.620  -156362284.65409 -29754775.600  -121840705.66048
 -27138767.140  -142615177.78006 -27138770.800  -111128726.58345
 -29384923.400  -154418807.76609 -29384926.980  -120326355.75348
 -29086274.700  -152849293.01509 -29086278.920  -119103308.58547
 -29256276.080  -153742741.31309 -29256276.160  -119799518.18948
 -27001824.180  -141895613.62108 -27001823.540  -110568041.79846
 15 02 28 00 41 30.0000000  0  7G16G18G19G21G22G27G31
 -30701503.340  -161337469.05309 -30701506.500  -125717517.21648
 -29959573.420  -157438520.61909 -29959576.500  -122679331.07048
 -27353154.920  -143741791.56506 -27353158.440  -112006607.39744
 -29573672.840  -155410692.40608 -29573676.300  -121099252.88348
 -29301960.080  -153982726.56209 -29301964.180  -119986503.50948
 -29467267.980  -154851511.97409 -29467268.160  -120663495.31148
 -27183913.540  -142852500.28708 -27183912.840  -111313668.05046
 15 02 28 00 42  0.0000000  0  7G16G18G19G21G22G27G31
 -30909716.200  -162431634.61509 -30909719.200  -126570113.75648
 -30164281.040  -158514266.96709 -30164284.260  -123517574.96148
 -27567530.020  -144868338.87407 -27567533.580  -112884436.37344
 -29762385.820  -156402385.72009 -29762389.240  -121872000.93248
 -29517593.400  -155115886.61109 -29517597.440  -120869485.32848
 -29678237.740  -155960166.29009 -29678238.080  -121527381.78448
 -27366009.700  -143809422.65708 -27366008.760  -112059322.11145
 15 02 28 00 42 30.0000000  0  7G16G18G19G21G22G27G31
 -31117838.980  -163525326.93009 -31117841.880  -127422341.53248
 -30368895.340  -159589522.73309 -30368898.600  -124355436.59348
 -27781892.220  -145994818.91307 -27781895.600  -113762212.92944
 -29951062.760  -157393889.66009 -29951066.040  -122644601.40548
 -29733174.120  -156248770.57509 -29733178.120  -121752252.01948
 -29889185.300  -157068703.60409 -29889185.840  -122391177.09048
 -27548113.180  -144766383.49008 -27548112.100  -112805006.02846
 15 02 28 00 43  0.0000000  0  7G16G18G19G21G22G27G31
 -31325871.540  -164618545.43509 -31325874.400  -128274200.10148
 -30573416.320  -160664287.68709 -30573419.520  -125192915.76448
 -27996241.800  -147121232.91507 -27996245.120  -114639938.04345
 -30139704.080  -158385206.51109 -30139707.280  -123417056.09848
 -29948701.980  -157381376.94009 -29948706.080  -122634802.39848
 -30100110.840  -158177124.86409 -30100111.600  -123254881.95648
 -27730224.720  -145723386.99608 -27730223.580  -113550723.12145
 15 02 28 00 43 30.0000000  0  7G16G18G19G21G22G27G31
 -31533814.780  -165711294.69109 -31533817.640  -129125693.03448
 -30777844.980  -161738567.04409 -30777848.040  -126030016.55648
 -28210580.060  -148247587.56907 -28210583.300  -115517616.92945
 -30328311.320  -159376344.52109 -30328314.540  -124189371.44048
 -30164177.580  -158513709.16309 -30164181.880  -123517139.17748
 -30311015.420  -159285435.90409 -30311016.420  -124118500.95448
 -27912346.040  -146680441.80108 -27912345.080  -114296480.18645
 15 02 28 00 44  0.0000000  0  7G16G18G19G21G22G27G31
 -31741667.720  -166803569.52609 -31741670.660  -129976816.27048
 -30982180.500  -162812356.81609 -30982183.420  -126866735.85048
 -28424906.380  -149373879.60707 -28424909.680  -116395246.98845
 -30516884.220  -160367302.40309 -30516887.480  -124961546.43248
 -30379600.000  -159645761.87309 -30379604.460  -124399258.14348
 -30521898.440  -160393633.20709 -30521899.460  -124982031.30648
 -28094477.160  -147637547.89808 -28094476.140  -115042277.18245
 15 02 28 00 44 30.0000000  0  7G16G18G19G21G22G27G31
 -31949427.980  -167895357.19309 -31949430.980  -130827559.91048
 -31186420.720  -163885645.69409 -31186423.420  -127703064.82848
 -28639218.780  -150500098.28107 -28639222.140  -117272819.89745
 -30705421.060  -161358070.78109 -30705424.400  -125733573.75248
 -30594966.800  -160777522.06409 -30594971.400  -125281149.16447
 -30732757.740  -161501705.71109 -30732758.620  -125845464.41248
 -28276616.640  -148594697.31508 -28276615.520  -115788107.89945
 15 02 28 00 45  0.0000000  0  7G16G18G19G21G22G27G31
 -32157094.480  -168986652.00009 -32157097.560  -131677919.48648
 -31390564.640  -164958428.50409 -31390567.160  -128538999.47848
 -28853516.520  -151626239.64907 -28853519.880  -118150332.59445
 -30893921.620  -162348648.02208 -30893924.960  -126505452.12448
 -30810276.700  -161908983.13609 -30810281.440  -126162807.10248
 -30943592.480  -162609649.09409 -30943593.120  -126708796.89748
 -28458764.140  -149551889.00108 -28458763.260  -116533971.58145
 15 02 28 00 45 30.0000000  0  7G16G18G19G21G22G27G31
 -32364669.480  -170077466.20309 -32364672.640  -132527904.58748
 -31594614.760  -166030718.32809 -31594617.140  -129374549.98148
 -29067802.180  -152752317.71007 -29067805.360  -119027795.94245
 -31082388.780  -163339049.14408 -31082391.980  -127277193.26848
 -31025531.840  -163040156.41109 -31025536.540  -127044240.80448
 -31154405.260  -163717476.98408 -31154405.640  -127572039.39448
 -28640922.840  -150509139.33108 -28640921.680  -117279881.05445
 15 02 28 00 46  0.0000000  0  7G16G18G19G21G22G27G31
 -32572154.180  -171167805.99709 -32572157.400  -133377520.00948
 -31798572.320  -167102522.05409 -31798574.580  -130209721.70348
 -29282077.280  -153878340.53807 -29282080.480  -119905216.26245
 -31270824.340  -164329284.18309 -31270827.420  -128048805.00148
 -31240733.300  -164171047.56909 -31240737.960  -127925454.66448
 -31365197.460  -164825197.01909 -31365197.700  -128435197.84948
 -28823094.800  -151466459.36608 -28823093.540  -118025844.88145
 15 02 28 00 46 30.0000000  0  7G16G18G19G21G22G27G31
 -32779546.660  -172257661.39509 -32779549.940  -134226757.98248
 -32002435.620  -168173830.52409 -32002437.800  -131044507.51148
 -29496340.180  -155004299.34007 -29496343.480  -120782586.68045
 -31459226.980  -165319346.42309 -31459230.000  -128820282.07148
 -31455878.960  -165301645.45409 -31455883.520  -128806440.00348
 -31575967.400  -165932800.51609 -31575967.580  -129298265.49348
 -29005278.900  -152423843.01608 -29005277.500  -118771858.17245
 15 02 28 00 47  0.0000000  0  7G16G18G19G21G22G27G31
 -32986844.860  -173347021.25909 -32986848.200  -135075609.82248
 -32206202.760  -169244633.98009 -32206204.880  -131878899.80348
 -29710589.200  -156130185.12407 -29710592.520  -121659900.22445
 -31647595.200  -166309228.38909 -31647598.260  -129591618.68748
 -31670966.740  -166431938.89409 -31670971.200  -129687188.09248
 -31786713.280  -167040277.87509 -31786713.560  -130161234.85348
 -29187474.000  -153381284.81508 -29187472.520  -119517916.90145
 15 02 28 00 47 30.0000000  0  7G16G18G19G21G22G27G31
 -33194046.760  -174435874.93709 -33194050.140  -135924067.23348
 -32409871.780  -170314922.34609 -32409874.000  -132712890.73748
 -29924822.700  -157255988.82207 -29924825.800  -122537149.80845
 -31835927.660  -167298922.78309 -31835930.860  -130362809.13148
 -31885994.360  -167561916.29309 -31885998.680  -130567689.92548
 -31997433.320  -168147619.75809 -31997433.660  -131024098.65048
 -29369678.820  -154338777.98808 -29369677.280  -120264015.70945
 15 02 28 00 48  0.0000000  0  7G16G18G19G21G22G27G31
 -33401152.280  -175524221.83709 -33401155.680  -136772129.74548
 -32613442.740  -171384695.97509 -32613445.180  -133546480.56548
 -30139040.760  -158381712.00707 -30139043.660  -123414336.66545
 -32024224.940  -168288432.27709 -32024228.320  -131133855.49748
 -32100961.540  -168691576.12009 -32100965.840  -131447944.30348
 -32208127.720  -169254826.93909 -32208128.100  -131886857.49048
 -29551893.980  -155296326.12008 -29551892.520  -121010157.24245
 15 02 28 00 48 30.0000000  0  7G16G18G19G21G22G27G31
 -33608163.160  -176612071.24909 -33608166.600  -137619804.61748
 -32816917.660  -172453965.22909 -32816920.420  -134379677.38248
 -30353245.500  -159507365.74807 -30353248.340  -124291469.39646
 -32212489.500  -169277770.01609 -32212493.100  -131904768.04748
 -32315869.840  -169820927.01409 -32315874.260  -132327957.95648
 -32418798.540  -170361910.07409 -32418798.940  -132749519.67248
 -29734122.320  -156253943.66408 -29734120.920  -121756352.95546
 15 02 28 00 49  0.0000000  0  7G16G18G19G21G22G27G31
 -33815078.240  -177699417.15709 -33815081.780  -138467087.13948
 -33020295.720  -173522725.12009 -33020298.680  -135212477.28148
 -30567436.140  -160632945.59407 -30567439.080  -125168544.56245
 -32400720.920  -170266933.38809 -32400724.640  -132675544.70248
 -32530718.080  -170949962.52709 -32530722.680  -133207725.86448
 -32629445.000  -171468864.45709 -32629445.320  -133612081.50948
 -29916363.580  -157211628.83408 -29916362.220  -122502601.34946
 15 02 28 00 49 30.0000000  0  6G16G18G19G21G22G27
 -34021894.960  -178786246.06709 -34021898.580  -139313966.80348
 -33223574.540  -174590963.14409 -33223577.580  -136044870.53648
 -30781610.440  -161758439.70408 -30781613.520  -126045552.92546
 -32588917.280  -171255912.20509 -32588921.080  -133446177.55548
 -32745503.500  -172078668.32309 -32745508.320  -134087236.84748
 -32840064.740  -172575677.90409 -32840064.960  -134474533.52448
 15 02 28 00 50  0.0000000  0  6G16G18G19G21G22G27
 -34228611.480  -179872548.59909 -34228615.180  -140160436.31848
 -33426752.500  -175658670.79309 -33426755.560  -136876850.50648
 -30995766.980  -162883840.36508 -30995770.140  -126922488.48045
 -32777077.420  -172244700.49109 -32777081.200  -134216661.94848
 -32960224.280  -173207034.42109 -32960229.280  -134966483.12948
 -33050656.140  -173682342.33409 -33050656.180  -135336869.41948
 15 02 28 00 50 30.0000000  0  6G16G18G19G21G22G27
 -34435229.960  -180958335.85909 -34435233.660  -141006504.31148
 -33629831.700  -176725859.61209 -33629834.880  -137708426.19548
 -31209908.160  -164009160.04008 -31209911.480  -127799360.91545
 -32965204.000  -173233312.33909 -32965207.740  -134987008.83948
 -33174882.280  -174335070.55009 -33174887.480  -135845472.29748
 -33261221.360  -174788869.58209 -33261221.320  -136199098.42748
 15 02 28 00 51  0.0000000  0  6G16G18G19G21G22G27
 -34641752.100  -182043616.97909 -34641755.740  -141852177.91648
 -33832814.280  -177792540.61909 -33832817.580  -138539606.19448
 -31424036.120  -165134410.04807 -31424039.660  -128676179.07746
 -33153299.440  -174221760.47109 -33153303.100  -135757228.16947
 -33389479.240  -175462785.64909 -33389484.560  -136724211.30348
 -33471762.500  -175895270.59309 -33471762.380  -137061229.05648
 15 02 28 00 51 30.0000000  0  6G16G18G19G21G22G27
 -34848176.540  -183128384.81509 -34848180.080  -142697451.55848
 -34035699.020  -178858707.39409 -34035702.460  -139370385.50048
 -31638149.860  -166259584.94208 -31638153.420  -129552938.71645
 -33341363.060  -175210040.80009 -33341366.560  -136527316.75348
 -33604013.640  -176590171.61709 -33604018.980  -137602693.84648
 -33682278.460  -177001539.30909 -33682278.340  -137923256.61648
 15 02 28 00 52  0.0000000  0  6G16G18G19G21G22G27
 -35054501.380  -184212629.24009 -35054504.800  -143542317.34649
 -34238484.160  -179924350.42909 -34238487.640  -140200756.67848
 -31852247.480  -167384675.76808 -31852251.080  -130429632.82946
 -33529393.440  -176198146.79008 -33529396.960  -137297269.48148
 -33818483.380  -177717217.65209 -33818488.760  -138480911.51048
 -33892767.520  -178107666.90809 -33892767.440  -138785174.20248
 15 02 28 00 52 30.0000000  0  6G16G18G19G21G22G27
 -35260726.420  -185296348.98809 -35260729.680  -144386774.30049
 -34441169.660  -180989469.88409 -34441173.160  -141030719.89148
 -32066329.080  -168509682.51008 -32066332.840  -131306261.42946
 -33717390.960  -177186080.12409 -33717394.480  -138067087.67948
 -34032888.040  -178843921.46109 -34032893.380  -139358862.51148
 -34103229.680  -179213653.03409 -34103229.700  -139646981.56548
 15 02 28 00 53  0.0000000  0  6G16G18G19G21G22G27
 -35466852.980  -186379550.90409 -35466856.040  -145230827.73949
 -34643757.000  -182054073.23609 -34643760.460  -141860280.93048
 -32280396.360  -169634613.89308 -32280400.160  -132182831.29546
 -33905357.540  -178173851.12409 -33905361.180  -138836779.36747
 -34247228.740  -179970289.15009 -34247234.020  -140236551.59548
 -34313666.400  -180319505.73509 -34313666.560  -140508684.94948
 15 02 28 00 53 30.0000000  0  6G16G18G19G21G22G27
 -35672883.020  -187462245.57809 -35672885.940  -146074485.92448
 -34846248.420  -183118172.24709 -34846251.820  -142689448.97748
 -32494451.700  -170759482.31608 -32494455.540  -133059352.11046
 -34093295.820  -179161473.80909 -34093299.640  -139606355.49447
 -34461507.440  -181096330.76209 -34461512.620  -141113986.59548
 -34524079.980  -181425236.94209 -34524080.240  -141370293.66448
 15 02 28 00 54  0.0000000  0  6G16G18G19G21G22G27
 -35878814.700  -188544423.45809 -35878817.540  -146917741.42248
 -35048642.220  -184181757.99109 -35048645.500  -143518217.07848
 -32708493.600  -171884279.43808 -32708497.260  -133935817.36346
 -34281204.620  -180148941.63009 -34281208.600  -140375810.95147
 -34675722.120  -182222035.83109 -34675727.160  -141991159.35148
 -34734468.800  -182530837.86309 -34734469.120  -142231800.86748
 15 02 28 00 54 30.0000000  0  6G16G18G19G21G22G27
 -36084646.000  -189626074.05409 -36084648.840  -147760586.04448
 -35250936.560  -185244821.39409 -35250939.700  -144346578.16048
 -32922520.280  -173008996.48608 -32922523.740  -134812220.21346
 -34469082.580  -181136247.06309 -34469086.540  -141145139.86847
 -34889870.560  -183347393.05009 -34889875.500  -142868061.04248
 -34944831.040  -183636299.23009 -34944831.400  -143093199.32248
 15 02 28 00 55  0.0000000  0  6G16G18G19G21G22G27
 -36290376.500  -190707195.32509 -36290379.420  -148603018.21249
 -35453131.260  -186307361.51709 -35453134.320  -145174531.49648
 -33136531.520  -174133632.51208 -33136534.820  -135688559.95146
 -34656929.880  -182123391.35309 -34656933.820  -141914343.22347
 -35103952.180  -184472399.47009 -35103957.080  -143744689.41448
 -35155166.540  -184741619.92109 -35155166.920  -143954488.16848
 15 02 28 00 55 30.0000000  0  6G16G18G19G21G22G27
 -36496007.480  -191787793.78109 -36496010.440  -149445042.98049
 -35655227.740  -187369385.70109 -35655230.780  -146002082.79648
 -33350528.840  -175258196.07208 -33350532.180  -136564843.20347
