     2.11           OBSERVATION DATA    G                   RINEX VERSION / TYPE
SPIDER V4,0,0,3554                      2015 03 31 06:36    PGM / RUN BY / DATE 
EADB                                                        MARKER NAME         
EADB                                                        MARKER NUMBER       
                                                            OBSERVER / AGENCY   
462408              LEICA GRX1200PRO    3.00/2.127          REC # / TYPE / VERS 
103310              LEIAT504                                ANT # / TYPE        
  5238464.6656   142765.3090  3625629.6523                  APPROX POSITION XYZ 
        0.0770        0.0000        0.0000                  ANTENNA: DELTA H/E/N
     1     1                                                WAVELENGTH FACT L1/2
     4    C1    L1    P2    L2                              # / TYPES OF OBSERV 
    30.000                                                  INTERVAL            
  2015    02    28    00    00    0.0000000     GPS         TIME OF FIRST OBS   
  2015    02    28    23    59   30.0000000     GPS         TIME OF LAST OBS    
    16                                                      LEAP SECONDS        
    30                                                      # OF SATELLITES     
   G 1   835   835   835   835                              PRN / # OF OBS      
   G 2   926   926   926   926                              PRN / # OF OBS      
   G 3   845   845   845   845                              PRN / # OF OBS      
   G 4   848   848   848   848                              PRN / # OF OBS      
   G 5   673   673   673   673                              PRN / # OF OBS      
   G 6   725   725   725   725                              PRN / # OF OBS      
   G 7   645   645   645   645                              PRN / # OF OBS      
   G 9   788   788   788   788                              PRN / # OF OBS      
   G10   784   784   784   784                              PRN / # OF OBS      
   G11   798   798   798   798                              PRN / # OF OBS      
   G12   818   818   818   818                              PRN / # OF OBS      
   G13   822   822   822   822                              PRN / # OF OBS      
   G14   906   906   904   904                              PRN / # OF OBS      
   G15   732   732   732   732                              PRN / # OF OBS      
   G16   691   691   691   691                              PRN / # OF OBS      
   G17   931   931   931   931                              PRN / # OF OBS      
   G18   936   936   936   936                              PRN / # OF OBS      
   G19   781   781   781   781                              PRN / # OF OBS      
   G20   797   797   797   797                              PRN / # OF OBS      
   G21   701   701   700   700                              PRN / # OF OBS      
   G22   781   781   781   781                              PRN / # OF OBS      
   G23   730   730   730   730                              PRN / # OF OBS      
   G24   840   840   840   840                              PRN / # OF OBS      
   G25   847   847   847   847                              PRN / # OF OBS      
   G27   832   832   832   832                              PRN / # OF OBS      
   G28   908   908   908   908                              PRN / # OF OBS      
   G29   743   743   743   743                              PRN / # OF OBS      
   G30   696   696   696   696                              PRN / # OF OBS      
   G31   782   782   782   782                              PRN / # OF OBS      
   G32   744   744   744   744                              PRN / # OF OBS      
BIT 2 OF LLI FLAGS DATA COLLECTED UNDER A/S CONDITION       COMMENT             
SNR is mapped to RINEX snr flag value [2-9]                 COMMENT             
Lx:     = 25dBHz -> 1; 26-27dBHz -> 2; 28-31dBHz -> 3       COMMENT             
       32-35dBHz -> 4; 36-38dBHz -> 5; 39-41dBHz -> 6       COMMENT             
       42-44dBHz -> 7; 45-48dBHz -> 8; >=49dBHz -> 9        COMMENT             
                                                            END OF HEADER       
 15 02 28 00 00  0.0000000  0  7G16G18G21G22G27G29G31
  21596401.315   113489872.71809  21596399.837    88433661.43148
  22710374.846   119343900.57008  22710373.925    92995300.69546
  21416602.085   112545003.69809  21416600.201    87697397.66548
  23897180.819   125580577.71007  23897181.978    97855038.68445
  22660255.011   119080473.93408  22660256.589    92789986.49047
  24258333.905   127478386.42307  24258333.894    99333800.93946
  22801109.903   119820617.26208  22801109.286    93366701.64547
 15 02 28 00 00 30.0000000  0  7G16G18G21G22G27G29G31
  21583465.186   113421892.87009  21583463.750    88380690.13048
  22699359.089   119286012.12508  22699358.190    92950192.85246
  21424669.037   112587395.50409  21424667.193    87730430.24348
  23879827.816   125489386.25007  23879828.516    97783980.69045
  22648754.492   119020037.04708  22648755.763    92742892.84147
  24272594.225   127553326.72307  24272594.308    99392196.01345
  22818465.636   119911821.34908  22818465.160    93437769.57747
 15 02 28 00 01  0.0000000  0  7G16G18G21G22G27G29G31
  21570579.305   113354176.88709  21570577.721    88327924.43348
  22688399.798   119228421.16308  22688398.885    92905316.80146
  21432799.739   112630122.35309  21432797.651    87763723.89148
  23862475.856   125398207.77306  23862477.926    97712933.01846
  22637277.414   118959725.66108  22637278.848    92695896.98247
  24286856.176   127628274.09407  24286856.568    99450596.49045
  22835859.529   120003226.31208  22835859.512    93508994.07147
 15 02 28 00 01 30.0000000  0  7G16G18G21G22G27G29G31
  21557741.496   113286713.21409  21557739.874    88275355.34648
  22677495.027   119171116.14108  22677493.976    92860663.55346
  21440991.097   112673168.85009  21440989.172    87797266.61448
  23845125.593   125307031.52608  23845127.256    97641886.95446
  22625821.855   118899526.10208  22625823.466    92648988.26447
  24301116.931   127703214.80406  24301116.751    99508991.86745
  22853288.344   120094815.50908  22853288.481    93580362.10047
 15 02 28 00 02  0.0000000  0  7G16G18G21G22G27G29G31
  21544953.739   113219513.56809  21544952.056    88222991.99348
  22666646.891   119114109.11708  22666645.976    92816242.52246
  21449244.871   112716542.79209  21449242.990    87831064.49348
  23827778.128   125215869.41907  23827779.351    97570851.84046
  22614389.146   118839447.65408  22614390.744    92602173.92847
  24315378.546   127778157.84707  24315378.798    99567389.00546
  22870753.754   120186595.26508  22870753.656    93651878.66747
 15 02 28 00 02 30.0000000  0  7G16G18G21G22G27G29G31
  21532217.358   113152583.43109  21532215.698    88170838.64548
  22655856.361   119057405.99908  22655855.751    92772058.29346
  21457561.204   112760245.19709  21457559.303    87865118.31248
  23810433.660   125124727.81106  23810434.781    97499832.72545
  22602980.185   118779493.72408  22602981.905    92555456.60647
  24329640.442   127853107.61707  24329641.094    99625791.37645
  22888255.343   120278566.26708  22888255.121    93723544.20946
 15 02 28 00 03  0.0000000  0  7G16G18G21G22G27G29G31
  21519529.767   113085909.19409  21519528.021    88118884.69848
  22645121.306   119000992.84008  22645120.835    92728100.01346
  21465936.549   112804258.68209  21465934.744    87899414.53248
  23793091.132   125033593.27607  23793091.858    97428819.01346
  22591592.058   118719648.24508  22591593.565    92508823.79147
  24343901.038   127928047.43107  24343901.821    99684186.01445
  22905789.546   120370709.46808  22905789.301    93795343.90047
 15 02 28 00 03 30.0000000  0  7G16G18G21G22G27G29G31
  21506893.459   113019505.35509  21506891.854    88067141.45448
  22634444.242   118944884.46008  22634443.711    92684379.22346
  21474373.405   112848594.15609  21474371.527    87933961.65348
  23775753.134   124942480.98207  23775753.658    97357822.70046
  22580226.743   118659923.48708  22580228.474    92462285.05147
  24358162.116   128002989.74307  24358162.230    99742582.62944
  22923358.575   120463034.24608  22923358.792    93867285.06147
 15 02 28 00 04  0.0000000  0  7G16G18G21G22G27G29G31
  21494308.735   112953372.36809  21494307.296    88015609.26348
  22623825.441   118889082.09508  22623824.774    92640896.89146
  21482870.585   112893247.61209  21482868.813    87968756.55448
  23758419.002   124851391.87407  23758419.798    97286844.53445
  22568884.092   118600317.98508  22568885.899    92415839.22647
  24372423.642   128077932.75807  24372423.557    99800979.78644
  22940961.290   120555536.51408  22940961.596    93939364.53746
 15 02 28 00 04 30.0000000  0  7G16G18G21G22G27G29G31
  21481776.130   112887513.49109  21481774.687    87964290.66548
  22613265.252   118833588.64708  22613264.757    92597655.26146
  21491428.496   112938219.01609  21491426.684    88003799.20148
  23741090.378   124760329.62507  23741090.392    97215887.14044
  22557564.480   118540832.52208  22557566.071    92369486.95347
  24386685.084   128152877.73207  24386685.164    99859378.43245
  22958597.262   120648213.88808  22958597.550    94011580.47546
 15 02 28 00 05  0.0000000  0  7G16G18G21G22G27G29G31
  21469296.069   112821930.20109  21469294.511    87913186.80648
  22602764.266   118778405.81408  22602763.658    92554655.67246
  21500046.112   112983505.86109  21500044.370    88039087.65248
  23723767.530   124669296.19107  23723766.712    97144952.18945
  22546267.540   118481466.45008  22546269.103    92323227.69747
  24400946.734   128227823.99107  24400947.213    99917778.07846
  22976266.078   120741063.11208  22976266.336    94083930.32947
 15 02 28 00 05 30.0000000  0  7G16G18G21G22G27G29G31
  21456867.621   112756618.89309  21456866.190    87862294.88148
  22592322.000   118723530.26908  22592321.186    92511895.52646
  21508722.528   113029100.23809  21508720.705    88074615.73348
  23706448.832   124578288.72607  23706448.584    97074037.60146
  22534992.307   118422214.07508  22534993.864    92277057.03947
  24415207.728   128302766.11707  24415208.170    99976174.53045
  22993965.918   120834075.27708  22993966.034    94156406.91346
 15 02 28 00 06  0.0000000  0  7G16G18G21G22G27G29G31
  21444492.890   112691588.80409  21444491.568    87811622.08948
  22581939.742   118668971.60808  22581939.000    92469382.30546
  21517458.360   113075007.74809  21517456.614    88110387.81948
  23689137.530   124487317.03507  23689136.923    97003150.83645
  22523739.752   118363082.34308  22523741.287    92230980.39947
  24429469.291   128377711.04107  24429470.183   100034573.08945
  23011697.851   120927255.21308  23011698.291    94229014.41847
 15 02 28 00 06 30.0000000  0  7G16G18G21G22G27G29G31
  21432171.057   112626836.22809  21432169.410    87761165.53848
  22571617.247   118614726.12108  22571616.477    92427113.11246
  21526252.392   113121220.57609  21526250.622    88146397.81248
  23671832.376   124396377.64607  23671831.153    96932289.13345
  22512509.150   118304065.13108  22512510.515    92184992.98447
  24443730.060   128452652.54606  24443731.388   100092969.08945
  23029459.645   121020593.53908  23029460.514    94301745.37346
 15 02 28 00 07  0.0000000  0  7G16G18G21G22G27G29G31
  21419903.175   112562368.91609  21419901.751    87710931.27548
  22561355.648   118560801.67808  22561354.950    92385094.09046
  21535105.320   113167742.33809  21535103.517    88182648.53048
  23654534.189   124305478.68607  23654533.730    96861459.04446
  22501301.229   118245167.98508  22501302.883    92139099.13447
  24457991.814   128527596.06807  24457992.114   100151366.63145
  23047251.898   121114092.92608  23047252.424    94374601.92746
 15 02 28 00 07 30.0000000  0  7G16G18G21G22G27G29G31
  21407689.524   112498185.65709  21407688.008    87660918.35048
  22551154.909   118507196.87008  22551154.230    92343324.13146
  21544016.039   113214568.07409  21544014.257    88219136.11548
  23637244.042   124214619.41107  23637243.879    96790659.90446
  22490115.744   118186387.39308  22490117.321    92093296.09847
  24472253.035   128602538.32106  24472253.519   100209763.16946
  23065074.052   121207746.63508  23065074.116    94447578.81046
 15 02 28 00 08  0.0000000  0  7G16G18G21G22G27G29G31
  21395530.675   112434290.69109  21395529.239    87611130.06848
  22541016.092   118453916.65308  22541015.438    92301807.09746
  21552984.568   113261698.23509  21552982.630    88255860.91448
  23619962.788   124123805.31107  23619962.088    96719895.85645
  22478952.595   118127725.77708  22478954.143    92047585.77947
  24486514.427   128677482.00407  24486514.535   100268160.83145
  23082925.156   121301554.41108  23082925.502    94520675.65547
 15 02 28 00 08 30.0000000  0  7G16G18G21G22G27G29G31
  21383427.776   112370689.96709  21383426.424    87561571.06448
  22530940.034   118400966.83408  22530939.253    92260547.52146
  21562011.311   113309134.49709  21562009.610    88292824.23248
  23602690.507   124033042.48507  23602690.292    96649171.80145
  22467812.999   118069186.77508  22467814.416    92001970.99447
  24500775.993   128752430.41306  24500776.370   100326562.16344
  23100805.325   121395516.83308  23100806.438    94593892.88347
 15 02 28 00 09  0.0000000  0  7G16G18G21G22G27G29G31
  21371379.336   112307374.76809  21371377.844    87512234.55148
  22520925.226   118348338.78708  22520924.489    92219538.67646
  21571094.044   113356864.51409  21571092.261    88330016.45248
  23585426.846   123942322.43007  23585426.966    96578481.05546
  22456694.711   118010759.21608  22456696.204    91956443.05347
  24515036.915   128827372.69006  24515038.587   100384958.58546
  23118713.088   121489620.23508  23118714.078    94667220.05046
 15 02 28 00 09 30.0000000  0  7G16G18G21G22G27G29G31
  21359385.525   112244346.98909  21359384.241    87463122.00248
  22510971.938   118296034.37308  22510971.348    92178782.00946
  21580232.146   113404885.38009  21580230.351    88367435.30748
  23568172.322   123851647.82508  23568172.138    96507825.76246
  22445597.321   117952442.84508  22445598.776    91911001.75347
  24529297.423   128902308.60405  24529297.556   100443350.36846
  23136646.862   121583861.41408  23136647.167    94740654.67446
 15 02 28 00 10  0.0000000  0  7G16G18G21G22G27G29G31
  21347450.701   112181628.06609  21347449.191    87414250.12048
  22501084.497   118244075.20708  22501083.744    92138294.36047
  21589429.098   113453215.65809  21589427.304    88405095.26248
  23550930.773   123761041.02808  23550930.040    96437223.28845
  22434525.040   117894257.08608  22434526.528    91865662.21947
  24543559.892   128977257.94506  24543559.934   100501752.45345
  23154609.658   121678256.61008  23154610.330    94814209.26446
 15 02 28 00 10 30.0000000  0  7G16G18G21G22G27G29G31
  21335570.878   112119199.11409  21335569.357    87365604.18948
  22491258.978   118192442.38008  22491258.480    92098061.01746
  21598680.421   113501831.84409  21598678.687    88442978.00448
  23533697.808   123670483.02907  23533696.484    96366658.78845
  22423473.394   117836180.60808  22423474.796    91820407.84947
  24557821.413   129052199.08807  24557822.228   100560148.03846
  23172597.133   121772781.76908  23172598.175    94887865.13647
 15 02 28 00 11  0.0000000  0  6G16G18G21G22G27G31
  21323746.773   112057063.05109  21323745.191    87317186.48548
  22481496.400   118141139.18708  22481495.545    92058084.52346
  21607986.135   113550733.01509  21607984.087    88481082.81148
  23516474.814   123579977.64808  23516474.003    96296135.32646
  22412442.755   117778214.36708  22412444.316    91775239.37647
  23190609.110   121867434.84808  23190610.029    94961620.66847
 15 02 28 00 11 30.0000000  0  6G16G18G21G22G27G31
  21311981.681   111995237.41909  21311980.136    87269010.67748
  22471799.634   118090182.84008  22471798.977    92018378.28946
  21617348.370   113599932.42209  21617346.659    88519420.00948
  23499265.697   123489542.78507  23499264.568    96225666.78446
  22401435.996   117720373.42508  22401437.549    91730168.53847
  23208647.813   121962228.12408  23208648.659    95035485.40646
 15 02 28 00 12  0.0000000  0  6G16G18G21G22G27G31
  21300275.621   111933721.53309  21300274.152    87221076.22448
  22462168.887   118039572.60808  22462168.167    91978941.76646
  21626766.571   113649425.99709  21626764.935    88557986.43148
  23482070.003   123399178.27407  23482068.749    96155253.06246
  22390452.770   117662655.08708  22390454.158    91685193.23147
  23226712.110   122057155.92408  23226712.906    95109455.00747
 15 02 28 00 12 30.0000000  0  6G16G18G21G22G27G31
  21288628.474   111872515.52109  21288627.036    87173383.23248
  22452604.115   117989309.20508  22452603.395    91939775.49846
  21636240.174   113699209.86209  21636238.618    88596779.05048
  23464887.309   123308885.10607  23464885.926    96084894.96246
  22379492.145   117605057.30508  22379493.490    91640311.87547
  23244801.151   122152213.16608  23244801.844    95183525.46546
 15 02 28 00 13  0.0000000  0  6G16G18G21G22G27G31
  21277038.614   111811610.92909  21277037.294    87125925.11448
  22443103.445   117939383.53608  22443102.890    91900872.39447
  21645766.396   113749270.81209  21645764.830    88635787.57848
  23447717.039   123218655.00708  23447715.200    96014585.95945
  22368552.541   117547569.23308  22368553.824    91595515.99448
  23262911.824   122247386.36107  23262912.908    95257686.34246
 15 02 28 00 13 30.0000000  0  6G16G18G21G22G27G31
  21265508.697   111751020.21009  21265507.129    87078711.57548
  22433669.559   117889808.53608  22433668.973    91862242.55046
  21655347.265   113799618.39809  21655345.635    88675019.46548
  23430561.426   123128501.40508  23430559.276    95944336.53745
  22357635.786   117490201.42108  22357637.099    91550813.82948
  23281046.098   122342682.92907  23281047.318    95331943.28046
 15 02 28 00 14  0.0000000  0  7G16G18G19G21G22G27G31
  21254038.694   111690745.68809  21254037.285    87031744.42148
  22424302.915   117840586.51808  22424302.261    91823887.74147
  24533026.773   128921931.09416  24533026.698   100458639.58454
  21664982.040   113850249.70209  21664980.375    88714472.42848
  23413420.225   123038426.94007  23413418.683    95874148.83146
  22346742.026   117432954.04708  22346743.314    91506205.50748
  23299203.692   122438100.38308  23299204.458    95406294.45046
 15 02 28 00 14 30.0000000  0  7G16G18G19G21G22G27G31
  21242626.914   111630776.31409  21242625.588    86985015.05448
  22415001.377   117791706.14108  22415000.745    91785799.15347
  24518178.528   128843900.22806  24518177.473   100397836.36244
  21674668.212   113901150.40909  21674666.411    88754135.31548
  23396292.175   122948420.83908  23396291.347    95804014.40746
  22335868.432   117375813.42508  22335869.790    91461680.36947
  23317381.003   122533621.61207  23317381.873    95480726.45946
 15 02 28 00 15  0.0000000  0  7G16G18G19G21G22G27G31
  21231276.049   111571127.83609  21231274.693    86938535.72348
  22405767.769   117743183.10608  22405767.084    91747989.00946
  24503346.385   128765957.38406  24503345.292   100337101.75144
  21684407.935   113952332.12409  21684405.945    88794017.17148
  23379180.769   122858499.88508  23379179.605    95733946.28045
  22325017.850   117318793.32608  22325019.263    91417249.15048
  23335579.746   122629257.89907  23335581.051    95555248.08046
 15 02 28 00 15 30.0000000  0  7G16G18G19G21G22G27G31
  21219987.846   111511807.40009  21219986.536    86892312.01448
  22396603.412   117695024.49408  22396602.635    91710462.84147
  24488531.838   128688107.66306  24488531.310   100276439.71744
  21694201.474   114003797.92909  21694199.570    88834120.39748
  23362087.193   122768671.38307  23362085.125    95663950.14646
  22314191.061   117261898.94708  22314192.454    91372915.89448
  23353801.156   122725011.68108  23353802.306    95629861.35846
 15 02 28 00 16  0.0000000  0  7G16G18G19G21G22G27G31
  21208761.308   111452811.88609  21208759.966    86846341.49248
  22387507.912   117647227.06708  22387507.290    91673218.11247
  24473734.014   128610345.76306  24473733.968   100215846.11145
  21704047.849   114055540.41609  21704045.952    88874439.21448
  23345009.660   122678932.99707  23345008.442    95594024.33046
  22303387.199   117205124.76808  22303388.829    91328676.29448
  23372043.694   122820874.21108  23372044.342    95704559.44646
 15 02 28 00 16 30.0000000  0  7G16G18G19G21G22G27G31
  21197595.439   111394134.37909  21197593.918    86800618.76748
  22378479.829   117599784.17108  22378479.020    91636249.63746
  24458951.467   128532662.51706  24458950.937   100155313.75445
  21713944.746   114107549.58609  21713942.914    88914965.83948
  23327949.236   122589278.70708  23327948.109    95524163.99346
  22292604.584   117148461.80708  22292606.178    91284523.36148
  23390304.333   122916833.42108  23390304.731    95779332.74746
 15 02 28 00 17  0.0000000  0  7G16G18G19G21G22G27G31
  21186491.782   111335784.42509  21186490.361    86755151.27648
  22369520.801   117552704.72308  22369520.172    91599564.37147
  24444185.218   128455065.19706  24444184.605   100094848.34544
  21723893.148   114159829.85009  21723891.623    88955703.70248
  23310906.742   122499717.95008  23310905.577    95454376.54946
  22281844.652   117091917.26208  22281846.000    91240462.69848
  23408583.862   123012893.77807  23408584.634    95854184.89246
 15 02 28 00 17 30.0000000  0  7G16G18G19G21G22G27G31
  21175451.162   111277765.04209  21175449.564    86709941.37248
  22360631.782   117505992.39708  22360631.179    91563165.17947
  24429435.113   128377554.87006  24429434.897   100034450.81944
  21733893.359   114212381.53309  21733892.019    88996653.05848
  23293882.224   122410254.78607  23293880.743    95384665.13346
  22271107.268   117035492.30408  22271108.815    91196495.22048
  23426882.233   123109053.70808  23426883.581    95929114.61646
 15 02 28 00 18  0.0000000  0  7G16G18G19G21G22G27G31
  21164473.146   111220075.02409  21164471.596    86664988.11348
  22351812.299   117459645.32608  22351811.454    91527050.59847
  24414701.424   128300127.93906  24414701.349    99974118.21544
  21743944.152   114265198.46209  21743942.752    89037809.09948
  23276876.105   122320888.49707  23276874.373    95315029.17346
  22260392.021   116979183.45708  22260393.648    91152618.21748
  23445198.860   123205306.76408  23445200.044    96004117.03546
 15 02 28 00 18 30.0000000  0  7G16G18G19G21G22G27G31
  21153558.494   111162718.36109  21153556.880    86620294.61648
  22343062.948   117413667.73708  22343062.099    91491223.92047
  24399983.915   128222786.28306  24399983.573    99913852.07045
  21754045.653   114318281.14609  21754044.027    89079172.22648
  23259889.760   122231623.90208  23259888.046    95245472.47246
  22249699.261   116922992.62608  22249700.925    91108833.17648
  23463532.687   123301651.70607  23463533.683    96079191.06446
 15 02 28 00 19  0.0000000  0  7G16G18G19G21G22G27G31
  21142707.780   111105697.44309  21142706.108    86575862.73448
  22334384.436   117368061.78408  22334383.587    91455686.83547
  24385282.429   128145530.57406  24385282.039    99853652.90146
  21764197.219   114371627.89509  21764195.576    89120741.12048
  23242923.155   122142463.85507  23242921.880    95175997.26846
  22239029.122   116866920.29008  22239030.589    91065140.46548
  23481883.547   123398086.31707  23481884.513    96154334.92746
 15 02 28 00 19 30.0000000  0  7G16G18G19G21G22G27G31
  21131921.006   111049012.09309  21131919.314    86531692.33648
  22325776.406   117322826.87808  22325775.662    91420438.88346
  24370597.180   128068358.13206  24370596.456    99793518.58446
  21774398.169   114425233.99909  21774396.508    89162512.10948
  23225976.519   122053408.71008  23225975.007    95106603.78146
  22228380.878   116810963.70308  22228382.235    91021537.95348
  23500250.120   123494604.71207  23500251.730    96229544.04946
 15 02 28 00 20  0.0000000  0  7G16G18G19G21G22G27G31
  21121199.513   110992670.26409  21121197.714    86487789.61348
  22317240.603   117277970.80308  22317239.992    91385486.11447
  24355928.370   127991274.83106  24355927.654    99733453.76045
  21784649.233   114479103.98309  21784647.427    89204488.71748
  23209051.360   121964466.71508  23209049.760    95037298.44046
  22217755.830   116755128.79408  22217757.378    90978030.25448
  23518633.497   123591209.79408  23518634.832    96304820.74646
 15 02 28 00 20 30.0000000  0  7G16G18G19G21G22G27G31
  21110542.293   110936666.54309  21110540.629    86444150.35348
  22308775.988   117233488.45008  22308775.035    91350824.56347
  24341275.389   127914272.30006  24341274.434    99673451.86745
  21794948.534   114533227.83209  21794946.966    89246663.14148
  23192146.814   121875633.19508  23192145.072    94968077.63146
  22207152.514   116699407.95908  22207153.969    90934611.44248
  23537031.482   123687891.13907  23537032.602    96380156.85245
 15 02 28 00 21  0.0000000  0  7G16G18G19G21G22G27G31
  21099950.695   110881007.37909  21099949.013    86400779.57948
  22300383.691   117189386.38508  22300382.764    91316459.33647
  24326638.765   127837356.10506  24326637.749    99613517.24445
  21805296.823   114587608.86309  21805295.201    89289037.96548
  23175264.506   121786915.69008  23175262.893    94898947.21046
  22196571.698   116643805.89508  22196573.230    90891285.17948
  23555443.719   123784650.44207  23555445.329    96455553.70145
 15 02 28 00 21 30.0000000  0  7G16G18G19G21G22G27G31
  21089424.992   110825694.65609  21089423.345    86357678.75948
  22292063.845   117145665.57808  22292063.000    91282391.19747
  24312018.295   127760525.26306  24312017.350    99553649.12545
  21815693.704   114642244.47009  21815692.224    89331611.16048
  23158404.223   121698316.21308  23158402.683    94829908.78546
  22186013.527   116588322.05308  22186014.987    90848051.03048
  23573870.752   123881484.37307  23573872.050    96531008.73345
 15 02 28 00 22  0.0000000  0  7G16G18G19G21G22G27G31
  21078965.285   110770728.15009  21078963.621    86314847.72248
  22283816.539   117102325.60109  22283815.521    91248619.80547
  24297413.608   127683777.39706  24297412.533    99493845.65245
  21826138.238   114697130.33509  21826136.663    89374379.36348
  23141566.754   121609835.27708  23141565.295    94760962.71146
  22175477.329   116532954.17808  22175478.706    90804907.25348
  23592310.789   123978387.60407  23592312.100    96606517.74646
 15 02 28 00 22 30.0000000  0  7G16G18G19G21G22G27G31
  21068573.711   110716120.71609  21068572.265    86272296.47849
  22275644.201   117059379.23909  22275643.241    91215155.12547
  24282826.750   127607123.10006  24282825.763    99434115.11045
  21836631.906   114752274.87009  21836630.380    89417349.12948
  23124754.236   121521485.74308  23124752.721    94692119.00246
  22164965.066   116477712.89408  22164966.574    90761862.11248
  23610765.306   124075367.84407  23610767.173    96682086.65446
 15 02 28 00 23  0.0000000  0  7G16G18G19G21G22G27G31
  21058247.766   110661857.10309  21058246.297    86230013.14848
  22267543.743   117016811.01109  22267542.668    91181985.09947
  24268254.329   127530545.44706  24268253.485    99374444.28845
  21847171.591   114807660.22509  21847169.765    89460506.55248
  23107964.012   121433253.99108  23107962.652    94623367.09946
  22154473.941   116422581.22208  22154475.278    90718902.38548
  23629230.913   124172405.41707  23629233.210    96757700.33446
 15 02 28 00 23 30.0000000  0  7G16G18G19G21G22G27G31
  21047990.308   110607954.70309  21047988.975    86188011.28349
  22259518.483   116974638.64309  22259517.469    91149123.53447
  24253699.262   127454059.43006  24253698.405    99314844.88545
  21857759.271   114863299.29609  21857757.488    89503861.66748
  23091199.897   121345157.47208  23091198.007    94554720.52646
  22144006.539   116367574.30908  22144007.646    90676039.86948
  23647709.973   124269512.12607  23647711.609    96833367.85345
 15 02 28 00 24  0.0000000  0  7G16G18G19G21G22G27G31
  21037800.237   110554405.20509  21037798.784    86146284.40849
  22251567.095   116932853.44009  22251565.984    91116563.65547
  24239159.846   127377654.59206  24239158.872    99255308.71245
  21868392.764   114919179.49009  21868391.036    89547404.67548
  23074460.043   121257189.16208  23074458.387    94486173.92246
  22133560.724   116312681.87208  22133562.051    90633266.55848
  23666199.413   124366674.75807  23666200.635    96909078.97845
 15 02 28 00 24 30.0000000  0  7G16G18G19G21G22G27G31
  21027678.517   110501215.74109  21027677.228    86104838.07748
  22243690.488   116891461.81109  22243689.544    91084310.45247
  24224637.113   127301336.21106  24224635.826    99195839.89145
  21879072.708   114975303.38209  21879071.065    89591137.57748
  23057746.121   121169356.25508  23057744.076    94417732.77246
  22123137.748   116257908.85208  22123139.120    90590586.30348
  23684699.950   124463895.64407  23684701.363    96984835.42846
 15 02 28 00 25  0.0000000  0  7G16G18G19G21G22G27G31
  21017625.487   110448386.58709  21017624.038    86063672.50849
  22235888.786   116850463.90209  22235888.120    91052364.05147
  24210130.193   127225102.17606  24210128.740    99136436.83045
  21889798.534   115031668.60409  21889797.010    89635058.52648
  23041058.178   121081659.71108  23041055.480    94349397.85346
  22112737.251   116203253.40308  22112738.468    90547997.65548
  23703210.538   124561169.69207  23703212.167    97060633.29645
 15 02 28 00 25 30.0000000  0  7G16G18G19G21G22G27G31
  21007641.574   110395920.30209  21007639.931    86022789.69549
  22228162.654   116809862.27209  22228161.755    91020726.44047
  24195639.497   127148952.89806  24195638.092    99077099.79745
  21900570.133   115088273.39109  21900568.610    89679166.14948
  23024396.393   120994102.75208  23024394.063    94281171.76047
  22102359.210   116148716.21108  22102360.566    90505501.16248
  23721731.005   124658494.77807  23721732.549    97136470.88345
 15 02 28 00 26  0.0000000  0  7G16G18G19G21G22G27G31
  20997728.245   110343825.25109  20997726.666    85982196.15549
  22220513.179   116769664.72809  22220512.360    90989403.69447
  24181165.908   127072894.64206  24181164.744    99017833.76345
  21911388.109   115145121.58509  21911386.447    89723463.44348
  23007763.174   120906694.28008  23007760.787    94213061.33746
  22092004.737   116094303.49508  22092006.044    90463101.65748
  23740262.229   124755874.10907  23740263.267    97212350.79545
 15 02 28 00 26 30.0000000  0  7G16G18G19G21G22G27G31
  20987883.999   110292093.88509  20987882.531    85941886.00648
  22212939.258   116729863.22609  22212938.369    90958389.56047
  24166707.928   126996917.79006  24166707.036    98958631.11545
  21922250.379   115202202.04109  21922248.458    89767941.72248
  22991156.766   120819427.45708  22991154.659    94145061.30347
  22081672.181   116040005.70608  22081673.508    90420791.71048
  23758800.988   124853295.22707  23758802.027    97288263.23146
 15 02 28 00 27  0.0000000  0  7G16G18G19G21G22G27G31
  20978110.321   110240732.95609  20978108.751    85901864.51349
  22205442.038   116690465.00609  22205440.980    90927689.66547
  24152266.258   126921026.98706  24152265.441    98899495.48145
  21933156.910   115259516.97009  21933155.150    89812602.70648
  22974578.817   120732310.08808  22974576.427    94077177.71346
  22071362.419   115985827.75908  22071363.967    90378575.14548
  23777347.854   124950760.22807  23777349.198    97364209.76446
 15 02 28 00 27 30.0000000  0  7G16G18G19G21G22G27G31
  20968407.594   110189744.34509  20968406.035    85862133.13649
  22198021.488   116651470.81209  22198020.552    90897304.59747
  24137841.149   126845221.77706  24137839.799    98840426.54546
  21944107.967   115317065.47309  21944106.257    89857445.68948
  22958029.425   120645344.04208  22958027.203    94009412.03146
  22061075.550   115931769.02108  22061076.882    90336451.47048
  23795902.661   125048265.36507  23795903.916    97440187.66945
 15 02 28 00 28  0.0000000  0  7G16G18G19G21G22G27G31
  20958775.467   110139127.26909  20958773.850    85822691.26249
  22190678.052   116612880.08009  22190676.908    90867233.91147
  24123431.941   126769500.00506  24123430.148    98781422.61845
  21955102.359   115374842.45609  21955100.819    89902466.71048
  22941508.985   120558529.73408  22941506.745    93941764.57947
  22050810.780   115877827.22908  22050811.950    90294418.91448
  23814464.229   125145805.34507  23814465.239    97516192.71445
 15 02 28 00 28 30.0000000  0  7G16G18G19G21G22G27G31
  20949214.929   110088886.45909  20949213.275    85783542.58849
  22183412.050   116574697.23209  22183411.155    90837481.05647
  24109038.481   126693863.67706  24109037.140    98722485.31545
  21966140.481   115432848.58409  21966139.100    89947666.28248
  22925018.678   120471872.39408  22925016.732    93874239.45347
  22040568.780   115824005.00108  22040570.009    90252479.53448
  23833032.157   125243380.30807  23833033.309    97592225.07846
 15 02 28 00 29  0.0000000  0  7G16G18G19G21G22G27G31
  20939727.100   110039027.02109  20939725.470    85744691.08149
  22176224.392   116536926.86209  22176223.613    90808049.61647
  24094662.118   126618315.47106  24094660.726    98663616.67745
  21977222.563   115491084.44609  21977220.870    89993044.87248
  22908558.865   120385377.58808  22908557.649    93806841.00946
  22030350.029   115770305.31708  22030351.265    90210635.64548
  23851606.621   125340989.55507  23851607.669    97668284.16445
 15 02 28 00 29 30.0000000  0  7G16G18G19G21G22G27G31
  20930311.171   109989546.85509  20930309.694    85706135.11249
  22169115.013   116499566.60709  22169114.167    90778937.75047
  24080301.756   126542851.72806  24080300.179    98604813.82446
  21988347.320   115549544.53309  21988345.601    90038598.18948
  22892130.157   120299044.51908  22892128.415    93739568.54146
  22020153.905   115716724.32308  22020155.138    90168884.23748
  23870186.428   125438626.75807  23870187.442    97744364.94845
 15 02 28 00 30  0.0000000  0  7G16G18G19G21G22G27G31
  20920967.509   109940445.82909  20920966.012    85667874.57849
  22162083.419   116462615.98909  22162082.870    90750145.07747
  24065957.292   126467470.43506  24065955.647    98546075.20645
  21999514.024   115608225.01809  21999512.141    90084323.24348
  22875732.306   120212873.19808  22875730.474    93672422.12146
  22009979.807   115663259.85908  22009981.011    90127223.63948
  23888770.674   125536286.59607  23888771.830    97820463.41146
 15 02 28 00 30 30.0000000  0  7G16G18G19G21G22G27G31
  20911697.576   109891731.46809  20911696.069    85629915.33849
  22155131.168   116426081.94309  22155130.616    90721677.00747
  24051629.310   126392176.69506  24051627.435    98487404.82345
  22010723.031   115667129.43609  22010721.162    90130222.77948
  22859366.807   120126871.79808  22859365.221    93605408.11747
  21999829.121   115609917.26908  21999830.357    90085658.00148
  23907359.640   125633971.55507  23907360.841    97896581.45646
 15 02 28 00 31  0.0000000  0  7G16G18G19G21G22G27G31
  20902501.460   109843405.89909  20902500.089    85592259.05749
  22148258.774   116389966.20309  22148257.718    90693534.88847
  24037318.062   126316970.39006  24037316.155    98428802.58645
  22021974.381   115726256.24209  22021972.709    90176295.60648
  22843034.350   120041043.40808  22843032.330    93538528.90947
  21989701.467   115556696.90308  21989702.719    90044187.61048
  23925952.654   125731679.19106  23925954.312    97972717.14445
 15 02 28 00 31 30.0000000  0  7G16G18G19G21G22G27G31
  20893378.973   109795466.74909  20893377.374    85554903.87649
  22141465.104   116354265.60409  22141464.168    90665716.25247
  24023022.606   126241847.29607  24023020.972    98370265.17445
  22033266.898   115785599.03609  22033265.265    90222536.73748
  22826734.285   119955386.20308  22826732.498    93471783.10247
  21979596.399   115503594.34708  21979597.782    90002809.02148
  23944548.636   125829401.98707  23944550.088    98048864.64545
 15 02 28 00 32  0.0000000  0  7G16G18G19G21G22G27G31
  20884331.099   109747919.13209  20884329.410    85517853.78749
  22134751.603   116318985.32409  22134750.497    90638225.14047
  24008743.448   126166810.59307  24008742.037    98311795.07145
  22044600.692   115845158.58809  22044599.025    90268946.77648
  22810468.003   119869906.06908  22810466.380    93405175.28447
  21969514.243   115450612.91908  21969515.489    89961524.80948
  23963148.101   125927140.24007  23963149.412    98125024.20546
 15 02 28 00 32 30.0000000  0  7G16G18G19G21G22G27G31
  20875357.792   109700764.77109  20875356.393    85481110.12749
  22128118.346   116284127.41909  22128117.246    90611063.15047
  23994480.609   126091859.89806  23994479.304    98253392.00145
  22055975.587   115904933.37709  22055973.803    90315524.53048
  22794235.606   119784605.43008  22794233.849    93338707.31746
  21959455.249   115397752.58008  21959456.470    89920334.96448
  23981749.489   126024890.75907  23981750.901    98201193.25645
 15 02 28 00 33  0.0000000  0  7G16G18G19G21G22G27G31
  20866459.623   109654004.80009  20866458.076    85444673.78749
  22121565.355   116249691.75009  22121564.391    90584230.17747
  23980234.221   126016994.21807  23980232.706    98195055.18845
  22067390.608   115964919.84409  22067388.872    90362267.23548
  22778037.737   119699485.80608  22778035.901    93272380.39646
  21949419.129   115345012.13308  21949420.378    89879238.53348
  24000352.049   126122649.71106  24000353.864    98277368.87245
 15 02 28 00 33 30.0000000  0  7G16G18G19G21G22G27G31
  20857637.222   109607642.39009  20857635.732    85408547.23149
  22115093.450   116215681.25109  22115092.397    90557728.50647
  23966004.062   125942214.54407  23966002.580    98136785.35845
  22078845.878   116025117.78909  22078844.061    90409174.72348
  22761875.559   119614551.36108  22761873.234    93206197.75947
  21939406.031   115292393.00808  21939407.290    89838236.64448
  24018956.326   126220415.56707  24018958.073    98353549.84445
 15 02 28 00 34  0.0000000  0  7G16G18G19G21G22G27G31
  20848890.342   109561677.50709  20848888.828    85372730.43649
  22108702.189   116182095.69909  22108701.176    90531557.96447
  23951790.013   125867519.30507  23951788.390    98078581.34545
  22090340.614   116085523.44109  22090339.079    90456244.05948
  22745748.211   119529803.07408  22745746.274    93140160.20747
  21929415.640   115239893.71008  21929417.135    89797328.12848
  24037561.497   126318183.80707  24037562.895    98429732.75945
 15 02 28 00 34 30.0000000  0  7G16G18G19G21G22G27G31
  20840220.756   109516118.15209  20840219.110    85337229.64049
  22102393.358   116148942.31809  22102392.462    90505724.17847
  23937593.060   125792914.37307  23937591.438    98020447.70045
  22101875.735   116146141.19109  22101874.182    90503478.65748
  22729658.012   119445249.60408  22729656.199    93074274.44747
  21919449.438   115187520.18608  21919450.661    89756517.61448
  24056167.500   126415957.32407  24056168.844    98505919.72945
 15 02 28 00 35  0.0000000  0  6G16G18G21G22G27G31
  20831627.838   109470962.62609  20831626.276    85302043.51649
  22096166.468   116116219.22509  22096165.407    90480225.68047
  22113450.205   116206965.16109  22113448.590    90550873.95548
  22713604.845   119360889.76508  22713602.676    93008539.55047
  21909506.182   115135268.86608  21909507.601    89715802.32348
  24074772.814   126513729.59906  24074774.460    98582105.67746
 15 02 28 00 35 30.0000000  0  7G16G18G19G21G22G27G31
  20823110.659   109426204.42209  20823108.943    85267166.99249
  22090019.863   116083918.91009  22090018.782    90455056.62247
  23909246.941   125643940.57517  23909245.304    97904367.01955
  22125061.902   116267984.97709  22125060.381    90598421.85948
  22697587.384   119276717.69008  22697585.140    92942950.97747
  21899584.796   115083131.22608  21899586.068    89675175.61448
  24093375.923   126611489.09707  24093377.737    98658281.67445
 15 02 28 00 36  0.0000000  0  7G16G18G19G21G22G27G31
  20814670.575   109381851.45309  20814669.052    85232606.23649
  22083955.406   116052049.07109  22083954.018    90430222.98947
  23895097.163   125569582.74217  23895095.423    97846420.68455
  22136711.951   116329205.08509  22136710.187    90646125.83948
  22681607.348   119192741.97208  22681605.159    92877515.40947
  21889686.102   115031113.36308  21889687.451    89634642.24548
  24111977.445   126709239.50107  24111979.300    98734450.59345
 15 02 28 00 36 30.0000000  0  7G16G18G19G21G22G27G31
  20806310.780   109337920.18309  20806309.254    85198374.07149
  22077975.677   116020626.19309  22077974.578    90405737.65147
  23880966.033   125495324.18307  23880964.381    97788556.93045
  22148401.996   116390637.68709  22148400.476    90693995.39648
  22665668.293   119108980.01808  22665665.748    92812246.40447
  21879813.110   114979230.03208  21879814.219    89594213.69948
  24130579.243   126806991.85907  24130581.274    98810621.00445
 15 02 28 00 37  0.0000000  0  7G16G18G19G21G22G27G31
  20798028.251   109294395.44909  20798026.650    85164458.69349
  22072078.042   115989634.13309  22072076.998    90381588.01247
  23866850.486   125421146.89007  23866849.014    97730756.48745
  22160129.078   116452264.01009  22160127.452    90742015.90248
  22649766.786   119025417.56508  22649764.218    92747132.86047
  21869962.337   114927464.27809  21869963.469    89553876.77448
  24149177.851   126904726.67507  24149179.675    98886777.75445
 15 02 28 00 37 30.0000000  0  7G16G18G19G21G22G27G31
  20789823.763   109251280.44609  20789822.192    85130862.58949
  22066262.755   115959075.65509  22066261.779    90357776.22647
  23852750.893   125347052.06007  23852749.241    97673020.30246
  22171892.817   116514083.97309  22171891.521    90790187.29848
  22633904.117   118942058.39408  22633901.584    92682177.71347
  21860134.199   114875817.40908  21860135.418    89513632.48448
  24167772.900   127002442.28506  24167774.636    98962919.60144
 15 02 28 00 38  0.0000000  0  7G16G18G19G21G22G27G31
  20781698.442   109208581.66009  20781696.853    85097590.81049
  22060531.472   115928957.05909  22060530.442    90334307.20547
  23838667.684   125273044.17207  23838665.861    97615351.87245
  22183694.151   116576099.96209  22183692.725    90838511.44648
  22618081.606   118858910.00608  22618078.723    92617386.80647
  21850329.724   114824294.32408  21850330.822    89473484.64648
  24186364.049   127100140.65306  24186366.342    99039047.93645
 15 02 28 00 38 30.0000000  0  7G16G18G19G21G22G27G31
  20773652.656   109166300.73709  20773651.138    85064644.63849
  22054883.745   115899278.92709  22054882.786    90311181.40147
  23824600.828   125199122.90706  23824599.100    97557750.93346
  22195532.481   116638309.93109  22195530.880    90886986.74248
  22602299.621   118775974.55308  22602296.664    92552761.81747
  21840548.619   114772894.80109  21840549.952    89433433.08948
  24204951.696   127197818.55106  24204954.318    99115160.24746
 15 02 28 00 39  0.0000000  0  7G16G18G19G21G22G27G31
  20765686.572   109124438.15509  20765684.991    85032024.44449
  22049320.197   115870041.41109  22049318.954    90288398.93847
  23810550.258   125125286.91506  23810548.665    97500216.43645
  22207407.077   116700710.26209  22207405.451    90935610.37448
  22586558.291   118693253.15308  22586555.578    92488303.63747
  21830790.908   114721617.46709  21830791.976    89393476.74748
  24223535.027   127295471.42707  24223537.500    99191253.08446
 15 02 28 00 39 30.0000000  0  7G16G18G19G21G22G27G31
  20757800.636   109082997.75009  20757799.198    84999733.22149
  22043840.968   115841247.96209  22043839.936    90265962.49747
  23796516.486   125051538.09906  23796514.483    97442749.86945
  22219317.705   116763301.09609  22219316.120    90984382.44948
  22570858.358   118610750.66708  22570856.051    92424016.04247
  21821056.812   114670464.63408  21821057.950    89353617.41348
  24242113.363   127393098.71307  24242115.625    99267326.02545
 15 02 28 00 40  0.0000000  0  7G16G18G19G21G22G27G31
  20749995.553   109041981.13709  20749993.982    84967772.22949
  22038446.519   115812899.50409  22038445.401    90243872.80747
  23782498.776   124977875.91306  23782497.217    97385350.82146
  22231264.026   116826080.74708  22231262.552    91033301.65548
  22555200.679   118528469.19108  22555197.973    92359900.64547
  21811346.263   114619435.95008  21811347.374    89313854.82148
  24260686.020   127490697.21206  24260687.778    99343376.51344
 15 02 28 00 40 30.0000000  0  7G16G18G19G21G22G27G31
  20742271.554   109001391.74509  20742270.116    84936144.13249
  22033137.022   115784998.72109  22033136.047    90222131.95547
  23768498.086   124904302.28906  23768496.476    97328020.75245
  22243246.406   116889048.95809  22243244.902    91082367.78148
  22539585.968   118446413.27408  22539583.129    92295960.99947
  21801659.878   114568533.30909  21801660.950    89274190.43848
  24279252.387   127588266.00705  24279254.024    99419403.90543
 15 02 28 00 41  0.0000000  0  7G16G18G19G21G22G27G31
  20734627.821   108961223.38009  20734626.323    84904844.10849
  22027911.685   115757539.14109  22027910.683    90200734.89847
  23754512.736   124830808.99907  23754511.341    97270753.30546
  22255262.911   116952195.61809  22255261.205    91131572.96848
  22524013.100   118364577.61108  22524010.292    92232192.99347
  21791995.808   114517748.87209  21791997.018    89234618.15948
  24297811.673   127685794.05507  24297813.475    99495399.47245
 15 02 28 00 41 30.0000000  0  6G16G18G19G22G27G31
  20727066.114   108921486.18309  20727064.587    84873880.06349
  22022771.960   115730530.29809  22022771.196    90179689.06047
  23740544.457   124757404.22907  23740542.782    97213554.83046
  22508484.119   118282972.73308  22508481.511    92168604.82447
  21782355.885   114467090.92208  21782357.064    89195144.44248
  24316364.240   127783286.64107  24316366.588    99571367.43246
 15 02 28 00 42  0.0000000  0  7G16G18G19G21G22G27G31
  20719586.403   108882180.91109  20719584.913    84843252.58149
  22017718.075   115703972.42209  22017717.115    90158994.62847
  23726592.479   124684086.59007  23726590.886    97156424.24346
  22279400.894   117079041.53918  22279399.142    91230414.16258
  22492999.441   118201600.54608  22492996.696    92105197.96847
  21772739.928   114416558.60209  21772741.125    89155768.62148
  24334909.459   127880740.42407  24334912.183    99647305.07446
 15 02 28 00 42 30.0000000  0  7G16G18G19G21G22G27G31
  20712189.705   108843310.68509  20712188.255    84812964.09749
  22012750.424   115677867.58009  22012749.532    90138653.20947
  23712657.305   124610857.75506  23712655.708    97099362.86245
  22291521.567   117142736.14009  22291519.843    91280046.31048
  22477559.697   118120464.61208  22477556.929    92041975.20647
  21763148.194   114366153.41909  21763149.310    89116491.86748
  24353446.529   127978153.51205  24353449.631    99723211.01245
 15 02 28 00 43  0.0000000  0  7G16G18G19G21G22G27G31
  20704875.966   108804876.98009  20704874.389    84783015.75749
  22007869.499   115652217.18009  22007868.144    90118665.89547
  23698739.144   124537717.45007  23698737.740    97042370.45446
  22303676.084   117206610.37008  22303674.611    91329818.43048
  22462165.586   118039567.63808  22462162.487    91978938.63147
  21753580.660   114315875.18809  21753581.896    89077314.03248
  24371974.981   128075522.80806  24371978.544    99799082.71844
 15 02 28 00 43 30.0000000  0  7G16G18G19G21G22G27G31
  20697644.416   108766874.14709  20697642.829    84753403.16649
  22003073.768   115627015.19409  22003072.193    90099027.99947
  23684836.318   124464657.97907  23684834.942    96985441.03946
  22315863.115   117270654.86908  22315861.964    91379723.22748
  22446815.999   117958905.16608  22446812.792    91916084.78947
  21744035.754   114265716.89609  21744036.933    89038229.66248
  24390494.064   128172838.40207  24390496.724    99874912.82144
 15 02 28 00 44  0.0000000  0  7G16G18G19G21G22G27G31
  20690495.811   108729308.50609  20690494.295    84724131.23849
  21998364.299   115602266.95609  21998362.854    90079743.66647
  23670949.806   124391683.77107  23670948.330    96928578.06046
  22328083.325   117334871.97508  22328082.057    91429762.52948
  22431511.938   117878483.84908  22431509.212    91853418.87447
  21734514.772   114215683.08209  21734515.985    88999242.28348
  24409003.244   128270101.76707  24409005.352    99950702.15344
 15 02 28 00 44 30.0000000  0  7G16G18G19G21G22G27G31
  20683431.304   108692184.24009  20683429.806    84695203.24349
  21993741.932   115577975.56609  21993740.481    90060815.32347
  23657080.140   124318797.03007  23657078.324    96871783.23345
  22340336.734   117399262.50809  22340335.015    91479936.96848
  22416255.163   117798308.38908  22416252.436    91790944.52347
  21725017.774   114165776.23909  21725018.901    88960353.84248
  24427502.283   128367312.34407  24427504.682   100026450.28545
 15 02 28 00 45  0.0000000  0  7G16G18G19G21G22G27G31
  20676451.512   108655505.06109  20676450.044    84666622.06749
  21989206.995   115554144.34309  21989205.600    90042245.55547
  23643227.143   124245999.82207  23643225.555    96815058.17946
  22352623.008   117463826.03709  22352621.252    91530246.21148
  22401045.912   117718383.52008  22401043.226    91728665.44347
  21715545.366   114115998.43209  21715546.494    88921565.95048
  24445990.657   128464469.56205  24445993.777   100102156.75945
 15 02 28 00 45 30.0000000  0  7G16G18G19G21G22G27G31
  20669555.995   108619269.80809  20669554.514    84638386.80349
  21984759.155   115530771.68809  21984758.104    90024033.11447
  23629390.908   124173289.23007  23629389.092    96758400.61146
  22364941.136   117528558.63908  22364939.471    91580687.19547
  22385884.373   117638709.18808  22385881.454    91666581.58447
  21706097.115   114066347.19409  21706098.240    88882876.67848
  24464468.015   128561568.07806  24464471.703   100177817.46444
 15 02 28 00 46  0.0000000  0  7G16G18G19G21G22G27G31
  20662745.598   108583480.18409  20662743.983    84610498.78549
  21980398.899   115507858.79509  21980397.753    90006178.92647
  23615570.883   124100665.13307  23615569.256    96701810.44545
  22377291.118   117593458.11008  22377289.412    91631258.20247
  22370770.783   117559287.80008  22370767.997    91604694.81947
  21696672.741   114016822.55309  21696674.129    88844286.05148
  24482933.602   128658604.79706  24482937.727   100253430.08944
 15 02 28 00 46 30.0000000  0  7G16G18G19G21G22G27G31
  20656020.265   108548138.32109  20656018.650    84582959.67349
  21976126.459   115485407.22309  21976125.549    89988684.21447
  23601767.337   124028128.44307  23601765.850    96645288.40046
  22389672.485   117658523.22608  22389670.845    91681958.28748
  22355705.996   117480122.77608  22355703.445    91543007.83947
  21687272.809   113967425.26709  21687273.933    88805794.66648
  24501387.491   128755577.82306  24501391.437   100328993.10144
 15 02 28 00 47  0.0000000  0  7G16G18G19G21G22G27G31
  20649380.375   108513245.42909  20649378.814    84555770.40649
  21971941.845   115463417.08509  21971940.959    89971549.05047
  23587980.594   123955678.27707  23587978.958    96588833.75446
  22402084.956   117723751.48208  22402083.398    91732785.49348
  22340690.553   117401215.59108  22340688.044    91481521.74847
  21677896.880   113918154.89609  21677898.148    88767402.17348
  24519828.534   128852483.19106  24519831.884   100404503.43244
 15 02 28 00 47 30.0000000  0  7G16G18G19G21G22G27G31
  20642826.322   108478803.96409  20642824.668    84528932.89649
  21967845.321   115441890.48409  21967844.526    89954775.09247
  23574210.268   123883315.57207  23574208.855    96532447.26546
  22414528.274   117789141.96608  22414526.830    91783739.11047
  22325724.744   117322569.76708  22325722.265    91420239.32547
  21668545.453   113869012.43709  21668546.574    88729109.35448
  24538256.016   128949319.35806  24538259.403   100479959.75945
 15 02 28 00 48  0.0000000  0  7G16G18G19G21G22G27G31
  20636358.254   108444813.65809  20636356.520    84502446.94449
  21963837.025   115420826.49909  21963836.049    89938361.61147
  23560456.244   123811037.87707  23560454.843    96476127.01046
  22427002.038   117854691.07108  22427000.310    91834816.33347
  22310808.942   117244186.13308  22310806.071    91359161.19147
  21659217.997   113819996.17309  21659218.854    88690914.86648
  24556669.481   129046081.67406  24556673.290   100555358.54945
 15 02 28 00 48 30.0000000  0  7G16G18G19G21G22G27G31
  20629977.289   108411281.40309  20629975.558    84476317.90849
  21959917.971   115400231.17009  21959916.868    89922313.31147
  23546719.534   123738850.35207  23546717.841    96419877.03646
  22439506.291   117920401.76808  22439504.631    91886019.46847
  22295944.283   117166072.38908  22295941.528    91298293.37347
  21649915.491   113771111.48609  21649916.400    88652822.90348
  24575069.633   129142772.28306  24575073.427   100630701.50345
 15 02 28 00 49  0.0000000  0  7G16G18G19G21G22G27G31
  20623682.729   108378203.32509  20623681.016    84450542.78149
  21956087.032   115380099.85509  21956085.902    89906626.58447
  23532998.866   123666747.56807  23532997.085    96363693.08246
  22452039.947   117986266.70208  22452038.256    91937342.78747
  22281130.531   117088225.28308  22281127.954    91237633.32547
  21640637.157   113722353.07209  21640638.105    88614829.33948
  24593454.230   129239382.99206  24593458.305   100705982.19245
 15 02 28 00 49 30.0000000  0  7G16G18G19G21G22G27G31
  20617475.717   108345585.41409  20617474.140    84425126.22349
  21952345.503   115360437.79909  21952344.395    89891305.52147
  23519294.988   123594733.79307  23519293.371    96307578.51146
  22464603.540   118052288.51608  22464601.971    91988788.35047
  22266368.784   117010651.81008  22266366.112    91177186.48747
  21631383.584   113673725.49909  21631384.465    88576937.72848
  24611824.228   129335915.48206  24611828.146   100781201.93244
 15 02 28 00 50  0.0000000  0  7G16G18G19G21G22G27G31
  20611356.261   108313427.86209  20611354.708    84400068.39149
  21948693.231   115341244.60509  21948692.000    89876349.79247
  23505607.983   123522807.66407  23505606.314    96251532.20546
  22477196.280   118118463.93608  22477194.756    92040353.60247
  22251659.145   116933352.91608  22251656.630    91116953.61947
  21622154.668   113625227.53209  21622155.755    88539147.10948
  24630178.519   129432365.40406  24630182.625   100856357.33045
 15 02 28 00 50 30.0000000  0  7G16G18G19G21G22G27G31
  20605324.484   108281730.65909  20605322.961    84375369.27149
  21945130.191   115322520.04809  21945129.007    89861759.24448
  23491937.156   123450967.72907  23491935.394    96195553.07346
  22489817.735   118184789.88008  22489816.200    92092036.15348
  22237002.230   116856330.09108  22236999.621    91056935.86647
  21612950.327   113576858.23409  21612951.239    88501456.75148
  24648516.214   129528728.95306  24648520.344   100931445.38245
 15 02 28 00 51  0.0000000  0  7G16G18G19G21G22G27G31
  20599381.219   108250498.93709  20599379.617    84351032.86449
  21941656.808   115304267.61009  21941655.664    89847536.57747
  23478283.531   123379217.00807  23478281.507    96139643.47046
  22502468.068   118251267.79808  22502466.504    92143837.12547
  22222398.678   116779588.87508  22222396.177    90997137.54647
  21603770.897   113528620.81809  21603772.111    88463869.16148
  24666837.798   129625006.83706  24666841.635   101006466.66346
 15 02 28 00 51 30.0000000  0  7G16G18G19G21G22G27G31
  20593526.904   108219733.05509  20593525.201    84327059.44549
  21938273.380   115286487.20009  21938272.099    89833681.72748
  23464646.489   123307554.15207  23464644.594    96083802.33946
  22515146.691   118317894.97408  22515145.155    92195754.39547
  22207849.298   116703130.77108  22207846.430    90937559.82847
  21594616.593   113480514.46909  21594617.673    88426383.70548
  24685142.175   129721194.86607  24685145.909   101081417.91744
 15 02 28 00 52  0.0000000  0  6G16G18G19G21G22G27
  20587760.644   108189431.30709  20587758.924    84303447.69549
  21934979.091   115269176.74909  21934978.224    89820193.07947
  23451025.518   123235976.24707  23451023.706    96028027.39546
  22527853.003   118384666.00108  22527851.120    92247783.76047
  22193353.464   116626954.86908  22193350.967    90878202.01847
  21585486.690   113432536.00709  21585487.639    88388997.90048
 15 02 28 00 52 30.0000000  0  6G16G18G19G21G22G27
  20582084.338   108159602.21309  20582082.789    84280204.24349
  21931775.849   115252343.57109  21931774.912    89807076.33248
  23437422.172   123164490.55507  23437420.407    95972324.31546
  22540587.455   118451586.37008  22540585.703    92299929.49747
  22178913.146   116551070.86008  22178910.567    90819071.65247
  21576382.231   113384692.87809  21576383.457    88351717.54548
 15 02 28 00 53  0.0000000  0  6G16G18G19G21G22G27
  20576497.277   108130242.38309  20576495.768    84257326.45149
  21928662.646   115235983.89109  21928661.727    89794328.54848
  23423835.452   123093091.83007  23423833.688    95916689.00346
  22553349.093   118518649.16908  22553347.510    92352186.21447
  22164528.194   116475476.27208  22164525.411    90760166.80947
  21567302.979   113336980.36809  21567304.025    88314538.97748
 15 02 28 00 53 30.0000000  0  6G16G18G19G21G22G27
  20570999.859   108101353.35109  20570998.390    84234815.51549
  21925639.761   115220098.33509  21925638.893    89781950.20548
  23410265.334   123021779.75107  23410263.294    95861121.19446
  22566137.351   118585852.38708  22566135.856    92404552.35247
  22150198.483   116400173.35109  22150195.726    90701489.23847
  21558248.489   113289398.51009  21558249.745    88277462.21548
 15 02 28 00 54  0.0000000  0  6G16G18G19G21G22G27
  20565593.427   108072942.89009  20565592.097    84212677.49249
  21922708.479   115204694.28009  21922707.579    89769947.05848
  23396712.748   122950560.90007  23396710.819    95805626.04346
  22578953.227   118653200.73908  22578951.795    92457031.57547
  22135925.982   116325170.94508  22135923.057    90643045.82947
  21549220.210   113241954.17909  21549221.285    88240492.61848
 15 02 28 00 54 30.0000000  0  6G16G18G19G21G22G27
  20560277.049   108045004.16609  20560275.649    84190907.05649
  21919867.283   115189763.72809  21919866.126    89758312.87648
  23383176.352   122879426.69207  23383174.245    95750196.84846
  22591795.040   118720684.32708  22591793.653    92509616.18147
  22121709.641   116250463.19408  22121706.797    90584832.02447
  21540216.445   113194639.16809  21540217.473    88203623.79348
 15 02 28 00 55  0.0000000  0  6G16G18G19G21G22G27
  20555051.238   108017542.71809  20555049.802    84169508.52349
  21917117.205   115175311.37509  21917116.076    89747051.31648
  23369656.998   122808381.56907  23369655.074    95694837.07346
  22604662.933   118788305.34208  22604661.258    92562307.87047
  22107550.469   116176056.67909  22107547.632    90526852.95548
  21531237.995   113147457.94209  21531239.294    88166859.21548
 15 02 28 00 55 30.0000000  0  6G16G18G19G21G22G27
  20549916.760   107990560.48409  20549915.283    84148483.40349
  21914458.210   115161338.54209  21914457.054    89736163.41048
  23356154.530   122737425.37307  23356152.441    95639546.57946
