     2.11           OBSERVATION DATA    G                   RINEX VERSION / TYPE
SPIDER V4,0,0,3554                      2015 03 12 00:03    PGM / RUN BY / DATE 
EECH                                                        MARKER NAME         
EECH                                                        MARKER NUMBER       
                                                            OBSERVER / AGENCY   
462240              LEICA GRX1200PRO    8.20/2.127          REC # / TYPE / VERS 
103299              LEIAT504                                ANT # / TYPE        
  5154282.7593   121017.3605  3742656.9418                  APPROX POSITION XYZ 
        0.0590        0.0000        0.0000                  ANTENNA: DELTA H/E/N
     1     1                                                WAVELENGTH FACT L1/2
     4    C1    L1    P2    L2                              # / TYPES OF OBSERV 
    30.000                                                  INTERVAL            
  2015    02    28    00    00    0.0000000     GPS         TIME OF FIRST OBS   
  2015    02    28    23    59   30.0000000     GPS         TIME OF LAST OBS    
    16                                                      LEAP SECONDS        
    30                                                      # OF SATELLITES     
   G 1   821   821   821   821                              PRN / # OF OBS      
   G 2   885   885   884   884                              PRN / # OF OBS      
   G 3   796   796   796   796                              PRN / # OF OBS      
   G 4   837   837   833   833                              PRN / # OF OBS      
   G 5   670   670   670   670                              PRN / # OF OBS      
   G 6   666   666   664   664                              PRN / # OF OBS      
   G 7   696   696   696   696                              PRN / # OF OBS      
   G 9   780   780   780   780                              PRN / # OF OBS      
   G10   778   778   778   778                              PRN / # OF OBS      
   G11   784   784   784   784                              PRN / # OF OBS      
   G12   803   803   803   803                              PRN / # OF OBS      
   G13   810   810   810   810                              PRN / # OF OBS      
   G14   864   864   862   862                              PRN / # OF OBS      
   G15   729   729   729   729                              PRN / # OF OBS      
   G16   688   688   688   688                              PRN / # OF OBS      
   G17   909   909   909   909                              PRN / # OF OBS      
   G18   895   895   895   895                              PRN / # OF OBS      
   G19   776   776   776   776                              PRN / # OF OBS      
   G20   788   788   788   788                              PRN / # OF OBS      
   G21   654   654   652   652                              PRN / # OF OBS      
   G22   768   768   768   768                              PRN / # OF OBS      
   G23   695   695   691   691                              PRN / # OF OBS      
   G24   810   810   810   810                              PRN / # OF OBS      
   G25   825   825   825   825                              PRN / # OF OBS      
   G27   820   820   820   820                              PRN / # OF OBS      
   G28   880   880   878   878                              PRN / # OF OBS      
   G29   732   732   732   732                              PRN / # OF OBS      
   G30   656   656   655   655                              PRN / # OF OBS      
   G31   692   692   691   691                              PRN / # OF OBS      
   G32   730   730   730   730                              PRN / # OF OBS      
BIT 2 OF LLI FLAGS DATA COLLECTED UNDER A/S CONDITION       COMMENT             
SNR is mapped to RINEX snr flag value [2-9]                 COMMENT             
Lx:     = 25dBHz -> 1; 26-27dBHz -> 2; 28-31dBHz -> 3       COMMENT             
       32-35dBHz -> 4; 36-38dBHz -> 5; 39-41dBHz -> 6       COMMENT             
       42-44dBHz -> 7; 45-48dBHz -> 8; >=49dBHz -> 9        COMMENT             
                                                            END OF HEADER       
 15 02 28 00 00  0.0000000  0  7G16G18G21G22G27G29G31
  21513015.220   113051688.54409  21513014.860    88092239.18548
  22799832.740   119813932.04608  22799832.980    93361519.91346
  21386537.620   112387014.23708  21386537.080    87574292.99648
  24036220.160   126311231.10907  24036221.940    98424339.93845
  22611885.260   118826298.15308  22611887.760    92591938.41047
  24234396.500   127352604.32805  24234399.240    99235791.93844
  22911923.100   120402949.27608  22911923.560    93820474.22147
 15 02 28 00 00 30.0000000  0  7G16G18G21G22G27G29G31
  21500395.300   112985370.46609  21500394.960    88040562.76648
  22788367.920   119753684.84108  22788368.320    93314574.06946
  21394171.420   112427129.89609  21394170.840    87605551.94848
  24018703.480   126219181.07607  24018704.760    98352612.96946
  22600047.120   118764088.74308  22600049.680    92543463.56647
  24249040.000   127429554.97605  24249042.440    99295753.50744
  22929626.120   120495977.87608  22929626.300    93892963.96347
 15 02 28 00 01  0.0000000  0  7G16G18G21G22G27G29G31
  21487828.640   112919332.25609  21487828.320    87989104.43348
  22776958.140   119693726.45208  22776958.600    93267853.24946
  21401871.200   112467592.21009  21401870.620    87637081.02948
  24001186.920   126127133.51206  24001188.260    98280887.88545
  22588234.420   118702013.99708  22588237.520    92495093.67147
  24263685.920   127506517.83205  24263687.780    99355724.54144
  22947365.220   120589196.46708  22947365.200    93965601.73247
 15 02 28 00 01 30.0000000  0  7G16G18G21G22G27G29G31
  21475313.680   112853565.82909  21475313.440    87937857.88048
  22765601.780   119634048.87708  22765602.420    93221351.27146
  21409634.660   112508389.40808  21409634.140    87668871.05348
  23983669.360   126035080.85106  23983670.820    98209158.81345
  22576445.600   118640063.95208  22576449.100    92446820.92547
  24278332.140   127583482.72205  24278333.840    99415697.22544
  22965137.960   120682592.01608  22965137.780    94038377.38847
 15 02 28 00 02  0.0000000  0  7G16G18G21G22G27G29G31
  21462851.000   112788074.51109  21462850.900    87886825.69048
  22754299.620   119574655.73508  22754300.380    93175070.93346
  21417461.680   112549520.88008  21417461.200    87700921.55348
  23966151.820   125943026.74906  23966153.100    98137428.63746
  22564680.940   118578239.42708  22564684.460    92398646.00547
  24292978.760   127660450.06505  24292980.780    99475671.79541
  22982943.940   120776162.36808  22982943.700    94111289.23847
 15 02 28 00 02 30.0000000  0  7G16G18G21G22G27G29G31
  21450440.960   112722860.09909  21450441.000    87836009.27548
  22743052.100   119515549.38208  22743052.920    93129014.06446
  21425351.820   112590984.09808  21425351.380    87733230.55648
  23948634.680   125850973.92506  23948635.840    98065699.44945
  22552940.380   118516540.36008  22552943.380    92350568.83947
  24307626.020   127737420.54305  24307628.460    99535648.72343
  23000782.560   120869904.72808  23000782.380    94184335.11447
 15 02 28 00 03  0.0000000  0  7G16G18G21G22G27G29G31
  21438085.080   112657929.90509  21438085.120    87785414.31748
  22731860.520   119456736.84408  22731861.280    93083186.13646
  21433305.780   112632782.69209  21433305.340    87765800.88548
  23931119.160   125758929.74606  23931120.120    97993977.00446
  22541224.540   118454971.63708  22541227.000    92302593.24147
  24322274.600   127814398.41805  24322277.220    99595631.52644
  23018654.160   120963820.68808  23018654.100    94257516.16147
 15 02 28 00 03 30.0000000  0  7G16G18G21G22G27G29G31
  21425783.840   112593286.61009  21425783.880    87735042.92748
  22720725.500   119398221.15908  22720726.120    93037589.52746
  21441323.500   112674915.79809  21441322.960    87798631.88148
  23913605.900   125666897.55006  23913606.680    97922263.89245
  22529533.380   118393533.82208  22529535.600    92254719.66047
  24336924.640   127891384.17805  24336927.060    99655620.34943
  23036558.380   121057908.09908  23036558.460    94330830.80147
 15 02 28 00 04  0.0000000  0  7G16G18G21G22G27G29G31
  21413536.800   112528927.51809  21413536.740    87684892.99348
  22709646.580   119340000.49308  22709647.060    92992222.77646
  21449403.540   112717376.33009  21449402.940    87831718.00748
  23896094.420   125574875.31806  23896095.020    97850558.53545
  22517866.060   118332222.38208  22517868.380    92206944.54547
  24351575.400   127968372.95205  24351577.180    99715611.61441
  23054493.960   121152159.71408  23054494.060    94404273.39947
 15 02 28 00 04 30.0000000  0  7G16G18G21G22G27G29G31
  21401344.740   112464857.49809  21401344.560    87634968.31048
  22698624.660   119282079.39208  22698624.940    92947089.47546
  21457546.200   112760165.97109  21457545.560    87865060.58748
  23878585.820   125482868.11006  23878586.480    97778864.86545
  22506223.240   118271039.86508  22506225.840    92159269.87247
  24366227.020   128045367.47404  24366228.840    99775607.38744
  23072460.720   121246574.25908  23072460.700    94477842.68347
 15 02 28 00 05  0.0000000  0  7G16G18G21G22G27G29G31
  21389208.060   112401078.78209  21389207.800    87585270.61648
  22687660.200   119224460.44008  22687660.340    92902191.59746
  21465751.120   112803283.08009  21465750.500    87898658.33248
  23861080.520   125390878.75406  23861081.280    97707185.11145
  22494605.060   118209986.41108  22494607.840    92111695.77047
  24380879.400   128122367.76404  24380881.560    99835607.58043
  23090458.320   121341150.34108  23090458.260    94551538.11646
 15 02 28 00 05 30.0000000  0  7G16G18G21G22G27G29G31
  21377125.880   112337586.05409  21377125.500    87535795.76748
  22676752.160   119167138.58708  22676752.280    92857525.24646
  21474016.540   112846718.05809  21474015.920    87932503.76948
  23843577.880   125298902.79006  23843578.800    97635515.75445
  22483010.060   118149054.73908  22483012.860    92064216.56548
  24395531.820   128199366.67205  24395533.920    99895606.67444
  23108484.560   121435877.26408  23108484.580    94625351.03246
 15 02 28 00 06  0.0000000  0  7G16G18G21G22G27G29G31
  21365099.880   112274388.39809  21365099.400    87486550.84948
  22665902.360   119110123.39308  22665902.480    92813097.84646
  21482343.520   112890476.47609  21482342.900    87966601.23648
  23826079.760   125206949.72207  23826080.640    97563864.24445
  22471439.580   118088251.77708  22471442.220    92016837.65347
  24410185.300   128276370.99605  24410187.040    99955610.04544
  23126540.160   121530759.05508  23126540.340    94699284.65647
 15 02 28 00 06 30.0000000  0  7G16G18G21G22G27G29G31
  21353130.720   112211489.70709  21353130.220    87437538.88948
  22655111.760   119053418.82508  22655111.860    92768912.48946
  21490732.020   112934558.15709  21490731.380    88000950.59848
  23808586.680   125115023.69406  23808587.540    97492233.80045
  22459893.900   118027579.02408  22459896.360    91969560.22747
  24424839.920   128353381.99304  24424841.600   100015618.63045
  23144624.880   121625794.20908  23144625.160    94773337.84346
 15 02 28 00 07  0.0000000  0  6G16G18G21G22G27G31
  21341215.920   112148877.04209  21341215.420    87388749.80248
  22644377.860   118997012.06808  22644377.900    92724959.18246
  21499178.780   112978946.12809  21499178.020    88035538.63148
  23791096.260   125023112.23307  23791097.280    97420614.68645
  22448370.140   117967021.50908  22448372.500    91922372.58147
  23162735.320   121720964.55408  23162735.660    94847496.34046
 15 02 28 00 07 30.0000000  0  6G16G18G21G22G27G31
  21329361.100   112086579.54509  21329360.560    87340206.29848
  22633706.160   118940932.19808  22633706.160    92681260.58746
  21507688.640   113023665.90409  21507687.760    88070385.20848
  23773614.200   124931244.91206  23773615.360    97349029.98446
  22436873.420   117906606.12408  22436875.880    91875295.68648
  23180876.000   121816293.79507  23180876.400    94921778.57946
 15 02 28 00 08  0.0000000  0  7G16G18G21G22G27G29G31
  21317563.300   112024581.43509  21317562.700    87291896.09148
  22623093.780   118885164.20908  22623093.920    92637805.04046
  21516257.900   113068697.92109  21516256.940    88105475.09048
  23756137.920   124839407.19707  23756138.980    97277468.33745
  22425400.480   117846315.35908  22425403.140    91828315.90148
  24468806.420   128584443.34605  24468807.780   100195680.80745
  23199043.100   121911762.14308  23199043.740    94996169.29947
 15 02 28 00 08 30.0000000  0  7G16G18G21G22G27G29G31
  21305824.120   111962891.59909  21305823.580    87243826.10148
  22612542.280   118829716.87408  22612542.700    92594599.34346
  21524887.460   113114046.94108  21524886.600    88140811.98848
  23738669.020   124747608.28807  23738669.860    97205936.92145
  22413952.640   117786155.93908  22413955.400    91781438.45748
  24483464.700   128661472.42304  24483465.420   100255703.47844
  23217237.320   122007373.06807  23217238.220    95070671.14846
 15 02 28 00 09  0.0000000  0  7G16G18G21G22G27G29G31
  21294143.160   111901508.16609  21294142.740    87195994.85248
  22602051.560   118774588.54808  22602052.140    92551642.21746
  21533576.300   113159707.47108  21533575.600    88176391.62448
  23721207.200   124655846.37007  23721207.720    97134434.32146
  22402529.000   117726123.58308  22402531.680    91734660.01447
  24498123.060   128738504.81104  24498124.100   100315728.70845
  23235457.300   122103119.51407  23235458.400    95145278.55446
 15 02 28 00 09 30.0000000  0  6G16G18G21G22G27G31
  21282519.880   111840428.22409  21282519.680    87148400.09848
  22591621.120   118719776.36908  22591621.820    92508931.43346
  21542323.000   113205671.95508  21542322.460    88212208.10948
  23703752.120   124564119.32407  23703752.340    97062958.87545
  22391128.540   117666213.39908  22391131.020    91687976.78747
  23253701.560   122198993.41407  23253702.840    95219985.20246
 15 02 28 00 10  0.0000000  0  6G16G18G21G22G27G31
  21270952.280   111779640.80609  21270952.260    87101033.28948
  22581248.860   118665269.58008  22581249.600    92466458.62546
  21551124.940   113251926.60708  21551124.460    88248250.68748
  23686301.700   124472417.23107  23686301.700    96991502.85946
  22379748.620   117606412.47008  22379750.940    91641378.67847
  23271967.100   122294978.83607  23271968.560    95294778.75747
 15 02 28 00 10 30.0000000  0  7G16G18G21G22G27G29G31
  21259453.180   111719212.86609  21259453.080    87053946.58548
  22570947.560   118611135.23208  22570948.160    92424276.03246
  21559994.040   113298533.84709  21559993.480    88284568.01748
  23668868.700   124380806.94707  23668868.440    96920118.38145
  22368401.720   117546785.45808  22368403.960    91594916.08447
  24542102.780   128969624.33705  24542102.300   100495798.35144
  23290265.640   122391137.68507  23290267.320    95369707.49147
 15 02 28 00 11  0.0000000  0  7G16G18G21G22G27G29G31
  21248008.780   111659072.55909  21248008.620    87007084.01448
  22560703.560   118557301.89708  22560703.980    92382327.98646
  21568915.820   113345418.06009  21568915.200    88321101.16748
  23651439.700   124289217.48307  23651439.200    96848750.12945
  22357074.060   117487258.57408  22357076.260    91548531.51948
  24556763.220   129046666.02405  24556763.420   100555830.78745
  23308582.660   122487393.10507  23308584.480    95444711.39547
 15 02 28 00 11 30.0000000  0  6G16G18G21G22G27G31
  21236619.620   111599222.52409  21236619.460    86960447.62348
  22550517.260   118503771.96908  22550517.560    92340616.37446
  21577889.960   113392577.63408  21577889.300    88357848.88948
  23634015.340   124197651.78207  23634014.620    96777400.41345
  22345765.660   117427832.08408  22345767.920    91502225.19248
  23326917.780   122583742.82707  23326919.620    95519788.91246
 15 02 28 00 12  0.0000000  0  6G16G18G21G22G27G31
  21225299.840   111539736.84909  21225299.700    86914095.15548
  22540402.780   118450619.60008  22540403.000    92299198.97046
  21586929.960   113440083.43308  21586929.340    88394866.39948
  23616609.380   124106184.59207  23616608.860    96706127.42746
  22334490.160   117368578.28008  22334492.560    91456053.42348
  23345283.980   122680255.92107  23345285.760    95594993.76646
 15 02 28 00 12 30.0000000  0  6G16G18G21G22G27G31
  21214040.340   111480567.20709  21214040.140    86867988.94548
  22530351.080   118397797.12208  22530351.280    92258038.61847
  21596025.920   113487883.13809  21596025.380    88432112.92348
  23599213.080   124014768.40207  23599212.780    96634894.19546
  22323237.880   117309446.64808  22323240.420    91409976.84748
  23363670.940   122776878.50307  23363672.560    95670283.88346
 15 02 28 00 13  0.0000000  0  6G16G18G21G22G27G31
  21202839.960   111421708.23209  21202839.700    86822124.81148
  22520360.960   118345298.59508  22520361.200    92217130.69746
  21605175.900   113535966.76508  21605175.420    88469580.68648
  23581825.740   123923398.09707  23581825.420    96563696.70146
  22312007.340   117250429.57008  22312009.960    91363989.53247
  23382076.660   122873600.43407  23382078.240    95745651.44646
 15 02 28 00 13 30.0000000  0  7G16G18G19G21G22G27G31
  21191702.780   111363181.88009  21191702.500    86776519.87148
  22510436.700   118293146.57208  22510437.040    92176492.77847
  24521257.020   128860068.15606  24521256.720   100410442.61545
  21614383.600   113584353.43209  21614383.140    88507284.58048
  23564451.560   123832096.55907  23564451.200    96492552.78546
  22300802.300   117191547.26208  22300804.940    91318107.23848
  23400504.520   122970439.00007  23400506.240    95821109.97346
 15 02 28 00 14  0.0000000  0  7G16G18G19G21G22G27G31
  21180618.660   111304934.37909  21180618.380    86731132.20848
  22500568.060   118241287.31708  22500568.500    92136082.98847
  24505972.020   128779742.54006  24505971.480   100347851.27745
  21623637.780   113632984.16909  21623637.340    88545178.66148
  23547080.140   123740810.47607  23547079.840    96421420.90546
  22289612.180   117132743.84408  22289614.840    91272286.40848
  23418943.340   123067335.14907  23418945.220    95896613.29146
 15 02 28 00 14 30.0000000  0  7G16G18G19G21G22G27G31
  21169609.380   111247079.94909  21169609.040    86686050.84048
  22490776.820   118189834.88908  22490777.340    92095990.20546
  24490714.960   128699567.02606  24490714.320   100285376.93045
  21632959.580   113681970.08009  21632959.100    88583349.49948
  23529733.560   123649654.30007  23529733.480    96350390.22146
  22278458.380   117074131.02808  22278461.020    91226614.10548
  23437413.840   123164397.68807  23437415.780    95972246.34046
 15 02 28 00 15  0.0000000  0  7G16G18G19G21G22G27G31
  21158662.780   111189554.94909  21158662.400    86641226.16748
  22481051.000   118138725.66508  22481051.540    92056164.85646
  24475473.180   128619476.05005  24475473.060   100222968.44744
  21642336.060   113731243.43409  21642335.560    88621744.31648
  23512400.020   123558565.37507  23512399.760    96279411.99646
  22267328.520   117015643.30808  22267331.160    91181039.28748
  23455902.920   123261557.93107  23455904.820    96047955.44445
 15 02 28 00 15 30.0000000  0  7G16G18G19G21G22G27G31
  21147780.220   111132366.61509  21147779.860    86596663.84548
  22471391.940   118087966.93308  22471392.500    92016612.61047
  24460248.280   128539474.95405  24460249.100   100160629.99444
  21651767.820   113780807.48609  21651767.300    88660365.65748
  23495080.560   123467551.26707  23495080.360    96208492.01246
  22256223.540   116957286.05808  22256226.180    91135566.13148
  23474411.140   123358818.75807  23474412.920    96123742.95246
 15 02 28 00 16  0.0000000  0  7G16G18G19G21G22G27G31
  21136959.160   111075501.62409  21136958.800    86552353.46548
  22461797.060   118037545.30708  22461797.620    91977323.05347
  24445038.280   128459548.23206  24445039.500   100098349.52545
  21661251.520   113830644.70008  21661251.000    88699199.84848
  23477772.880   123376599.38307  23477772.720    96137620.54746
  22245140.400   116899043.66408  22245142.940    91090182.46448
  23492934.840   123456160.82807  23492936.580    96199593.58446
 15 02 28 00 16 30.0000000  0  7G16G18G19G21G22G27G31
  21126201.280   111018968.90609  21126200.960    86508302.00048
  22452268.040   117987470.08908  22452268.660    91938303.43247
  24429844.500   128379702.78106  24429845.420   100036132.38145
  21670788.280   113880760.98308  21670787.820    88738251.48948
  23460478.780   123285719.57807  23460478.960    96066805.21546
  22234080.440   116840923.13508  22234082.740    91044893.75248
  23511474.960   123553588.85207  23511476.800    96275511.34046
 15 02 28 00 17  0.0000000  0  7G16G18G19G21G22G27G31
  21115509.920   110962785.91709  21115509.700    86464523.04948
  22442808.080   117937758.20808  22442808.760    91899566.91946
  24414668.880   128299953.93706  24414669.600    99973990.50945
  21680380.520   113931168.78309  21680380.080    88777530.28648
  23443201.780   123194929.18407  23443202.220    95996059.56046
  22223046.560   116782939.63908  22223048.700    90999711.81548
  23530033.700   123651114.68007  23530035.660    96351505.26346
 15 02 28 00 17 30.0000000  0  7G16G18G19G21G22G27G31
  21104885.020   110906951.80809  21104884.880    86421015.96048
  22433417.260   117888409.59108  22433417.860    91861113.46847
  24399510.720   128220299.03406  24399511.400    99911921.79245
  21690027.660   113981864.61809  21690027.120    88817033.53648
  23425941.980   123104228.59107  23425942.420    95925383.88546
  22212038.260   116725090.64208  22212040.380    90954634.70248
  23548609.980   123748733.19907  23548612.200    96427571.49645
 15 02 28 00 18  0.0000000  0  7G16G18G19G21G22G27G31
  21094324.700   110851456.77109  21094324.540    86377773.07248
  22424093.580   117839413.85308  22424094.160    91822934.98546
  24384368.300   128140725.86606  24384368.440    99849916.79344
  21699726.820   114032833.78709  21699726.200    88856749.77448
  23408697.480   123013608.33607  23408697.780    95854770.81146
  22201053.200   116667364.12208  22201055.540    90909653.02348
  23567201.020   123846429.20307  23567203.260    96503698.07246
 15 02 28 00 18 30.0000000  0  7G16G18G19G21G22G27G31
  21083829.560   110796304.52709  21083829.420    86334797.30448
  22414837.840   117790775.06008  22414838.400    91785034.64446
  24369242.060   128061236.19706  24369241.460    99787976.91744
  21709477.980   114084076.63909  21709477.400    88896679.27148
  23391469.080   122923073.12407  23391469.280    95784223.98746
  22190091.720   116609761.87608  22190094.400    90864768.18048
  23585806.540   123944201.23207  23585808.720    96579883.84246
 15 02 28 00 19  0.0000000  0  7G16G18G19G21G22G27G31
  21073402.380   110741509.33509  21073402.200    86292099.75348
  22405652.780   117742507.26508  22405653.320    91747423.40147
  24354133.880   127981842.79505  24354133.040    99726112.01045
  21719283.140   114135603.41609  21719282.580    88936830.00848
  23374259.820   122832637.60607  23374259.880    95713754.84646
  22179156.260   116552296.32608  22179159.220    90819989.84848
  23604428.500   124042059.51507  23604430.500    96656137.02846
 15 02 28 00 19 30.0000000  0  7G16G18G19G21G22G27G31
  21063042.640   110687068.49709  21063042.460    86249678.32548
  22396537.840   117694607.57508  22396538.340    91710098.99846
  24339042.700   127902540.54505  24339042.400    99664318.10845
  21729141.020   114187406.99009  21729140.440    88977196.42848
  23357069.180   122742299.78107  23357069.020    95643361.81346
  22168245.980   116494962.33108  22168249.040    90775314.03248
  23623065.180   124139995.52207  23623067.060    96732450.82745
 15 02 28 00 20  0.0000000  0  7G16G18G19G21G22G27G31
  21052748.800   110632974.06009  21052748.660    86207526.82049
  22387491.480   117647067.86508  22387491.880    91673055.07846
  24323967.300   127823319.50806  24323967.400    99602587.47545
  21739049.480   114239476.01309  21739048.800    89017769.69048
  23339895.480   122652051.92207  23339895.040    95573038.88845
  22157359.040   116437750.00308  22157361.940    90730733.02448
  23641714.060   124237995.96907  23641715.860    96808814.75446
 15 02 28 00 20 30.0000000  0  7G16G18G19G21G22G27G31
  21042520.720   110579225.56809  21042520.680    86165644.88448
  22378513.620   117599888.17008  22378513.920    91636291.71247
  24308907.440   127744176.43306  24308907.160    99540917.62845
  21749007.480   114291805.57208  21749006.740    89058545.97048
  23322739.060   122561894.46007  23322738.260    95502786.40745
  22146494.760   116380656.84608  22146497.360    90686244.86848
  23660374.160   124336055.68207  23660376.000    96885224.91046
 15 02 28 00 21  0.0000000  0  7G16G18G19G21G22G27G31
  21032362.020   110525841.29709  21032362.040    86124046.75549
  22369607.700   117553086.94708  22369607.960    91599823.24647
  24293865.800   127665128.75206  24293864.860    99479322.14445
  21759017.960   114344410.84708  21759017.260    89099537.09548
  23305603.520   122471846.60607  23305602.420    95432619.32346
  22135656.240   116323699.48508  22135658.600    90641862.53348
  23679048.100   124434188.22207  23679050.040    96961691.84946
 15 02 28 00 21 30.0000000  0  7G16G18G19G21G22G27G31
  21022273.240   110472824.22409  21022273.180    86082734.75649
  22360774.200   117506666.37608  22360774.300    91563651.39346
  24278841.940   127586176.83406  24278840.740    99417801.27946
  21769080.600   114397290.44808  21769080.000    89140741.98148
  23288489.480   122381911.71607  23288488.320    95362540.26246
  22124843.540   116266878.58108  22124845.900    90597586.53148
  23697735.440   124532391.39807  23697737.640    97038213.79646
 15 02 28 00 22  0.0000000  0  7G16G18G19G21G22G27G31
  21012254.340   110420174.67809  21012254.180    86041709.13849
  22352013.200   117460626.70008  22352013.140    91527776.33147
  24263835.460   127507318.91506  24263834.880    99356353.60946
  21779194.760   114450440.67008  21779194.260    89182157.73948
  23271397.020   122292090.75507  23271395.880    95292549.97246
  22114056.360   116210192.51108  22114058.940    90553415.59048
  23716435.340   124630660.32707  23716437.800    97114786.83245
 15 02 28 00 22 30.0000000  0  7G16G18G19G21G22G27G31
  21002306.040   110367895.94809  21002305.820    86000972.47849
  22343325.180   117414971.23608  22343325.100    91492200.66147
  24248846.800   127428556.14106  24248847.140    99294980.06846
  21789360.200   114503860.46208  21789359.740    89223783.55348
  23254326.840   122202387.16107  23254325.720    95222651.12346
  22103295.020   116153642.44408  22103297.880    90509350.63348
  23735147.540   124728993.72307  23735150.260    97191410.24146
 15 02 28 00 23  0.0000000  0  7G16G18G19G21G22G27G31
  20992426.520   110315978.42609  20992426.300    85960517.27849
  22334708.320   117369690.29508  22334708.460    91456916.83747
  24233874.280   127349877.47406  24233875.240    99233672.10246
  21799574.620   114557537.71208  21799574.240    89265609.97548
  23237277.580   122112792.98907  23237276.240    95152837.57946
  22092557.500   116097217.24608  22092560.500    90465382.96748
  23753869.320   124827377.05207  23753872.180    97268072.49746
 15 02 28 00 23 30.0000000  0  7G16G18G19G21G22G27G31
  20982615.640   110264421.40909  20982615.380    85920342.98549
  22326162.800   117324783.55308  22326163.100    91421924.58147
  24218917.700   127271279.75606  24218918.280    99172427.21345
  21809837.040   114611467.25908  21809836.720    89307632.99648
  23220248.920   122023307.56207  23220247.660    95083108.74246
  22081843.300   116040914.01608  22081846.200    90421510.34748
  23772599.540   124925804.48107  23772602.260    97344769.14446
 15 02 28 00 24  0.0000000  0  7G16G18G19G21G22G27G31
  20972875.240   110213235.18809  20972874.960    85880457.62549
  22317690.460   117280261.12908  22317690.880    91387231.79747
  24203978.360   127192771.42306  24203977.980    99111251.94645
  21820148.580   114665655.22208  21820148.320    89349857.38548
  23203243.040   121933942.54407  23203242.120    95013473.73746
  22071154.040   115984741.17108  22071156.660    90377739.32848
  23791339.220   125024281.52607  23791341.740    97421504.53246
 15 02 28 00 24 30.0000000  0  7G16G18G19G21G22G27G31
  20963206.700   110162426.50209  20963206.340    85840866.44949
  22309292.320   117236129.04708  22309292.840    91352843.18247
  24189056.660   127114357.42306  24189055.720    99050150.19445
  21830509.700   114720103.85308  21830509.500    89392284.88848
  23186261.600   121844704.78207  23186261.000    94943937.90047
  22060490.480   115928703.40408  22060492.820    90334073.56448
  23810088.720   125122809.99607  23810090.940    97498279.98046
 15 02 28 00 25  0.0000000  0  7G16G18G19G21G22G27G31
  20953608.980   110111990.23509  20953608.620    85801565.47249
  22300967.560   117192382.27708  22300968.060    91318754.80547
  24174151.600   127036030.41606  24174150.480    98989116.23146
  21840918.980   114774805.52708  21840918.820    89434909.56748
  23169303.580   121755589.91207  23169303.020    94874497.83646
  22049851.240   115872793.62308  22049853.420    90290507.53048
  23828846.080   125221379.45007  23828847.900    97575087.32145
 15 02 28 00 25 30.0000000  0  7G16G18G19G21G22G27G31
  20944083.340   110061933.00909  20944083.100    85762559.84949
  22292717.420   117149027.47808  22292717.880    91284971.87547
  24159263.800   126957794.96906  24159263.260    98928153.59945
  21851376.920   114829762.55208  21851376.740    89477733.22048
  23152370.440   121666605.25607  23152369.760    94805159.22146
  22039237.140   115817016.61908  22039239.380    90247044.95548
  23847611.600   125319992.28007  23847613.220    97651928.56845
 15 02 28 00 26  0.0000000  0  7G16G18G19G21G22G27G31
  20934630.120   110012256.31509  20934629.980    85723850.73949
  22284542.140   117106065.77608  22284542.540    91251495.24547
  24144393.220   126879650.71306  24144393.220    98867262.00345
  21861882.980   114884972.04408  21861882.760    89520753.59848
  23135462.380   121577752.91607  23135461.700    94735923.67846
  22028648.200   115761371.90208  22028650.520    90203685.45248
  23866384.480   125418644.48507  23866385.980    97728800.39245
 15 02 28 00 26 30.0000000  0  7G16G18G19G21G22G27G31
  20925248.780   109962956.95909  20925248.640    85685435.66449
  22276440.940   117063493.56508  22276441.320    91218322.10147
  24129539.200   126801592.38406  24129538.900    98806437.38545
  21872435.900   114940427.27708  21872435.520    89563965.46848
  23118579.000   121489030.42307  23118578.380    94666789.32646
  22018083.560   115705854.40508  22018085.900    90160425.07748
  23885163.300   125517328.22607  23885164.780    97805696.80545
 15 02 28 00 27  0.0000000  0  7G16G18G19G21G22G27G31
  20915940.420   109914041.01609  20915940.200    85647319.34949
  22268415.040   117021317.54308  22268415.440    91185457.68747
  24114702.480   126723624.10907  24114701.640    98745682.94045
  21883035.840   114996129.85408  21883035.380    89607370.06748
  23101721.740   121400444.97407  23101721.200    94597761.75046
  22007544.120   115650468.47508  22007546.360    90117267.22248
  23903948.400   125616044.79506  23903949.920    97882618.72145
 15 02 28 00 27 30.0000000  0  7G16G18G19G21G22G27G31
  20906705.680   109865512.39809  20906705.440    85609504.84149
  22260465.040   116979540.59708  22260465.460    91152904.24947
  24099883.200   126645747.68606  24099881.800    98685000.07745
  21893683.020   115052081.03408  21893682.540    89650968.38948
  23084891.320   121312000.56007  23084890.700    94528844.08446
  21997029.960   115595215.63208  21997032.180    90074213.07948
  23922739.500   125714792.60606  23922741.140    97959564.93046
 15 02 28 00 28  0.0000000  0  7G16G18G19G21G22G27G31
  20897545.320   109817374.31509  20897545.060    85571994.65149
  22252591.720   116938166.28408  22252592.160    91120664.54347
  24085081.520   126567965.11806  24085080.080    98624390.32245
  21904377.280   115108279.80408  21904376.860    89694759.63948
  23068088.460   121223701.65408  23068087.820    94460039.78146
  21986541.340   115540097.71908  21986543.660    90031264.07648
  23941536.420   125813570.57706  23941538.160    98036534.62446
 15 02 28 00 28 30.0000000  0  7G16G18G19G21G22G27G31
  20888458.260   109769621.53209  20888457.960    85534784.69949
  22244794.100   116897189.23108  22244794.500    91088734.38647
  24070296.220   126490268.52806  24070295.340    98563847.56045
  21915116.920   115164716.92508  21915116.500    89738736.61048
  23051312.600   121135543.41007  23051311.640    94391345.12546
  21976076.900   115485107.46708  21976079.480    89988414.56248
  23960337.120   125912368.70706  23960338.960    98113520.12146
 15 02 28 00 29  0.0000000  0  7G16G18G19G21G22G27G31
  20879445.260   109722258.11009  20879444.940    85497878.14649
  22237072.760   116856613.06008  22237073.160    91057116.60747
  24055527.760   126412659.64706  24055527.360    98503373.14646
  21925901.940   115221391.99109  21925901.380    89782898.99948
  23034564.300   121047530.65007  23034563.220    94322763.81547
  21965637.180   115430246.97008  21965639.900    89945666.14348
  23979141.400   126011185.77306  23979143.180    98190520.32246
 15 02 28 00 29 30.0000000  0  7G16G18G19G21G22G27G31
  20870507.360   109675289.27009  20870507.060    85461279.05349
  22229428.620   116816442.87008  22229429.060    91025815.18147
  24040776.840   126335142.29306  24040776.480    98442970.09145
  21936732.620   115278306.95009  21936731.840    89827248.31848
  23017844.900   120959669.76508  23017843.780    94254300.84746
  21955222.960   115375519.82508  21955225.600    89903021.62948
  23997949.400   126110022.57806  23997951.120    98267535.92746
 15 02 28 00 30  0.0000000  0  7G16G18G19G21G22G27G31
  20861646.600   109628725.57609  20861646.300    85424995.66049
  22221863.680   116776689.00808  22221864.120    90994838.16847
  24026044.580   126257725.36006  24026044.340    98382645.26946
  21947610.200   115335468.75108  21947609.320    89871789.97948
  23001156.460   120871971.62808  23001155.200    94185964.68646
  21944835.860   115320934.68608  21944838.240    89860487.77348
  24016762.200   126208884.71906  24016763.940    98344571.30345
 15 02 28 00 30 30.0000000  0  7G16G18G19G21G22G27G31
  20852861.120   109582557.59809  20852860.880    85389020.61549
  22214376.160   116737341.63008  22214376.380    90964177.88247
  24011329.060   126180397.09606  24011329.140    98322389.52845
  21958532.140   115392864.04608  21958531.260    89916513.57948
  22984497.460   120784427.46208  22984495.880    94117748.51346
  21934473.600   115266480.03008  21934475.680    89818055.59048
  24035577.040   126307757.58106  24035578.940    98421614.93645
 15 02 28 00 31  0.0000000  0  7G16G18G19G21G22G27G31
  20844150.460   109536782.83909  20844150.240    85353351.97049
  22206965.460   116698397.92908  22206965.480    90933832.15547
  23996629.900   126103152.91906  23996630.240    98262199.30446
  21969497.300   115450486.76608  21969496.520    89961414.39848
  22967867.440   120697035.85408  22967865.800    94049651.21246
  21924135.300   115212151.72108  21924137.200    89775721.85348
  24054392.740   126406634.42606  24054394.840    98498661.73446
 15 02 28 00 31 30.0000000  0  7G16G18G19G21G22G27G31
  20835515.860   109491407.51809  20835515.580    85317994.57749
  22199632.560   116659863.52108  22199632.460    90903805.36647
  23981948.000   126025997.23007  23981948.120    98202078.04545
  21980506.120   115508339.19608  21980505.500    90006494.21448
  22951267.560   120609803.59507  22951266.100    93981678.05847
  21913821.760   115157954.08108  21913823.700    89733489.93848
  24073209.460   126505516.48906  24073211.800    98575712.59246
 15 02 28 00 32  0.0000000  0  7G16G18G19G21G22G27G31
  20826958.980   109446440.36909  20826958.680    85282955.24849
  22192379.300   116621747.27208  22192379.020    90874104.40146
  23967284.120   125948937.11406  23967283.980    98142031.25046
  21991559.520   115566425.80708  21991559.080    90051756.49948
  22934699.780   120522740.31408  22934698.560    93913836.59346
  21903534.380   115103894.16508  21903536.480    89691365.33448
  24092027.940   126604407.57806  24092030.500    98652770.46845
 15 02 28 00 32 30.0000000  0  7G16G18G19G21G22G27G31
  20818480.480   109401885.37509  20818480.120    85248237.06449
  22185206.500   116584053.65408  22185206.020    90844732.76747
  23952638.180   125871974.52106  23952638.000    98082060.46646
  22002657.660   115624747.40708  22002657.340    90097201.90448
  22918165.180   120435850.67208  22918164.020    93846130.43347
  21893273.620   115049974.27708  21893276.000    89649349.85148
  24110848.200   126703307.00406  24110850.680    98729834.81145
 15 02 28 00 33  0.0000000  0  7G16G18G19G21G22G27G31
  20810079.020   109357735.81709  20810078.620    85213834.81149
  22178112.540   116546774.85808  22178112.040    90815684.38947
  23938009.060   125795100.82706  23938009.120    98022158.95246
  22013798.440   115683292.71908  22013798.100    90142821.62448
  22901662.500   120349128.45408  22901661.400    93778554.73147
  21883037.820   114996185.56508  21883040.500    89607436.58648
  24129668.020   126802203.06707  24129670.140    98806896.61046
 15 02 28 00 33 30.0000000  0  7G16G18G19G21G22G27G31
  20801753.940   109313987.33909  20801753.520    85179745.09049
  22171096.660   116509906.41208  22171096.300    90786955.75347
  23923396.200   125718309.57207  23923396.360    97962321.67846
  22024980.380   115742054.06608  22024979.940    90188609.68448
  22885191.060   120262570.32608  22885190.000    93711106.89547
  21872825.900   114942521.99208  21872828.780    89565620.83248
  24148485.420   126901086.64607  24148487.200    98883948.58845
 15 02 28 00 34  0.0000000  0  7G16G18G19G21G22G27G31
  20793506.640   109270647.82709  20793506.320    85145974.04849
  22164160.400   116473456.15108  22164160.240    90758552.96647
  23908800.680   125641607.22207  23908800.580    97902553.69846
  22036204.280   115801035.67508  22036203.700    90234569.37648
  22868752.560   120176185.33908  22868751.560    93643793.96547
  21862639.100   114888990.10708  21862642.040    89523907.69248
  24167300.960   126999961.58607  24167302.720    98960993.84946
 15 02 28 00 34 30.0000000  0  7G16G18G19G21G22G27G31
  20785339.040   109227727.31909  20785338.840    85112529.49349
  22157305.500   116437433.46608  22157305.460    90730483.35647
  23894223.340   125565001.92606  23894223.160    97842861.31646
  22047471.340   115860244.07308  22047470.680    90280705.78848
  22852349.080   120089984.19108  22852348.120    93576624.29747
  21852479.000   114835598.07708  21852481.860    89482303.52148
  24186115.540   127098832.71407  24186117.640    99038036.17346
 15 02 28 00 35  0.0000000  0  7G16G18G19G21G22G27G31
  20777251.840   109185229.05709  20777251.660    85079413.96549
  22150532.600   116401841.57108  22150532.560    90702749.42047
  23879664.260   125488494.91606  23879664.000    97783245.52945
  22058781.400   115919678.44808  22058780.720    90327018.29248
  22835981.140   120003970.74508  22835980.220    93509600.87547
  21842345.780   114782347.36208  21842348.560    89440809.47048
  24204928.940   127197698.64407  24204931.540    99115074.45245
 15 02 28 00 35 30.0000000  0  7G16G18G19G21G22G27G31
  20769243.200   109143143.34009  20769242.900    85046619.90349
  22143839.660   116366669.89408  22143839.600    90675342.92747
  23865121.800   125412074.82407  23865121.180    97723697.46745
  22070131.860   115979325.29708  22070131.280    90373496.35248
  22819647.200   119918136.02108  22819646.260    93442716.71947
  21832237.120   114729226.34508  21832239.860    89399416.47348
  24223738.620   127296544.66107  24223741.600    99192097.15645
 15 02 28 00 36  0.0000000  0  7G16G18G19G21G22G27G31
  20761313.760   109101473.48109  20761313.380    85014149.88149
  22137227.220   116331921.71808  22137227.200    90648266.44947
  23850596.500   125335742.51207  23850595.320    97664217.79445
  22081522.740   116039184.56008  22081522.240    90420139.92748
  22803348.160   119832484.04808  22803347.080    93375974.96946
  21822153.400   114676236.67508  21822156.120    89358125.82948
  24242544.440   127395370.01707  24242547.600    99269103.78244
 15 02 28 00 36 30.0000000  0  7G16G18G19G21G22G27G31
  20753465.300   109060229.33809  20753464.920    84982011.58549
  22130697.240   116297607.03608  22130697.320    90621527.73947
  23836089.420   125259506.28807  23836087.840    97604812.98645
  22092955.100   116099261.89908  22092954.620    90466953.43848
  22787086.020   119747025.73108  22787084.800    93309384.10846
  21812096.300   114623386.59608  21812098.960    89316943.96748
  24261347.200   127494179.19007  24261350.320    99346097.76744
 15 02 28 00 37  0.0000000  0  7G16G18G19G21G22G27G31
  20745698.300   109019413.35209  20745697.900    84950206.92049
  22124250.120   116263727.48808  22124250.240    90595128.10847
  23821600.240   125183367.01206  23821599.060    97545483.72146
  22104428.800   116159556.27708  22104428.260    90513936.06848
  22770861.240   119661764.50108  22770859.960    93242946.82946
  21802066.100   114570676.96408  21802068.560    89275871.53848
  24280146.460   127592970.40407  24280149.500    99423077.76644
 15 02 28 00 37 30.0000000  0  7G16G18G19G21G22G27G31
  20738012.360   108979023.37509  20738011.880    84918734.21549
  22117885.340   116230280.63508  22117885.440    90569065.63347
  23807128.540   125107320.64806  23807127.840    97486226.82845
  22115942.740   116220062.32108  22115942.120    90561083.63348
  22754673.640   119576698.86708  22754672.280    93176661.96846
  21792061.920   114518103.84508  21792064.220    89234905.48148
  24298940.980   127691736.83807  24298943.940    99500038.46845
 15 02 28 00 38  0.0000000  0  7G16G18G19G21G22G27G31
  20730406.320   108939053.48309  20730405.800    84887588.84149
  22111601.720   116197260.50208  22111601.980    90543335.67647
  23792673.340   125031359.30706  23792672.940    97427036.23246
  22127495.060   116280770.15208  22127494.360    90608388.43048
  22738522.440   119491824.00308  22738521.000    93110525.76447
  21782082.240   114465659.82308  21782084.480    89194040.01448
  24317728.760   127790467.96406  24317731.780    99576971.62445
 15 02 28 00 38 30.0000000  0  7G16G18G19G21G22G27G31
  20722881.860   108899512.33409  20722881.460    84856777.55249
  22105400.880   116164674.84108  22105401.260    90517944.27647
  23778235.940   124955489.94806  23778235.860    97367917.30646
  22139086.720   116341684.76508  22139085.940    90655854.36448
  22722409.380   119407149.13608  22722407.880    93044545.37947
  21772128.300   114413351.82508  21772130.680    89153280.53948
  24336510.640   127889167.79806  24336513.880    99653880.38945
 15 02 28 00 39  0.0000000  0  7G16G18G19G21G22G27G31
  20715439.840   108860404.14509  20715439.500    84826303.63449
  22099283.520   116132527.71908  22099283.880    90492894.59147
  23763816.580   124879715.11606  23763816.580    97308872.04446
  22150717.720   116402806.40108  22150716.940    90703481.60548
  22706335.220   119322679.23608  22706333.800    92978724.71747
  21762200.700   114361182.36308  21762203.260    89112629.02748
  24355286.520   127987835.67406  24355289.900    99730764.19145
 15 02 28 00 39 30.0000000  0  7G16G18G19G21G22G27G31
  20708080.160   108821729.06509  20708079.880    84796167.21049
  22093249.600   116100819.06408  22093249.920    90468186.56847
  23749414.700   124804033.11006  23749415.000    97249899.10945
  22162387.500   116464131.61308  22162386.740    90751267.47948
  22690300.240   119238415.57308  22690298.980    92913064.74847
  21752299.340   114309150.17409  21752301.920    89072084.47848
  24374055.740   128086467.41706  24374059.060    99807619.84045
 15 02 28 00 40  0.0000000  0  7G16G18G19G21G22G27G31
  20700802.880   108783487.10509  20700802.620    84766368.28049
  22087299.020   116069548.31508  22087299.240    90443819.76047
  23735030.220   124728442.00207  23735030.160    97190996.99146
  22174095.520   116525656.20808  22174094.720    90799210.49448
  22674304.680   119154358.71608  22674303.460    92847565.92947
  21742423.840   114257253.43809  21742426.320    89031645.47548
  24392817.320   128185058.20706  24392820.380    99884443.58045
 15 02 28 00 40 30.0000000  0  7G16G18G19G21G22G27G31
  20693608.420   108745679.98909  20693608.120    84736908.19249
  22081432.020   116038716.66008  22081432.120    90419795.11447
  23720663.380   124652942.16107  23720662.460    97132166.01546
  22185841.200   116587380.28608  22185840.520    90847307.17448
  22658349.080   119070511.53008  22658347.820    92782230.48847
  21732574.240   114205492.48409  21732576.460    88991312.27548
  24411570.720   128283605.50006  24411573.340    99961233.40944
 15 02 28 00 41  0.0000000  0  7G16G18G19G21G22G27G31
  20686498.100   108708314.55609  20686497.740    84707792.26249
  22075649.840   116008330.76008  22075649.840    90396117.80347
  23706314.740   124577538.51907  23706313.280    97073409.98246
  22197625.240   116649305.87308  22197624.640    90895560.87048
  22642434.880   118986881.89408  22642433.600    92717064.57947
  21722751.380   114153872.62809  21722753.420    88951089.03348
  24430316.220   128382111.55806  24430318.520   100037991.08544
 15 02 28 00 41 30.0000000  0  6G16G18G19G22G27G31
  20679471.860   108671391.20209  20679471.460    84679020.81249
  22069952.400   115978390.61808  22069952.360    90372787.83947
  23691983.900   124502229.75407  23691982.520    97014727.84646
  22626562.300   118903470.69208  22626560.880    92652068.87447
  21712954.980   114102392.51609  21712957.020    88910974.67448
  24449053.080   128480572.11006  24449055.160   100114713.28245
 15 02 28 00 42  0.0000000  0  7G16G18G19G21G22G27G31
  20672530.220   108634912.44109  20672529.780    84650595.79749
  22064340.180   115948898.34008  22064340.040    90349806.85947
  23677670.980   124427016.26806  23677670.240    96956119.96546
  22221306.060   116773752.72508  22221305.820    90992531.87048
  22610731.920   118820281.63108  22610730.480    92587246.26847
  21703185.360   114051053.22109  21703187.520    88870970.04548
  24467780.900   128578985.47606  24467782.720   100191398.71144
 15 02 28 00 42 30.0000000  0  7G16G18G19G21G22G27G31
  20665672.660   108598875.56209  20665672.220    84622515.11249
  22058812.600   115919850.36708  22058812.340    90327172.08147
  23663375.520   124351894.13606  23663375.020    96897583.28246
  22233201.620   116836264.45908  22233201.380    91041242.30648
  22594943.400   118737312.65608  22594942.020    92522595.14947
  21693441.760   113999850.53409  21693444.020    88831071.85948
  24486498.160   128677344.14106  24486500.000   100268041.48845
 15 02 28 00 43  0.0000000  0  7G16G18G19G21G22G27G31
  20658899.900   108563284.56809  20658899.560    84594781.87449
  22053370.340   115891250.80808  22053370.140    90304886.71947
  23649097.860   124276865.81606  23649097.700    96839119.68246
  22245133.700   116898967.96808  22245133.520    91090102.17348
  22579197.680   118654568.95408  22579196.440    92458119.56447
  21683724.640   113948786.90509  21683726.960    88791282.03348
  24505204.740   128775647.49106  24505206.880   100344641.18046
 15 02 28 00 43 30.0000000  0  7G16G18G19G21G22G27G31
  20652212.460   108528141.77309  20652212.180    84567397.87249
  22048013.720   115863101.68508  22048013.700    90282952.34847
  23634838.180   124201931.63807  23634838.160    96780729.45346
  22257102.060   116961861.90908  22257101.860    91139110.43247
  22563495.680   118572054.17908  22563494.440    92393822.36847
  21674034.140   113897863.41709  21674036.500    88751601.39948
  24523900.380   128873894.02606  24523903.180   100421196.56145
 15 02 28 00 44  0.0000000  0  7G16G18G19G21G22G27G31
  20645610.440   108493447.71109  20645610.080    84540363.53349
  22042742.720   115835402.76108  22042742.860    90261368.79147
  23620596.320   124127090.48907  23620596.320    96722411.70946
  22269106.040   117024942.96308  22269105.760    91188264.50747
  22547837.480   118489769.27808  22547836.140    92329704.29847
  21664370.100   113847078.95909  21664372.440    88712029.11148
  24542584.440   128972079.33706  24542587.820   100497704.20945
 15 02 28 00 44 30.0000000  0  7G16G18G19G21G22G27G31
  20639093.540   108459201.23109  20639093.220    84513677.96249
  22037556.980   115808151.98408  22037557.160    90240134.44047
  23606371.920   124052339.35507  23606371.740    96664164.09246
  22281144.780   117088206.73808  22281144.420    91237560.95247
  22532222.880   118407713.72808  22532221.480    92265764.93947
  21654732.000   113796430.81408  21654734.280    88672563.04448
  24561255.860   129070197.67805  24561259.760   100574159.68845
 15 02 28 00 45  0.0000000  0  7G16G18G19G21G22G27G31
  20632662.720   108425407.27809  20632662.500    84487345.00649
  22032457.460   115781354.07208  22032457.580    90219252.95847
  23592165.540   123977681.65707  23592164.740    96605989.29446
  22293218.460   117151654.10208  22293218.020    91287000.44947
  22516653.120   118325893.61908  22516651.660    92202009.03747
  21645120.520   113745922.44008  21645122.740    88633205.89048
  24579914.680   129168249.76606  24579918.920   100650563.49745
 15 02 28 00 45 30.0000000  0  7G16G18G19G21G22G27G31
  20626319.400   108392072.85909  20626319.180    84461370.12849
  22027445.440   115755015.74509  22027445.500    90198729.60747
  23577977.740   123903122.90907  23577976.380    96547891.61546
  22305327.900   117215289.36308  22305327.400    91336586.36047
  22501129.660   118244317.14708  22501128.320    92138442.98347
  21635536.780   113695559.65408  21635538.980    88593962.17548
  24598561.520   129266238.55805  24598565.920   100726917.99445
 15 02 28 00 46  0.0000000  0  7G16G18G19G21G22G27G31
  20620062.920   108359194.90009  20620062.740    84435750.93949
  22022520.220   115729133.61608  22022520.280    90178561.73247
  23563807.580   123828658.34407  23563805.860    96489867.31846
  22317471.780   117279105.66508  22317471.240    91386313.34148
  22485651.980   118162982.04208  22485650.780    92075065.00547
  21625979.920   113645337.86609  21625982.160    88554828.32548
  24617194.940   129364156.35606  24617199.340   100803217.12744
 15 02 28 00 46 30.0000000  0  7G16G18G19G21G22G27G31
  20613893.520   108326774.58709  20613893.320    84410488.35549
  22017681.920   115703708.46408  22017682.040    90158749.93447
  23549655.160   123754288.05707  23549653.420    96431916.50746
  22329649.700   117343100.97708  22329649.140    91436179.81447
  22470220.700   118081890.92208  22470219.620    92011877.14847
  21616449.900   113595257.00809  21616452.180    88515804.30048
  24635814.520   129462000.49806  24635818.660   100879458.88344
 15 02 28 00 47  0.0000000  0  7G16G18G19G21G22G27G31
  20607812.540   108294818.69009  20607812.300    84385587.65249
  22012931.660   115678746.10508  22012931.860    90139298.76647
  23535521.340   123680016.93907  23535520.460    96374042.96947
  22341862.280   117407278.36108  22341861.660    91486188.15847
  22454837.300   118001050.83308  22454836.180    91948884.89847
  21606947.680   113545322.30209  21606949.980    88476894.15648
  24654420.500   129559772.41606  24654424.160   100955644.29645
 15 02 28 00 47 30.0000000  0  7G16G18G19G21G22G27G31
  20601818.640   108263320.18109  20601818.280    84361043.35549
  22008268.140   115654239.36808  22008268.300    90120202.61747
  23521404.880   123605836.55607  23521405.060    96316240.10647
  22354107.500   117471627.55008  22354106.820    91536330.38347
  22439500.660   117920455.98008  22439499.360    91886083.75747
  21597471.660   113495525.43409  21597473.920    88438091.43048
  24673010.640   129657461.44506  24673014.100   101031765.16544
 15 02 28 00 48  0.0000000  0  7G16G18G19G21G22G27G31
  20595912.800   108232284.90809  20595912.400    84336860.01649
  22003692.360   115630193.61308  22003692.380    90101465.67147
  23507306.660   123531750.77707  23507307.640    96258510.96246
  22366385.840   117536151.17108  22366385.180    91586608.52447
  22424212.100   117840113.41408  22424210.580    91823479.19147
  21588022.680   113445870.89309  21588024.860    88399399.60448
  24691585.300   129755069.14605  24691588.440   101107822.64744
 15 02 28 00 48 30.0000000  0  6G16G18G19G21G22G27
  20590094.080   108201707.58309  20590093.720    84313033.53149
  21999203.120   115606602.85208  21999203.060    90083083.27147
  23493225.380   123457752.70707  23493226.400    96200850.19046
  22378695.660   117600840.07208  22378695.020    91637015.45147
  22408970.700   117760018.79308  22408968.980    91761067.82747
  21578599.400   113396352.05008  21578601.600    88360813.50348
 15 02 28 00 49  0.0000000  0  6G16G18G19G21G22G27
  20584366.120   108171606.84009  20584365.760    84289578.40449
  21994803.900   115583485.19508  21994803.900    90065069.53247
  23479164.260   123383859.62707  23479164.500    96143271.21646
  22391039.840   117665709.52808  22391039.320    91687563.07747
  22393780.060   117680191.45208  22393778.200    91698864.72247
  21569205.240   113346986.23608  21569207.580    88322346.65048
 15 02 28 00 49 30.0000000  0  6G16G18G19G21G22G27
  20578726.900   108141972.49109  20578726.540    84266486.69849
  21990492.760   115560829.87708  21990492.800    90047416.05047
  23465120.900   123310059.81407  23465120.100    96085764.91345
  22403415.840   117730746.12508  22403415.460    91738240.93147
  22378638.460   117600622.30308  22378636.620    91636862.81547
  21559838.100   113297761.96209  21559840.600    88283990.08248
 15 02 28 00 50  0.0000000  0  6G16G18G19G21G22G27
  20573177.240   108112808.86309  20573176.940    84243761.79449
  21986270.340   115538640.76908  21986270.400    90030125.85647
  23451095.680   123236356.14407  23451094.100    96028333.55446
  22415823.920   117795950.78908  22415823.620    91789049.76047
  22363546.980   117521316.55608  22363545.220    91575066.13647
  21550498.580   113248682.28509  21550501.160    88245746.19348
 15 02 28 00 50 30.0000000  0  6G16G18G19G21G22G27
  20567717.740   108084118.67309  20567717.400    84221405.79949
  21982137.140   115516920.56708  21982137.220    90013201.04447
  23437088.880   123162750.15507  23437087.100    95970978.29546
  22428264.000   117861323.26508  22428263.760    91839989.34447
  22348506.480   117442278.58108  22348504.780    91513478.12747
  21541186.920   113199749.14708  21541189.580    88207616.48748
 15 02 28 00 51  0.0000000  0  6G16G18G19G21G22G27
  20562348.000   108055900.23109  20562347.580    84199417.40049
  21978092.600   115495666.14008  21978092.660    89996639.16947
  23423099.940   123089238.12407  23423098.360    95913696.24046
  22440734.960   117926858.27908  22440734.800    91891055.57847
  22333516.740   117363507.17908  22333515.080    91452097.83147
  21531902.480   113150959.04309  21531905.140    88169598.24348
 15 02 28 00 51 30.0000000  0  6G16G18G19G21G22G27
  20557069.440   108028161.46309  20557069.040    84177802.77249
  21974138.140   115474885.12308  21974138.140    89980446.19247
  23409129.760   123015826.47906  23409128.900    95856492.40846
  22453237.820   117992560.77908  22453237.640    91942252.32147
  22318579.480   117285011.46308  22318577.880    91390932.37347
  21522646.560   113102318.84209  21522649.160    88131696.80248
 15 02 28 00 52  0.0000000  0  6G16G18G19G21G22G27
  20551881.320   108000897.75909  20551880.900    84156558.32949
  21970272.880   115454572.75008  21970272.760    89964618.38347
  23395177.640   122942509.55407  23395177.340    95799362.36746
  22465770.880   118058422.54308  22465770.720    91993573.16447
  22303693.980   117206787.84508  22303692.400    91329978.93447
  21513418.040   113053822.62909  21513420.580    88093907.55748
 15 02 28 00 52 30.0000000  0  6G16G18G19G21G22G27
  20546783.560   107974108.53609  20546783.120    84135683.61249
  21966496.560   115434727.42409  21966496.180    89949154.49347
  23381243.600   122869285.70507  23381243.380    95742304.87046
  22478333.540   118124440.06608  22478333.320    92045015.38447
  22288860.400   117128836.98808  22288858.820    91269238.04547
  21504216.640   113005468.90109  21504219.160    88056229.33648
 15 02 28 00 53  0.0000000  0  6G16G18G19G21G22G27
  20541777.360   107947800.47309  20541776.900    84115183.82449
  21962810.240   115415355.61108  21962809.760    89934059.58347
  23367328.300   122796159.90307  23367328.000    95685323.77047
  22490926.480   118190616.61308  22490926.180    92096581.51747
  22274080.240   117051166.62608  22274078.640    91208715.70947
  21495043.420   112957263.12309  21495045.880    88018666.39648
 15 02 28 00 53 30.0000000  0  6G16G18G19G21G22G27
  20536862.640   107921973.54509  20536862.200    84095058.94149
  21959213.780   115396456.53808  21959213.400    89919333.04547
  23353431.380   122723130.44907  23353430.620    95628417.75746
  22503549.020   118256948.67308  22503548.620    92148268.83147
  22259353.640   116973777.57808  22259352.060    91148412.58647
  21485898.040   112909203.88809  21485900.500    87981217.64949
 15 02 28 00 54  0.0000000  0  6G16G18G19G21G22G27
  20532039.640   107896628.51409  20532039.180    84075309.56549
  21955707.420   115378030.81208  21955707.240    89904975.35647
  23339552.840   122650197.06007  23339551.380    95571586.60045
  22516200.760   118323434.09708  22516200.180    92200075.65147
  22244680.980   116896671.78008  22244679.440    91088330.17748
  21476780.600   112861291.22809  21476783.020    87943883.12248
 15 02 28 00 54 30.0000000  0  6G16G18G19G21G22G27
  20527309.240   107871770.25209  20527308.800    84055939.48449
  21952291.960   115360082.27308  21952291.880    89890989.49947
  23325693.020   122577363.06507  23325691.200    95514832.88746
  22528882.080   118390074.75508  22528881.360    92252003.43247
  22230063.320   116819855.19608  22230061.840    91028473.11748
  21467691.760   112813528.77809  21467694.100    87906665.63448
 15 02 28 00 55  0.0000000  0  6G16G18G19G21G22G27
  20522671.740   107847400.12209  20522671.340    84036949.76849
  21948967.420   115342611.68408  21948967.300    89877376.06147
  23311852.020   122504628.87807  23311850.320    95458156.93446
  22541592.540   118456868.78308  22541591.860    92304050.71947
  22215501.120   116743330.36608  22215499.740    90968843.40347
  21458631.600   112765916.95609  21458633.840    87869565.51748
 15 02 28 00 55 30.0000000  0  6G16G18G19G21G22G27
  20518126.660   107823515.94409  20518126.340    84018338.72049
  21945733.300   115325616.40808  21945733.120    89864132.98947
  23298029.340   122431990.44307  23298027.900    95401555.57546
  22554331.180   118523810.68108  22554330.580    92356213.23047
  22200994.160   116667096.07108  22200992.860    90909440.07747
  21449599.400   112718452.17709  21449601.600    87832579.98449
 15 02 28 00 56  0.0000000  0  6G16G18G19G21G22G27
  20513674.700   107800121.10109  20513674.460    84000108.97149
  21942590.060   115309099.12208  21942589.980    89851262.39547
  23284225.320   122359450.06307  23284224.160    95345030.66046
  22567098.000   118590900.84608  22567097.520    92408491.26947
  22186543.300   116591157.13008  22186542.080    90850266.90747
