     2.11           OBSERVATION DATA    G                   RINEX VERSION / TYPE
SPIDER V4,0,0,3554                      2015 03 13 02:35    PGM / RUN BY / DATE 
EMHD                                                        MARKER NAME         
EMHD                                                        MARKER NUMBER       
                                                            OBSERVER / AGENCY   
462397              LEICA GRX1200PRO    8.20/0.000          REC # / TYPE / VERS 
103297              LEIAT504                                ANT # / TYPE        
  5146535.6892   265261.6083  3747697.6292                  APPROX POSITION XYZ 
        0.0470        0.0000        0.0000                  ANTENNA: DELTA H/E/N
     1     1                                                WAVELENGTH FACT L1/2
     4    C1    L1    P2    L2                              # / TYPES OF OBSERV 
    30.000                                                  INTERVAL            
  2015    02    28    15    45   30.0000000     GPS         TIME OF FIRST OBS   
  2015    02    28    23    59   30.0000000     GPS         TIME OF LAST OBS    
    16                                                      LEAP SECONDS        
    18                                                      # OF SATELLITES     
   G 2   402   402   402   402                              PRN / # OF OBS      
   G 5    33    33    33    33                              PRN / # OF OBS      
   G 6   144   144   144   144                              PRN / # OF OBS      
   G12   749   749   749   749                              PRN / # OF OBS      
   G13   239   239   239   239                              PRN / # OF OBS      
   G14   440   440   439   439                              PRN / # OF OBS      
   G15   396   396   396   396                              PRN / # OF OBS      
   G16   194   194   194   194                              PRN / # OF OBS      
   G17   267   267   267   267                              PRN / # OF OBS      
   G18   371   371   370   370                              PRN / # OF OBS      
   G21   378   378   377   377                              PRN / # OF OBS      
   G22   140   140   140   140                              PRN / # OF OBS      
   G24   613   613   613   613                              PRN / # OF OBS      
   G25   813   813   813   813                              PRN / # OF OBS      
   G27   131   131   131   131                              PRN / # OF OBS      
   G28    70    70    70    70                              PRN / # OF OBS      
   G29   706   706   706   706                              PRN / # OF OBS      
   G31   520   520   520   520                              PRN / # OF OBS      
BIT 2 OF LLI FLAGS DATA COLLECTED UNDER A/S CONDITION       COMMENT             
SNR is mapped to RINEX snr flag value [2-9]                 COMMENT             
Lx:     = 25dBHz -> 1; 26-27dBHz -> 2; 28-31dBHz -> 3       COMMENT             
       32-35dBHz -> 4; 36-38dBHz -> 5; 39-41dBHz -> 6       COMMENT             
       42-44dBHz -> 7; 45-48dBHz -> 8; >=49dBHz -> 9        COMMENT             
                                                            END OF HEADER       
 15 02 28 15 45 30.0000000  0  6G12G13G15G17G24G28
  23141397.640   121608861.64405  23141403.000    94760177.04446
  20656435.960   108550303.45108  20656436.740    84584654.53348
  20478270.920   107614040.03308  20478271.140    83855096.58449
  23202965.160   121932404.49506  23202967.640    95012272.69846
  21941546.980   115303608.24106  21941551.680    89846985.84648
  23685554.220   124468427.66305  23685556.600    96988394.78045
 15 02 28 15 46  0.0000000  0  8G05G12G13G15G17G18G24G28
  24237305.540   127367900.26204  24237318.500    99247759.47046
  23121367.660   121503604.28705  23121373.160    94678158.70546
  20664117.220   108590668.79208  20664117.980    84616108.01548
  20473561.900   107589293.81308  20473562.080    83835813.82849
  23197381.540   121903063.19406  23197383.960    94989409.42047
  23904360.540   125618264.08604  23904362.420    97884367.91143
  21931355.000   115250048.93206  21931359.660    89805251.37948
  23702617.500   124558095.32205  23702619.620    97058265.60745
 15 02 28 15 46 30.0000000  0  8G05G12G13G15G17G18G24G28
  24257159.380   127472229.70604  24257172.060    99329054.20045
  23101378.800   121398563.29105  23101384.460    94596308.92646
  20671876.540   108631444.18608  20671877.260    84647881.01748
  20468930.820   107564957.18408  20468930.960    83816850.23349
  23191880.540   121874155.93506  23191882.960    94966884.34647
  23894187.960   125564806.16605  23894190.180    97842712.43844
  21921190.160   115196631.77806  21921194.640    89763627.68048
  23719702.160   124647875.58705  23719704.320    97128224.16846
 15 02 28 15 47  0.0000000  0  8G05G12G13G15G17G18G24G28
  24277013.080   127576557.66704  24277025.440    99410347.71946
  23081435.960   121293764.45905  23081441.720    94514647.85346
  20679718.500   108672653.38808  20679719.100    84679992.05348
  20464382.480   107541055.48108  20464382.600    83798225.53349
  23186467.060   121845708.46806  23186469.600    94944717.55646
  23884097.480   125511778.32805  23884099.720    97801392.09844
  21911056.820   115143380.15406  21911061.140    89722132.96648
  23736812.480   124737790.49505  23736814.560    97198287.65046
 15 02 28 15 47 30.0000000  0  8G05G12G13G15G17G18G24G28
  24296866.300   127680883.77104  24296878.380    99491639.76947
  23061539.920   121189211.66605  23061545.800    94433178.47646
  20687643.320   108714298.23608  20687643.920    84712442.55148
  20459917.580   107517592.41208  20459917.720    83779942.62849
  23181141.900   121817724.45506  23181144.380    94922911.89646
  23874089.020   125459183.77604  23874091.340    97760409.45544
  21900955.360   115090296.34506  21900959.620    89680769.01448
  23753948.220   124827839.23505  23753950.340    97268455.41646
 15 02 28 15 48  0.0000000  0  8G05G12G13G15G17G18G24G28
  24316718.020   127785201.29104  24316729.940    99572925.11945
  23041690.400   121084903.15105  23041696.300    94351899.43347
  20695650.320   108756375.22608  20695650.980    84745229.78548
  20455535.560   107494564.91708  20455535.700    83761999.13449
  23175904.500   121790201.45606  23175906.880    94901465.47347
  23864162.440   125407020.31505  23864164.780    97719762.62345
  21890885.020   115037376.31706  21890889.240    89639532.67848
  23771108.300   124918015.66205  23771110.400    97338722.70846
 15 02 28 15 48 30.0000000  0  8G05G12G13G15G17G18G24G28
  24336567.540   127889507.40004  24336579.580    99654201.54545
  23021887.860   120980841.25405  23021893.700    94270812.57646
  20703739.420   108798883.88608  20703740.160    84778353.38948
  20451236.760   107471974.57608  20451236.880    83744396.27349
  23170755.220   121763141.35806  23170757.440    94880379.72746
  23854318.320   125355289.64404  23854320.760    97679453.08544
  21880845.840   114984620.25206  21880850.080    89598424.10248
  23788292.280   125008317.86005  23788294.440    97409087.96944
 15 02 28 15 49  0.0000000  0  8G05G12G13G15G17G18G24G28
  24356414.980   127993802.33604  24356427.020    99735469.20944
  23002133.160   120877030.72705  23002138.860    94189921.55546
  20711911.220   108841827.11608  20711912.020    84811815.61848
  20447021.980   107449825.68408  20447022.100    83727137.40049
  23165694.780   121736548.56906  23165696.920    94859658.13347
  23844557.080   125303994.91104  23844559.700    97639483.27244
  21870838.460   114932031.04106  21870842.640    89557445.54648
  23805500.380   125098746.47105  23805502.380    97479551.76545
 15 02 28 15 49 30.0000000  0  8G05G12G13G15G17G18G24G28
  24376259.580   128098081.80404  24376271.720    99816724.83445
  22982426.120   120773471.49005  22982431.840    94109226.34746
  20720165.360   108885202.93308  20720166.200    84845614.92148
  20442891.100   107428117.59808  20442891.180    83710222.01549
  23160723.080   121710422.60806  23160725.200    94839300.30347
  23834878.940   125253136.16605  23834881.580    97599853.11144
  21860862.440   114879606.78106  21860866.600    89516595.53048
  23822731.640   125189297.45105  23822733.660    97550110.90444
 15 02 28 15 50  0.0000000  0  8G05G12G13G15G17G18G24G28
  24396100.340   128202340.23904  24396112.320    99897964.03846
  22962766.860   120670163.41505  22962772.660    94028726.85246
  20728501.440   108929009.04308  20728502.260    84879749.52548
  20438843.920   107406849.58108  20438844.000    83693649.53849
  23155840.200   121684763.08006  23155842.320    94819305.92646
  23825283.860   125202712.71604  23825286.320    97560562.18945
  21850917.300   114827344.99906  21850921.440    89475872.11548
  23839985.360   125279966.22805  23839987.260    97620761.84645
 15 02 28 15 50 30.0000000  0  8G05G12G13G15G17G18G24G28
  24415937.580   128306580.18404  24415949.540    99979188.79945
  22943156.840   120567113.25005  22943162.520    93948428.31846
  20736920.280   108973250.05108  20736921.080    84914223.01448
  20434881.640   107386027.76408  20434881.740    83677424.75449
  23151047.260   121659576.04906  23151049.380    94799679.72846
  23815772.600   125152730.62604  23815775.300    97521615.21245
  21841004.060   114775250.77306  21841008.160    89435279.25948
  23857261.960   125370755.51505  23857263.980    97691506.69246
 15 02 28 15 51  0.0000000  0  8G05G12G13G15G17G18G24G28
  24435770.660   128410798.75504  24435782.840   100060396.88245
  22923596.320   120464322.64906  22923601.800    93868332.00446
  20745421.840   109017925.67508  20745422.620    84949035.15948
  20431004.420   107365652.87008  20431004.560    83661548.22149
  23146344.400   121634862.93106  23146346.600    94780422.82747
  23806345.420   125103190.87605  23806348.320    97483012.89144
  21831122.580   114723323.37906  21831126.620    89394816.40848
  23874561.040   125461662.73405  23874563.060    97762343.41845
 15 02 28 15 51 30.0000000  0  8G05G12G13G15G17G18G24G28
  24455598.500   128514989.23404  24455610.860   100141582.98945
  22904084.960   120361790.00706  22904090.220    93788436.72846
  20754005.300   109063031.64108  20754006.040    84984182.64348
  20427211.800   107345722.53608  20427211.960    83646018.09949
  23141731.280   121610621.41606  23141733.500    94761533.40047
  23797002.100   125054090.94805  23797004.760    97444753.24145
  21821272.180   114671559.54606  21821276.260    89354481.00048
  23891881.460   125552682.12405  23891883.600    97833267.56345
 15 02 28 15 52  0.0000000  0  8G05G12G13G15G17G18G24G28
  24475421.200   128619152.51604  24475433.800   100222747.89345
  22884623.680   120259520.82606  22884628.780    93708746.72146
  20762671.400   109108571.82308  20762672.020    85019668.46748
  20423504.720   107326241.54108  20423504.860    83630838.10949
  23137208.900   121586856.81306  23137211.160    94743015.60146
  23787743.100   125005435.76505  23787745.820    97406840.17845
  21811453.620   114619963.02706  21811457.780    89314275.97448
  23909223.540   125643814.87805  23909225.700    97904280.02545
 15 02 28 15 52 30.0000000  0  8G05G12G13G15G17G18G24G28
  24495237.900   128723284.16504  24495250.700   100303888.08745
  22865212.340   120157514.63605  22865217.300    93629261.64046
  20771419.620   109154543.83008  20771420.180    85055490.77748
  20419882.980   107307209.18708  20419883.120    83616007.71849
  23132777.160   121563568.39006  23132779.460    94724868.84446
  23778568.600   124957224.47005  23778571.580    97369273.00143
  21801666.380   114568531.01507  21801670.540    89274199.13148
  23926586.480   125735057.03905  23926588.620    97975377.74946
 15 02 28 15 53  0.0000000  0  8G05G12G13G15G17G18G24G28
  24515048.000   128827381.21804  24515060.920   100385001.28545
  22845851.460   120055773.59706  22845856.360    93549983.17547
  20780249.900   109200947.19308  20780250.460    85091649.20548
  20416346.840   107288626.88008  20416347.020    83601528.01649
  23128436.300   121540757.51106  23128438.680    94707094.20746
  23769478.900   124909458.13104  23769481.820    97332052.51043
  21791910.580   114517263.76407  21791914.620    89234250.68348
  23943969.780   125826406.51605  23943972.040    98046559.10545
 15 02 28 15 53 30.0000000  0  8G05G12G13G15G17G18G24G28
  24534851.400   128931443.40904  24534864.660   100466087.26746
  22826541.860   119954301.93105  22826546.660    93470914.58646
  20789162.720   109247784.21108  20789163.320    85128145.55748
  20412896.920   107270497.73308  20412897.120    83587401.42549
  23124187.100   121518427.78806  23124189.400    94689694.50446
  23760474.420   124862140.28604  23760477.120    97295181.53844
  21782186.560   114466163.72807  21782190.540    89194432.51648
  23961373.400   125917862.73105  23961375.640    98117823.62245
 15 02 28 15 54  0.0000000  0  8G05G12G13G15G17G18G24G28
  24554647.060   129035464.87604  24554660.720   100547141.48046
  22807283.200   119853098.45405  22807288.000    93392054.98147
  20798157.340   109295051.05808  20798157.960    85164976.83648
  20409532.880   107252819.61208  20409533.060    83573626.27649
  23120029.180   121496577.36906  23120031.360    94672668.28246
  23751555.160   124815268.97705  23751557.720    97258658.49545
  21772493.640   114415227.23407  21772497.600    89154741.79948
  23978796.360   126009420.51205  23978798.560    98189167.28046
 15 02 28 15 54 30.0000000  0  8G05G12G13G15G17G18G24G28
  24574434.840   129139444.99404  24574448.880   100628163.42144
  22788076.320   119752167.18406  22788081.220    93313407.48846
  20807234.100   109342749.63008  20807234.700    85202144.52448
  20406255.420   107235596.38608  20406255.540    83560205.59249
  23115963.080   121475209.81406  23115965.200    94656018.30846
  23742721.600   124768847.39405  23742724.080    97222485.89945
  21762832.240   114364456.74206  21762836.260    89115180.42748
  23996238.740   126101080.16505  23996240.780    98260590.32545
 15 02 28 15 55  0.0000000  0  8G05G12G13G15G17G18G24G28
  24594214.540   129243382.83204  24594229.020   100709152.35344
  22768922.040   119651511.69606  22768926.780    93234974.87447
  20816393.400   109390881.80908  20816393.960    85239650.07948
  20403065.080   107218830.61808  20403065.100    83547141.37249
  23111989.360   121454328.29006  23111991.500    94639747.06246
  23733973.980   124722878.45705  23733976.440    97186666.03545
  21753202.740   114313853.74806  21753206.760    89075749.57248
  24013700.480   126192841.38505  24013702.360    98332092.51744
 15 02 28 15 55 30.0000000  0  7G12G13G15G17G18G24G28
  22749821.700   119551139.20506  22749826.260    93156762.78646
  20825636.100   109439452.34908  20825636.680    85277497.22448
  20399962.960   107202528.72608  20399962.940    83534438.61149
  23108109.460   121433939.41906  23108111.560    94623859.68647
  23725313.800   124677369.04805  23725316.060    97151204.16344
  21743606.180   114263423.87107  21743610.220    89036453.62248
  24031181.960   126284707.01905  24031183.940    98403676.09343
 15 02 28 15 56  0.0000000  0  8G05G12G13G15G17G18G24G28
  24633747.700   129451214.62404  24633765.640   100871149.24544
  22730770.940   119451027.81506  22730775.440    93078754.15146
  20834957.620   109488437.07008  20834958.200    85315667.10448
  20396944.800   107186668.24308  20396944.780    83522079.80849
  23104318.980   121414020.37606  23104321.000    94608338.41147
  23716736.760   124632296.07004  23716738.980    97116082.44245
  21734037.920   114213142.86706  21734042.000    88997273.66748
  24048678.360   126376650.99305  24048680.420    98475320.68345
 15 02 28 15 56 30.0000000  0  8G05G12G13G15G17G18G24G28
  24653499.120   129555006.40904  24653517.060   100952024.26545
  22711775.480   119351207.32306  22711780.000    93000972.17547
  20844363.260   109537863.97908  20844363.860    85354181.54248
  20394016.200   107171278.49108  20394016.180    83510087.81149
  23100623.640   121394601.01206  23100625.600    94593206.49847
  23708248.040   124587689.00104  23708250.640    97081323.76044
  21724503.460   114163039.51707  21724507.600    88958232.14148
  24066194.700   126468699.57905  24066196.760    98547046.81545
 15 02 28 15 57  0.0000000  0  8G05G12G13G15G17G18G24G28
  24673240.160   129658740.59904  24673257.800   101032854.37045
  22692833.020   119251665.31406  22692837.600    92923407.20046
  20853850.280   109587718.44208  20853850.860    85393029.13948
  20391174.500   107156345.80008  20391174.560    83498451.96149
  23097020.720   121375667.93706  23097022.720    94578453.52447
  23699845.520   124543534.27005  23699848.100    97046917.50345
  21714999.920   114113098.28207  21715004.080    88919316.93448
  24083727.700   126560836.09505  24083729.660    98618841.47644
 15 02 28 15 57 30.0000000  0  8G05G12G13G15G17G18G24G28
  24692970.520   129762418.24704  24692987.820   101113640.39144
  22673944.580   119152407.18006  22673949.180    92846063.40446
  20863419.140   109638003.11008  20863419.720    85432211.96848
  20388420.740   107141874.99308  20388420.840    83487176.02049
  23093511.200   121357225.77106  23093513.200    94564083.05247
  23691530.140   124499836.42705  23691532.460    97012867.26045
  21705528.120   114063323.57107  21705532.200    88880531.49848
  24101277.760   126653061.96805  24101279.540    98690705.81345
 15 02 28 15 58  0.0000000  0  8G05G12G13G15G17G18G24G28
  24712689.580   129866036.58204  24712706.660   101194380.11045
  22655110.580   119053434.59606  22655115.020    92768942.13946
  20873069.820   109688717.82508  20873070.460    85471729.90348
  20385755.120   107127867.28408  20385755.280    83476260.93249
  23090095.480   121339276.11706  23090097.440    94550096.36947
  23683301.860   124456596.52405  23683304.260    96979173.89245
  21696087.980   114013715.13807  21696091.960    88841875.62548
  24118844.400   126745374.95805  24118846.080    98762637.93543
 15 02 28 15 58 30.0000000  0  8G05G12G13G15G17G18G24G28
  24732396.980   129969593.58804  24732414.240   101275072.08346
  22636331.360   118954750.37406  22636335.820    92692045.54247
  20882802.400   109739862.82808  20882803.120    85511583.12248
  20383178.060   107114324.64808  20383178.180    83465708.23449
  23086773.800   121321821.01206  23086775.800    94536495.04647
  23675161.260   124413816.78305  23675163.540    96945839.06444
  21686679.740   113964274.16207  21686683.620    88803350.23448
  24136427.320   126837774.06805  24136429.260    98834637.20744
 15 02 28 15 59  0.0000000  0  8G05G12G13G15G17G18G24G28
  24752092.100   130073085.34504  24752109.720   101355713.14345
  22617607.140   118856354.75606  22617611.520    92615373.83647
  20892616.480   109791436.11708  20892617.220    85551770.06748
  20380689.360   107101246.21508  20380689.460    83455517.25649
  23083546.000   121304859.56006  23083548.100    94523278.37546
  23667107.920   124371496.05905  23667110.040    96912861.96544
  21677302.860   113914998.14107  21677306.640    88764953.38048
  24154025.880   126930255.05904  24154027.920    98906700.29444
 15 02 28 15 59 30.0000000  0  8G05G12G13G15G17G18G24G28
  24771774.600   130176511.47404  24771792.780   101436303.05744
  22598938.740   118758251.74906  22598942.960    92538930.12146
  20902512.520   109843439.84808  20902513.220    85592292.41048
  20378289.680   107088635.81908  20378289.780    83445690.97849
  23080412.840   121288395.55806  23080415.120    94510449.31747
  23659142.580   124329637.98305  23659144.600    96880245.28844
  21667957.940   113865890.03107  21667961.620    88726687.37848
  24171640.060   127022818.33104  24171642.320    98978827.46445
 15 02 28 16 00  0.0000000  0  8G05G12G13G15G17G18G24G28
  24791443.700   130279866.35304  24791462.300   101516837.39345
  22580325.760   118660440.22106  22580329.880    92462713.54946
  20912489.740   109895870.38008  20912490.400    85633147.32348
  20375978.620   107076491.09308  20375978.700    83436227.56149
  23077374.000   121272426.88406  23077376.320    94498006.23647
  23651264.840   124288240.38205  23651266.960    96847987.46145
  21658644.340   113816947.03507  21658648.100    88688550.03648
  24189269.060   127115458.88404  24189271.300    99051014.83043
 15 02 28 16 00 30.0000000  0  8G05G12G13G15G17G18G24G28
  24811099.240   130383149.46404  24811118.300   101597315.74544
  22561768.920   118562924.08806  22561773.000    92386727.14247
  20922548.540   109948729.74408  20922549.220    85674336.38948
  20373756.680   107064814.89808  20373756.800    83427129.23549
  23074430.080   121256956.77206  23074432.400    94485951.63347
  23643475.120   124247306.54604  23643477.400    96816091.03343
  21649362.460   113768170.86807  21649366.320    88650542.67648
  24206912.780   127208176.85104  24206914.900    99123262.56845
 15 02 28 16 01  0.0000000  0  8G05G12G13G15G17G18G24G28
  24830740.640   130486357.01804  24830760.000   101677735.27145
  22543268.400   118465704.04306  22543272.460    92310971.44146
  20932688.560   110002015.86908  20932689.280    85715857.99648
  20371623.960   107053607.55308  20371624.120    83418396.24549
  23071581.040   121241985.10206  23071583.340    94474285.44047
  23635773.660   124206836.01505  23635776.080    96784555.56044
  21640112.120   113719560.29507  21640116.000    88612664.35848
  24224570.620   127300968.75904  24224572.620    99195567.87745
 15 02 28 16 01 30.0000000  0  8G05G12G13G15G17G18G24G28
  24850367.340   130589487.78804  24850387.080   101758094.92845
  22524824.860   118368783.04106  22524828.860    92235448.75646
  20942909.940   110055729.58608  20942910.680    85757712.78948
  20369580.860   107042871.22908  20369581.040    83410030.28249
  23068827.480   121227514.64806  23068829.640    94463009.80446
  23628161.000   124166831.27205  23628163.620    96753383.08245
  21630893.560   113671116.77407  21630897.440    88574916.21948
  24242242.340   127393833.93804  24242244.360    99267930.31345
 15 02 28 16 02  0.0000000  0  8G05G12G13G15G17G18G24G28
  24869978.840   130692538.30604  24869998.900   101838392.06545
  22506438.360   118272161.76706  22506442.280    92160159.62447
  20953212.500   110109869.52108  20953213.200    85799899.70248
  20367627.380   107032605.59108  20367627.560    83402031.08649
  23066169.240   121213545.23906  23066171.260    94452124.57847
  23620637.060   124127292.10905  23620639.580    96722573.36944
  21621706.620   113622839.31207  21621710.440    88537297.46948
  24259927.340   127486769.11204  24259929.380    99340347.26244
 15 02 28 16 02 30.0000000  0  8G05G12G13G15G17G18G24G28
  24889574.880   130795507.74304  24889595.480   101918626.09745
  22488109.420   118175842.94506  22488113.300    92085106.17047
  20963596.280   110164436.24908  20963596.940    85842419.17748
  20365764.020   107022813.30208  20365764.140    83394400.73749
  23063606.720   121200078.86706  23063608.620    94441631.34346
  23613202.120   124088220.42905  23613204.340    96692127.94145
  21612551.440   113574729.10507  21612555.300    88499809.04748
  24277625.520   127579773.50705  24277627.620    99412818.21343
 15 02 28 16 03  0.0000000  0  7G12G13G15G17G18G24G28
  22469838.900   118079830.66206  22469842.660    92010291.57046
  20974061.600   110219431.21208  20974062.200    85885272.34748
  20363991.220   107013496.94208  20363991.320    83387141.23849
  23061140.400   121187118.73006  23061142.340    94431532.55447
  23605856.600   124049619.09305  23605858.620    96662048.99945
  21603428.340   113526787.65007  21603432.260    88462452.11548
  24295336.860   127672847.05605  24295339.020    99485343.02844
 15 02 28 16 03 30.0000000  0  7G12G13G15G17G18G24G28
  22451627.140   117984127.29806  22451630.700    91935717.67847
  20984608.420   110274854.84108  20984609.060    85928459.53848
  20362309.240   107004658.00908  20362309.320    83380253.75949
  23058770.680   121174666.61606  23058772.740    94421829.63947
  23598600.940   124011489.86705  23598602.780    96632337.98545
  21594337.740   113479016.67407  21594341.680    88425228.02948
  24313061.060   127765988.54005  24313063.200    99557920.74844
 15 02 28 16 04  0.0000000  0  7G12G13G15G17G18G24G28
  22433473.320   117888729.30806  22433476.780    91861381.76047
  20995235.680   110330701.27208  20995236.320    85971976.18448
  20360717.360   106996292.66508  20360717.460    83373735.30649
  23056496.880   121162718.05006  23056499.000    94412519.09647
  23591434.100   123973828.46505  23591435.960    96602991.48545
  21585278.560   113431410.43007  21585282.400    88388132.30148
  24330796.800   127859190.52004  24330798.980    99630545.65545
 15 02 28 16 04 30.0000000  0  7G12G13G15G17G18G24G28
  22415378.400   117793641.30906  22415381.880    91787287.36747
  21005943.600   110386971.94208  21005944.300    86015823.40748
  20359216.240   106988404.13108  20359216.320    83367588.39249
  23054319.520   121151276.20606  23054321.620    94403603.40547
  23584356.900   123936637.82805  23584358.740    96574011.79844
  21576251.200   113383971.16507  21576254.900    88351166.68748
  24348544.140   127952453.35004  24348546.500    99703217.95144
 15 02 28 16 05  0.0000000  0  7G12G13G15G17G18G24G28
  22397342.260   117698861.77306  22397345.780    91713433.34347
  21016731.660   110443663.95608  21016732.500    86059998.95248
  20357805.480   106980990.61408  20357805.560    83361811.61949
  23052238.480   121140339.81806  23052240.500    94395081.58047
  23577368.900   123899916.10505  23577370.720    96545397.50844
  21567255.160   113336696.70607  21567258.760    88314329.48548
  24366302.200   128045772.44804  24366304.580    99775934.07144
 15 02 28 16 05 30.0000000  0  7G12G13G15G17G18G24G28
  22379366.060   117604396.55106  22379369.500    91639824.23747
  21027600.640   110500780.91308  21027601.540    86104505.62548
  20356486.080   106974057.32508  20356486.180    83356409.04449
  23050254.420   121129913.43106  23050256.380    94386957.16047
  23570471.100   123863668.29405  23570472.940    96517152.53646
  21558291.260   113289591.09907  21558294.840    88277623.85448
  24384071.360   128139150.09804  24384073.680    99848695.81446
 15 02 28 16 06  0.0000000  0  7G12G13G15G17G18G24G28
  22361449.720   117510245.35706  22361453.020    91566459.82547
  21038549.900   110558319.64408  21038550.860    86149340.95748
  20355257.720   106967602.37808  20355257.820    83351379.20849
  23048367.140   121119996.17306  23048369.160    94379229.45147
  23563663.340   123827893.20605  23563665.240    96489275.90544
  21549359.020   113242651.85007  21549362.580    88241047.84948
  24401850.760   128232581.89404  24401853.100    99921499.77845
 15 02 28 16 06 30.0000000  0  7G12G13G15G17G18G24G28
  22343593.940   117416413.00706  22343597.180    91493343.86247
  21049579.980   110616282.94008  21049580.940    86194507.12148
  20354121.200   106961629.88108  20354121.260    83346725.29949
  23046577.500   121110591.86406  23046579.500    94371901.44446
  23556946.180   123792594.58305  23556948.060    96461770.50445
  21540459.120   113195882.30507  21540462.640    88204604.08248
  24419640.600   128326069.09604  24419643.120    99994346.87546
 15 02 28 16 07  0.0000000  0  7G12G13G15G17G18G24G28
  22325798.560   117322898.38506  22325801.820    91420475.47947
  21060690.220   110674667.44808  21060691.200    86240001.49848
  20353076.240   106956138.40008  20353076.280    83342446.20949
  23044885.180   121101698.48906  23044887.060    94364971.57947
  23550319.240   123757770.49105  23550321.280    96434634.93745
  21531591.020   113149280.12207  21531594.500    88168290.73448
  24437440.220   128419606.82504  24437442.860   100067233.35545
 15 02 28 16 07 30.0000000  0  7G12G13G15G17G18G24G28
  22308064.060   117229703.75206  22308067.320    91347856.43647
  21071880.580   110733472.96108  21071881.620    86285823.93848
  20352123.000   106951128.93508  20352123.060    83338542.72149
  23043290.360   121093317.46906  23043292.180    94358440.95747
  23543782.800   123723421.79705  23543785.040    96407869.74844
  21522754.740   113102845.38607  21522758.220    88132107.86248
  24455249.180   128513193.58604  24455252.000   100140158.08045
 15 02 28 16 08  0.0000000  0  7G12G13G15G17G18G24G28
  22290390.880   117136831.35006  22290394.060    91275488.48247
  21083151.060   110792699.42108  21083152.120    86331974.38948
  20351261.700   106946602.82808  20351261.820    83335015.87749
  23041793.260   121085450.07106  23041795.000    94352310.54246
  23537337.100   123689549.93505  23537339.360    96381476.11645
  21513950.540   113056579.23707  21513954.020    88096056.35448
  24473067.340   128606828.21504  24473070.000   100213120.04446
 15 02 28 16 08 30.0000000  0  7G12G13G15G17G18G24G28
  22272779.260   117044282.15306  22272782.280    91203372.37847
  21094501.440   110852345.71008  21094502.520    86378451.98548
  20350492.520   106942560.74408  20350492.700    83331866.19549
  23040393.980   121078096.72106  23040395.660    94346580.68947
  23530982.060   123656155.09205  23530984.380    96355454.22345
  21505178.220   113010481.01707  21505181.780    88060135.70248
  24490894.160   128700508.07704  24490896.660   100286117.28844
 15 02 28 16 09  0.0000000  0  7G12G13G15G17G18G24G28
  22255229.500   116952058.48506  22255232.560    91131509.93947
  21105931.660   110912411.44308  21105932.660    86425256.41848
  20349815.700   106939003.87908  20349815.880    83329094.60749
  23039092.740   121071258.58506  23039094.380    94341252.30446
  23524718.260   123623238.71605  23524720.620    96329805.13045
  21496437.880   112964551.19507  21496441.580    88024346.26748
  24508729.380   128794231.70004  24508731.620   100359148.63644
 15 02 28 16 09 30.0000000  0  7G12G13G15G17G18G24G28
  22237742.040   116860162.37906  22237745.200    91059902.73847
  21117441.620   110972896.41608  21117442.560    86472387.52848
  20349231.380   106935933.10408  20349231.500    83326701.78549
  23037889.740   121064936.94306  23037891.340    94336326.38446
  23518545.660   123590801.66005  23518548.160    96304529.55545
  21487729.720   112918790.39707  21487733.560    87988688.53948
  24526572.600   128887997.54804  24526574.500   100432212.86744
 15 02 28 16 10  0.0000000  0  7G12G13G15G17G18G24G28
  22220317.300   116768595.49906  22220320.460    90988552.08347
  21129031.260   111033800.07708  21129032.180    86519844.89248
  20348739.740   106933349.44208  20348739.800    83324688.54549
  23036785.080   121059132.33906  23036786.700    94331803.34046
  23512464.380   123558844.59905  23512466.820    96279627.97045
  21479053.980   112873199.24107  21479057.820    87953163.00048
  24544423.400   128981803.89604  24544425.320   100505308.69445
 15 02 28 16 10 30.0000000  0  7G12G13G15G17G18G24G28
  22202955.320   116677358.42406  22202958.400    90917458.40947
  21140700.180   111095120.39008  21140701.100    86567626.92547
  20348340.720   106931252.67808  20348340.780    83323054.70249
  23035778.860   121053844.63506  23035780.480    94327683.07746
  23506474.400   123527367.06505  23506476.620    96255100.03845
  21470410.160   112827775.82007  21470413.960    87917768.17248
  24562281.420   129075647.46804  24562283.320   100578433.51044
 15 02 28 16 11  0.0000000  0  7G12G13G15G17G18G24G28
  22185656.620   116586453.72806  22185659.560    90846623.74047
  21152448.440   111156857.85808  21152449.380    86615734.00647
  20348034.640   106929644.49808  20348034.760    83321801.58149
  23034871.360   121049075.48606  23034872.900    94323966.89747
  23500575.980   123496370.63305  23500577.960    96230947.01144
  21461798.580   112782521.76707  21461802.340    87882505.31848
  24580146.260   129169527.59904  24580148.300   100651586.88444
 15 02 28 16 11 30.0000000  0  7G12G13G15G17G18G24G28
  22168421.360   116495882.27506  22168424.160    90776048.75047
  21164275.780   111219010.83908  21164276.680    86664164.85948
  20347821.500   106928524.72908  20347821.680    83320929.03649
  23034062.440   121044824.54306  23034063.880    94320654.49746
  23494769.200   123465855.43005  23494771.160    96207168.93744
  21453219.080   112737436.28207  21453222.820    87847373.81648
  24598017.540   129263441.91704  24598019.780   100724766.82944
 15 02 28 16 12  0.0000000  0  7G12G13G15G17G18G24G28
  22151250.240   116405648.11906  22151253.020    90705736.57447
  21176182.480   111281581.10907  21176183.440    86712920.88348
  20347701.900   106927896.17408  20347702.100    83320439.26149
  23033352.520   121041094.69706  23033354.100    94317748.15847
  23489054.400   123435823.90605  23489056.360    96183767.76644
  21444672.200   112692521.98507  21444675.860    87812375.71848
  24615895.300   129357390.23504  24615897.460   100797973.28444
 15 02 28 16 12 30.0000000  0  7G12G13G15G17G18G24G28
  22134143.160   116315750.61106  22134146.000    90635686.71947
  21188168.060   111344566.05107  21188169.140    86762000.02447
  20347675.640   106927757.85108  20347675.800    83320331.48349
  23032741.640   121037884.95306  23032743.280    94315247.08047
  23483431.400   123406274.62605  23483433.260    96160742.36545
  21436157.460   112647776.96907  21436161.120    87777509.52348
  24633778.820   129451368.90404  24633781.060   100871203.37544
 15 02 28 16 13  0.0000000  0  6G12G13G15G17G18G24
  22117099.800   116226187.75907  22117102.580    90565897.64147
  21200231.620   111407960.26608  21200232.700    86811398.07547
  20347742.120   106928106.84808  20347742.220    83320603.43149
  23032229.240   121035192.04406  23032230.820    94313148.74646
  23477899.660   123377204.66305  23477901.360    96138090.45846
  21427674.240   112603197.24507  21427677.860    87742772.11848
 15 02 28 16 13 30.0000000  0  7G12G13G15G17G18G24G28
  22100122.840   116136973.60807  22100125.500    90496380.27947
  21212375.480   111471776.25308  21212376.500    86861124.78547
  20347903.820   106928956.41708  20347903.920    83321265.43649
  23031817.700   121033029.14306  23031819.240    94311463.40947
  23472461.540   123348626.94505  23472463.220    96115822.12444
  21419225.020   112558796.16507  21419228.580    87708173.92248
  24669561.720   129639420.58704  24669565.740   101017746.14046
 15 02 28 16 14  0.0000000  0  6G12G13G15G17G18G24
  22083208.380   116048088.32706  22083210.960    90427119.18147
  21224595.380   111535991.84008  21224596.340    86911162.86647
  20348156.740   106930285.59908  20348156.840    83322301.16949
  23031502.980   121031375.47806  23031504.600    94310174.87246
  23467113.160   123320520.93705  23467114.780    96093921.34945
  21410805.640   112514551.96907  21410809.200    87673697.98048
 15 02 28 16 14 30.0000000  0  6G12G13G15G17G18G24
  22066361.440   115959557.79607  22066363.960    90358134.49847
  21236895.720   111600630.19008  21236896.660    86961530.37347
  20348505.620   106932119.06008  20348505.700    83323729.84249
  23031289.740   121030255.44606  23031291.480    94309302.15247
  23461859.080   123292911.01505  23461860.880    96072407.13645
  21402420.740   112470489.11707  21402424.300    87639363.33548
 15 02 28 16 15  0.0000000  0  6G12G13G15G17G18G24
  22049579.700   115871369.78707  22049582.200    90289416.72147
  21249273.660   111665676.47307  21249274.640    87012215.75547
  20348948.020   106934443.88008  20348948.080    83325541.39249
  23031175.620   121029656.31706  23031177.440    94308835.33347
  23456696.920   123265783.73905  23456698.800    96051269.01445
  21394067.760   112426594.14707  21394071.300    87605159.50648
 15 02 28 16 15 30.0000000  0  6G12G13G15G17G18G24
  22032863.880   115783528.22507  22032866.400    90220968.90647
  21261729.540   111731132.52407  21261730.620    87063220.42747
  20349484.560   106937263.29808  20349484.600    83327738.34949
  23031161.160   121029580.62806  23031162.960    94308776.39647
  23451627.260   123239142.04105  23451629.200    96030509.25344
  21385747.280   112382869.91607  21385750.820    87571088.72648
 15 02 28 16 16  0.0000000  0  6G12G13G15G17G18G24
  22016214.860   115696037.93007  22016217.480    90152794.79847
  21274263.840   111797000.87807  21274265.020    87114546.37447
  20350115.860   106940580.82808  20350115.900    83330323.44449
  23031246.980   121030032.14106  23031248.920    94309128.27147
  23446650.500   123212989.76305  23446652.620    96010130.87545
  21377459.920   112339319.63507  21377463.460    87537153.49148
 15 02 28 16 16 30.0000000  0  6G12G13G15G17G18G24
  21999631.740   115608894.24207  21999634.500    90084890.76947
  21286875.240   111863274.32207  21286876.420    87166187.98047
  20350840.820   106944390.92308  20350840.960    83333292.36049
  23031432.120   121031005.21106  23031434.060    94309886.54647
  23441765.880   123187320.94905  23441767.920    95990129.21245
  21369204.400   112295936.77907  21369207.920    87503348.70248
 15 02 28 16 17  0.0000000  0  6G12G13G15G17G18G24
  21983115.400   115522101.11507  21983118.180    90017259.90247
  21299564.060   111929954.56108  21299565.260    87218146.55447
  20351660.200   106948697.15408  20351660.400    83336647.87049
  23031717.260   121032502.94606  23031719.040    94311053.64947
  23436974.020   123162139.15505  23436975.800    95970507.04345
  21360981.440   112252724.81407  21360984.920    87469677.08048
 15 02 28 16 17 30.0000000  0  7G12G13G15G17G18G24G28
  21966668.200   115435670.62707  21966670.880    89949911.61347
  21312332.160   111997051.19807  21312333.320    87270429.59947
  20352576.100   106953510.07808  20352576.280    83340398.20549
  23032104.160   121034536.12406  23032105.940    94312637.98946
  23432276.580   123137454.30905  23432278.360    95951272.12744
  21352792.880   112209693.72007  21352796.360    87436146.40148
  24812860.760   130392463.98304  24812863.960   101604527.66344
 15 02 28 16 18  0.0000000  0  7G12G13G15G17G18G24G28
  21950287.000   115349586.57207  21950289.480    89882833.26847
  21325176.060   112064545.82507  21325177.140    87323022.75847
  20353585.220   106958812.56208  20353585.300    83344530.00849
  23032589.600   121037087.21506  23032591.340    94314625.89346
  23427670.380   123113249.40305  23427672.360    95932411.16744
  21344635.460   112166826.53507  21344639.000    87402743.44548
  24830786.180   130486662.64304  24830789.300   101677929.15544
 15 02 28 16 18 30.0000000  0  7G12G13G15G17G18G24G28
  21933973.220   115263857.16807  21933975.620    89816031.26647
  21338096.720   112132443.87107  21338097.700    87375930.27747
  20354688.940   106964612.15308  20354688.920    83349049.17249
  23033175.060   121040163.76006  23033176.700    94317023.24047
  23423157.220   123089531.70905  23423159.060    95913929.85645
  21336510.460   112124129.77107  21336514.000    87369473.27648
  24848713.080   130580869.51904  24848716.080   101751337.07445
 15 02 28 16 19  0.0000000  0  7G12G13G15G17G18G24G28
  21917727.800   115178487.27507  21917730.160    89749509.40747
  21351094.580   112200747.99407  21351095.560    87429154.22047
  20355887.920   106970912.49908  20355887.820    83353958.53549
  23033861.060   121043768.73506  23033862.600    94319832.37747
  23418737.380   123066304.85505  23418739.160    95895830.99845
  21328418.600   112081607.05207  21328422.100    87336338.73248
  24866641.920   130675086.03604  24866644.740   101824752.51344
 15 02 28 16 19 30.0000000  0  7G12G13G15G17G18G24G28
  21901550.780   115093476.63207  21901553.060    89683267.48047
  21364169.200   112269455.49607  21364170.280    87482692.48647
  20357181.900   106977712.38308  20357181.820    83359257.14649
  23034647.580   121047901.73106  23034649.020    94323052.93947
  23414410.520   123043567.47205  23414412.300    95878113.56745
  21320359.740   112039257.28307  21320363.100    87303338.95148
  24884571.880   130769308.90804  24884574.900   101898172.92345
 15 02 28 16 20  0.0000000  0  7G12G13G15G17G18G24G28
  21885442.180   115008825.34707  21885444.260    89617305.56947
  21377320.220   112338564.33107  21377321.380    87536543.47147
  20358570.780   106985011.04708  20358570.720    83364944.41449
  23035534.200   121052561.47406  23035535.720    94326683.95447
  23410176.580   123021318.64805  23410178.340    95860776.82545
  21312333.620   111997079.50407  21312336.880    87270473.18848
  24902502.560   130863535.12904  24902505.600   101971595.92945
 15 02 28 16 20 30.0000000  0  7G12G13G15G17G18G24G28
  21869402.360   114924535.50007  21869404.280    89551625.29447
  21390547.460   112408073.77807  21390548.620    87590706.61347
  20360054.700   106992809.39108  20360054.660    83371021.04449
  23036521.040   121057748.27806  23036522.740    94330725.65847
  23406035.640   122999558.79905  23406037.560    95843821.08945
  21304340.260   111955074.17907  21304343.520    87237741.80648
  24920433.720   130957763.33204  24920436.640   102045020.49945
 15 02 28 16 21  0.0000000  0  7G12G13G15G17G18G24G28
  21853431.660   114840609.41507  21853433.460    89486228.47347
  21403851.000   112477984.07507  21403852.120    87645182.11547
  20361634.100   107001109.16808  20361634.040    83377488.39649
  23037608.600   121063463.96206  23037610.300    94335179.48547
  23401988.240   122978289.66305  23401990.360    95827247.74245
  21296379.920   111913242.48607  21296383.180    87205145.71448
  24938365.160   131051992.99704  24938367.840   102118446.16944
 15 02 28 16 21 30.0000000  0  7G12G13G15G17G18G24G28
  21837530.520   114757049.61907  21837532.340    89421117.07347
  21417230.740   112548294.97807  21417231.820    87699969.77347
  20363309.120   107009911.31808  20363309.060    83384347.21249
  23038797.080   121069709.21906  23038798.680    94340045.96347
  23398034.340   122957511.82305  23398036.620    95811057.21145
  21288452.860   111871585.79407  21288456.080    87172686.00348
  24956296.620   131146223.44004  24956299.260   102191872.49443
 15 02 28 16 22  0.0000000  0  7G12G13G15G17G18G24G28
  21821698.840   114673854.38807  21821700.660    89356289.74747
  21430686.000   112619002.64407  21430687.060    87755066.59647
  20365079.340   107019213.62908  20365079.260    83391595.76549
  23040085.820   121076481.71205  23040087.420    94345323.28747
  23394173.520   122937222.92705  23394175.760    95795247.68645
  21280558.540   111830101.12807  21280561.720    87140360.33448
  24974227.340   131240449.95704  24974229.940   102265295.78344
 15 02 28 16 22 30.0000000  0  7G12G13G15G17G18G24G28
  21805937.280   114591027.45207  21805939.140    89291749.39847
  21444217.000   112690108.44007  21444218.120    87810473.65447
  20366945.260   107029018.93908  20366945.180    83399236.26249
  23041475.340   121083784.09606  23041476.960    94351013.50147
  23390406.120   122917425.17005  23390408.180    95779820.84445
  21272697.400   111788791.11307  21272700.660    87108170.75748
  24992157.480   131334673.53604  24992159.940   102338716.73741
 15 02 28 16 23  0.0000000  0  7G12G13G15G17G18G24G28
  21790245.780   114508568.82207  21790247.720    89227496.04747
  21457823.300   112761609.99207  21457824.520    87866189.08847
  20368906.580   107039325.84808  20368906.540    83407267.61549
  23042965.400   121091615.02106  23042967.040    94357115.57047
  23386732.080   122898117.72305  23386734.140    95764776.09645
  21264869.260   111747654.43507  21264872.620    87076116.24148
  25010086.340   131428890.61804  25010089.040   102412132.66344
 15 02 28 16 23 30.0000000  0  7G12G13G15G17G18G24G28
  21774624.920   114426481.36607  21774626.960    89163531.91847
  21471505.040   112833507.79507  21471506.240    87922213.29947
  20370963.700   107050136.33108  20370963.680    83415691.36849
  23044556.300   121099975.85606  23044557.900    94363630.56246
  23383151.620   122879302.05505  23383153.740    95750114.56845
  21257074.580   111706693.46207  21257077.960    87044198.64548
  25028013.940   131523100.99104  25028016.460   102485543.35243
 15 02 28 16 24  0.0000000  0  7G12G13G15G17G18G24G28
  21759074.460   114344764.25107  21759076.600    89099856.35947
  21485261.580   112905798.29907  21485262.680    87978543.50247
  20373116.300   107061448.41808  20373116.300    83424505.97549
  23046247.720   121108864.63606  23046249.360    94370556.93347
  23379664.320   122860976.10405  23379666.460    95735834.61844
  21249312.860   111665905.65507  21249316.260    87012415.98248
  25045939.660   131617301.14904  25045942.000   102558946.11044
 15 02 28 16 24 30.0000000  0  6G12G13G15G17G18G24
  21743593.120   114263409.83007  21743595.220    89036463.41247
  21499090.900   112978471.51907  21499092.020    88035171.92647
  20375362.780   107073253.58708  20375362.740    83433704.80649
  23048037.980   121118272.54506  23048039.640    94377887.82047
  23376268.540   122843130.90005  23376270.620    95721929.25244
  21241582.440   111625282.59407  21241585.880    86980761.69148
 15 02 28 16 25  0.0000000  0  6G12G13G15G17G18G24
  21728185.980   114182444.98107  21728187.980    88973374.03247
  21512997.600   113051551.78107  21512998.760    88092117.53047
  20377707.980   107085577.77008  20377707.960    83443308.05749
  23049931.880   121128225.02706  23049933.560    94385643.01947
  23372969.100   122825792.01305  23372971.180    95708418.43345
  21233888.300   111584849.84407  21233891.780    86949255.70248
 15 02 28 16 25 30.0000000  0  6G12G13G15G17G18G24
  21712849.620   114101852.32207  21712851.560    88910574.66047
  21526978.060   113125019.46607  21526979.200    88149365.01147
  20380148.440   107098402.68908  20380148.480    83453301.49749
  23051925.920   121138703.58906  23051927.560    94393808.15746
  23369762.420   122808941.12205  23369764.720    95695287.89945
  21226226.940   111544589.34107  21226230.440    86917883.93448
 15 02 28 16 26  0.0000000  0  6G12G13G15G17G18G24
  21697584.920   114021636.37107  21697586.860    88848068.82548
  21541032.720   113198876.84207  21541033.800    88206916.15647
  20382684.760   107111731.16108  20382684.820    83463687.31349
  23054020.640   121149711.53306  23054022.220    94402385.81446
  23366649.200   122792580.85605  23366651.460    95682539.64245
  21218598.960   111504504.23307  21218602.440    86886648.82648
 15 02 28 16 26 30.0000000  0  6G12G13G15G17G18G24
  21682392.320   113941799.37607  21682394.280    88785858.26947
  21555161.380   113273123.29907  21555162.540    88264770.47747
  20385317.160   107125564.68208  20385317.260    83474466.67049
  23056216.300   121161249.79606  23056217.780    94411376.67946
  23363629.480   122776712.26205  23363631.680    95670174.49644
  21211004.600   111464595.78807  21211008.040    86855551.38848
 15 02 28 16 27  0.0000000  0  6G12G13G15G17G18G24
  21667271.760   113862340.49907  21667273.680    88723942.36048
  21569363.540   113347756.01507  21569364.840    88322925.78647
  20388045.360   107139901.56508  20388045.480    83485638.25949
  23058512.420   121173316.20606  23058513.900    94420779.09346
  23360703.120   122761333.80005  23360705.160    95658191.29545
  21203443.600   111424862.23907  21203446.980    86824590.23448
 15 02 28 16 27 30.0000000  0  6G12G13G15G17G18G24
  21652223.880   113783263.80007  21652225.840    88662324.25547
  21583639.520   113422776.48607  21583640.880    88381383.22447
  20390869.920   107154744.90408  20390870.080    83497204.48649
  23060909.660   121185913.66606  23060911.040    94430595.30246
  23357870.420   122746448.16605  23357872.160    95646592.07144
  21195916.520   111385306.89907  21195919.840    86793767.94448
 15 02 28 16 28  0.0000000  0  6G12G13G15G17G18G24
  21637248.600   113704568.75807  21637250.640    88601003.52948
  21597988.680   113498181.38907  21597990.020    88440140.23147
  20393790.500   107170092.93608  20393790.740    83509163.98249
  23063407.560   121199039.87506  23063408.860    94440823.54346
  23355131.080   122732052.98405  23355132.720    95635375.04445
  21188423.020   111345928.00707  21188426.260    86763083.15448
 15 02 28 16 28 30.0000000  0  6G12G13G15G17G18G24
  21622346.320   113626257.40307  21622348.380    88539981.79048
  21612411.020   113573970.98007  21612412.340    88499196.99147
  20396807.400   107185946.72108  20396807.600    83521517.56749
  23066006.260   121212696.09906  23066007.520    94451464.77146
  23352485.400   122718149.46405  23352487.100    95624541.13445
  21180963.360   111306727.15507  21180966.560    86732537.08548
 15 02 28 16 29  0.0000000  0  6G12G13G15G17G18G24
  21607517.760   113548333.05107  21607519.780    88479261.60448
  21626906.660   113650146.26607  21626908.000    88558554.29147
  20399921.020   107202308.71308  20399921.140    83534267.16049
  23068706.120   121226884.43006  23068707.400    94462520.61946
  23349933.540   122704739.88805  23349935.220    95614092.09345
  21173537.820   111267705.85207  21173541.000    86702130.92948
 15 02 28 16 29 30.0000000  0  6G12G13G15G17G18G24
  21592761.840   113470790.27407  21592763.780    88418838.76348
  21641474.200   113726698.82707  21641475.480    88618205.57047
  20403130.000   107219171.79108  20403130.020    83547407.21149
  23071505.900   121241597.60906  23071507.260    94473985.45747
  23347474.420   122691816.65505  23347475.920    95604022.02345
  21166145.220   111228857.94207  21166148.460    86671859.87948
 15 02 28 16 30  0.0000000  0  6G12G13G15G17G18G24
  21578079.320   113393633.42307  21578081.200    88358716.63248
  21656113.940   113803630.61207  21656115.240    88678152.34647
  20406434.980   107236539.55708  20406434.960    83560940.52349
  23074406.240   121256838.84406  23074407.540    94485861.76047
  23345108.580   122679383.02005  23345109.920    95594333.45845
  21158786.360   111190187.48907  21158789.700    86641727.10848
 15 02 28 16 30 30.0000000  0  6G12G13G15G17G18G24
  21563471.440   113316868.64007  21563473.240    88298900.01048
  21670826.580   113880945.52107  21670827.920    88738397.66847
  20409836.980   107254417.08308  20409836.900    83574871.05449
  23077408.060   121272612.99706  23077409.240    94498153.32647
  23342836.740   122667443.97105  23342838.220    95585030.31745
  21151462.280   111151699.70907  21151465.680    86611736.67548
 15 02 28 16 31  0.0000000  0  6G12G13G15G17G18G24
  21548937.780   113240493.84907  21548939.480    88239387.27548
  21685611.200   113958639.30007  21685612.680    88798938.20947
  20413335.400   107272801.30708  20413335.320    83589196.41749
  23080510.520   121288916.45506  23080511.740    94510857.34246
  23340658.340   122655996.26505  23340659.820    95576110.00745
  21144172.440   111113391.44707  21144175.760    86581886.12649
 15 02 28 16 31 30.0000000  0  6G12G13G15G17G18G24
  21534478.400   113164509.66707  21534480.100    88180178.91848
  21700467.440   114036709.50507  21700469.040    88859772.07047
  20416930.060   107291691.45608  20416930.000    83603916.00449
  23083713.520   121305748.30006  23083714.820    94523973.08247
  23338573.180   122645038.77005  23338574.600    95567571.69045
  21136916.660   111075262.22307  21136919.920    86552175.09248
 15 02 28 16 32  0.0000000  0  6G12G13G15G17G18G24
  21520093.560   113088917.25407  21520095.240    88121275.84248
  21715395.240   114115155.26607  21715396.780    88920898.57547
  20420621.040   107311087.70008  20420621.020    83619029.95249
  23087017.100   121323108.68006  23087018.440    94537500.67947
  23336581.280   122634571.85105  23336582.720    95559415.66044
  21129695.020   111037312.24107  21129698.220    86522603.72449
 15 02 28 16 32 30.0000000  0  6G12G13G15G17G18G24
  21505783.100   113013716.12207  21505784.820    88062677.66248
  21730394.100   114193974.11607  21730395.460    88982315.79247
  20424408.160   107330988.81408  20424408.120    83634537.30549
  23090421.000   121340995.74106  23090422.260    94551438.69047
  23334682.440   122624593.20005  23334683.980    95551640.11545
  21122507.460   110999541.24307  21122510.560    86493171.82048
 15 02 28 16 33  0.0000000  0  6G12G13G15G17G18G24
  21491548.040   112938911.01307  21491549.800    88004388.06247
  21745464.200   114273167.98707  21745465.540    89044025.24247
  20428291.960   107351398.07908  20428291.920    83650440.62349
  23093925.760   121359413.00806  23093926.980    94565789.84247
  23332877.160   122615106.39305  23332878.720    95544247.79945
  21115354.620   110961952.81707  21115357.660    86463882.17948
 15 02 28 16 33 30.0000000  0  6G12G13G15G17G18G24
  21477387.820   112864499.09607  21477389.560    87946404.84948
  21760604.680   114352731.52507  21760606.100    89106022.74346
  20432271.760   107372312.01108  20432271.740    83666737.18949
  23097530.340   121378355.84006  23097531.720    94580550.52547
  23331164.780   122606106.97605  23331166.200    95537235.28746
  21108235.700   110924542.71107  21108238.680    86434731.49048
 15 02 28 16 34  0.0000000  0  6G12G13G15G17G18G24
  21463303.520   112790485.89707  21463305.160    87888732.32848
  21775816.160   114432667.96907  21775817.640    89168310.81447
  20436348.300   107393734.43908  20436348.320    83683429.98249
  23101235.740   121397828.40506  23101237.240    94595723.97947
  23329545.820   122597599.30205  23329547.320    95530605.93945
  21101151.660   110887315.91107  21101154.620    86405723.64748
 15 02 28 16 34 30.0000000  0  6G12G13G15G17G18G24
  21449294.840   112716870.28607  21449296.460    87831369.61348
  21791097.820   114512973.47207  21791099.320    89230886.47246
  20440521.120   107415662.64108  20440521.160    83700516.88649
  23105041.380   121417827.75405  23105043.000    94611307.91447
  23328019.860   122589580.34705  23328021.260    95524357.40245
  21094102.160   110850270.67807  21094105.100    86376857.28148
 15 02 28 16 35  0.0000000  0  6G12G13G15G17G18G24
  21435361.940   112643652.58907  21435363.500    87774316.95647
  21806449.360   114593646.83707  21806450.980    89293748.77247
  20444790.280   107438097.17008  20444790.340    83717998.33649
  23108947.160   121438353.90905  23108948.960    94627302.34947
  23326586.820   122582049.88905  23326588.160    95518489.52345
  21087087.200   110813407.20307  21087090.180    86348132.54748
 15 02 28 16 35 30.0000000  0  6G12G13G15G17G18G24
  21421505.420   112570836.08207  21421506.900    87717576.91348
  21821871.000   114674688.36007  21821872.740    89356897.94346
  20449156.080   107461039.55908  20449156.140    83735875.51849
  23112953.160   121459408.00705  23112955.300    94643708.16247
  23325247.060   122575009.24005  23325248.680    95513003.33045
  21080107.320   110776727.89907  21080110.320    86319551.31649
 15 02 28 16 36  0.0000000  0  6G12G13G15G17G18G24
  21407724.700   112498417.61307  21407726.020    87661147.02548
  21837361.800   114756092.52507  21837363.460    89420329.69047
  20453617.620   107484485.41308  20453617.740    83754145.01249
  23117058.880   121480985.40805  23117061.260    94660521.75047
  23323999.580   122568453.86905  23324001.420    95507895.25145
  21073161.680   110740228.31207  21073164.640    86291110.12649
 15 02 28 16 36 30.0000000  0  6G12G13G15G17G18G24
  21394020.380   112426400.74907  21394021.600    87605030.08748
  21852921.880   114837860.27707  21852923.420    89484044.75246
  20458175.440   107508437.12108  20458175.580    83772808.67849
  23121264.800   121503088.25005  23121267.180    94677744.77146
  23322844.840   122562385.97405  23322846.640    95503167.02545
  21066250.860   110703911.75807  21066253.800    86262811.56148
 15 02 28 16 37  0.0000000  0  6G12G13G15G17G18G24
  21380392.640   112354786.83307  21380393.840    87549227.13048
  21868550.820   114919990.63007  21868552.380    89548042.36246
  20462829.560   107532894.83908  20462829.720    83791866.64049
  23125570.900   121525716.48306  23125573.080    94695377.21146
  23321782.860   122556805.36105  23321784.640    95498818.51245
  21059374.900   110667778.60707  21059377.820    86234655.90248
 15 02 28 16 37 30.0000000  0  6G12G13G15G17G18G24
  21366841.500   112283575.92407  21366842.780    87493738.20148
  21884248.180   115002481.25507  21884249.920    89612320.71046
  20467579.840   107557857.70008  20467579.960    83811318.21449
  23129976.800   121548868.49006  23129978.640    94713417.77746
  23320813.380   122551710.54905  23320815.240    95494848.53045
  21052533.840   110631829.25807  21052536.800    86206643.46248
 15 02 28 16 38  0.0000000  0  6G12G13G15G17G18G24
  21353367.900   112212772.30607  21353369.200    87438566.64748
  21900014.560   115085334.33807  21900016.500    89676881.48046
  20472426.820   107583328.61008  20472426.920    83831165.67549
  23134482.940   121572547.21506  23134484.440    94731868.79946
  23319936.860   122547104.70405  23319938.900    95491259.56744
  21045728.300   110596066.44607  21045731.300    86178776.38048
 15 02 28 16 38 30.0000000  0  6G12G13G15G17G18G24
  21339971.120   112142372.22807  21339972.420    87383709.54648
  21915848.940   115168543.65307  21915850.760    89741719.83146
  20477369.580   107609302.81308  20477369.640    83851405.30949
  23139088.340   121596747.45206  23139089.400    94750726.19846
  23319152.320   122542982.33105  23319154.480    95488047.33444
  21038957.580   110560486.20307  21038960.540    86151051.54948
 15 02 28 16 39  0.0000000  0  6G12G13G15G17G18G24
  21326651.820   112072379.18607  21326653.100    87329169.60748
  21931751.260   115252109.85707  21931752.840    89806836.28246
  20482408.460   107635782.29308  20482408.540    83872038.66649
  23143793.220   121621470.97506  23143794.080    94769991.34546
  23318460.140   122539345.82805  23318462.220    95485213.70445
  21032222.060   110525091.19607  21032225.020    86123471.06048
 15 02 28 16 39 30.0000000  0  6G12G13G15G17G18G24
  21313410.260   112002794.91207  21313411.540    87274948.20048
  21947721.300   115336032.81307  21947722.780    89872230.73446
  20487543.720   107662768.35008  20487543.820    83893066.76349
  23148597.660   121646718.31706  23148598.520    94789664.65246
  23317860.560   122536195.34305  23317862.540    95482758.77445
  21025522.180   110489883.23107  21025525.100    86096036.31348
 15 02 28 16 40  0.0000000  0  6G12G13G15G17G18G24
  21300246.500   111933619.07607  21300247.700    87221045.04348
  21963758.600   115420309.45407  21963760.100    89937900.76046
  20492774.980   107690258.60508  20492775.060    83914487.73649
  23153501.340   121672487.31406  23153502.240    94809744.43247
  23317353.160   122533528.54105  23317355.220    95480680.75745
  21018857.600   110454860.83607  21018860.500    86068746.17348
 15 02 28 16 40 30.0000000  0  6G12G13G15G17G18G24
  21287160.500   111864851.47407  21287161.560    87167459.99748
  21979862.780   115504937.38307  21979864.400    90003844.53546
  20498102.000   107718252.17308  20498102.060    83936300.90549
  23158503.940   121698776.57706  23158505.000    94830229.60747
  23316937.620   122531344.15705  23316939.520    95478978.60445
  21012228.320   110420023.72207  21012231.180    86041600.39848
 15 02 28 16 41  0.0000000  0  6G12G13G15G17G18G24
  21274153.660   111796500.36807  21274154.700    87114199.49948
  21996034.940   115589922.89407  21996036.760    90070066.93146
  20503526.140   107746756.28708  20503526.180    83958511.90249
  23163606.860   121725593.08906  23163608.020    94851125.62147
  23316615.120   122529649.19805  23316617.040    95477657.89045
  21005635.780   110385379.70907  21005638.600    86014605.09849
 15 02 28 16 41 30.0000000  0  6G12G13G15G17G18G24
  21261223.580   111728552.91207  21261224.660    87061253.52648
  22012272.220   115675250.36107  22012274.200    90136555.80546
  20509044.680   107775756.65508  20509044.780    83981109.58849
  23168807.260   121752922.09305  23168808.580    94872420.97547
  23316382.800   122528429.29905  23316385.160    95476707.34446
