     2.11           OBSERVATION DATA    G                   RINEX VERSION / TYPE
SPIDER V4,0,0,3554                      2015 03 19 02:03    PGM / RUN BY / DATE 
OBHM                                                        MARKER NAME         
OBHM                                                        MARKER NUMBER       
                                                            OBSERVER / AGENCY   
496638              LEICA GRX1200+GNSS  8.20/4.007          REC # / TYPE / VERS 
10321015            LEIAR25         NONE                    ANT # / TYPE        
  5268006.0133   -44062.8765  3585543.8986                  APPROX POSITION XYZ 
        0.1200        0.0000        0.0000                  ANTENNA: DELTA H/E/N
     1     1                                                WAVELENGTH FACT L1/2
     4    C1    L1    P2    L2                              # / TYPES OF OBSERV 
    30.000                                                  INTERVAL            
  2015    02    28    00    00    0.0000000     GPS         TIME OF FIRST OBS   
  2015    02    28    23    59   30.0000000     GPS         TIME OF LAST OBS    
    16                                                      LEAP SECONDS        
    30                                                      # OF SATELLITES     
   G 1   844   844   844   844                              PRN / # OF OBS      
   G 2   919   919   919   919                              PRN / # OF OBS      
   G 3   842   842   842   842                              PRN / # OF OBS      
   G 4   853   853   853   853                              PRN / # OF OBS      
   G 5   683   683   683   683                              PRN / # OF OBS      
   G 6   645   645   645   645                              PRN / # OF OBS      
   G 7   742   742   742   742                              PRN / # OF OBS      
   G 9   780   780   780   780                              PRN / # OF OBS      
   G10   795   795   795   795                              PRN / # OF OBS      
   G11   810   810   810   810                              PRN / # OF OBS      
   G12   812   811   811   811                              PRN / # OF OBS      
   G13   834   834   834   834                              PRN / # OF OBS      
   G14   928   921   920   917                              PRN / # OF OBS      
   G15   742   742   742   742                              PRN / # OF OBS      
   G16   702   702   702   702                              PRN / # OF OBS      
   G17   925   925   925   925                              PRN / # OF OBS      
   G18   945   944   944   944                              PRN / # OF OBS      
   G19   794   794   794   794                              PRN / # OF OBS      
   G20   813   813   813   813                              PRN / # OF OBS      
   G21   682   653   640   632                              PRN / # OF OBS      
   G22   818   817   818   817                              PRN / # OF OBS      
   G23   723   723   722   722                              PRN / # OF OBS      
   G24   852   852   852   852                              PRN / # OF OBS      
   G25   859   859   859   859                              PRN / # OF OBS      
   G27   843   843   843   843                              PRN / # OF OBS      
   G28   919   918   918   918                              PRN / # OF OBS      
   G29   744   744   744   744                              PRN / # OF OBS      
   G30   687   687   687   687                              PRN / # OF OBS      
   G31   743   743   743   743                              PRN / # OF OBS      
   G32   735   735   735   735                              PRN / # OF OBS      
BIT 2 OF LLI FLAGS DATA COLLECTED UNDER A/S CONDITION       COMMENT             
SNR is mapped to RINEX snr flag value [2-9]                 COMMENT             
Lx:     = 25dBHz -> 1; 26-27dBHz -> 2; 28-31dBHz -> 3       COMMENT             
       32-35dBHz -> 4; 36-38dBHz -> 5; 39-41dBHz -> 6       COMMENT             
       42-44dBHz -> 7; 45-48dBHz -> 8; >=49dBHz -> 9        COMMENT             
                                                            END OF HEADER       
 15 02 28 00 00  0.0000000  0  7G16G18G21G22G27G29G31
  21543177.400   113210187.07109  21543173.840    88215725.98048
  22814980.640   119893652.88109  22814977.700    93423671.42746
  21497818.820   112971809.15409  21497815.620    88029971.30648
  23904227.260   125617554.94508  23904226.720    97883813.97846
  22518432.580   118335214.35509  22518432.640    92209288.88448
  24447038.440   128470041.33407  24447038.020   100106512.20646
  22705645.320   119318943.55509  22705643.620    92975780.58148
 15 02 28 00 00 30.0000000  0  7G16G18G21G22G27G29G31
  21530572.260   113143946.67409  21530568.660    88164110.09448
  22804252.260   119837274.68309  22804249.180    93379740.38546
  21506301.660   113016386.34509  21506298.380    88064706.78248
  23887230.180   125528236.17708  23887229.660    97814215.21746
  22507454.740   118277525.99208  22507454.900    92164336.94548
  24461431.500   128545678.12107  24461431.260   100165449.94245
  22723031.660   119410309.50409  22723030.000    93046974.73548
 15 02 28 00 01  0.0000000  0  7G16G18G21G22G27G29G31
  21518014.440   113077955.07909  21518010.840    88112688.08048
  22793578.020   119781181.36509  22793574.820    93336031.32946
  21514847.440   113061294.21509  21514844.100    88099699.92648
  23870233.780   125438921.15808  23870233.360    97744619.37846
  22496501.780   118219968.80508  22496502.040    92119487.22048
  24475822.200   128621301.45007  24475821.900   100224377.17845
  22740457.000   119501880.16309  22740455.320    93118328.31147
 15 02 28 00 01 30.0000000  0  7G16G18G21G22G27G29G31
  21505503.620   113012210.39709  21505500.020    88061458.45648
  22782957.560   119725371.13309  22782954.360    93292542.85146
  21523455.020   113106527.16909  21523451.720    88134946.37148
  23853237.780   125349608.43808  23853237.460    97675025.28046
  22485573.060   118162538.86108  22485573.400    92074736.63948
  24490209.860   128696907.38707  24490209.300   100283290.87345
  22757920.060   119593649.06509  22757918.460    93189836.42448
 15 02 28 00 02  0.0000000  0  7G16G18G21G22G27G29G31
  21493041.360   112946720.85009  21493037.800    88010427.65048
  22772392.600   119669852.60509  22772389.500    93249281.69346
  21532125.240   113152089.41709  21532121.960    88170449.42648
  23836243.920   125260306.76408  23836243.580    97605439.82146
  22474669.700   118105241.88009  22474670.040    92030089.67548
  24504595.380   128772501.41907  24504594.380   100342195.29745
  22775421.380   119685618.76509  22775419.860    93261500.91847
 15 02 28 00 02 30.0000000  0  7G16G18G21G22G27G29G31
  21480627.080   112881483.26809  21480623.560    87959593.17748
  22761882.620   119614623.06008  22761879.620    93206245.70946
  21540856.640   113197973.38409  21540853.400    88206203.16648
  23819251.880   125171014.13908  23819251.440    97535861.46746
  22463790.840   118048072.63009  22463791.000    91985542.23248
  24518977.700   128848079.25807  24518976.220   100401087.11145
  22792959.480   119777781.35109  22792958.000    93333315.55847
 15 02 28 00 03  0.0000000  0  7G16G18G21G22G27G29G31
  21468261.560   112816501.77709  21468258.040    87908958.24948
  22751428.420   119559686.42308  22751425.480    93163437.95646
  21549649.280   113244179.46508  21549646.140    88242207.90748
  23802262.340   125081734.55508  23802261.760    97466293.27546
  22452936.660   117991032.77709  22452936.660    91941095.61948
  24533357.020   128923642.16407  24533355.340   100459967.28845
  22810534.260   119870136.34009  22810532.800    93405280.37148
 15 02 28 00 03 30.0000000  0  7G16G18G21G22G27G29G31
  21455945.320   112751779.46509  21455941.880    87858525.28948
  22741030.600   119505046.08308  22741027.800    93120861.09446
  21558503.120   113290707.16308  21558500.080    88278463.26048
  23785276.100   124992472.09408  23785275.460    97396738.52946
  22442107.280   117934123.17609  22442107.100    91896750.49748
  24547733.560   128999191.15008  24547731.740   100518836.65444
  22828145.180   119962681.24109  22828143.680    93477393.14647
 15 02 28 00 04  0.0000000  0  7G16G18G21G22G27G29G31
  21443678.960   112687319.38209  21443675.560    87808296.65748
  22730689.880   119450705.98108  22730687.240    93078518.17846
  21567417.900   113337555.06609  21567414.940    88314968.11748
  23768293.680   124903229.94408  23768292.780    97327199.42946
  22431302.820   117877344.92509  22431302.580    91852507.72348
  24562107.560   129074727.08508  24562105.720   100577695.81445
  22845791.900   120055414.73909  22845790.440    93549652.89847
 15 02 28 00 04 30.0000000  0  6G16G18G21G22G27G31
  21431463.660   112623127.80509  21431460.360    87758277.25448
  22720407.520   119396672.09309  22720404.980    93036413.87246
  21576394.240   113384726.21709  21576391.300    88351724.85448
  23751316.500   124814015.28908  23751315.560    97257681.91446
  22420524.060   117820701.86709  22420523.800    91808370.29548
  22863474.600   120148337.48209  22863473.200    93622060.14648
 15 02 28 00 05  0.0000000  0  6G16G18G21G22G27G31
  21419297.880   112559196.30209  21419294.600    87708460.50148
  22710181.960   119342936.26509  22710179.400    92994541.81346
  21585429.780   113432208.20009  21585426.800    88388723.79848
  23734342.920   124724820.06408  23734342.000    97188179.59046
  22409768.920   117764183.37209  22409768.680    91764329.93048
  22881190.740   120241436.38108  22881189.460    93694604.67547
 15 02 28 00 05 30.0000000  0  6G16G18G21G22G27G31
  21407183.360   112495534.36409  21407180.100    87658853.80448
  22700015.020   119289508.33609  22700012.400    92952909.68946
  21594525.480   113480006.21309  21594522.440    88425969.00348
  23717374.980   124635654.39008  23717374.020    97118700.16046
  22399038.820   117707796.85209  22399038.680    91720392.40948
  22898941.340   120334716.05109  22898940.100    93767290.00448
 15 02 28 00 06  0.0000000  0  6G16G18G21G22G27G31
  21395119.820   112432140.39109  21395116.640    87609455.91148
  22689906.460   119236387.11909  22689903.720    92911516.55346
  21603680.380   113528115.04109  21603677.220    88463456.40348
  23700412.520   124546517.68708  23700411.500    97049243.47646
  22388333.060   117651538.43909  22388333.060    91676554.70748
  22916725.120   120428169.85209  22916723.860    93840111.02047
 15 02 28 00 06 30.0000000  0  6G16G18G21G22G27G31
  21383108.040   112369018.37309  21383104.920    87560269.93248
  22679857.040   119183576.67409  22679854.160    92870365.58446
  21612894.420   113576534.58609  21612891.140    88501185.91048
  23683456.320   124457413.88208  23683455.140    96979812.37346
  22377652.000   117595409.66009  22377652.120    91632818.01648
  22934541.780   120521796.31709  22934540.520    93913066.57947
 15 02 28 00 07  0.0000000  0  6G16G18G21G22G27G31
  21371147.980   112306168.18809  21371144.940    87511295.77048
  22669866.700   119131077.02009  22669863.760    92829456.78546
  21622166.780   113625260.59609  21622163.380    88539154.23048
  23666506.520   124368343.51608  23666505.160    96910407.37946
  22366995.160   117539408.17709  22366995.420    91589180.52148
  22952390.280   120615590.30309  22952389.140    93986152.64347
 15 02 28 00 07 30.0000000  0  7G16G18G19G21G22G27G31
  21359240.420   112243593.49109  21359237.400    87462536.27648
  22659936.120   119078891.71109  22659933.220    92788792.93546
  24543532.020   128977131.77808  24543530.200   100501649.96345
  21631497.360   113674293.02009  21631493.940    88577361.30548
  23649563.820   124279310.43208  23649562.220    96841031.32746
  22356362.860   117483535.33909  22356363.260    91545643.27448
  22970270.360   120709550.39209  22970269.320    94059368.24248
 15 02 28 00 08  0.0000000  0  7G16G18G19G21G22G27G31
  21347380.060   112181266.85209  21347377.080    87413970.07048
  22650060.280   119026994.08709  22650057.380    92748353.24446
  24528699.240   128899185.28208  24528697.420   100440912.52645
  21640880.260   113723600.61309  21640876.880    88615782.80348
  23632623.200   124190288.73608  23632621.560    96771664.18346
  22345749.540   117427761.89009  22345749.960    91502183.46248
  22988175.900   120803644.12508  22988174.960    94132687.73147
 15 02 28 00 08 30.0000000  0  7G16G18G19G21G22G27G31
  21335578.800   112119250.96709  21335575.820    87365646.02048
  22640251.120   118975446.75309  22640248.200    92708186.51946
  24513891.340   128821369.63108  24513889.520   100380277.05045
  21650326.620   113773241.84609  21650323.280    88654464.28548
  23615696.680   124101341.18608  23615694.960    96702354.69246
  22335166.660   117372148.18309  22335167.000    91458848.13248
  23006118.020   120897929.98509  23006117.140    94206157.20147
 15 02 28 00 09  0.0000000  0  7G16G18G19G21G22G27G31
  21323831.160   112057516.88909  21323828.180    87317541.55848
  22630503.120   118924220.90108  22630500.100    92668270.29346
  24499102.360   128743653.43408  24499100.620   100319719.06146
  21659830.280   113823184.12909  21659827.000    88693380.35048
  23598778.820   124012439.15208  23598777.140    96633080.64446
  22324608.120   117316662.77809  22324608.460    91415612.78148
  23024090.120   120992373.12209  23024089.200    94279749.05848
 15 02 28 00 09 30.0000000  0  7G16G18G19G21G22G27G31
  21312138.580   111996071.89609  21312135.560    87269662.34848
  22620817.660   118873323.87809  22620814.700    92628610.30646
  24484333.280   128666041.93908  24484331.460   100259242.65346
  21669391.720   113873429.99309  21669388.460    88732532.96948
  23581871.260   123923590.77308  23581869.540    96563848.37046
  22314074.960   117261310.84609  22314075.300    91372481.42948
  23042092.640   121086976.26509  23042091.700    94353465.71347
 15 02 28 00 10  0.0000000  0  7G16G18G19G21G22G27G31
  21300499.320   111934906.99809  21300496.220    87222001.40348
  22611193.080   118822746.87608  22611190.240    92589199.68546
  24469582.120   128588524.33008  24469580.060   100198839.40745
  21679008.720   113923967.53009  21679005.480    88771912.87248
  23564972.400   123834788.05408  23564970.640    96494651.68646
  22303565.060   117206081.28009  22303565.360    91329445.43448
  23060122.900   121181725.35609  23060121.940    94427296.24347
 15 02 28 00 10 30.0000000  0  7G16G18G19G21G22G27G31
  21288914.900   111874030.16309  21288911.700    87174564.91348
  22601631.000   118772497.97709  22601628.300    92550044.71646
  24454849.860   128511106.27008  24454847.520   100138513.70545
  21688681.880   113974800.16809  21688678.640    88811522.71648
  23548083.820   123746039.02108  23548081.880    96425496.80846
  22293079.520   117150979.70209  22293079.780    91286509.16748
  23078181.400   121276622.98308  23078180.420    94501242.45647
 15 02 28 00 11  0.0000000  0  7G16G18G19G21G22G27G31
  21277384.940   111813439.41509  21277381.640    87127351.35348
  22592131.120   118722575.55009  22592128.480    92511144.15247
  24440135.800   128433783.64108  24440133.260   100078262.37245
  21698410.100   114025922.05509  21698406.800    88851357.94848
  23531205.340   123657342.55108  23531203.080    96356382.87646
  22282617.640   117096002.05709  22282617.840    91243669.46848
  23096266.820   121371662.45409  23096265.820    94575299.23148
 15 02 28 00 11 30.0000000  0  7G16G18G19G21G22G27G31
  21265911.380   111753145.08509  21265907.960    87080368.76648
  22582695.280   118672989.66909  22582692.760    92472505.81946
  24425441.380   128356564.52608  24425438.760   100018091.69845
  21708194.540   114077339.20009  21708191.140    88891423.25048
  23514338.920   123568709.34908  23514336.440    96287318.25046
  22272180.860   117041156.18009  22272181.000    91200932.44148
  23114380.160   121466848.76609  23114379.160    94649470.38247
 15 02 28 00 12  0.0000000  0  7G16G18G19G21G22G27G31
  21254494.300   111693147.78009  21254490.820    87033617.63048
  22573323.600   118623741.00509  22573321.180    92434130.27446
  24410766.320   128279447.34608  24410763.820    99958000.45346
  21718034.660   114129048.93609  21718031.160    88931716.54848
  23497484.780   123480140.71108  23497482.100    96218303.91546
  22261768.920   116986440.70009  22261769.000    91158297.03248
  23132520.620   121562177.78209  23132519.680    94723752.81447
 15 02 28 00 12 30.0000000  0  7G16G18G19G21G22G27G31
  21243133.140   111633444.43709  21243129.600    86987095.55048
  22564015.620   118574827.13009  22564013.160    92396015.58346
  24396109.700   128202427.05808  24396107.400    99897984.71346
  21727929.040   114181044.13309  21727925.520    88972232.27648
  23480642.540   123391634.43108  23480639.760    96149338.17846
  22251380.800   116931850.32809  22251380.800    91115759.09948
  23150686.580   121657641.04308  23150685.720    94798139.77847
 15 02 28 00 13  0.0000000  0  7G16G18G19G21G22G27G31
  21231829.080   111574041.28709  21231825.500    86940807.39648
  22554772.440   118526253.63409  22554769.860    92358166.13446
  24381472.340   128125507.82408  24381470.120    99838047.72046
  21737878.020   114233326.30209  21737874.460    89012971.63548
  23463813.380   123303196.96108  23463810.560    96080426.06246
  22241017.160   116877388.83809  22241017.120    91073321.60348
  23168878.360   121753239.75209  23168877.560    94872632.34447
 15 02 28 00 13 30.0000000  0  7G16G18G19G21G22G27G31
  21220582.080   111514938.08709  21220578.540    86894752.95948
  22545594.040   118478020.86109  22545591.480    92320582.17346
  24366853.840   128048687.22508  24366851.700    99778187.58246
  21747880.960   114285892.31909  21747877.420    89053932.16048
  23446997.440   123214829.12008  23446994.640    96011568.18646
  22230677.660   116823054.15409  22230677.540    91030982.90948
  23187094.960   121848968.91509  23187094.140    94947226.49147
 15 02 28 00 14  0.0000000  0  7G16G18G19G21G22G27G31
  21209392.640   111456137.53009  21209389.160    86848934.35148
  22536481.000   118430131.52009  22536478.500    92283265.83546
  24352254.300   127971965.83308  24352252.060    99718404.74646
  21757937.380   114338739.59109  21757933.900    89095111.85848
  23430195.260   123126533.98008  23430192.580    95942766.97547
  22220362.360   116768846.68709  22220362.140    90988743.34948
  23205335.980   121944826.44009  23205335.200    95021920.72647
 15 02 28 00 14 30.0000000  0  7G16G18G19G21G22G27G31
  21198261.780   111397645.01209  21198258.440    86803355.77248
  22527434.320   118382590.79109  22527431.900    92246221.12947
  24337674.140   127895346.66408  24337671.900    99658701.57246
  21768047.740   114391870.30209  21768044.300    89136512.40248
  23413407.980   123038317.22908  23413405.420    95874026.84047
  22210071.820   116714769.21409  22210071.440    90946605.07548
  23223601.280   122040811.59709  23223600.520    95096714.33047
 15 02 28 00 15  0.0000000  0  7G16G18G19G21G22G27G31
  21187189.420   111339459.92809  21187186.220    86758016.75148
  22518453.860   118335398.07109  22518451.480    92209447.60147
  24323112.880   127818827.09708  24323110.700    99599076.00746
  21778211.140   114445279.72109  21778207.800    89178130.12748
  23396635.700   122950179.37208  23396633.300    95805348.18947
  22199805.440   116660819.18009  22199805.080    90904566.11648
  23241889.900   122136919.45309  23241889.240    95171603.56347
 15 02 28 00 15 30.0000000  0  7G16G18G19G21G22G27G31
  21176176.200   111281585.51509  21176173.120    86712919.80848
  22509540.220   118288556.58509  22509537.920    92172947.76446
  24308570.700   127742408.40208  24308568.720    99539529.05046
  21788427.460   114498966.99709  21788424.160    89219964.36448
  23379879.080   122862123.86508  23379876.700    95736733.69647
  22189563.460   116606997.75909  22189563.240    90862627.36748
  23260201.620   122233148.42208  23260200.960    95246587.15947
 15 02 28 00 16  0.0000000  0  7G16G18G19G21G22G27G31
  21165222.160   111224022.12209  21165219.180    86668065.22048
  22500693.580   118242066.63609  22500691.280    92136721.84947
  24294047.380   127666088.67608  24294045.560    99480059.20746
  21798695.960   114552928.21109  21798692.680    89262012.05648
  23363138.440   122774151.91208  23363136.000    95668184.30347
  22179345.520   116553302.89409  22179345.440    90820787.23748
  23278535.420   122329493.36208  23278534.820    95321661.09347
 15 02 28 00 16 30.0000000  0  7G16G18G19G21G22G27G31
  21154327.380   111166770.08709  21154324.500    86623453.24548
  22491913.980   118195928.84409  22491911.580    92100770.34547
  24279542.620   127589866.05308  24279540.820    99420665.02347
  21809016.040   114607160.56309  21809012.800    89304271.03248
  23346414.020   122686264.71508  23346411.460    95599700.95347
  22169151.280   116499732.82309  22169151.300    90779044.35748
  23296890.480   122425949.78008  23296889.860    95396821.89347
 15 02 28 00 17  0.0000000  0  7G16G18G19G21G22G27G31
  21143493.020   111109835.40109  21143490.180    86579088.55048
  22483202.400   118150148.66709  22483199.860    92065097.50047
  24265057.180   127513744.31508  24265055.260    99361349.44547
  21819387.920   114661664.98709  21819384.640    89346742.00448
  23329706.840   122598468.22508  23329704.200    95531288.28047
  22158981.480   116446291.17809  22158981.640    90737401.54348
  23315266.900   122522518.34008  23315266.320    95472070.07347
 15 02 28 00 17 30.0000000  0  7G16G18G19G21G22G27G31
  21132718.980   111053217.82009  21132716.240    86534970.96148
  22474558.940   118104726.53109  22474556.360    92029703.64947
  24250590.540   127437721.29108  24250588.500    99302110.80046
  21829810.960   114716438.51609  21829807.720    89389422.67148
  23313017.120   122510763.41208  23313014.360    95462947.03947
  22148835.760   116392975.83209  22148836.000    90695857.15148
  23333663.760   122619194.26608  23333663.160    95547401.92447
 15 02 28 00 18  0.0000000  0  7G16G18G19G21G22G27G31
  21122006.180   110996921.82009  21122003.500    86491103.94848
  22465984.340   118059666.34209  22465981.700    91994591.83147
  24236143.020   127361799.01608  24236140.900    99242950.66046
  21840285.100   114771480.64509  21840281.900    89432312.63848
  23296345.700   122423155.13408  23296342.940    95394681.02247
  22138714.620   116339788.93709  22138714.820    90654412.84848
  23352080.900   122715976.85108  23352080.380    95622816.84547
 15 02 28 00 18 30.0000000  0  7G16G18G19G21G22G27G31
  21111355.120   110940950.04609  21111352.480    86447489.57948
  22457479.140   118014971.00909  22457476.400    91959764.31847
  24221714.760   127285978.11408  24221712.580    99183869.50546
  21850810.200   114826790.59309  21850807.000    89475411.29748
  23279693.240   122335646.98008  23279690.560    95326493.01247
  22128618.200   116286731.03809  22128618.240    90613069.05148
  23370517.920   122812863.62209  23370517.380    95698312.94847
 15 02 28 00 19  0.0000000  0  7G16G18G19G21G22G27G31
  21100765.780   110885302.39209  21100763.140    86404127.77448
  22449043.280   117970640.24409  22449040.580    91925220.88947
  24207305.400   127210256.77808  24207303.200    99124865.93846
  21861385.440   114882364.14009  21861382.260    89518715.35448
  23263059.940   122248239.41308  23263057.280    95258383.37947
  22118545.960   116233800.08509  22118545.800    90571824.17348
  23388973.860   122909849.85808  23388973.260    95773886.54847
 15 02 28 00 19 30.0000000  0  7G16G18G19G21G22G27G31
  21090238.980   110829983.22509  21090236.300    86361021.91948
  22440677.480   117926678.08409  22440674.820    91890964.67747
  24192915.320   127134636.79408  24192913.080    99065941.33346
  21872010.840   114938201.09909  21872007.680    89562224.66248
  23246446.680   122160937.28308  23246444.080    95190355.90347
  22108498.140   116180997.78809  22108497.860    90530679.53648
  23407448.500   123006934.41808  23407447.920    95849536.74947
 15 02 28 00 20  0.0000000  0  7G16G18G19G21G22G27G31
  21079774.340   110774990.75009  21079771.620    86318170.64948
  22432381.460   117883082.57009  22432378.880    91856994.16747
  24178543.820   127059114.43108  24178541.560    99007092.81346
  21882685.440   114994296.25609  21882682.200    89605935.17448
  23229853.260   122073739.18408  23229850.680    95122409.48447
  22098474.000   116128320.33509  22098473.660    90489632.19748
  23425940.540   123104110.43108  23425940.040    95925258.20347
 15 02 28 00 20 30.0000000  0  7G16G18G19G21G22G27G31
  21069372.960   110720330.75909  21069370.160    86275578.45048
  22424156.400   117839859.89009  22424153.820    91823314.17747
  24164191.440   126983692.45608  24164189.160    98948322.51546
  21893409.400   115050650.80509  21893406.100    89649847.80748
  23213280.980   121986651.75308  23213278.340    95054549.29847
  22088474.200   116075771.29209  22088473.880    90448684.91148
  23444450.160   123201378.76208  23444449.660    96001051.59747
 15 02 28 00 21  0.0000000  0  7G16G18G19G21G22G27G31
  21059034.480   110666001.40909  21059031.620    86233243.89748
  22416001.920   117797008.32909  22415999.440    91789923.37947
  24149857.640   126908368.16308  24149855.320    98889628.34046
  21904181.780   115107259.76309  21904178.440    89693958.67748
  23196729.640   121899674.12109  23196726.960    94986774.66547
  22078498.080   116023347.01609  22078497.820    90407834.85448
  23462976.060   123298732.69808  23462975.620    96076911.67847
 15 02 28 00 21 30.0000000  0  7G16G18G19G21G22G27G31
  21048760.380   110612010.70709  21048757.500    86191173.22548
  22407919.380   117754535.04609  22407916.940    91756827.33647
  24135543.380   126833146.73108  24135541.160    98831014.32646
  21915003.320   115164126.66709  21914999.880    89738270.54448
  23180200.780   121812814.64909  23180198.000    94919092.08647
  22068546.760   115971053.05709  22068546.580    90367086.33948
  23481518.840   123396175.25208  23481518.320    96152840.80347
 15 02 28 00 22  0.0000000  0  7G16G18G19G21G22G27G31
  21038550.360   110558357.01009  21038547.500    86149365.14948
  22399908.520   117712438.26209  22399906.100    91724024.65847
  24121247.960   126758024.34108  24121245.660    98772477.46646
  21925872.780   115221245.75709  21925869.300    89782778.91647
  23163694.140   121726072.35908  23163691.300    94851500.81847
  22058619.560   115918885.65209  22058619.420    90326436.43448
  23500077.260   123493699.66108  23500076.660    96228833.71247
 15 02 28 00 22 30.0000000  0  7G16G18G19G21G22G27G31
  21028404.880   110505042.40809  21028402.020    86107821.30348
  22391969.740   117670720.03309  22391967.340    91691516.96447
  24106971.380   126683000.83208  24106969.020    98714017.67546
  21936789.740   115278614.67209  21936786.320    89827481.96148
  23147210.160   121639449.46808  23147207.340    94784002.59547
  22048716.460   115866844.62109  22048716.360    90285884.99848
  23518650.720   123591303.06708  23518650.020    96304888.16047
 15 02 28 00 23  0.0000000  0  7G16G18G19G21G22G27G31
  21018324.420   110452069.43309  21018321.560    86066543.66948
  22384103.440   117629382.72409  22384101.020    91659306.10647
  24092713.740   126608077.13307  24092711.380    98655635.65646
  21947754.180   115336233.37408  21947750.840    89872379.64748
  23130749.640   121552950.18408  23130746.900    94716600.68747
  22038837.560   115814930.80109  22038837.500    90245432.69748
  23537238.840   123688983.20908  23537238.120    96381002.41847
 15 02 28 00 23 30.0000000  0  7G16G18G19G21G22G27G31
  21008309.000   110399438.27109  21008306.160    86025532.38248
  22376309.740   117588426.88709  22376307.340    91627392.48047
  24078474.720   126533250.94008  24078472.420    98597329.61846
  21958765.240   115394097.46608  21958762.020    89917468.54948
  23114312.680   121466574.72408  23114309.960    94649295.26447
  22028982.460   115763142.00109  22028982.480    90205077.81048
  23555840.620   123786735.08208  23555839.860    96457172.54546
 15 02 28 00 24  0.0000000  0  7G16G18G19G21G22G27G31
  20998359.860   110347155.18809  20998357.000    85984792.31548
  22368589.760   117547858.48709  22368587.480    91595780.75347
  24064255.080   126458526.45908  24064252.600    98539102.81746
  21969823.380   115452209.00108  21969820.260    89962750.25548
  23097900.840   121380330.73509  23097898.040    94582092.27247
  22019152.000   115711482.50609  22019152.020    90164823.67148
  23574456.280   123884560.06408  23574455.460    96533399.63547
 15 02 28 00 24 30.0000000  0  7G16G18G19G21G22G27G31
  20988476.600   110295218.31409  20988473.680    85944322.03648
  22360942.980   117507674.93609  22360940.780    91564468.92247
  24050054.140   126383899.94408  24050051.560    98480952.37446
  21980927.340   115510561.51408  21980924.340    90008219.75248
  23081513.800   121294216.46609  23081510.880    94514990.36647
  22009345.400   115659948.21809  22009345.320    90124667.10548
  23593084.600   123982451.40808  23593083.660    96609678.44946
 15 02 28 00 25  0.0000000  0  7G16G18G19G21G22G27G31
  20978660.360   110243633.67909  20978657.400    85904126.22148
  22353370.680   117467882.19409  22353368.460    91533461.60747
  24035872.480   126309375.01008  24035869.860    98422881.08446
  21992077.840   115569158.38908  21992074.920    90053879.65247
  23065152.760   121208238.64109  23065149.700    94447994.77147
  21999563.360   115608542.98809  21999563.160    90084611.10048
  23611725.580   124080409.82008  23611724.680    96686009.51647
 15 02 28 00 25 30.0000000  0  7G16G18G19G21G22G27G31
  20968910.600   110192398.27109  20968907.660    85864202.53348
  22345872.220   117428477.30209  22345869.880    91502756.51747
  24021709.220   126234946.52108  24021706.580    98364884.93346
  22003273.520   115627992.27908  22003270.580    90099724.23948
  23048817.280   121122394.97008  23048813.980    94381103.69947
  21989804.980   115557261.84809  21989804.620    90044651.79148
  23630377.840   124178427.76408  23630377.000    96762386.95247
 15 02 28 00 26  0.0000000  0  7G16G18G19G21G22G27G31
  20959228.100   110141516.48809  20959225.200    85824554.39848
  22338448.320   117389464.14209  22338445.780    91472356.66747
  24007564.800   126160616.81908  24007562.200    98306965.76146
  22014514.300   115687063.02408  22014511.240    90145753.38948
  23032508.280   121036690.43409  23032504.900    94314321.06247
  21980070.640   115506107.04109  21980070.120    90004790.91548
  23649041.300   124276504.43208  23649040.560    96838810.14847
 15 02 28 00 26 30.0000000  0  7G16G18G19G21G22G27G31
  20949613.860   110090993.31809  20949610.980    85785185.70248
  22331099.800   117350847.26209  22331097.080    91442265.60547
  23993439.700   126086388.77608  23993436.960    98249125.80046
  22025800.480   115746372.05008  22025797.300    90191968.20348
  23016226.860   120951130.74709  23016223.360    94247651.28747
  21970360.840   115455081.50109  21970360.220    89965030.76148
  23667715.980   124374639.97108  23667715.340    96915279.21247
 15 02 28 00 27  0.0000000  0  7G16G18G19G21G22G27G31
  20940068.100   110040830.10809  20940065.220    85746097.49348
  22323827.020   117312628.54509  22323824.180    91412484.80147
  23979333.760   126012261.59208  23979330.940    98191364.41846
  22037131.440   115805916.13209  22037128.100    90238366.18448
  22999973.400   120865718.35109  22999969.860    94181096.27647
  21960675.440   115404184.66909  21960674.920    89925370.91748
  23686401.240   124472831.02808  23686400.660    96991791.54047
 15 02 28 00 27 30.0000000  0  7G16G18G19G21G22G27G31
  20930590.500   109991024.99209  20930587.580    85707288.32148
  22316629.420   117274805.04109  22316626.520    91383011.96647
  23965246.220   125938231.13508  23965243.180    98133678.41846
  22048506.280   115865690.62109  22048502.780    90284943.70447
  22983747.580   120780451.51209  22983744.120    94114654.69547
  21951013.640   115353412.17409  21951013.320    89885807.95948
  23705095.600   124571070.11208  23705095.060    97068341.28146
 15 02 28 00 28  0.0000000  0  7G16G18G19G21G22G27G31
  20921181.800   109941582.18609  20921178.940    85668761.47248
  22309507.920   117237381.22709  22309504.900    91353850.57347
  23951177.600   125864300.28808  23951174.420    98076070.03946
  22059924.980   115925695.41909  22059921.280    90331700.69247
  22967550.460   120695335.61109  22967546.940    94048330.71647
  21941375.980   115302766.62309  21941375.840    89846343.91748
  23723799.100   124669357.05008  23723798.640    97144928.31346
 15 02 28 00 28 30.0000000  0  7G16G18G19G21G22G27G31
  20911842.740   109892505.36009  20911839.960    85630519.79648
  22302463.100   117200360.49609  22302460.000    91325003.27247
  23937127.960   125790469.87208  23937124.780    98018539.92446
  22071387.340   115985930.07509  22071383.540    90378636.78247
  22951382.820   120610374.78809  22951379.280    93982127.56847
  21931762.780   115252249.53109  21931762.760    89806979.96648
  23742511.440   124767690.65608  23742511.180    97221551.67947
 15 02 28 00 29  0.0000000  0  7G16G18G19G21G22G27G31
  20902573.940   109843797.51909  20902571.220    85592565.63448
  22295495.400   117163745.39509  22295492.400    91296472.04147
  23923097.580   125716740.52108  23923094.340    97961088.54346
  22082893.080   116046393.07909  22082889.300    90425750.80047
  22935245.380   120525572.66209  22935241.840    93916048.08047
  21922174.220   115201861.69909  21922174.240    89767716.73548
  23761232.280   124866068.52208  23761232.140    97298209.54446
 15 02 28 00 29 30.0000000  0  7G16G18G19G21G22G27G31
  20893375.300   109795458.39509  20893372.600    85554898.79448
  22288604.800   117127535.41309  22288601.840    91268256.49147
  23909086.140   125643110.39608  23909082.900    97903714.49146
  22094441.560   116107080.74808  22094437.880    90473039.88947
  22919138.300   120440930.25309  22919134.820    93850093.05647
  21912609.920   115151601.11309  21912609.880    89728552.65448
  23779960.680   124964486.09308  23779960.620    97374898.33547
 15 02 28 00 30  0.0000000  0  7G16G18G19G21G22G27G31
  20884247.000   109747488.64209  20884244.240    85517519.76648
  22281791.400   117091730.90109  22281788.420    91240356.89247
  23895093.440   125569578.23708  23895090.080    97846416.77146
  22106032.160   116167990.00408  22106028.680    90520501.64747
  22903061.800   120356448.36309  22903058.300    93784263.10047
  21903069.600   115101466.29109  21903069.460    89689486.56948
  23798695.780   125062938.76708  23798695.800    97451614.46947
 15 02 28 00 30 30.0000000  0  7G16G18G19G21G22G27G31
  20875189.680   109699891.96209  20875186.880    85480431.44648
  22275055.780   117056335.05509  22275052.760    91212775.72847
  23881119.600   125496145.33808  23881116.180    97789196.40246
  22117664.820   116229120.57109  22117661.560    90568135.83847
  22887016.760   120272131.43509  22887013.180    93718561.67547
  21893553.560   115051458.72509  21893553.300    89650519.63648
  23817437.340   125161425.28708  23817437.460    97528356.97646
 15 02 28 00 31  0.0000000  0  7G16G18G19G21G22G27G31
  20866204.080   109652672.17609  20866201.220    85443636.82048
  22268398.600   117021351.33309  22268395.580    91185515.70547
  23867164.860   125422813.28108  23867161.460    97732054.60546
  22129339.640   116290472.53708  22129336.500    90615942.56547
  22871004.040   120187984.25709  22871000.500    93652992.53847
  21884062.100   115001580.36609  21884061.740    89611653.39948
  23836185.200   125259944.88108  23836185.300    97605125.25646
 15 02 28 00 31 30.0000000  0  7G16G18G19G21G22G27G31
  20857290.340   109605829.93009  20857287.380    85407136.37948
  22261819.840   116986779.63709  22261816.800    91158576.74847
  23853229.040   125349580.79108  23853225.720    97674990.40346
  22141055.960   116352042.58708  22141052.900    90663919.22647
  22855023.940   120104008.08609  22855020.380    93587556.64647
  21874594.940   114951829.79209  21874594.500    89572886.72848
  23854938.500   125358493.25508  23854938.720    97681915.95547
 15 02 28 00 32  0.0000000  0  7G16G18G19G21G22G27G31
  20848448.760   109559367.08709  20848445.740    85370931.57648
  22255319.800   116952621.89109  22255316.760    91131960.34247
  23839312.180   125276447.81308  23839309.000    97618003.74046
  22152813.340   116413828.13308  22152810.360    90712063.80347
  22839076.960   120020205.61809  22839073.320    93522256.09947
  21865152.060   114902206.99909  21865151.580    89534219.63848
  23873696.620   125457067.33408  23873697.020    97758726.66346
 15 02 28 00 32 30.0000000  0  7G16G18G19G21G22G27G31
  20839679.540   109513284.38609  20839676.460    85335022.98648
  22248898.680   116918879.21609  22248895.680    91105667.37047
  23825414.080   125203412.97608  23825410.880    97561093.52246
  22164611.280   116475826.67708  22164608.240    90760374.34647
  22823163.280   119936578.27609  22823159.500    93457092.01147
  21855733.280   114852710.88909  21855732.760    89495651.25148
  23892458.900   125555663.02908  23892459.320    97835554.20946
 15 02 28 00 33  0.0000000  0  7G16G18G19G21G22G27G31
  20830983.140   109467584.36909  20830979.920    85299412.59248
  22242556.860   116885553.00009  22242553.860    91079698.91247
  23811534.740   125130476.71208  23811531.520    97504260.13346
  22176449.380   116538036.07309  22176446.300    90808849.19847
  22807283.480   119853129.05109  22807279.620    93392066.72347
  21846338.620   114803341.64909  21846338.060    89457181.72548
  23911224.860   125654277.78708  23911225.280    97912396.60646
 15 02 28 00 33 30.0000000  0  7G16G18G19G21G22G27G31
  20822360.180   109422270.32509  20822356.840    85264102.95348
  22236294.860   116852646.27609  22236291.860    91054057.32947
  23797674.400   125057640.03108  23797671.120    97447504.34246
  22188327.620   116600456.20409  22188324.400    90857488.26347
  22791438.300   119769862.20709  22791434.440    93327183.55247
  21836968.300   114754100.72209  21836967.800    89418812.18648
  23929994.220   125752910.31508  23929994.640    97989252.83646
 15 02 28 00 34  0.0000000  0  7G16G18G19G21G22G27G31
  20813810.940   109377343.71809  20813807.540    85229095.21748
  22230112.980   116820160.34809  22230109.980    91028743.63847
  23783832.960   124984902.90208  23783829.640    97390826.11246
  22200245.540   116663084.75809  22200242.200    90906289.73047
  22775628.260   119686780.36509  22775624.460    93262444.54247
  21827622.340   114704988.03309  21827621.940    89380542.57248
  23948766.460   125851557.64408  23948766.840    98066120.60246
 15 02 28 00 34 30.0000000  0  7G16G18G19G21G22G27G31
  20805335.900   109332807.08209  20805332.460    85194391.34748
  22224011.540   116788097.01209  22224008.560    91003759.24447
  23770010.440   124912265.70208  23770007.160    97334225.76546
  22212202.920   116725920.61209  22212199.380    90955252.73747
  22759853.940   119603886.62909  22759850.300    93197852.10247
  21818300.860   114656004.02109  21818300.540    89342373.23148
  23967541.040   125950217.13608  23967541.260    98142997.84846
 15 02 28 00 35  0.0000000  0  7G16G18G19G21G22G27G31
  20796935.560   109288662.94009  20796932.080    85159993.31648
  22217990.980   116756458.65309  22217987.920    90979105.99447
  23756207.000   124839728.77608  23756203.780    97277703.53446
  22224199.360   116788962.17209  22224195.760    91004376.02047
  22744115.960   119521184.12109  22744112.440    93133408.66747
  21809004.060   114607149.29309  21809003.820    89304304.61848
  23986317.520   126048886.57008  23986317.660    98219882.82046
 15 02 28 00 35 30.0000000  0  7G16G18G19G21G22G27G31
  20788609.780   109244910.61809  20788606.280    85125900.59448
  22212051.000   116725243.65609  22212047.920    90954782.63447
  23742422.140   124767289.68908  23742419.100    97221257.54346
  22236234.000   116852204.81109  22236230.420    91053655.98847
  22728414.400   119438672.88309  22728410.980    93069114.26747
  21799731.400   114558421.06509  21799731.180    89266334.58448
  24005094.800   126147560.21808  24005094.860    98296771.05446
 15 02 28 00 36  0.0000000  0  7G16G18G19G21G22G27G31
  20780359.300   109201554.14009  20780355.840    85092116.33148
  22206192.320   116694455.85109  22206189.200    90930792.16347
  23728656.240   124694949.76408  23728653.260    97164888.83846
  22248307.020   116915649.08009  22248303.520    91103093.07948
  22712750.140   119356357.59209  22712746.780    93004972.56647
  21790483.240   114509821.47009  21790483.020    89228464.79248
  24023872.860   126246237.93708  24023872.980    98373662.45946
 15 02 28 00 36 30.0000000  0  7G16G18G19G21G22G27G31
  20772184.380   109158594.57109  20772180.960    85058641.33948
  22200415.140   116664096.36009  22200411.940    90907135.43347
  23714909.180   124622708.39508  23714906.140    97108596.90946
  22260417.760   116979291.74008  22260414.360    91152684.75447
  22697123.680   119274240.33709  22697120.260    92940985.16947
  21781259.420   114461349.78509  21781259.180    89190694.66048
  24042650.820   126344915.38008  24042651.040    98450553.63146
 15 02 28 00 37  0.0000000  0  7G16G18G19G21G22G27G31
  20764085.720   109116035.92609  20764082.400    85025478.75848
  22194720.100   116634168.26309  22194716.780    90883814.85547
  23701181.380   124550567.78808  23701178.180    97052383.49446
  22272566.300   117043133.19808  22272563.020    91202431.33847
  22681535.880   119192326.02709  22681532.320    92877155.89347
  21772060.280   114413008.21409  21772060.000    89153025.91448
  24061428.640   126443592.18708  24061428.980    98527444.29146
 15 02 28 00 37 30.0000000  0  7G16G18G19G21G22G27G31
  20756062.880   109073875.62509  20756059.640    84992626.57348
  22189106.600   116604668.59009  22189103.160    90860828.11547
  23687471.920   124478523.29108  23687468.500    96996244.97246
  22284751.560   117107167.53108  22284748.420    91252328.21648
  22665986.340   119110612.69809  22665982.580    92813483.23947
  21762885.020   114364792.16609  21762884.720    89115454.98648
  24080204.920   126542260.94508  24080205.340    98604328.69647
 15 02 28 00 38  0.0000000  0  7G16G18G19G21G22G27G31
  20748117.220   109032120.82409  20748114.040    84960090.36048
  22183575.960   116575604.31909  22183572.420    90838180.65147
  23673781.740   124406580.06108  23673778.160    96940185.36347
  22296974.140   117171397.81408  22296971.100    91302377.78147
  22650476.580   119029108.55809  22650472.680    92749973.58647
  21753734.740   114316707.15609  21753734.380    89077986.16448
  24098980.140   126640924.28608  24098980.680    98681208.84346
 15 02 28 00 38 30.0000000  0  7G16G18G19G21G22G27G31
  20740248.380   108990769.56709  20740245.200    84927868.59848
  22178127.620   116546972.47309  22178124.000    90815870.13147
  23660110.020   124334734.09608  23660106.300    96884201.55447
  22309232.940   117235818.33808  22309229.960    91352575.58547
  22635006.320   118947812.14309  22635002.300    92686625.79747
  21744608.640   114268749.27409  21744608.240    89040616.40248
  24117753.020   126739575.39108  24117753.680    98758079.44846
 15 02 28 00 39  0.0000000  0  7G16G18G19G21G22G27G31
  20732457.680   108949829.13809  20732454.520    84895966.96348
  22172762.840   116518780.03609  22172759.220    90793902.02047
  23646457.780   124262990.83008  23646453.920    96828297.76046
  22321528.620   117300432.22308  22321525.580    91402924.06947
  22619577.140   118866731.47309  22619572.980    92623446.11647
  21735507.780   114220923.89609  21735507.400    89003349.88948
  24136524.000   126838216.56308  24136524.820    98834942.26646
 15 02 28 00 39 30.0000000  0  7G16G18G19G21G22G27G31
  20724744.460   108909296.06509  20724741.320    84864382.75248
  22167480.920   116491023.25609  22167477.360    90772273.37147
  23632823.920   124191344.81208  23632820.040    96772469.75346
  22333859.760   117365232.34909  22333856.620    91453417.67647
  22604188.540   118785864.13909  22604184.360    92560432.67047
  21726431.100   114173225.94109  21726430.820    88966182.67448
  24155291.660   126936839.95808  24155292.600    98911791.24846
 15 02 28 00 40  0.0000000  0  7G16G18G19G21G22G27G31
  20717109.680   108869175.21909  20717106.560    84833119.75448
  22162282.600   116463706.23709  22162279.160    90750987.40047
  23619209.020   124119798.78308  23619205.220    96716719.66047
  22346226.600   117430220.20108  22346223.380    91504057.55247
  22588841.540   118705215.45409  22588837.380    92497589.60447
  21717379.140   114125658.22109  21717379.060    88929116.95248
  24174056.060   127035445.56208  24174056.920    98988626.40746
 15 02 28 00 40 30.0000000  0  7G16G18G19G21G22G27G31
  20709553.320   108829466.62409  20709550.220    84802177.98548
  22157167.860   116436828.35409  22157164.480    90730043.60847
  23605612.840   124048351.16408  23605609.120    96661046.24246
  22358628.480   117495392.10708  22358625.160    91554840.85047
  22573536.420   118624786.58109  22573532.300    92434917.80747
  21708351.680   114078219.16409  21708351.760    88892151.47948
  24192816.240   127134028.86608  24192817.040    99065444.11846
 15 02 28 00 41  0.0000000  0  7G16G18G19G21G22G27G31
  20702075.960   108790173.36209  20702072.920    84771559.85748
  22152137.240   116410392.43809  22152133.940    90709444.21347
  23592035.600   123977003.01408  23592032.000    96605450.33446
  22371065.220   117560747.18909  22371061.840    91605766.87947
  22558273.940   118544581.57409  22558269.800    92372420.45848
  21699349.020   114030910.12909  21699349.120    88855287.32748
  24211571.860   127232588.39108  24211572.660    99142243.28146
 15 02 28 00 41 30.0000000  0  7G16G18G19G21G22G27G31
  20694677.860   108751296.95909  20694674.960    84741266.54848
  22147190.860   116384399.42509  22147187.660    90689189.93247
  23578477.260   123905753.82408  23578473.700    96549931.54047
  22383536.360   117626283.05709  22383532.920    91656833.78147
  22543054.380   118464602.33809  22543050.260    92310099.02947
  21690371.140   113983730.66209  21690371.080    88818524.12048
  24230322.280   127331120.79708  24230323.160    99219021.31946
 15 02 28 00 42  0.0000000  0  7G16G18G19G21G22G27G31
  20687359.780   108712840.87309  20687357.000    84711300.76448
  22142329.340   116358852.31209  22142326.220    90669283.10747
  23564938.040   123834604.91608  23564934.560    96494490.88846
  22396041.860   117691999.85808  22396038.380    91708041.67447
  22527878.620   118384853.54409  22527874.520    92247957.17447
  21681418.340   113936682.59009  21681418.040    88781863.30548
  24249067.400   127429625.34408  24249068.360    99295777.62146
 15 02 28 00 42 30.0000000  0  7G16G18G19G21G22G27G31
  20680121.740   108674804.95709  20680119.020    84681662.38649
  22137552.420   116333749.86609  22137549.400    90649722.77647
  23551417.600   123763554.61608  23551414.100    96439127.06346
  22408580.940   117757893.14509  22408577.460    91759387.08447
  22512746.720   118305335.48209  22512742.660    92185995.10647
  21672490.180   113889763.99909  21672489.660    88745303.38548
  24267806.240   127528096.91508  24267807.400    99372508.23046
 15 02 28 00 43  0.0000000  0  7G16G18G19G21G22G27G31
  20672964.360   108637192.70609  20672961.680    84652354.13048
  22132860.780   116309095.59709  22132857.880    90630511.66747
  23537916.240   123692604.63808  23537912.820    96383841.41246
  22421153.700   117823963.46809  22421150.220    91810870.43447
  22497659.620   118226052.85609  22497655.620    92124216.48647
  21663586.980   113842976.67909  21663586.280    88708845.74548
  24286538.560   127626534.20808  24286539.960    99449212.05146
 15 02 28 00 43 30.0000000  0  7G16G18G19G21G22G27G31
  20665887.940   108600005.43909  20665885.220    84623377.03748
  22128254.580   116284890.41709  22128251.820    90611650.50347
  23524433.840   123621754.20008  23524430.420    96328633.32646
  22433759.720   117890208.41409  22433756.200    91862489.86247
  22482617.820   118147008.25209  22482613.940    92062623.35548
  21654708.700   113796320.47709  21654707.920    88672490.28348
  24305263.920   127724934.49208  24305265.420    99525886.95946
 15 02 28 00 44  0.0000000  0  7G16G18G19G21G22G27G31
  20658892.620   108563244.27809  20658889.860    84594731.96848
  22123733.880   116261134.55109  22123731.260    90593139.44847
  23510970.200   123551002.54908  23510966.740    96273502.20946
  22446398.460   117956625.07509  22446394.880    91914243.09947
  22467621.660   118068203.14409  22467617.760    92001216.82447
  21645855.180   113749794.65009  21645854.380    88636236.41148
  24323981.580   127823294.15308  24323983.240    99602530.26246
 15 02 28 00 44 30.0000000  0  7G16G18G19G21G22G27G31
  20651978.920   108526912.05009  20651976.080    84566421.14648
  22119299.040   116237829.74109  22119296.500    90574979.87247
  23497525.460   123480350.43908  23497521.960    96218448.65946
  22459069.720   118023212.87808  22459066.060    91966129.69447
  22452671.740   117989640.86009  22452667.740    91939999.52047
  21637026.620   113703400.23809  21637025.860    88600084.94248
  24342691.220   127921611.23408  24342692.940    99679140.43545
 15 02 28 00 45  0.0000000  0  7G16G18G19G21G22G27G31
  20645147.420   108491011.50309  20645144.420    84538446.69148
  22114950.540   116214978.39509  22114947.980    90557173.63947
  23484099.900   123409798.89008  23484096.400    96163473.46146
  22471773.240   118089970.43408  22471769.560    92018148.55147
  22437768.780   117911325.25909  22437764.680    91878974.42547
  21628223.280   113657138.33209  21628222.520    88564036.71948
  24361392.440   128019884.16008  24361394.180    99755716.22745
 15 02 28 00 45 30.0000000  0  7G16G18G19G21G22G27G31
  20638398.060   108455542.69409  20638394.920    84510808.66048
  22110688.300   116192580.10709  22110685.640    90539720.44647
  23470693.160   123339346.23208  23470689.680    96108575.32946
  22484508.480   118156894.90808  22484504.820    92070297.47947
  22422913.000   117833257.45809  22422908.820    91818142.42848
  21619444.820   113611007.49709  21619444.060    88528090.63148
  24380084.460   128118108.89708  24380086.280    99832254.55345
 15 02 28 00 46  0.0000000  0  7G16G18G19G21G22G27G31
  20631731.220   108420507.56709  20631727.940    84483508.55948
  22106512.520   116170636.36409  22106509.740    90522621.43347
  23457305.240   123268992.49008  23457301.800    96053754.27646
  22497275.080   118223984.34008  22497271.560    92122574.94947
  22408104.920   117755440.14909  22408100.640    91757505.61348
  21610691.320   113565007.97009  21610690.600    88492246.85348
  24398766.720   128216282.54708  24398768.560    99908753.09045
 15 02 28 00 46 30.0000000  0  7G16G18G19G21G22G27G31
  20625147.260   108385908.27409  20625143.860    84456548.06748
  22102423.520   116149148.78909  22102420.720    90505877.87747
  23443936.280   123198738.54808  23443933.020    95999010.98647
  22510072.820   118291237.51208  22510069.400    92174980.00147
  22393345.140   117677876.78709  22393340.780    91697066.67548
  21601962.940   113519140.40209  21601962.320    88456505.90448
  24417438.840   128314403.18208  24417440.800    99985210.32245
 15 02 28 00 47  0.0000000  0  7G16G18G19G21G22G27G31
  20618646.620   108351747.02509  20618643.120    84429928.92049
  22098421.520   116128118.48709  22098418.680    90489490.64347
  23430586.380   123128584.51908  23430583.240    95944345.55347
  22522901.400   118358652.85908  22522898.100    92227511.43647
  22378634.100   117600569.85809  22378629.780    91636827.56048
  21593259.760   113473405.26309  21593259.240    88420868.15048
  24436100.260   128412467.74608  24436102.420   100061623.92245
 15 02 28 00 47 30.0000000  0  7G16G18G19G21G22G27G31
  20612229.520   108318024.87409  20612225.920    84403651.91748
  22094506.680   116107546.20009  22094503.880    90473460.29747
  23417255.360   123058529.80108  23417252.280    95889757.50146
  22535760.400   118426228.01208  22535757.260    92280167.38747
  22363972.220   117523521.50809  22363968.000    91576789.92848
  21584581.680   113427802.05809  21584581.280    88385333.19248
  24454750.400   128510473.29308  24454752.760   100137991.52246
 15 02 28 00 48  0.0000000  0  7G16G18G19G21G22G27G31
  20605896.140   108284742.97609  20605892.540    84377717.97148
  22090679.140   116087432.44909  22090676.380    90457787.25747
  23403943.020   122988573.37108  23403940.020    95835246.02846
  22548649.420   118493960.73108  22548646.360    92332946.11647
  22349359.940   117446733.98409  22349355.860    91516955.54048
  21575928.620   113382330.40109  21575928.320    88349900.74348
  24473388.560   128608416.49708  24473391.100   100214310.48046
 15 02 28 00 48 30.0000000  0  7G16G18G19G21G22G27G31
  20599647.280   108251905.35809  20599643.700    84352130.22548
  22086939.480   116067780.42709  22086936.760    90442474.01247
  23390649.740   122918717.44908  23390646.840    95780812.89547
  22561568.480   118561851.07608  22561565.440    92385847.68547
  22334798.240   117370212.15409  22334794.300    91457328.18648
  21567301.060   113336992.70409  21567300.800    88314572.68148
  24492014.780   128706296.89008  24492017.540   100290580.61346
 15 02 28 00 49  0.0000000  0  7G16G18G19G21G22G27G31
  20593483.020   108219512.58909  20593479.600    84326889.11249
  22083287.660   116048589.98909  22083285.000    90427520.43847
  23377375.340   122848960.98108  23377372.540    95726457.25747
  22574517.020   118629896.10008  22574513.980    92438869.77947
  22320287.340   117293957.25709  22320283.480    91397908.83448
  21558698.800   113291788.04009  21558698.660    88279348.27448
  24510628.260   128804110.59408  24510631.200   100366798.78546
 15 02 28 00 49 30.0000000  0  7G16G18G19G21G22G27G31
  20587403.400   108187564.71409  20587400.200    84301994.66449
  22079723.620   116029860.44809  22079720.900    90412925.99747
  23364119.640   122779302.31408  23364116.840    95672177.81547
  22587494.360   118698092.47408  22587491.280    92492009.79947
  22305827.480   117217970.29009  22305823.620    91338698.24848
  21550121.660   113246714.90709  21550121.520    88244226.36149
  24529228.320   128901853.64708  24529231.380   100442962.08046
 15 02 28 00 50  0.0000000  0  7G16G18G19G21G22G27G31
  20581409.700   108156068.14909  20581406.680    84277451.88249
  22076248.340   116011597.61009  22076245.640    90398695.22847
  23350883.540   122709746.12908  23350880.500    95617978.22947
  22600501.100   118766443.05408  22600498.040    92545269.98147
  22291420.040   117142258.46909  22291416.140    91279702.05648
  21541570.580   113201778.19709  21541570.300    88209210.74548
  24547815.160   128999527.27008  24547818.260   100519071.20046
 15 02 28 00 50 30.0000000  0  7G16G18G19G21G22G27G31
  20575501.160   108125018.84009  20575498.240    84253257.62449
  22072860.960   115993797.25009  22072858.300    90384824.83647
  23337665.960   122640287.00108  23337662.640    95563854.27447
  22613535.840   118834940.71308  22613532.760    92598644.78647
  22277064.500   117066819.28209  22277060.520    91220918.32148
  21533044.540   113156972.85909  21533044.060    88174297.51048
  24566387.380   129097123.99108  24566390.460   100595120.44245
 15 02 28 00 51  0.0000000  0  7G16G18G19G21G22G27G31
  20569678.380   108094419.77209  20569675.480    84229414.19249
  22069561.840   115976460.73509  22069559.240    90371315.87247
  23324467.020   122570925.63008  23324463.500    95509806.49247
  22626598.460   118903584.68708  22626595.320    92652133.58947
  22262761.480   116991656.09709  22262757.400    91162349.63648
  21524543.620   113112299.83109  21524543.000    88139487.36748
  24584944.640   129194642.32008  24584947.600   100671108.64546
 15 02 28 00 51 30.0000000  0  7G16G18G19G21G22G27G31
  20563942.440   108064276.94709  20563939.500    84205926.28049
  22066352.080   115959593.63509  22066349.500    90358172.69747
  23311287.520   122501666.27808  23311283.840    95455838.20647
  22639689.460   118972377.84908  22639686.320    92705738.64447
  22248512.220   116916776.05109  22248508.220    91104001.58748
  21516068.700   113067763.86309  21516068.080    88104784.01948
  24603487.240   129292083.78107  24603490.040   100747037.05145
 15 02 28 00 52  0.0000000  0  7G16G18G19G21G22G27G31
  20558293.320   108034589.99509  20558290.260    84182793.59349
  22063231.520   115943195.22609  22063228.920    90345394.73047
  23298127.100   122432507.31608  23298123.260    95401948.14947
  22652808.100   119041316.06908  22652804.840    92759456.73547
  22234316.780   116842179.59809  22234312.980    91045874.53048
  21507619.440   113023362.97009  21507618.880    88070185.93149
  24622014.180   129389443.42408  24622017.040   100822901.72845
 15 02 28 00 52 30.0000000  0  7G16G18G19G21G22G27G31
  20552731.260   108005360.47409  20552728.020    84160017.34249
  22060200.240   115927265.87609  22060197.580    90332982.25847
  23284985.780   122363449.02108  23284981.860    95348136.52347
  22665954.040   119110397.82508  22665950.760    92813286.66147
  22220175.780   116767869.47109  22220172.200    90987970.57648
  21499195.940   112979097.56209  21499195.460    88035693.40948
  24640524.980   129486719.04908  24640527.960   100898700.99445
 15 02 28 00 53  0.0000000  0  7G16G18G19G21G22G27G31
  20547256.320   107976588.95209  20547252.940    84137597.98148
  22057258.260   115911805.78209  22057255.620    90320935.45647
  23271863.240   122294489.94208  23271859.380    95294402.21347
  22679126.680   119179620.11308  22679123.380    92867226.09847
  22206089.540   116693847.16809  22206086.140    90930290.90448
  21490798.060   112934966.75909  21490797.680    88001305.77948
  24659019.040   129583906.79507  24659022.100   100974431.79144
 15 02 28 00 53 30.0000000  0  7G16G18G19G21G22G27G31
  20541869.140   107948279.08309  20541865.720    84115538.34948
  22054406.100   115896817.72209  22054403.500    90309256.46547
  23258759.940   122225631.91908  23258756.200    95240746.65847
  22692326.020   119248982.97908  22692322.700    92921275.08047
  22192059.000   116620117.09909  22192055.600    90872838.94248
  21482426.220   112890972.63009  21482425.920    87967024.64548
  24677496.180   129681005.89307  24677499.340   101050093.59344
 15 02 28 00 54  0.0000000  0  6G16G18G19G21G22G27
  20536570.680   107920435.53509  20536567.220    84093842.07849
  22051644.560   115882305.98109  22051642.060    90297948.63547
  23245676.480   122156878.27708  23245672.820    95187172.43047
  22705552.360   119318487.99608  22705549.060    92975434.82847
  22178085.280   116546685.00209  22178081.740    90815619.15448
  21474081.040   112847118.81209  21474080.900    87932852.85248
 15 02 28 00 54 30.0000000  0  6G16G18G19G21G22G27
  20531359.620   107893051.44309  20531356.200    84072503.82849
  22048972.100   115868262.51909  22048969.700    90287005.69447
  23232611.260   122088220.37708  23232607.700    95133672.80947
  22718803.800   119388125.16908  22718800.620    93029697.55247
  22164167.260   116473544.94809  22164163.440    90758626.93148
  21465760.960   112803396.96709  21465760.940    87898783.89049
 15 02 28 00 55  0.0000000  0  6G16G18G19G21G22G27
  20526236.760   107866130.82609  20526233.400    84051526.72649
  22046389.440   115854690.55209  22046387.000    90276430.14947
  23219564.840   122019661.03008  23219561.260    95080249.98247
  22732080.460   119457895.11408  22732077.380    93084063.73647
