     2.11           OBSERVATION DATA    G                   RINEX VERSION / TYPE
SPIDER V4,0,0,3554                      2015 03 24 05:02    PGM / RUN BY / DATE 
OJGS                                                        MARKER NAME         
OJGS                                                        MARKER NUMBER       
                                                            OBSERVER / AGENCY   
496552              LEICA GRX1200+GNSS  8.20/4.007          REC # / TYPE / VERS 
10401003            LEIAR25         NONE                    ANT # / TYPE        
  5198100.9450    88691.2920  3684205.7148                  APPROX POSITION XYZ 
        0.1200        0.0000        0.0000                  ANTENNA: DELTA H/E/N
     1     1                                                WAVELENGTH FACT L1/2
     4    C1    L1    P2    L2                              # / TYPES OF OBSERV 
    30.000                                                  INTERVAL            
  2015    02    28    07    49    0.0000000     GPS         TIME OF FIRST OBS   
  2015    02    28    23    59   30.0000000     GPS         TIME OF LAST OBS    
    16                                                      LEAP SECONDS        
    29                                                      # OF SATELLITES     
   G 1   186   186   186   186                              PRN / # OF OBS      
   G 2   924   924   924   924                              PRN / # OF OBS      
   G 3   323   323   323   323                              PRN / # OF OBS      
   G 4    47    47    47    47                              PRN / # OF OBS      
   G 5   674   674   674   674                              PRN / # OF OBS      
   G 6   663   662   662   662                              PRN / # OF OBS      
   G 7   646   646   646   646                              PRN / # OF OBS      
   G 9   602   602   602   602                              PRN / # OF OBS      
   G10   771   771   771   771                              PRN / # OF OBS      
   G11    89    89    89    89                              PRN / # OF OBS      
   G12   811   811   811   811                              PRN / # OF OBS      
   G13   822   822   822   822                              PRN / # OF OBS      
   G14   518   516   513   512                              PRN / # OF OBS      
   G15   733   733   733   733                              PRN / # OF OBS      
   G16   203   203   203   203                              PRN / # OF OBS      
   G17   645   645   645   645                              PRN / # OF OBS      
   G18   518   518   518   518                              PRN / # OF OBS      
   G20   711   711   711   711                              PRN / # OF OBS      
   G21   388   382   379   377                              PRN / # OF OBS      
   G22   208   206   206   205                              PRN / # OF OBS      
   G23   418   418   418   418                              PRN / # OF OBS      
   G24   841   841   841   841                              PRN / # OF OBS      
   G25   822   822   822   822                              PRN / # OF OBS      
   G27   158   158   158   158                              PRN / # OF OBS      
   G28   573   573   572   572                              PRN / # OF OBS      
   G29   699   699   698   698                              PRN / # OF OBS      
   G30   691   691   691   691                              PRN / # OF OBS      
   G31   508   508   508   508                              PRN / # OF OBS      
   G32    53    53    53    53                              PRN / # OF OBS      
BIT 2 OF LLI FLAGS DATA COLLECTED UNDER A/S CONDITION       COMMENT             
SNR is mapped to RINEX snr flag value [2-9]                 COMMENT             
Lx:     = 25dBHz -> 1; 26-27dBHz -> 2; 28-31dBHz -> 3       COMMENT             
       32-35dBHz -> 4; 36-38dBHz -> 5; 39-41dBHz -> 6       COMMENT             
       42-44dBHz -> 7; 45-48dBHz -> 8; >=49dBHz -> 9        COMMENT             
                                                            END OF HEADER       
 15 02 28 07 49  0.0000000  0 11G01G03G04G06G09G10G11G17G20G23G32
  21596866.780   113492301.05509  21596869.680    88435570.17848
  20973438.040   110216160.59809  20973439.500    85882727.58948
  24046547.760   126365459.08708  24046549.420    98466598.94745
  23392870.920   122930363.70008  23392875.000    95789911.52147
  21344899.460   112168203.27809  21344900.600    87403799.12548
  24200261.620   127173233.43507  24200262.420    99096029.33144
  23323940.040   122568130.79508  23323939.700    95507633.52846
  21720560.860   114142317.53309  21720559.660    88942060.52848
  23200140.040   121917558.52608  23200140.060    95000694.91245
  20514520.880   107804533.40509  20514516.480    84003514.88148
  24231952.860   127339768.38108  24231954.720    99225801.57445
 15 02 28 07 49 30.0000000  0 11G01G03G04G06G09G10G11G17G20G23G32
  21609238.060   113557312.41209  21609240.940    88486228.41448
  20979855.300   110249883.08609  20979856.740    85909004.90148
  24065088.620   126462892.03208  24065090.480    98542520.67345
  23374840.480   122835614.90608  23374844.580    95716081.41947
  21331415.300   112097343.55209  21331416.500    87348583.84748
  24184280.700   127089252.90808  24184281.160    99030589.99244
  23343886.840   122672951.87909  23343886.620    95589312.28046
  21722261.200   114151252.94809  21722260.040    88949023.24548
  23186108.100   121843819.28008  23186108.020    94943235.83746
  20512007.800   107791326.48409  20512003.280    83993223.86248
  24247222.640   127420008.60308  24247224.720    99288326.36045
 15 02 28 07 50  0.0000000  0 11G01G03G04G06G09G10G11G17G20G23G32
  21621676.260   113622675.51009  21621679.160    88537160.71248
  20986304.960   110283775.73909  20986306.320    85935414.79648
  24083659.500   126560482.89108  24083661.500    98618565.43145
  23356826.520   122740951.48108  23356830.820    95642317.80347
  21318009.320   112026894.86209  21318010.580    87293688.84548
  24168317.960   127005366.17008  24168318.420    98965223.76244
  23363866.860   122777947.10408  23363866.600    95671126.71446
  21724071.060   114160763.84009  21724069.980    88956434.36648
  23172094.860   121770178.34708  23172094.620    94885853.37445
  20509586.660   107778603.32309  20509582.060    83983309.77848
  24262488.440   127500227.80208  24262490.520    99350834.73346
 15 02 28 07 50 30.0000000  0 11G01G03G04G06G09G10G11G17G20G23G32
  21634182.940   113688398.40509  21634185.820    88588373.37448
  20992788.540   110317846.82509  20992789.820    85961963.73748
  24102261.900   126658239.14208  24102264.020    98694739.06746
  23338830.860   122646384.09008  23338834.980    95568629.00347
  21304683.440   111956867.19709  21304684.800    87239121.90149
  24152374.500   126921582.15408  24152375.180    98899937.57844
  23383881.260   122883123.19908  23383880.940    95753082.09146
  21725991.960   114170858.06609  21725990.900    88964300.03848
  23158102.060   121696644.45508  23158101.520    94828554.29445
  20507259.040   107766372.28109  20507254.500    83973779.16749
  24277751.320   127580434.52307  24277753.840    99413333.30245
 15 02 28 07 51  0.0000000  0 11G01G03G04G06G09G10G11G17G20G23G32
  21646755.680   113754468.38109  21646758.560    88639856.46648
  20999303.660   110352083.88509  20999304.860    85988641.98248
  24120893.360   126756147.55808  24120895.480    98771031.25546
  23320851.800   122551902.58908  23320855.800    95495007.12947
  21291435.620   111887249.87209  21291437.020    87184874.69248
  24136448.440   126837888.92208  24136448.920    98834722.10144
  23403927.420   122988465.98708  23403927.000    95835167.33546
  21728021.440   114181522.88509  21728020.380    88972610.30348
  23144127.420   121623206.41108  23144126.580    94771329.90045
  20505022.640   107754620.96809  20505018.300    83964622.35349
  24293009.500   127660616.26608  24293011.720    99475812.48745
 15 02 28 07 51 30.0000000  0 11G01G03G04G06G09G10G11G17G20G23G32
  21659395.260   113820889.47609  21659398.140    88691613.16748
  21005851.180   110386491.19309  21005852.360    86015452.89248
  24139554.400   126854211.53808  24139556.620    98847444.65245
  23302890.400   122457513.71208  23302893.960    95421457.39847
  21278267.080   111818048.90109  21278268.500    87130951.93548
  24120540.440   126754291.52608  24120540.700    98769581.32244
  23424005.880   123093978.52308  23424005.400    95917384.85746
  21730160.340   114192762.69609  21730159.260    88981368.61648
  23130171.780   121549868.72108  23130170.760    94714183.68546
  20502878.500   107743353.87009  20502874.400    83955842.84149
  24308263.980   127740777.43608  24308265.420    99538275.73044
 15 02 28 07 52  0.0000000  0 11G01G03G04G06G09G10G11G17G20G23G32
  21672101.800   113887662.40309  21672104.600    88743643.99948
  21012431.300   110421069.69509  21012432.480    86042397.19948
  24158245.080   126952431.24608  24158247.340    98923979.39445
  23284947.280   122363220.81308  23284950.680    95347982.47247
  21265178.260   111749266.92109  21265179.720    87077355.64148
  24104650.840   126670791.56108  24104651.160    98704516.43545
  23444116.480   123199659.95608  23444115.960    95999733.97246
  21732408.740   114204577.80009  21732407.680    88990575.20748
  23116235.380   121476632.67008  23116234.540    94657116.69245
  20500826.760   107732571.80609  20500822.800    83947441.27849
  24323514.760   127820919.12908  24323516.200    99600723.69445
 15 02 28 07 52 30.0000000  0 11G01G03G04G06G09G10G11G17G20G23G32
  21684875.020   113954785.80609  21684877.720    88795947.94848
  21019043.740   110455818.41709  21019045.040    86069474.13848
  24176965.140   127050804.92708  24176967.360    99000634.11345
  23267022.460   122269025.29608  23267025.880    95274583.42848
  21252169.380   111680904.61409  21252170.800    87024086.37049
  24088779.580   126587388.57807  24088780.320    98639527.12645
  23464258.740   123305507.82308  23464258.300    96082212.77546
  21734766.380   114216967.01109  21734765.340    89000229.15248
  23102318.320   121403497.81608  23102317.640    94600128.53146
  20498867.100   107722273.76809  20498863.200    83939416.87449
  24338761.360   127901040.61608  24338763.520    99663155.84146
 15 02 28 07 53  0.0000000  0 11G01G03G04G06G09G10G11G17G20G23G32
  21697715.160   114022260.65909  21697717.760    88848525.73048
  21025688.800   110490738.55309  21025690.180    86096684.64248
  24195714.500   127149332.72408  24195716.720    99077408.90045
  23249116.820   122174930.79308  23249120.440    95201263.11347
  21239240.940   111612964.86509  21239242.280    86971146.35049
  24072927.080   126504084.51607  24072927.960    98574614.91244
  23484432.520   123411521.51408  23484432.220    96164820.78446
  21737233.420   114229931.02909  21737232.340    89010330.98648
  23088421.000   121330466.59908  23088420.400    94543221.12645
  20496999.780   107712461.18009  20496995.860    83931770.72449
  24354004.380   127981142.99308  24354007.000    99725573.10446
 15 02 28 07 53 30.0000000  0 11G01G03G04G06G09G10G11G17G20G23G32
  21710621.420   114090083.14009  21710623.960    88901374.38848
  21032365.800   110525826.63009  21032367.300    86124025.99848
  24214492.360   127248010.28308  24214494.620    99154300.37345
  23231230.420   122080936.28308  23231233.660    95128020.67447
  21226392.520   111545445.84109  21226393.840    86918534.15949
  24057092.840   126420876.38708  24057093.780    98509777.39744
  23504636.960   123517696.08408  23504636.620    96247554.15046
  21739809.120   114243466.29009  21739808.040    89020877.94448
  23074542.640   121257535.81408  23074542.320    94486391.98646
  20495224.220   107703130.25209  20495220.140    83924499.89348
  24369243.340   128061222.97508  24369245.840    99787972.96345
 15 02 28 07 54  0.0000000  0 11G01G03G04G06G09G10G11G17G20G23G32
  21723593.340   114158250.64309  21723595.820    88954491.89648
  21039074.340   110561080.39309  21039075.960    86151496.47148
  24233298.080   127346834.55408  24233300.520    99231306.16545
  23213363.240   121987041.96308  23213366.280    95054856.31848
  21213624.060   111478346.94709  21213625.360    86866249.34949
  24041276.680   126337762.60608  24041277.900    98445013.44944
  23524871.320   123624027.83808  23524870.960    96330409.99646
  21742493.020   114257569.97509  21742491.880    89031867.82748
  23060683.020   121184703.36108  23060682.740    94429639.48446
  20493539.920   107694278.70909  20493535.700    83917602.62249
  24384477.680   128141278.53508  24384479.620    99850353.84745
 15 02 28 07 54 30.0000000  0 11G01G03G04G06G09G10G11G17G20G23G32
  21736631.420   114226765.77709  21736633.880    89007880.27548
  21045815.020   110596502.77109  21045816.700    86179098.31048
  24252132.140   127445807.47108  24252134.620    99308427.79645
  23195515.960   121893253.10408  23195518.640    94981774.11147
  21200936.400   111411672.66709  21200937.720    86814295.40248
  24025479.340   126254746.86908  24025480.520    98380325.83544
  23545135.740   123730517.80008  23545135.440    96413389.10846
  21745285.520   114272244.34109  21745284.360    89043302.39148
  23046842.880   121111973.02908  23046842.620    94372966.53146
  20491947.380   107685909.59009  20491943.140    83911081.24949
  24399707.700   128221312.67808  24399709.800    99912717.95545
 15 02 28 07 55  0.0000000  0 11G01G03G04G06G09G10G11G17G20G23G32
  21749735.540   114295627.85909  21749737.960    89061539.00848
  21052587.740   110632093.47609  21052589.400    86206831.32148
  24270994.300   127544928.01408  24270996.780    99385664.42945
  23177689.000   121799571.85708  23177691.800    94908775.80447
  21188329.800   111345424.34809  21188331.100    86762673.36449
  24009700.820   126171829.28608  24009701.800    98315714.73944
  23565429.860   123837163.49008  23565429.580    96496489.56345
  21748186.540   114287488.81509  21748185.320    89055181.18848
  23033022.300   121039345.34108  23033021.940    94316373.55046
  20490446.480   107678022.42309  20490442.320    83904935.41749
  24414933.620   128301325.18608  24414936.060    99975065.17746
 15 02 28 07 55 30.0000000  0 11G01G03G04G06G09G10G11G17G20G23G32
  21762905.220   114364834.35009  21762907.580    89115466.11348
  21059392.080   110667850.34309  21059393.680    86234693.80448
  24289883.920   127644192.85608  24289886.340    99463013.52645
  23159882.580   121705998.52308  23159885.360    94835861.53647
  21175804.160   111279601.34009  21175805.440    86711382.73949
  23993940.740   126089008.20908  23993941.440    98251178.84744
  23585753.120   123943962.33808  23585752.860    96579709.36146
  21751195.500   114303300.67809  21751194.260    89067502.10848
  23019220.900   120966818.45008  23019220.500    94259859.12046
  20489036.860   107670615.01209  20489032.720    83899163.42048
  24430155.180   128381314.07008  24430157.760   100037394.01845
 15 02 28 07 56  0.0000000  0 11G01G03G04G06G09G10G11G17G20G23G32
  21776140.900   114434387.75909  21776143.200    89169663.54248
  21066228.620   110703776.31709  21066230.140    86262688.05148
  24308801.380   127743603.96808  24308803.720    99540476.57845
  23142097.520   121612538.41308  23142100.760    94763035.55648
  21163360.300   111214208.16509  21163361.520    86660427.05749
  23978199.560   126006287.37408  23978200.160    98186721.03344
  23606105.660   124050915.16408  23606105.380    96663049.14546
  21754312.820   114319682.20809  21754311.560    89080266.92448
  23005439.400   120894395.83908  23005438.920    94203425.95246
  20487719.000   107663689.80809  20487714.800    83893767.17449
  24445372.700   128461282.39108  24445375.220   100099706.85845
 15 02 28 07 56 30.0000000  0 11G01G03G04G06G09G10G11G17G20G23G32
  21789441.340   114504281.47009  21789443.600    89224126.13948
  21073096.160   110739865.18109  21073097.580    86290809.23848
  24327745.340   127843154.54808  24327747.800    99618048.32145
  23124333.540   121519187.87408  23124336.540    94690294.89147
  21150997.340   111149240.11609  21150998.480    86609802.63649
  23962476.420   125923661.30808  23962477.080    98122337.14145
  23626485.980   124158014.08708  23626485.740    96746502.76645
  21757537.340   114336626.79109  21757536.040    89093470.47548
  22991676.680   120822071.97608  22991675.980    94147069.73246
  20486491.760   107657240.85209  20486487.540    83888742.03248
  24460585.200   128541224.02408  24460587.720   100161998.90045
 15 02 28 07 57  0.0000000  0 11G01G03G04G06G09G10G11G17G20G23G32
  21802807.340   114574519.97209  21802809.640    89278857.39648
  21079995.620   110776121.86509  21079997.040    86319061.17648
  24346716.620   127942848.29109  24346719.020    99695731.60045
  23106591.900   121425954.19909  23106594.860    94617645.30647
  21138716.480   111084703.59909  21138717.580    86559514.47649
  23946772.240   125841135.51908  23946773.120    98058031.33045
  23646894.720   124265262.10408  23646894.440    96830072.55146
  21760869.740   114354138.38309  21760868.440    89107115.84648
  22977933.840   120749852.26608  22977932.780    94090794.66346
  20485355.980   107651272.62109  20485351.860    83884091.46549
  24475793.720   128621144.03508  24475796.200   100224274.08946
 15 02 28 07 57 30.0000000  0 11G01G03G04G06G09G10G11G17G20G23G32
  21816238.260   114645099.64109  21816240.560    89333854.49648
  21086926.460   110812543.19109  21086927.840    86347441.41948
  24365714.400   128042681.08708  24365716.840    99773523.24845
  23088872.200   121332836.60408  23088875.020    94545086.17947
  21126517.400   111020596.96609  21126518.500    86509561.28649
  23931086.500   125758707.07908  23931087.400    97993801.41445
  23667330.960   124372654.51108  23667330.700    96913754.84945
  21764309.340   114372213.31309  21764308.000    89121200.18648
  22964210.340   120677734.03808  22964209.220    94034598.67446
  20484311.040   107645781.84709  20484307.120    83879812.94849
  24490997.540   128701039.38508  24491000.000   100286530.05845
 15 02 28 07 58  0.0000000  0 11G01G03G04G06G09G10G11G17G20G23G32
  21829734.380   114716022.22809  21829736.720    89389118.80048
  21093889.060   110849131.42009  21093890.480    86375951.70048
  24384738.820   128142654.28809  24384741.260    99851424.26345
  23071175.500   121239839.89408  23071178.520    94472621.24348
  21114400.820   110956923.90109  21114401.900    86459945.92949
  23915419.900   125676379.12908  23915420.540    97929649.79344
  23687794.860   124480192.14008  23687794.540    96997550.30446
  21767856.480   114390853.49409  21767855.140    89135724.96948
  22950506.760   120605720.26108  22950505.620    93978484.05146
  20483357.400   107640770.48009  20483353.600    83875907.98449
  24506196.840   128780912.52707  24506199.560   100348768.65445
 15 02 28 07 58 30.0000000  0 11G01G03G04G06G09G10G11G17G20G23G32
  21843295.460   114787286.06309  21843297.860    89444649.01648
  21100883.220   110885885.32009  21100884.620    86404591.08248
  24403789.520   128242765.67208  24403792.020    99929432.98645
  23053501.940   121146965.21709  23053504.880    94400251.39347
  21102366.780   110893684.61209  21102367.840    86410668.58449
  23899772.480   125594151.11108  23899772.740    97865576.02344
  23708285.760   124587871.91308  23708285.480    97081456.51746
  21771510.740   114410056.66609  21771509.440    89150688.45148
  22936822.700   120533809.94308  22936821.620    93922450.08046
  20482494.680   107636236.96909  20482490.940    83872375.39049
  24521391.680   128860762.25708  24521394.680   100410989.06245
 15 02 28 07 59  0.0000000  0 11G01G03G04G06G09G10G11G17G20G23G32
  21856920.900   114858887.93709  21856923.340    89500442.63548
  21107908.380   110922802.22209  21107909.740    86433357.46748
  24422865.760   128343011.54008  24422868.360   100007546.49044
  23035851.660   121054212.38309  23035854.580    94327976.47348
  21090415.060   110830877.88709  21090416.100    86361728.29449
  23884143.740   125512020.63808  23884143.740    97801578.23144
  23728802.880   124695689.29508  23728802.480    97165469.95645
  21775271.480   114429819.49609  21775270.260    89166088.04048
  22923157.860   120462001.09208  22923156.860    93866495.15846
  20481722.380   107632178.65509  20481718.640    83869213.07649
  24536581.760   128940585.99408  24536584.680   100473189.25345
 15 02 28 07 59 30.0000000  0 11G01G03G04G06G09G10G11G17G20G23G32
  21870611.080   114930830.10809  21870613.580    89556501.41248
  21114965.040   110959884.93509  21114966.360    86462253.05648
  24441967.940   128443393.81608  24441970.680   100085766.30045
  23018225.600   120961586.66808  23018228.580    94255800.61447
  21078546.440   110768507.89409  21078547.460    86313128.31049
  23868534.120   125429990.98708  23868533.740    97737659.02744
  23749346.340   124803645.26208  23749345.900    97249591.37945
  21779139.060   114450143.96609  21779137.980    89181925.25248
  22909512.900   120390297.15508  22909512.020    93810621.96946
  20481040.980   107628597.87909  20481037.200    83866422.86349
  24551767.460   129020386.81808  24551770.600   100535371.53445
 15 02 28 08 00  0.0000000  0 11G01G03G04G06G09G10G11G17G20G23G32
  21884365.660   115003110.65909  21884368.200    89612823.86848
  21122052.920   110997132.04509  21122054.260    86491276.75448
  24461095.560   128543909.85108  24461098.380   100164090.32445
  23000623.880   120869089.05709  23000626.980    94183724.59348
  21066760.900   110706574.61809  21066761.900    86264868.62949
  23852943.540   125348061.51108  23852943.220    97673817.87644
  23769915.660   124911737.22408  23769915.180    97333818.78145
  21783113.080   114471027.80509  21783112.080    89198198.34348
  22895887.640   120318697.17908  22895887.080    93754829.80246
  20480450.140   107625492.83909  20480446.380    83864003.35749
  24566948.560   129100163.34308  24566951.700   100597534.86345
 15 02 28 08 00 30.0000000  0 11G01G03G04G06G09G10G11G17G20G23G32
  21898183.900   115075725.88709  21898186.500    89669407.11248
  21129171.480   111034540.42309  21129172.940    86520426.10848
  24480247.860   128644555.64408  24480250.840   100242515.44945
  22983046.440   120776718.93708  22983049.340    94111747.88648
  21055058.120   110645076.27009  21055059.120    86216947.85949
  23837371.380   125266229.73808  23837371.220    97610052.85044
  23790509.940   125019960.17908  23790509.440    97418148.24846
  21787192.800   114492466.80709  21787191.820    89214904.01048
  22882281.860   120247198.68008  22882281.300    93699116.70446
  20479949.180   107622859.99809  20479945.420    83861951.79949
  24582124.520   129179912.52208  24582127.500   100659676.91245
 15 02 28 08 01  0.0000000  0 11G01G03G04G06G09G10G11G17G20G23G32
  21912065.920   115148676.18209  21912068.540    89726251.43248
  21136320.960   111072111.01809  21136322.500    86549701.84348
  24499424.940   128745330.97608  24499427.900   100321041.53045
  22965494.020   120684479.66909  22965496.840    94039873.14648
  21043438.500   110584015.12309  21043439.560    86169367.75749
  23821818.120   125184497.08608  23821817.860    97546365.07844
  23811128.920   125128313.19508  23811128.500    97502579.04346
  21791378.280   114514461.56109  21791377.360    89232042.73448
  22868695.840   120175803.00908  22868694.960    93643483.73446
  20479538.180   107620699.89409  20479534.400    83860268.59949
  24597295.520   129259635.50608  24597298.140   100721798.61045
 15 02 28 08 01 30.0000000  0 11G01G03G04G06G09G10G11G17G20G23G32
  21926012.320   115221964.95309  21926015.000    89783359.51048
  21143502.120   111109847.83709  21143503.620    86579107.12048
  24518627.260   128846238.85308  24518630.100   100399670.86645
  22947967.600   120592377.78109  22947970.360    93968105.46648
  21031903.140   110523396.54409  21031904.240    86122132.50949
  23806284.480   125102867.91408  23806284.800    97482757.95945
  23831773.160   125236798.65208  23831772.720    97587113.05245
  21795670.000   114537015.01709  21795669.300    89249616.81948
  22855130.300   120104514.59008  22855129.320    93587934.33146
  20479217.860   107619016.59609  20479214.020    83858956.92849
  24612462.280   129339336.49507  24612465.020   100783903.14845
 15 02 28 08 02  0.0000000  0 11G01G03G04G06G09G10G11G17G20G23G32
  21940022.320   115295588.04709  21940025.100    89840728.09048
  21150714.140   111147747.30809  21150715.680    86608639.14748
  24537854.000   128947274.76808  24537856.820   100478399.98344
  22930467.080   120500412.16709  22930469.960    93896443.98848
  21020451.560   110463218.22409  21020452.720    86075240.32049
  23790770.120   125021339.55208  23790770.720    97419229.34745
  23852441.580   125345411.26508  23852441.180    97671746.13645
  21800067.260   114560122.68309  21800066.640    89267622.75748
  22841584.640   120033330.62608  22841583.320    93532466.32446
  20478987.520   107617805.90209  20478983.560    83858013.53449
  24627623.940   129419012.04207  24627627.060   100845987.69745
 15 02 28 08 02 30.0000000  0 11G01G03G04G06G09G10G11G17G20G23G32
  21954095.520   115369543.33309  21954098.400    89898355.51848
  21157956.820   111185807.92709  21157958.360    86638296.73748
  24557104.500   129048436.06708  24557107.220   100557226.78545
  22912992.740   120408583.74109  22912995.620    93824889.38448
  21009083.720   110403479.90609  21009084.920    86028690.99149
  23775274.680   124939910.57308  23775275.520    97355778.19045
  23873133.600   125454148.01708  23873133.100    97756475.95945
  21804569.600   114583782.03509  21804568.940    89286058.57148
  22828058.600   119962250.04908  22828057.020    93477078.87146
  20478846.740   107617065.71909  20478842.720    83857436.75849
  24642780.700   129498660.63408  24642784.120   100908051.35245
 15 02 28 08 03  0.0000000  0 11G01G03G04G06G09G10G11G17G20G23G32
  21968232.060   115443831.32409  21968235.080    89956242.21048
  21165230.380   111224030.89009  21165231.920    86668080.84248
  24576378.880   129149722.86608  24576381.640   100636151.37945
  22895545.060   120316896.17109  22895548.060    93753444.56548
  20997800.080   110344184.05909  20997801.300    85982486.45549
  23759798.500   124858583.14708  23759799.620    97292406.23245
  23893849.020   125563007.79008  23893848.560    97841301.62945
  21809176.960   114607993.23109  21809176.240    89304924.41448
  22814552.480   119891274.57308  22814550.840    93421773.33447
  20478795.660   107616796.87209  20478791.640    83857227.27349
  24657932.820   129578283.55208  24657936.120   100970095.04945
 15 02 28 08 03 30.0000000  0 11G01G03G04G06G09G10G11G17G20G23G32
  21982432.100   115518452.77509  21982435.180    90014388.73048
  21172535.100   111262417.59709  21172536.560    86697992.52348
  24595677.180   129251135.53908  24595680.120   100715174.06344
  22878125.020   120225353.35009  22878127.900    93682112.50548
  20986601.160   110285333.30009  20986602.340    85936628.72149
  23744342.100   124777358.96008  23744343.260    97229114.66145
  23914587.940   125671990.80408  23914587.540    97926223.34545
  21813889.460   114632757.05509  21813888.680    89324220.85548
  22801066.540   119820405.88708  22801065.000    93366550.98846
  20478834.420   107617000.22009  20478830.400    83857385.71849
  24673080.300   129657882.52007  24673083.300   101032120.06845
 15 02 28 08 04  0.0000000  0 11G01G03G04G06G09G10G11G17G20G23G32
  21996694.860   115593403.73209  21996697.960    90072792.00648
  21179870.340   111300964.77509  21179871.800    86728029.23648
  24614998.580   129352669.52908  24615001.520   100794291.29245
  22860732.360   120133954.46309  22860735.320    93610892.62648
  20975486.540   110226925.56209  20975487.660    85891116.21049
  23728904.840   124696235.13808  23728905.940    97165901.29044
  23935349.280   125781091.75708  23935348.880    98011236.94245
  21818706.180   114658068.51409  21818705.380    89343944.04148
  22787600.460   119749641.36408  22787598.940    93311409.82446
  20478962.320   107617671.99809  20478958.300    83857909.17749
  24688222.300   129737454.28007  24688225.540   101094123.81444
 15 02 28 08 04 30.0000000  0 11G01G03G04G06G09G10G11G17G20G23G32
  22011020.640   115668685.74909  22011023.720    90131453.25248
  21187236.540   111339674.61209  21187238.020    86758192.70048
  24634343.200   129454326.07308  24634346.280   100873503.99944
  22843368.020   120042704.17709  22843370.800    93539788.52148
  20964456.900   110168964.22609  20964457.960    85845951.53949
  23713487.180   124615214.56208  23713488.080    97102768.39144
  23956133.160   125890311.33108  23956132.740    98096342.96445
  21823627.420   114683929.19509  21823626.560    89364095.17048
  22774154.800   119678983.88408  22774153.180    93256352.04546
  20479179.700   107618814.14609  20479175.660    83858799.15649
  24703359.620   129817001.18708  24703362.940   101156108.19945
 15 02 28 08 05  0.0000000  0 11G01G03G04G06G09G10G11G17G20G23G32
  22025408.280   115744292.86609  22025411.360    90190367.82148
  21194632.740   111378541.88909  21194634.280    86788478.84948
  24653709.980   129556098.85008  24653713.160   100952807.28145
  22826031.460   119951599.80309  22826034.200    93468798.11648
  20953511.440   110111445.26409  20953512.460    85801131.57149
  23698088.380   124534292.52308  23698089.140    97039712.24344
  23976938.200   125999641.99808  23976937.840    98181535.55645
  21828652.040   114710332.86309  21828651.120    89384669.41448
  22760728.580   119608428.71608  22760727.080    93201374.01246
  20479485.440   107620420.92309  20479481.440    83860051.18649
  24718491.440   129896518.13208  24718494.760   101218069.25045
 15 02 28 08 05 30.0000000  0 11G01G03G04G06G09G10G11G17G20G23G32
  22039858.480   115820229.05109  22039861.580    90249538.79948
  21202059.800   111417571.28709  21202061.340    86818891.32648
  24673099.660   129657991.41508  24673102.960   101032203.90545
  22808724.000   119860648.45509  22808726.720    93397926.96548
  20942651.280   110054374.44209  20942652.240    85756660.81049
  23682709.200   124453474.13708  23682709.620    96976736.87744
  23997765.000   126109087.02908  23997764.680    98266817.26246
  21833780.600   114737282.71609  21833779.600    89405669.25048
  22747322.720   119537980.88808  22747321.380    93146479.61746
  20479880.360   107622496.41509  20479876.400    83861668.44349
  24733618.480   129976009.93708  24733621.700   101280010.72444
 15 02 28 08 06  0.0000000  0 11G01G03G04G06G09G10G11G17G20G23G32
  22054371.220   115896493.86509  22054374.320    90308965.84648
  21209517.820   111456763.13109  21209519.280    86849430.38948
  24692512.000   129760002.98308  24692515.280   101111693.26144
  22791446.220   119769852.94009  22791448.980    93327177.23148
  20931876.620   109997753.21809  20931877.620    85712540.37449
  23667349.820   124372760.34408  23667350.400    96913843.01345
  24018613.260   126218644.91008  24018613.020    98352186.90045
  21839012.900   114764777.90809  21839011.820    89427094.03048
  22733937.440   119467641.18708  22733936.220    93091669.47146
  20480364.360   107625039.83109  20480360.420    83863650.31549
  24748740.740   130055477.07908  24748743.760   101341933.00344
 15 02 28 08 06 30.0000000  0 11G01G03G04G06G09G10G11G17G20G23G32
  22068945.720   115973083.30009  22068948.820    90368645.85948
  21217006.120   111496114.13809  21217007.540    86880093.47348
  24711946.080   129862129.01908  24711949.380   101191271.78044
  22774197.920   119679212.48309  22774200.580    93256548.32448
  20921187.100   109941579.42209  20921188.100    85668768.59549
  23652009.740   124292148.23208  23652010.780    96851028.39645
  24039482.140   126328311.05708  24039482.000    98437640.89545
  21844348.140   114792814.43409  21844347.020    89448940.63148
  22720572.240   119397407.06008  22720571.140    93036941.60046
  20480936.800   107628047.85809  20480932.840    83865994.22249
  24763857.600   130134916.32908  24763860.520   101403833.55745
 15 02 28 08 07  0.0000000  0 11G01G03G04G06G09G10G11G17G20G23G32
  22083582.340   116049999.05009  22083585.440    90428580.13747
  21224525.180   111535626.76509  21224526.600    86910882.49748
  24731402.160   129964370.82408  24731405.460   101270940.54644
  22756980.040   119588732.00709  22756982.700    93186044.08648
  20910583.360   109885856.62909  20910584.420    85625348.24149
  23636689.540   124211640.91508  23636690.760    96788295.43845
  24060371.640   126438085.40308  24060371.500    98523179.20545
  21849786.540   114821393.24309  21849785.440    89471209.79548
  22707227.780   119327281.36208  22707226.600    92982298.19946
  20481597.980   107631522.35309  20481594.020    83868701.61349
  24778969.780   130214330.34908  24778972.860   101465714.44145
 15 02 28 08 07 30.0000000  0 11G01G03G04G06G09G10G11G17G20G23G32
  22098280.100   116127236.06609  22098283.200    90488764.74748
  21232074.140   111575296.75209  21232075.620    86941794.13248
  24750879.260   130066723.09208  24750882.440   101350695.35644
  22739792.200   119498409.74809  22739794.940    93115663.12548
  20900064.820   109830581.59109  20900065.920    85582276.79549
  23621388.440   124131234.47108  23621389.840    96725641.07945
  24081280.580   126547962.01008  24081280.420    98608797.18145
  21855327.040   114850508.67709  21855325.980    89493897.10048
  22693903.340   119257260.27408  22693901.880    92927736.32146
  20482346.880   107635457.96809  20482342.940    83871768.30749
  24794076.320   130293714.94308  24794079.620   101527572.36445
 15 02 28 08 08  0.0000000  0 11G01G03G04G06G09G10G11G17G20G23G32
  22113039.840   116204798.80309  22113042.900    90549203.16847
  21239654.080   111615129.35309  21239655.580    86972832.47648
  24770378.160   130169189.79108  24770381.440   101430539.35044
  22722636.040   119408253.45609  22722638.880    93045411.50048
  20889632.680   109775760.61409  20889633.800    85539559.15549
  23606107.660   124050934.60708  23606109.060    96663069.78745
  24102209.720   126657944.67608  24102209.580    98694497.81045
  21860970.400   114880164.77609  21860969.380    89517005.70848
  22680599.840   119187349.45808  22680598.400    92873260.35846
  20483184.480   107639859.69809  20483180.600    83875198.21749
  24809178.260   130373075.52408  24809181.960   101589411.55545
 15 02 28 08 08 30.0000000  0 11G01G03G04G06G09G10G11G17G20G23G32
  22127860.560   116282681.77909  22127863.540    90609891.12748
  21247264.120   111655119.90509  21247265.660    87003993.90648
  24789897.760   130271765.30308  24789900.960   101510468.14344
  22705511.080   119318260.96309  22705513.760    92975287.49848
  20879286.300   109721390.01009  20879287.360    85497192.45949
  23590846.580   123970737.41108  23590848.080    96600578.50245
  24123157.800   126768026.89608  24123157.700    98780276.01445
  21866715.520   114910355.90409  21866714.520    89540531.22548
  22667316.440   119117545.12508  22667315.280    92818867.37746
  20484109.700   107644721.93609  20484105.900    83878986.96149
  24824274.860   130452407.58108  24824278.580   101651228.53745
 15 02 28 08 09  0.0000000  0 11G01G03G04G06G09G10G11G17G20G23G32
  22142742.200   116360884.96509  22142745.120    90670828.60747
  21254904.420   111695269.22209  21254905.940    87035279.04748
  24809437.940   130374449.16408  24809441.220   101590481.34044
  22688417.940   119228435.57209  22688420.500    92905293.71148
  20869025.980   109667471.60409  20869026.980    85455178.12449
  23575605.540   123890644.27008  23575606.840    96538168.27945
  24144124.620   126878207.37808  24144124.580    98866130.78945
  21872562.280   114941081.28209  21872561.320    89564473.03248
  22654053.400   119047848.14408  22654052.460    92764558.05847
  20485122.660   107650045.24509  20485118.900    83883134.98549
  24839366.220   130531712.01808  24839369.780   101713024.04344
 15 02 28 08 09 30.0000000  0 11G01G03G04G06G09G10G11G17G20G23G32
  22157684.460   116439406.62209  22157687.320    90732014.23047
  21262574.740   111735576.39809  21262576.300    87066687.19548
  24828998.400   130477239.10008  24829001.760   101670577.23744
  22671356.760   119138778.83109  22671359.340    92835431.33848
  20858851.740   109614005.48309  20858852.680    85413516.21049
  23560384.200   123810654.35408  23560385.200    96475838.48045
  24165109.600   126988483.56708  24165109.580    98952060.12145
  21878510.260   114972338.72909  21878509.420    89588829.44248
  22640810.820   118978258.26008  22640810.000    92710332.17946
  20486223.120   107655828.18309  20486219.360    83887641.15649
  24854452.020   130610988.00908  24854455.480   101774797.37445
 15 02 28 08 10  0.0000000  0 11G01G03G04G06G09G10G11G17G20G23G32
  22172687.480   116518247.51909  22172690.280    90793448.63048
  21270275.340   111776043.06709  21270277.000    87098219.62148
  24848579.120   130580135.69308  24848582.660   101750756.18344
  22654328.540   119049294.95009  22654331.060    92765703.66148
  20848764.000   109560994.20409  20848764.960    85372208.73649
  23545183.000   123730769.75608  23545183.920    96413590.75845
  24186112.740   127098855.35008  24186112.680    99038063.96945
  21884559.500   115004128.48608  21884558.880    89613600.64048
  22627589.120   118908777.77408  22627588.300    92656191.55847
  20487411.100   107662070.70209  20487407.280    83892505.45149
  24869532.700   130690237.42807  24869536.380   101836549.97844
 15 02 28 08 10 30.0000000  0 11G01G03G04G06G09G10G11G17G20G23G32
  22187751.260   116597407.84709  22187754.020    90855131.92747
  21278006.400   111816670.32909  21278008.200    87129877.18148
  24868180.100   130683138.71608  24868183.380   101831018.08644
  22637333.880   118959987.45609  22637336.300    92696113.43148
  20838763.180   109508439.79809  20838764.200    85331257.25349
  23530001.960   123650991.91708  23530002.840    96351426.22445
  24207133.920   127209321.86308  24207133.980    99124141.60845
  21890710.000   115036450.26209  21890709.620    89638786.38448
  22614388.600   118839408.16608  22614387.720    92602137.31046
  20488686.740   107668773.87309  20488682.880    83897728.68749
  24884608.460   130769461.44908  24884612.220   101898282.75645
 15 02 28 08 11  0.0000000  0 11G01G03G04G06G09G10G11G17G20G23G32
  22202874.360   116676880.04509  22202877.160    90917058.23748
  21285766.720   111857451.47009  21285768.660    87161654.64648
  24887799.920   130786240.45708  24887803.280   101911356.87644
  22620371.900   118870852.15909  22620374.440    92626657.40048
  20828848.240   109456336.47809  20828849.280    85290657.27049
  23514839.920   123571314.92408  23514840.260    96289340.24645
  24228171.520   127319874.62408  24228171.680    99210286.45745
  21896960.220   115069295.67108  21896959.940    89664380.18348
  22601207.980   118770143.05908  22601206.960    92548164.52647
  20490048.580   107675929.99609  20490044.680    83903304.88349
  24899678.260   130848653.52208  24899682.200   101959990.70644
 15 02 28 08 11 30.0000000  0 11G01G03G04G06G09G10G11G17G20G23G32
  22218058.580   116756673.20609  22218061.400    90979234.64848
  21293558.180   111898396.53009  21293560.260    87193559.84348
  24907440.140   130889449.61909  24907443.240   101991779.39044
  22603445.160   118781901.64009  22603447.640    92557345.32648
  20819021.200   109404695.14209  20819022.260    85250417.28049
  23499698.880   123491749.37608  23499699.280    96227341.09944
  24249227.120   127430521.82408  24249227.280    99296504.89645
  21903311.780   115102673.45209  21903311.500    89690388.79448
  22588049.140   118700992.76208  22588047.880    92494281.18846
  20491498.280   107683548.01409  20491494.380    83909240.98849
  24914744.000   130927823.68008  24914747.960   102021681.55944
 15 02 28 08 12  0.0000000  0 11G01G03G04G06G09G10G11G17G20G23G32
  22233302.100   116836778.10509  22233304.980    91041653.96448
  21301379.340   111939497.18709  21301381.420    87225586.27648
  24927098.880   130992756.47408  24927102.100   102072278.05144
  22586552.480   118693130.01809  22586554.940    92488172.65848
  20809280.720   109353508.32709  20809281.780    85210531.45249
  23484577.500   123412287.30408  23484578.080    96165422.59744
  24270298.740   127541253.24108  24270298.800    99382788.95545
  21909762.900   115136573.90309  21909762.500    89716804.69048
  22574910.600   118631949.94108  22574909.380    92440481.61046
  20493034.200   107691619.21209  20493030.320    83915530.21349
  24929804.100   131006963.90708  24929807.920   102083349.08644
 15 02 28 08 12 30.0000000  0 10G01G03G06G09G10G11G17G20G23G32
  22248604.740   116917193.74009  22248607.680    91104315.41547
  21309230.080   111980753.41208  21309232.160    87257733.94648
  22569694.240   118604539.78609  22569696.720    92419141.34848
  20799626.860   109302776.83809  20799627.920    85171000.43249
  23469475.880   123332929.05608  23469476.480    96103584.99945
  24291386.060   127652067.12808  24291386.220    99469137.29345
  21916313.180   115170995.39509  21916312.720    89743626.58648
  22561792.620   118563014.95808  22561791.580    92386766.05147
  20494656.240   107700142.89609  20494652.400    83922172.03249
  24944858.460   131086074.15408  24944862.200   102144993.24244
 15 02 28 08 13  0.0000000  0 10G01G03G06G09G10G11G17G20G23G32
  22263966.340   116997919.14309  22263969.340    91167218.23947
  21317110.500   112022165.13309  21317112.500    87290002.77148
  22552871.060   118516133.40209  22552873.500    92350253.27948
  20790059.780   109252501.45609  20790060.880    85131824.81449
  23454394.280   123253674.87808  23454394.900    96041828.48545
  24312488.660   127762961.56108  24312488.900    99555548.37844
  21922962.300   115205936.14409  21922961.760    89770853.09448
  22548695.300   118494188.17508  22548694.240    92333134.80847
  20496364.100   107709117.68709  20496360.260    83929165.35349
  24959907.180   131165154.60308  24959910.880   102206614.23644
 15 02 28 08 13 30.0000000  0 10G01G03G06G09G10G11G17G20G23G32
  22279387.980   117078959.80709  22279390.980    91230366.72247
  21325021.760   112063738.86408  21325023.720    87322397.84748
  22536084.540   118427919.87609  22536087.040    92281515.49448
  20780580.860   109202689.43009  20780582.000    85093010.24849
  23439334.040   123174531.91108  23439334.600    95980158.63245
  24333607.460   127873940.93908  24333607.700    99642025.65044
  21929711.220   115241401.36109  21929710.620    89798488.28048
  22535619.900   118425476.57108  22535618.640    92279593.31247
  20498158.920   107718549.51409  20498155.040    83936514.81749
  24974951.420   131244211.82108  24974955.220   102268217.07545
 15 02 28 08 14  0.0000000  0 10G01G03G06G09G10G11G17G20G23G32
  22294868.060   117160307.63509  22294871.080    91293754.54048
  21332962.540   112105467.49009  21332964.420    87354913.61548
  22519333.860   118339894.58409  22519336.260    92212924.37748
  20771188.900   109153334.49409  20771190.080    85054551.85049
  23424293.640   123095493.38408  23424294.660    95918570.14145
  24354740.740   127984996.41608  24354741.000    99728562.22945
  21936558.260   115277382.20009  21936557.560    89826525.23848
  22522565.060   118356873.28908  22522563.720    92226136.23047
  20500039.180   107728430.47309  20500035.280    83944214.23749
  24989989.880   131323238.80008  24989993.820   102329796.33844
 15 02 28 08 14 30.0000000  0 10G01G03G06G09G10G11G17G20G23G32
  22310406.960   117241964.49609  22310409.960    91357383.17348
  21340933.340   112147353.86509  21340935.120    87387552.30948
  22502620.000   118252062.88009  22502622.520    92144484.13148
  20761884.620   109104440.17809  20761885.780    85016452.38549
  23409273.760   123016562.87208  23409274.820    95857065.85046
  24375888.780   128096129.12808  24375889.040    99815158.97645
  21943503.660   115313879.87009  21943502.840    89854964.93748
  22509531.500   118288381.79708  22509530.180    92172766.26947
  20502005.240   107738762.43509  20502001.400    83952265.10249
  25005023.100   131402238.56508  25005027.140   102391354.45044
 15 02 28 08 15  0.0000000  0 11G01G03G06G07G09G10G11G17G20G23G32
  22326004.220   117323928.09309  22326007.200    91421250.81747
  21348933.940   112189396.72309  21348935.600    87420312.93548
  22485943.260   118164426.04909  22485945.640    92076195.71348
  24662370.600   129601631.18808  24662373.180   100988280.44645
  20752667.920   109056006.00509  20752669.040    84978711.46949
  23394274.200   122937739.36908  23394275.240    95795644.93445
  24397050.860   128207335.84408  24397051.120    99901813.40045
  21950546.840   115350891.45709  21950545.880    89883805.08248
  22496519.160   118220001.50208  22496517.960    92119482.94146
  20504056.640   107749542.94609  20504052.880    83960665.47949
  25020050.960   131481210.02708  25020055.160   102452890.49644
 15 02 28 08 15 30.0000000  0 10G01G03G06G07G09G10G11G17G20G23
  22341661.360   117406206.46709  22341664.360    91485363.75248
  21356966.020   112231605.09209  21356967.640    87453202.52648
  22469305.820   118076995.60109  22469308.040    92008068.11248
  24643621.140   129503101.51708  24643623.620   100911504.15445
  20743540.640   109008041.69909  20743541.680    84941336.68749
  23379296.660   122859032.05908  23379297.700    95734314.57945
  24418228.400   128318623.65408  24418228.600    99988531.01845
  21957689.180   115388424.48409  21957688.220    89913051.55348
  22483529.780   118151741.72608  22483528.620    92066293.52547
  20506194.980   107760780.19509  20506191.280    83969421.75949
 15 02 28 08 16  0.0000000  0 10G01G03G06G07G09G10G11G17G20G23
  22357374.800   117488781.07809  22357377.840    91549707.50448
  21365026.280   112273961.50009  21365027.960    87486207.46448
  22452704.780   117989756.59509  22452706.860    91940089.68448
  24624853.860   129404479.49208  24624856.260   100834655.86345
  20734499.620   108960530.50109  20734500.560    84904314.97449
  23364338.060   122780424.36408  23364339.100    95673061.83045
  24439417.680   128429973.48308  24439418.060   100075296.93744
  21964927.080   115426459.58009  21964926.080    89942689.23348
  22470560.120   118083585.57908  22470558.940    92013184.86647
  20508416.820   107772455.99309  20508413.140    83978519.75149
 15 02 28 08 16 30.0000000  0 10G01G03G06G07G09G10G11G17G20G23
  22373145.960   117571658.81309  22373149.080    91614287.46947
  21373116.200   112316473.88809  21373118.000    87519333.94748
  22436142.100   117902719.44409  22436144.260    91872268.55548
  24606071.000   129305775.62108  24606073.360   100757743.82645
  20725546.420   108913480.97209  20725547.320    84867653.01049
  23349399.880   122701924.34208  23349401.200    95611893.00645
  24460619.860   128541391.03708  24460620.260   100162115.64645
  21972261.660   115465002.98409  21972260.640    89972722.99548
  22457611.820   118015541.46408  22457610.440    91960163.48847
  20510723.440   107784577.26909  20510719.780    83987964.88049
 15 02 28 08 17  0.0000000  0 10G01G03G06G07G09G10G11G17G20G23
  22388974.660   117654838.90109  22388977.880    91679103.03048
  21381235.860   112359142.58309  21381237.640    87552582.23148
  22419618.340   117815887.04609  22419620.700    91804606.97448
  24587273.160   129206992.81808  24587275.500   100680770.27345
  20716681.260   108866894.13209  20716682.180    84831351.58449
  23334482.420   122623533.01508  23334483.820    95550808.86245
  24481834.620   128652874.91708  24481835.180   100248986.00845
  21979692.700   115504053.34409  21979691.700    90003151.78848
  22444684.980   117947610.20108  22444683.400    91907230.06347
  20513114.740   107797143.46209  20513111.080    83997756.70548
 15 02 28 08 17 30.0000000  0 10G01G03G06G07G09G10G11G17G20G23
  22404860.720   117738320.39709  22404864.080    91744153.45048
  21389385.260   112401967.69009  21389387.080    87585952.38548
  22403134.100   117729261.98509  22403136.520    91737106.94348
  24568460.940   129108134.18908  24568463.380   100603737.63845
  20707904.300   108820770.68009  20707905.220    84795411.22849
  23319585.800   122545250.54908  23319586.940    95489809.55045
  24503061.700   128764423.29708  24503062.220   100335906.65144
  21987219.860   115543608.82409  21987218.880    90033974.18248
  22431779.680   117879792.19008  22431777.960    91854384.87647
  20515590.400   107810153.19009  20515586.780    84007894.12748
 15 02 28 08 18  0.0000000  0 10G01G03G06G07G09G10G11G17G20G23
  22420803.500   117822099.69609  22420806.900    91809435.93348
  21397563.960   112444946.78309  21397565.780    87619442.53748
  22386689.420   117642844.32509  22386691.640    91669768.51948
  24549634.340   129009199.90908  24549636.680   100526646.03145
  20699215.140   108775108.73909  20699216.080    84759830.50149
  23304709.540   122467075.22308  23304710.700    95428893.73745
  24524300.140   128876031.74508  24524300.620   100422874.09944
  21994842.300   115583665.23709  21994841.420    90065186.91648
  22418895.440   117812085.09108  22418893.900    91801626.12447
  20518149.900   107823603.70309  20518146.380    84018375.01549
 15 02 28 08 18 30.0000000  0 10G01G03G06G07G09G10G11G17G20G23
  22436803.400   117906179.24909  22436806.860    91874952.37348
  21405772.620   112488083.36709  21405774.500    87653055.39848
  22370285.340   117556640.13709  22370287.540    91602596.45748
  24530794.460   128910195.93408  24530796.880   100449500.13645
  20690614.620   108729912.49409  20690615.520    84724612.65649
  23289854.280   122389010.80608  23289855.480    95368064.33945
  24545550.400   128987702.04008  24545551.000   100509889.73745
  22002560.400   115624224.42109  22002559.600    90096791.41248
  22406033.220   117744493.71308  22406031.760    91748957.54147
  20520793.620   107837496.66609  20520790.180    84029200.67849
 15 02 28 08 19  0.0000000  0 10G01G03G06G07G09G10G11G17G20G23
  22452859.780   117990555.87809  22452863.300    91940700.29748
  21414010.920   112531375.40809  21414012.820    87686789.41148
  22353921.900   117470649.84809  22353924.140    91535591.05548
  24511941.480   128811122.97408  24511943.820   100372300.45745
  20682102.420   108685180.40809  20682103.240    84689756.49949
  23275019.840   122311055.78408  23275021.100    95307320.20245
  24566811.700   129099430.23508  24566812.240   100596950.49044
  22010373.480   115665282.47809  22010372.760    90128784.63748
  22393192.620   117677016.33308  22393191.180    91696377.78447
  20523521.040   107851829.51309  20523517.700    84040369.09949
 15 02 28 08 19 30.0000000  0 10G01G03G06G07G09G10G11G17G20G23
  22468972.220   118075227.01409  22468975.800    92006677.72648
  21422278.540   112574821.51409  21422280.420    87720643.46848
  22337599.340   117384874.58609  22337601.520    91468753.22048
  24493075.780   128711983.03008  24493077.980   100295048.58345
  20673678.340   108640911.60809  20673679.100    84655261.35949
  23260206.060   122233209.11308  23260207.280    95246660.47145
  24588083.380   129211213.08408  24588084.080   100684053.84345
  22018280.880   115706836.03809  22018280.300    90161163.98348
  22380373.500   117609651.66008  22380372.020    91643885.86447
  20526331.740   107866599.98009  20526328.480    84051878.54049
 15 02 28 08 20  0.0000000  0 10G01G03G06G07G09G10G11G17G20G23
  22485141.100   118160194.75809  22485144.700    92072886.26148
  21430576.100   112618424.89009  21430577.900    87754620.07748
  22321318.800   117299320.12309  22321321.060    91402087.43348
  24474198.280   128612781.10608  24474200.440   100217748.39145
  20665343.120   108597109.87009  20665343.840    84621130.14349
  23245413.660   122155474.45808  23245414.960    95186088.04345
  24609365.720   129323051.71807  24609366.400   100771200.66945
  22026282.840   115748886.45609  22026282.340    90193930.47347
  22367576.520   117542403.38108  22367575.060    91591484.62947
  20529226.040   107881809.69209  20529222.840    84063730.23748
 15 02 28 08 20 30.0000000  0 10G01G03G06G07G09G10G11G17G20G23
  22501365.480   118245454.12209  22501369.080    92139322.03548
  21438902.800   112662181.78109  21438904.580    87788716.30748
  22305080.060   117213985.17609  22305082.360    91335592.69448
  24455308.860   128513516.49708  24455311.060   100140399.35746
  20657096.080   108553771.88709  20657096.880    84587360.30349
  23230641.980   122077848.45108  23230643.120    95125600.27445
  24630657.660   129434940.52508  24630658.300   100858386.55845
  22034378.320   115791428.05409  22034377.780    90227079.71848
  22354801.180   117475268.54008  22354799.640    91539171.79047
  20532203.020   107897453.71809  20532199.800    84075920.36849
 15 02 28 08 21  0.0000000  0 10G01G03G06G07G09G10G11G17G20G23
  22517645.480   118331005.86809  22517649.140    92205985.64848
  21447259.060   112706094.10509  21447260.820    87822933.65948
  22288884.020   117128874.21209  22288886.280    91269272.47248
  24436408.360   128414193.83308  24436410.360   100063005.07245
  20648937.820   108510900.07509  20648938.660    84553953.71049
  23215891.300   122000333.31208  23215892.300    95065198.90646
  24651959.060   129546879.39208  24651959.940   100945611.47144
  22042567.260   115834460.52509  22042566.640    90260611.45048
  22342047.780   117408249.20208  22342046.160    91486948.96247
  20535262.840   107913533.09609  20535259.600    84088449.73449
 15 02 28 08 21 30.0000000  0 10G01G03G06G07G09G10G11G17G20G23
  22533981.140   118416849.99609  22533984.820    92272877.08048
  21455645.120   112750163.06909  21455646.860    87857273.07548
  22272731.300   117043990.94009  22272733.580    91203129.68848
  24417497.560   128314817.21108  24417499.540    99985568.73445
  20640868.620   108468496.08309  20640869.500    84520911.65949
  23201162.060   121922930.86408  23201163.200    95004885.35945
  24673269.840   129658867.76008  24673270.900   101032874.96545
  22050849.540   115877983.39109  22050848.840    90294525.31648
  22329316.680   117341347.19608  22329315.080    91434817.55147
  20538405.600   107930048.26909  20538402.300    84101318.68448
 15 02 28 08 22  0.0000000  0 10G01G03G06G07G09G10G11G17G20G23
  22550371.660   118502982.41109  22550375.400    92339993.15148
  21464060.460   112794385.81909  21464062.200    87891732.31548
  22256621.760   116959334.97309  22256624.100    91137164.02548
  24398576.500   128215386.23008  24398578.440    99908090.03245
  20632888.000   108426557.45009  20632888.880    84488232.21549
  23186453.780   121845638.43908  23186455.040    94944657.54145
  24694589.140   129770900.88107  24694590.240   101120173.30245
  22059224.060   115921991.12409  22059223.380    90328816.99248
  22316607.540   117274560.25108  22316605.960    91382775.79647
  20541630.460   107946994.72109  20541627.080    84114523.70349
 15 02 28 08 22 30.0000000  0 10G01G03G06G07G09G10G11G17G20G23
  22566816.660   118589401.19109  22566820.420    92407332.36647
  21472504.900   112838761.59509  21472506.700    87926310.78948
  22240555.800   116874908.15109  22240558.260    91071376.92048
  24379645.520   128115903.00908  24379647.460    99830570.61245
  20624995.860   108385083.90309  20624996.680    84455915.16949
  23171766.500   121768455.93308  23171767.560    94884515.38845
  24715916.380   129882976.11508  24715917.440   101207504.48144
  22067690.560   115966482.09809  22067689.960    90363485.21448
  22303920.300   117207888.05509  22303918.600    91330823.43847
  20544937.080   107964370.74009  20544933.620    84128063.44748
 15 02 28 08 23  0.0000000  0 10G01G03G06G07G09G10G11G17G20G23
  22583316.620   118676108.76309  22583320.440    92474896.60847
  21480979.180   112883294.11109  21480981.000    87961011.40448
  22224534.660   116790716.67109  22224537.040    91005773.18148
  24360705.820   128016374.16708  24360707.820    99753015.61546
  20617192.920   108344079.47109  20617193.700    84423963.67249
  23157100.820   121691387.13808  23157101.760    94824461.81845
  24737252.000   129995095.03808  24737253.220   101294869.67844
  22076249.260   116011457.65809  22076248.660    90398531.04648
  22291255.620   117141334.16909  22291253.800    91278963.27147
  20548325.880   107982178.67609  20548322.360    84141939.75548
 15 02 28 08 23 30.0000000  0 10G01G03G06G07G09G10G11G17G20G23
  22599870.580   118763100.02109  22599874.420    92542681.90348
  21489482.580   112927979.53309  21489484.400    87995831.16048
  22208558.160   116706759.21309  22208560.400    90940351.80848
  24341757.180   127916798.19208  24341759.160    99675423.91545
  20609478.560   108303540.70909  20609479.340    84392375.03449
  23142456.100   121614428.74708  23142456.980    94764494.30445
  24758594.900   130107251.98808  24758596.260   101382264.53545
  22084898.920   116056911.45309  22084898.360    90433949.52648
  22278612.960   117074896.19509  22278611.080    91227193.44847
  20551795.900   108000413.58909  20551792.340    84156148.75948
 15 02 28 08 24  0.0000000  0 10G01G03G06G07G09G10G11G17G20G23
  22616478.660   118850375.56909  22616482.480    92610688.71948
  21498015.480   112972819.70709  21498017.300    88030771.51348
  22192627.060   116623040.15209  22192629.260    90875116.19348
  24322800.480   127817180.02708  24322802.560    99597799.32445
  20601853.200   108263469.81509  20601854.060    84361150.97449
  23127832.860   121537583.07008  23127833.480    94704614.61545
  24779945.000   130219446.80608  24779946.420   101469688.90544
  22093639.540   116102843.40309  22093639.000    90469740.59448
  22265992.820   117008576.27909  22265990.780    91175515.60347
  20555347.320   108019076.29009  20555343.720    84170691.11448
 15 02 28 08 24 30.0000000  0 10G01G03G06G07G09G10G11G17G20G23
  22633140.520   118937933.70409  22633144.320    92678915.73747
  21506577.660   113017814.22209  21506579.620    88065832.11648
  22176741.600   116539561.56509  22176743.800    90810067.97448
  24303836.220   127717521.76308  24303838.340    99520143.47545
  20594316.900   108223866.69909  20594317.820    84330291.40449
  23113230.980   121460849.88608  23113231.440    94644822.56445
  24801301.800   130331677.20308  24801303.260   101557140.97644
  22102470.680   116149251.19709  22102470.200    90505902.45248
  22253395.020   116942374.04409  22253392.840    91123929.46047
  20558979.820   108038165.02009  20558976.160    84185565.44148
 15 02 28 08 25  0.0000000  0 10G01G03G06G07G09G10G11G17G20G23
  22649856.260   119025775.11909  22649860.060    92747363.49047
  21515169.560   113062965.08809  21515171.700    88101014.55548
  22160902.660   116456327.97809  22160904.980    90745210.65848
  24284865.220   127617828.13808  24284867.380    99442460.08445
  20586870.120   108184733.62909  20586871.100    84299798.09949
  23098651.020   121384231.64508  23098651.560    94585120.10945
  24822665.380   130443942.99608  24822666.760   101644620.63844
  22111392.200   116196134.14009  22111391.820    90542434.55248
  22240820.100   116876292.10109  22240817.940    91072437.05047
  20562693.500   108057680.41109  20562689.780    84200772.22948
 15 02 28 08 25 30.0000000  0 10G01G03G06G07G09G10G11G17G20G23
  22666625.200   119113895.92009  22666628.920    92816028.95047
  21523790.760   113108269.71509  21523793.020    88136316.81448
  22145110.320   116373339.31709  22145112.840    90680544.20648
  24265887.560   127518099.21608  24265889.620    99364749.19846
  20579512.400   108146068.34209  20579513.420    84269669.30649
  23084092.480   121307726.52608  23084092.940    94525505.75545
  24844034.840   130556239.83807  24844036.340   101732124.48545
