     2.11           OBSERVATION DATA    M                   RINEX VERSION / TYPE
SPIDER V4,0,0,3554                      2015 03 16 01:18    PGM / RUN BY / DATE 
ADCK                                                        MARKER NAME         
ADCK                                                        MARKER NUMBER       
                                                            OBSERVER / AGENCY   
496498              LEICA GRX1200+GNSS  8.20/4.007          REC # / TYPE / VERS 
                    LEIAR25         NONE                    ANT # / TYPE        
  5227539.7664   314968.1794  3630496.8998                  APPROX POSITION XYZ 
        0.0480        0.0000        0.0000                  ANTENNA: DELTA H/E/N
     1     1                                                WAVELENGTH FACT L1/2
     4    C1    L1    P2    L2                              # / TYPES OF OBSERV 
    30.000                                                  INTERVAL            
  2015    02    18    00    00    0.0000000     GPS         TIME OF FIRST OBS   
  2015    02    18    23    59   30.0000000     GPS         TIME OF LAST OBS    
    16                                                      LEAP SECONDS        
    54                                                      # OF SATELLITES     
   G 1   829   829   828   828                              PRN / # OF OBS      
   G 2   933   933   932   932                              PRN / # OF OBS      
   G 3   849   849   849   849                              PRN / # OF OBS      
   G 4   847   847   847   847                              PRN / # OF OBS      
   G 5   665   664   664   664                              PRN / # OF OBS      
   G 6   775   775   775   775                              PRN / # OF OBS      
   G 7   657   657   657   657                              PRN / # OF OBS      
   G 9   797   797   797   797                              PRN / # OF OBS      
   G10   776   776   776   776                              PRN / # OF OBS      
   G11   793   792   792   792                              PRN / # OF OBS      
   G12   825   824   824   824                              PRN / # OF OBS      
   G13   816   816   816   816                              PRN / # OF OBS      
   G14   937   937   936   936                              PRN / # OF OBS      
   G15   722   722   722   722                              PRN / # OF OBS      
   G16   685   685   684   684                              PRN / # OF OBS      
   G17   936   936   936   936                              PRN / # OF OBS      
   G18   929   928   928   928                              PRN / # OF OBS      
   G19   774   774   774   774                              PRN / # OF OBS      
   G20   811   811   811   811                              PRN / # OF OBS      
   G21   726   726   725   725                              PRN / # OF OBS      
   G22   729   729   727   727                              PRN / # OF OBS      
   G23   740   740   740   740                              PRN / # OF OBS      
   G24   839   839   839   839                              PRN / # OF OBS      
   G25   867   867   867   867                              PRN / # OF OBS      
   G27   825   825   825   825                              PRN / # OF OBS      
   G28   897   897   897   897                              PRN / # OF OBS      
   G29   767   767   766   766                              PRN / # OF OBS      
   G30   703   703   703   703                              PRN / # OF OBS      
   G31   823   822   821   821                              PRN / # OF OBS      
   G32   756   756   756   756                              PRN / # OF OBS      
   R 1   777   777   777   776                              PRN / # OF OBS      
   R 2   683   683   683   683                              PRN / # OF OBS      
   R 3   811   811   811   811                              PRN / # OF OBS      
   R 4   938   938   938   938                              PRN / # OF OBS      
   R 5   926   926   925   925                              PRN / # OF OBS      
   R 6   854   854   854   853                              PRN / # OF OBS      
   R 7   672   672   672   668                              PRN / # OF OBS      
   R 8   772   772   772   772                              PRN / # OF OBS      
   R 9   977   977   977   977                              PRN / # OF OBS      
   R10  1012  1012  1012  1010                              PRN / # OF OBS      
   R11   789   789   788   787                              PRN / # OF OBS      
   R12   581   581   581   581                              PRN / # OF OBS      
   R13   670   670   670   670                              PRN / # OF OBS      
   R14   771   771   771   771                              PRN / # OF OBS      
   R15   781   781   781   780                              PRN / # OF OBS      
   R16   827   827   826   826                              PRN / # OF OBS      
   R17   791   791   789   788                              PRN / # OF OBS      
   R18   730   730   730   730                              PRN / # OF OBS      
   R19   949   949   949   948                              PRN / # OF OBS      
   R20   998   996   986   983                              PRN / # OF OBS      
   R21   468   468   467   466                              PRN / # OF OBS      
   R22   596   596   595   595                              PRN / # OF OBS      
   R23   772   772   772   772                              PRN / # OF OBS      
   R24   825   825   824   824                              PRN / # OF OBS      
BIT 2 OF LLI FLAGS DATA COLLECTED UNDER A/S CONDITION       COMMENT             
SNR is mapped to RINEX snr flag value [2-9]                 COMMENT             
Lx:     = 25dBHz -> 1; 26-27dBHz -> 2; 28-31dBHz -> 3       COMMENT             
       32-35dBHz -> 4; 36-38dBHz -> 5; 39-41dBHz -> 6       COMMENT             
       42-44dBHz -> 7; 45-48dBHz -> 8; >=49dBHz -> 9        COMMENT             
                                                            END OF HEADER       
 15 02 18 00 00  0.0000000  0  7G16G18G21G25G27G29G31
  22854889.720   120103274.53009  22854886.760    93586960.62547
  23650668.000   124285152.04308  23650665.820    96845586.33745
  20951511.340   110100940.73209  20951507.600    85792929.36548
  23626884.640   124160109.93708  23626885.220    96748138.60046
  23840519.780   125282792.31708  23840520.860    97622965.73246
  22911330.500   120399849.67509  22911328.340    93818054.93647
  21635336.520   113694457.33209  21635333.760    88593069.23448
 15 02 18 00 00 30.0000000  0  7G16G18G21G25G27G29G31
  22838939.740   120019456.73309  22838936.700    93521648.08047
  23636564.140   124211035.91608  23636562.000    96787833.56846
  20953150.840   110109556.36809  20953147.100    85799642.86648
  23643430.240   124247057.71508  23643430.880    96815890.10346
  23826953.440   125211500.53608  23826954.460    97567413.74146
  22925013.900   120471755.74909  22925011.640    93874085.62947
  21647909.480   113760528.08409  21647906.620    88644552.92248
 15 02 18 00 01  0.0000000  0  7G16G18G21G25G27G29G31
  22823008.600   119935737.99109  22823005.480    93456412.71547
  23622476.760   124137006.51008  23622474.680    96730148.36645
  20954873.480   110118609.11009  20954869.780    85806696.96148
  23660016.500   124334219.11308  23660017.140    96883808.05946
  23813408.400   125140320.68108  23813409.420    97511948.97247
  22938703.340   120543693.80109  22938701.000    93930141.23547
  21660560.100   113827006.79709  21660557.140    88696354.49648
 15 02 18 00 01 30.0000000  0  7G16G18G21G25G27G29G31
  22807097.100   119852122.65909  22807093.920    93391257.92647
  23608406.860   124063068.95208  23608404.840    96672534.72346
  20956679.740   110128101.46208  20956676.080    85814093.60048
  23676643.740   124421595.95908  23676644.380    96951893.89346
  23799885.220   125069255.44908  23799886.200    97456573.52847
  22952399.280   120615666.27009  22952396.900    93986223.65247
  21673288.400   113893893.87109  21673285.380    88748474.28048
 15 02 18 00 02  0.0000000  0  7G16G18G21G25G27G29G31
  22791205.040   119768609.81409  22791201.920    93326182.99647
  23594354.520   123989223.56708  23594352.420    96614992.91846
  20958568.820   110138028.87309  20958565.200    85821829.26448
  23693311.280   124509184.62508  23693311.960    97020144.78746
  23786383.280   124998301.91508  23786384.160    97401285.10047
  22966101.080   120687669.68809  22966098.700    94042330.19647
  21686093.400   113961184.14309  21686090.300    88800908.24448
 15 02 18 00 02 30.0000000  0  7G16G18G21G25G27G29G31
  22775333.040   119685202.36909  22775329.940    93261190.20246
  23580320.440   123915473.91308  23580318.200    96557525.70845
  20960540.840   110148392.13109  20960537.260    85829904.53648
  23710019.140   124596985.24008  23710019.880    97088560.82446
  23772902.740   124927461.08608  23772903.520    97346084.53047
  22979808.880   120759704.72109  22979806.580    94098461.36147
  21698974.800   114028876.16009  21698971.700    88853655.25848
 15 02 18 00 03  0.0000000  0  7G16G18G21G25G27G29G31
  22759481.580   119601902.82909  22759478.600    93196281.49047
  23566305.220   123841823.46708  23566302.940    96500135.81846
  20962595.800   110159191.14009  20962592.260    85838319.35048
  23726767.400   124684997.79608  23726768.140    97157142.02846
  23759443.780   124856733.74008  23759444.480    97290972.34247
  22993522.740   120831771.80809  22993520.620    94154617.49647
  21711932.300   114096968.44209  21711929.240    88906714.16048
 15 02 18 00 03 30.0000000  0  7G16G18G21G25G27G29G31
  22743650.700   119518711.03509  22743647.720    93131456.74247
  23552308.920   123768272.86608  23552306.660    96442823.70645
  20964733.160   110170423.06108  20964729.600    85847071.50348
  23743555.520   124773219.61508  23743556.260    97225886.28946
  23746006.020   124786118.04008  23746006.700    97235947.17647
  23007242.080   120903867.99308  23007240.180    94210796.30348
  21724965.220   114165457.06209  21724962.200    88960081.90448
 15 02 18 00 04  0.0000000  0  7G16G18G21G25G27G29G31
  22727841.740   119435634.13209  22727838.700    93066721.51147
  23538333.180   123694830.21108  23538330.900    96385595.70646
  20966953.640   110182091.55209  20966950.020    85856163.83948
  23760384.240   124861654.96308  23760385.000    97294796.91846
  23732590.420   124715619.07708  23732591.100    97181012.95747
  23020968.060   120975998.87809  23020966.300    94267002.14847
  21738074.020   114234344.42609  21738071.040    89013760.34548
 15 02 18 00 04 30.0000000  0  7G16G18G21G25G27G29G31
  22712053.580   119352666.35509  22712050.500    93002071.31847
  23524377.100   123621490.83608  23524374.860    96328448.18545
  20969255.680   110194188.75908  20969252.020    85865590.24348
  23777251.960   124950295.42408  23777252.700    97363867.38746
  23719195.600   124645229.28308  23719196.320    97126163.81346
  23034699.200   121048156.61409  23034697.500    94323228.92047
  21751256.820   114303620.67609  21751253.880    89067741.82648
 15 02 18 00 05  0.0000000  0  7G16G18G21G25G27G29G31
  22696287.400   119269814.23109  22696284.280    92937511.24447
  23510442.080   123548261.98008  23510439.780    96271386.75946
  20971639.900   110206717.98808  20971636.260    85875353.28648
  23794159.420   125039144.74708  23794160.120    97433100.60646
  23705822.380   124574953.23108  23705823.240    97071403.30546
  23048436.260   121120345.04609  23048434.540    94379479.62547
  21764514.060   114373287.95809  21764511.140    89122028.00148
 15 02 18 00 05 30.0000000  0  7G16G18G21G25G27G29G31
  22680543.140   119187077.37609  22680540.000    92873040.98647
  23496528.240   123475144.36008  23496525.940    96214412.01846
  20974105.700   110219676.10908  20974102.120    85885450.52448
  23811106.020   125128199.81508  23811106.700    97502494.14346
  23692470.380   124504788.61208  23692471.280    97016729.61346
  23062178.680   121192561.50209  23062176.860    94435752.15447
  21777844.820   114443341.45309  21777841.920    89176615.11248
 15 02 18 00 06  0.0000000  0  7G16G18G21G25G27G29G31
  22664821.180   119104457.95009  22664818.020    92808662.23547
  23482636.120   123402140.81808  23482633.820    96157526.19545
  20976652.940   110233062.12708  20976649.360    85895881.20148
  23828091.680   125217460.04808  23828092.320    97572047.55446
  23679139.600   124434735.77108  23679140.520    96962143.03046
  23075926.420   121264806.04208  23075924.540    94492046.58347
  21791248.760   114513779.46509  21791245.840    89231501.86248
 15 02 18 00 06 30.0000000  0  7G16G18G21G25G27G29G31
  22649121.940   119021958.05309  22649118.800    92744376.61347
  23468766.260   123329254.43508  23468763.960    96100731.63646
  20979281.540   110246875.69208  20979277.940    85906645.02448
  23845116.340   125306924.90108  23845116.900    97641760.41146
  23665830.220   124364795.05108  23665831.100    96907643.82146
  23089679.400   121337078.36708  23089677.440    94548362.64147
  21804725.420   114584599.59709  21804722.480    89286686.35448
 15 02 18 00 07  0.0000000  0  7G16G18G21G25G27G29G31
  22633446.060   118939581.24909  22633442.980    92680186.91247
  23454919.520   123256489.66708  23454917.240    96044031.84946
  20981991.660   110261117.45808  20981988.080    85917742.50548
  23862180.040   125396595.17408  23862180.660    97711633.33646
  23652542.500   124294968.02908  23652543.420    96853233.21046
  23103437.960   121409380.08708  23103435.980    94604701.60947
  21818274.620   114655801.02709  21818271.680    89342167.96148
 15 02 18 00 07 30.0000000  0  7G16G18G21G25G27G29G31
  22617793.380   118857326.57809  22617790.360    92616092.39247
  23441095.920   123183846.43208  23441093.680    95987426.78646
  20984782.560   110275783.64208  20984779.000    85929170.71648
  23879282.100   125486467.09508  23879282.760    97781663.39446
  23639275.960   124225251.84308  23639276.780    96798908.93646
  23117201.560   121481708.21508  23117199.600    94661061.16947
  21831895.360   114727378.49309  21831892.420    89397942.59848
 15 02 18 00 08  0.0000000  0  7G16G18G21G25G27G29G31
  22602164.520   118775196.99509  22602161.560    92552095.33847
  23427296.260   123111328.72408  23427293.940    95930919.49346
  20987654.260   110290874.60608  20987650.720    85940929.90948
  23896422.600   125576541.13308  23896423.320    97851850.93646
  23626030.820   124155647.90208  23626031.500    96744672.13246
  23130970.340   121554063.56608  23130968.360    94717441.93747
  21845587.480   114799331.13509  21845584.560    89454009.56748
 15 02 18 00 08 30.0000000  0  7G16G18G21G25G27G29G31
  22586560.080   118693195.51909  22586557.180    92488198.10347
  23413521.160   123038939.98008  23413518.820    95874512.70245
  20990606.680   110306389.68308  20990603.140    85953019.58648
  23913601.460   125666816.76208  23913602.300    97922195.53946
  23612807.100   124086156.52708  23612807.780    96690523.04547
  23144744.280   121626446.24308  23144742.400    94773843.99947
  21859350.600   114871656.83509  21859347.720    89510367.23648
 15 02 18 00 09  0.0000000  0  7G16G18G21G25G27G29G31
  22570979.620   118611319.81709  22570976.700    92424398.87547
  23399770.340   122966679.12808  23399767.960    95818205.58846
  20993638.860   110322323.96508  20993635.320    85965435.92148
  23930817.780   125757289.33608  23930818.700    97992693.61646
  23599604.080   124016773.94408  23599604.700    96636458.72647
  23158522.620   121698852.02108  23158520.780    94830264.06947
  21873183.500   114944349.18109  21873180.680    89567010.60048
 15 02 18 00 09 30.0000000  0  7G16G18G21G25G27G29G31
  22555424.520   118529576.95809  22555421.620    92360703.16147
  23386045.300   122894553.81308  23386042.860    95762004.07045
  20996751.540   110338681.20108  20996747.960    85978181.82048
  23948072.420   125847963.05508  23948073.340    98063348.43946
  23586422.700   123947505.30708  23586423.360    96582483.19447
  23172306.280   121771285.62808  23172304.440    94886705.81847
  21887086.660   115017410.83209  21887083.880    89623941.73148
 15 02 18 00 10  0.0000000  0  7G16G18G21G25G27G29G31
  22539894.460   118447965.68909  22539891.520    92297109.99247
  23372346.020   122822563.77908  23372343.580    95705907.98346
  20999943.940   110355457.37408  20999940.380    85991254.17448
  23965364.540   125938833.71208  23965365.520    98134156.72546
  23573262.360   123878347.29008  23573263.000    96528593.87047
  23186094.640   121843743.86208  23186092.820    94943166.75147
  21901059.020   115090835.95609  21901056.260    89681156.09748
 15 02 18 00 10 30.0000000  0  7G16G18G21G25G27G29G31
  22524389.900   118366488.32709  22524386.920    92233621.15247
  23358673.020   122750711.90508  23358670.560    95649919.53846
  21003215.880   110372651.66108  21003212.320    86004652.33048
  23982694.060   126029900.75708  23982695.060    98205118.03846
  23560123.080   123809300.19908  23560123.740    96474790.98747
  23199887.780   121916227.00808  23199885.900    94999647.10247
  21915100.100   115164622.24809  21915097.380    89738651.88648
 15 02 18 00 11  0.0000000  0  7G16G18G21G25G27G29G31
  22508911.300   118285147.48809  22508908.220    92170238.68647
  23345026.960   122679001.74908  23345024.540    95594041.52745
  21006567.360   110390263.82308  21006563.760    86018376.09548
  24000060.940   126121163.84708  24000061.880    98276232.11146
  23547005.040   123740364.72508  23547005.740    96421075.07247
  23213685.620   121988734.98308  23213683.800    95056146.78447
  21929209.600   115238768.08209  21929206.840    89796427.83848
 15 02 18 00 11 30.0000000  0  7G16G18G21G25G27G29G31
  22493458.960   118203944.84609  22493455.880    92106963.91947
  23331408.400   122607435.87008  23331406.040    95538275.93246
  21009998.060   110408292.34908  21009994.480    86032424.30548
  24017464.920   126212621.79808  24017465.700    98347498.04846
  23533908.180   123671540.57908  23533908.940    96367445.91747
  23227488.040   122061267.03008  23227486.260    95112665.23947
  21943387.020   115313270.75009  21943384.220    89854481.85148
 15 02 18 00 12  0.0000000  0  7G16G18G21G25G27G29G31
  22478033.200   118122881.65909  22478030.040    92043797.81047
  23317817.640   122536016.10908  23317815.280    95482624.19546
  21013507.580   110426735.10608  21013504.000    86046795.28948
  24034905.560   126304272.84108  24034906.180    98418914.41846
  23520832.320   123602826.89708  23520833.140    96313902.81847
  23241294.880   122133822.44308  23241293.180    95169201.89047
  21957631.660   115388126.79409  21957628.840    89912811.21148
 15 02 18 00 12 30.0000000  0  7G16G18G21G25G27G29G31
  22462634.740   118041962.25609  22462631.500    91980743.74947
  23304255.740   122464747.74608  23304253.320    95427090.44946
  21017096.300   110445593.90509  21017092.680    86061490.46948
  24052383.220   126396118.63808  24052383.840    98490482.54946
  23507778.000   123534226.28508  23507778.780    96260447.81847
  23255106.620   122206403.70808  23255105.020    95225758.69147
  21971943.500   115463336.16609  21971940.720    89971415.89848
 15 02 18 00 13  0.0000000  0  7G16G18G21G25G27G29G31
  22447263.280   117961184.89309  22447260.040    91917800.37147
  23290722.380   122393629.37808  23290719.880    95371673.55346
  21020763.100   110464862.99809  21020759.440    86076505.35548
  24069896.940   126488154.00708  24069897.600    98562198.39246
  23494744.380   123465734.54608  23494745.220    96207077.67547
  23268922.420   122279005.99008  23268920.840    95282331.87247
  21986321.360   115538892.34609  21986318.600    90030290.82548
 15 02 18 00 13 30.0000000  0  7G16G18G21G25G27G29G31
  22431919.280   117880552.29609  22431916.260    91854969.79847
  23277218.400   122322665.55008  23277215.940    95316377.09046
  21024508.000   110484542.49909  21024504.340    86091840.03948
  24087446.800   126580379.18108  24087447.540    98634062.13146
  23481731.760   123397352.91608  23481732.560    96153793.33947
  23282742.540   122351630.47808  23282740.860    95338922.35347
  22000764.900   115614793.67109  22000762.200    90089434.69648
 15 02 18 00 14  0.0000000  0  7G16G18G21G25G27G29G31
  22416603.500   117800067.70209  22416600.580    91792254.55147
  23263744.480   122251859.54109  23263742.040    95261203.60746
  21028331.080   110504632.76209  21028327.360    86107494.79648
  24105032.860   126672794.26908  24105033.500    98706073.87045
  23468740.280   123329082.39608  23468741.080    96100595.57347
  23296567.000   122424278.20908  23296565.240    95395530.93847
  22015273.860   115691038.98609  22015271.220    90148846.60148
 15 02 18 00 14 30.0000000  0  7G16G18G21G25G27G29G31
  22401316.340   117719733.37109  22401313.500    91729656.39947
  23250301.040   122181213.91308  23250298.660    95206155.11746
  21032232.100   110525132.62408  21032228.320    86123468.71648
  24122654.840   126765398.43308  24122655.520    98778232.93246
  23455770.080   123260923.18308  23455770.680    96047484.53447
  23310395.780   122496948.62308  23310393.980    95452157.20647
  22029847.820   115767625.57109  22029845.220    90208524.44148
 15 02 18 00 15  0.0000000  0  7G16G18G21G25G27G29G31
  22386058.040   117639550.33409  22386055.140    91667176.13147
  23236888.520   122110730.85808  23236886.140    95151233.28646
  21036210.580   110546039.57209  21036206.760    86139759.84948
  24140312.340   126858189.52108  24140313.120    98850537.64346
  23442820.780   123192874.05808  23442821.200    95994459.29347
  23324228.700   122569641.02908  23324226.860    95508800.61747
  22044486.080   115844549.96009  22044483.460    90268465.50348
 15 02 18 00 15 30.0000000  0 14G16G18G21G25G27G29G31R03R09R10R16R18
                                R19R20
  22370828.500   117559518.35109  22370825.480    91604813.55547
  23223507.100   122040411.19408  23223504.640    95096438.76446
  21040265.880   110567350.49109  21040262.080    86156365.75948
  24158004.880   126951164.60908  24158005.720    98922985.74545
  23429892.020   123124933.07308  23429892.360    95941518.28247
  23338065.300   122642352.70809  23338063.440    95565459.02947
  22059187.720   115921807.32609  22059185.080    90328666.01848
  23119619.480   123761135.53508  23119619.840    96258661.61906
  19868468.360   106096514.46709  19868469.080    82519510.87806
  23318732.760   124301961.53007  23318738.880    96679335.68305
  20110729.820   107427910.01109  20110732.340    83555049.62708
  21381206.420   114134327.61309  21381208.900    88771156.53408
  20050173.080   107254909.53709  20050172.780    83420480.17208
  22959669.780   122775670.61106  22959673.860    95492202.75406
 15 02 18 00 16  0.0000000  0 14G16G18G21G25G27G29G31R03R09R10R16R18
                                R19R20
  22355628.860   117479643.40509  22355625.740    91542573.36347
  23210157.980   121970261.37909  23210155.520    95041776.60546
  21044398.620   110589068.20709  21044394.820    86173288.67248
  24175733.060   127044326.55308  24175733.880    98995579.45446
  23416984.600   123057104.13108  23416984.880    95888664.60647
  23351906.280   122715087.39908  23351904.420    95622135.39347
  22073952.980   115999399.01309  22073950.340    90389127.05848
  23108563.920   123701954.51308  23108564.440    96212631.96506
  19862110.820   106062565.64108  19862111.520    82493106.24006
  23295921.320   124180363.70308  23295927.580    96584759.62605
  20127187.600   107515824.32309  20127190.100    83623427.41208
  21395786.560   114212156.60309  21395788.940    88831690.19508
  20048872.720   107247953.26409  20048872.380    83415069.75308
  22945389.940   122699309.41806  22945393.840    95432810.76106
 15 02 18 00 16 30.0000000  0 14G16G18G21G25G27G29G31R03R09R10R16R18
                                R19R20
  22340459.180   117399926.28709  22340456.000    91480456.15447
  23196841.480   121900282.74909  23196838.980    94987247.82946
  21048608.220   110611189.99109  21048604.440    86190526.42748
  24193496.380   127137672.99908  24193497.200    99068316.93046
  23404098.220   122989385.82608  23404098.520    95835897.13747
  23365751.340   122787843.72308  23365749.500    95678828.60647
  22088781.120   116077321.18609  22088778.440    90449845.60948
  23097603.800   123643284.72708  23097604.320    96166999.93206
  19855898.960   106029394.84209  19855899.640    82467306.72306
  23273160.960   124059037.61108  23273166.980    96490394.88804
  20143761.820   107604360.72409  20143764.280    83692289.03508
  21410378.540   114290048.89209  21410380.820    88892273.07608
  20047637.040   107241342.30509  20047636.460    83409927.90508
  22931157.040   122623199.38807  22931160.880    95373614.11807
 15 02 18 00 17  0.0000000  0 14G16G18G21G25G27G29G31R03R09R10R16R18
                                R19R20
  22325319.340   117320366.02309  22325316.140    91418461.16147
  23183557.620   121830475.52309  23183555.080    94932852.60846
  21052894.020   110633711.90409  21052890.200    86208075.97648
  24211294.120   127231200.15208  24211294.940    99141195.20446
  23391232.360   122921775.49308  23391232.700    95783213.83647
  23379600.000   122860618.84908  23379598.160    95735536.47647
  22103671.160   116155568.49309  22103668.400    90510817.51548
  23086739.440   123585127.44207  23086739.980    96121766.50206
  19849832.660   105997001.24509  19849833.320    82442111.71006
  23250451.940   123937984.40708  23250457.500    96396242.36504
  20160451.440   107693513.32309  20160453.840    83761629.92708
  21424981.480   114368000.36409  21424983.780    88952901.98608
  20046465.060   107235072.44309  20046464.320    83405051.35808
  22916970.680   122547337.99707  22916974.380    95314610.86207
 15 02 18 00 17 30.0000000  0 14G16G18G21G25G27G29G31R03R09R10R16R18
                                R19R20
  22310210.620   117240969.40009  22310207.440    91356593.68347
  23170307.720   121760846.68609  23170305.120    94878596.37846
  21057256.480   110656636.77009  21057252.620    86225939.51048
  24229126.840   127324911.36608  24229127.640    99214216.87646
  23378387.820   122854277.37408  23378388.220    95730617.97347
  23393453.040   122933416.89408  23393451.160    95792262.20747
  22118623.340   116234142.52409  22118620.540    90572044.01248
  23075972.400   123527490.64407  23075972.880    96076937.91106
  19843913.120   105965391.33608  19843913.840    82417526.21906
  23227795.640   123817212.90008  23227801.000    96302308.96405
  20177256.480   107783282.64909  20177258.860    83831450.49408
  21439596.000   114446013.67209  21439598.340    89013578.99108
  20045357.300   107229146.58609  20045356.500    83400442.37008
  22902831.680   122471729.94807  22902835.280    95255804.66807
 15 02 18 00 18  0.0000000  0 14G16G18G21G25G27G29G31R03R09R10R16R18
                                R19R20
  22295132.860   117161735.65109  22295129.760    91294853.12047
  23157091.740   121691396.12509  23157089.060    94824479.07646
  21061694.860   110679960.68509  21061691.020    86244113.99248
  24246993.820   127418802.86108  24246994.620    99287379.03546
  23365564.120   122786888.69408  23365564.540    95678107.34847
  23407309.760   123006234.18208  23407307.860    95849002.91947
  22133636.660   116313037.80409  22133633.800    90633520.82348
  23065302.780   123470375.36307  23065303.260    96032514.94706
  19838140.260   105934564.45208  19838140.960    82393549.74906
  23205192.300   123696724.12508  23205197.620    96208595.45805
  20194175.860   107873662.85709  20194178.260    83901746.18108
  21454221.300   114524084.36409  21454223.580    89074300.63708
  20044313.000   107223560.50709  20044312.240    83396097.65508
  22888739.360   122396371.89707  22888742.940    95197192.88207
 15 02 18 00 18 30.0000000  0 14G16G18G21G25G27G29G31R03R09R10R16R18
                                R19R20
  22280086.040   117082664.39409  22280083.000    91233239.18847
  23143909.700   121622123.86309  23143906.980    94770500.72146
  21066208.480   110703679.72709  21066204.620    86262596.37648
  24264894.400   127512870.98608  24264895.280    99360678.84646
  23352760.800   122719606.86408  23352761.280    95625679.99147
  23421169.720   123079068.75508  23421167.820    95905757.11447
  22148710.120   116392249.30809  22148707.260    90695244.05848
  23054730.680   123413782.35407  23054731.220    95988498.20706
  19832513.880   105904519.86208  19832514.600    82370181.74306
  23182642.380   123576520.49008  23182647.760    96115103.76005
  20211208.400   107964647.68709  20211210.820    83972512.13908
  21468856.540   114602208.64009  21468858.900    89135063.95708
  20043331.440   107218310.08209  20043330.760    83392014.00008
  22874693.380   122321261.53107  22874697.000    95138773.74807
 15 02 18 00 19  0.0000000  0 14G16G18G21G25G27G29G31R03R09R10R16R18
                                R19R20
  22265071.560   117003763.12109  22265068.520    91171757.70347
  23130763.260   121553038.85209  23130760.540    94716668.26846
  21070798.300   110727799.24709  21070794.400    86281390.80948
  24282829.540   127607120.79108  24282830.420    99434120.22046
  23339979.000   122652437.98608  23339979.420    95573340.65347
  23435034.140   123151926.65608  23435032.200    95962529.48046
  22163844.440   116471780.45209  22163841.560    90757216.35348
  23044258.020   123357721.80807  23044258.640    95944895.59706
  19827035.520   105875265.54708  19827036.260    82347428.38706
  23160147.700   123456611.84307  23160153.260    96021841.52505
  20228354.660   108056239.92509  20228357.100    84043750.53008
  21483502.660   114680390.86409  21483505.140    89195872.34608
  20042413.500   107213400.03009  20042412.860    83388195.08208
  22860694.820   122246405.15407  22860698.480    95080552.17807
 15 02 18 00 19 30.0000000  0 14G16G18G21G25G27G29G31R03R09R10R16R18
                                R19R20
  22250089.260   116925030.87409  22250086.240    91110407.92347
  23117652.360   121484140.46109  23117649.600    94662981.24046
  21075463.340   110752314.13709  21075459.400    86300493.32348
  24300798.360   127701547.68208  24300799.240    99507699.56845
  23327217.980   122585378.52008  23327218.440    95521086.54647
  23448902.220   123224803.87108  23448900.240    96019316.88647
  22179038.320   116551624.84609  22179035.460    90819432.73448
  23033884.720   123302193.52407  23033885.560    95901706.95007
  19821704.860   105846800.05308  19821705.560    82325288.55206
  23137708.480   123336999.27107  23137714.320    95928809.57905
  20245613.360   108148432.59709  20245615.780    84115455.91608
  21498158.760   114758626.00409  21498161.280    89256721.89108
  20041558.280   107208825.39609  20041557.680    83384637.04408
  22846743.060   122171799.33407  22846746.820    95022525.48107
 15 02 18 00 20  0.0000000  0 14G16G18G21G25G27G29G31R03R09R10R16R18
                                R19R20
  22235138.960   116846467.06309  22235136.040    91049189.39647
  23104576.920   121415428.55709  23104574.140    94609439.51746
  21080202.760   110777219.99409  21080198.820    86319900.49248
  24318800.100   127796147.56208  24318801.020    99581413.74045
  23314477.160   122518425.39308  23314477.620    95468915.31947
  23462773.340   123297697.09908  23462771.360    96076116.77747
  22194290.780   116631776.93509  22194287.920    90881888.88548
  23023610.980   123247198.10407  23023611.960    95858932.79307
  19816521.660   105819121.95008  19816522.340    82303761.13706
  23115325.040   123217683.52208  23115331.000    95836008.47505
  20262983.200   108241219.03709  20262985.660    84187623.12408
  21512823.860   114836909.53809  21512826.420    89317609.07408
  20040764.900   107204581.54109  20040764.320    83381336.27208
  22832837.500   122097440.83607  22832841.400    94964691.15807
 15 02 18 00 20 30.0000000  0 14G16G18G21G25G27G29G31R03R09R10R16R18
                                R19R20
  22220221.920   116768077.71009  22220218.980    90988106.79947
  23091538.360   121346910.33309  23091535.500    94556048.69146
  21085017.220   110802520.24409  21085013.300    86339614.97548
  24336835.460   127890923.95008  24336836.400    99655265.44645
  23301757.440   122451583.21008  23301757.960    95416830.53647
  23476648.420   123370610.84208  23476646.440    96132932.64847
  22209602.120   116712238.63309  22209599.320    90944586.28748
  23013438.420   123192743.89307  23013439.520    95816579.56207
  19811487.100   105792237.81408  19811487.800    82282851.25106
  23092999.180   123098674.24508  23093005.140    95743445.74205
  20280464.420   108334600.56809  20280466.940    84260253.17508
  21527498.620   114915244.58509  21527501.160    89378536.32508
  20040033.980   107200671.55809  20040033.360    83378295.19108
  22818979.080   122023334.33207  22818983.080    94907052.82407
 15 02 18 00 21  0.0000000  0 15G16G18G21G22G25G27G29G31R03R09R10R16
                                R18R19R20
  22205338.040   116689862.31409  22205335.060    90927159.76247
  23078536.580   121278585.59209  23078533.680    94502808.64546
  21089905.900   110828210.60109  21089902.000    86359633.44148
  24555670.260   129040917.98408                                
  24354903.700   127985872.98708  24354904.500    99729251.69745
  23289058.340   122384849.16208  23289058.880    95364830.00647
  23490526.880   123443542.37608  23490524.880    96189762.39247
  22224971.320   116793004.46609  22224968.580    91007520.68248
  23003367.040   123138831.27807  23003368.180    95774647.58007
  19806601.080   105766146.68908  19806601.740    82262558.15406
  23070731.040   122979972.46108  23070736.980    95651122.15305
  20298055.840   108428570.62909  20298058.440    84333340.98408
  21542182.300   114993626.89809  21542184.740    89439500.34408
  20039364.700   107197091.22809  20039364.020    83375510.50008
  22805167.240   121949477.11707  22805171.340    94849608.39207
 15 02 18 00 21 30.0000000  0 15G16G18G21G22G25G27G29G31R03R09R10R16
                                R18R19R20
  22190487.140   116611820.01809  22190484.040    90866347.59847
  23065571.400   121210453.40809  23065568.560    94449718.66146
  21094868.000   110854287.00209  21094864.200    86379952.71948
  24538363.480   128949970.91408  24538362.380   100480487.46644
  24373004.000   128080990.36408  24373004.660    99803369.11745
  23276379.240   122318220.03708  23276379.720    95312911.24847
  23504408.120   123516488.48308  23504406.040    96246603.48147
  22240397.280   116874068.49309  22240394.580    91070687.43448
  22993397.020   123085460.99107  22993398.180    95733137.38807
  19801863.220   105740846.84209  19801863.840    82242880.49106
  23048520.820   122861579.25608  23048526.680    95559038.54905
  20315756.180   108523122.42309  20315758.780    84406881.23908
  21556874.020   115072051.76309  21556876.360    89500497.46308
  20038756.080   107193835.84509  20038755.500    83372978.54608
  22791401.360   121875865.80207  22791405.620    94792355.23107
 15 02 18 00 22  0.0000000  0 15G16G18G21G22G25G27G29G31R03R09R10R16
                                R18R19R20
  22175670.920   116533959.88409  22175667.760    90805677.39447
  23052644.780   121142524.08909  23052642.060    94396786.75746
  21099904.560   110880754.66309  21099900.860    86400576.87448
  24521040.280   128858938.34208  24521039.460   100409553.71545
  24391137.460   128176282.07108  24391138.100    99877622.37545
  23263721.480   122251702.93108  23263721.900    95261079.77947
  23518293.400   123589455.85608  23518291.240    96303461.16946
  22255880.800   116955435.06409  22255878.140    91134089.93248
  22983530.340   123032643.59707  22983531.460    95692057.23607
  19797275.240   105716347.26609  19797275.860    82223825.27006
  23026370.680   122743506.26008  23026376.420    95467204.00505
  20333566.140   108618259.73909  20333568.680    84480876.90808
  21571574.680   115150525.00509  21571577.100    89561532.19408
  20038209.260   107190911.03409  20038208.720    83370703.71008
  22777682.960   121802507.71607  22777687.140    94735299.02707
 15 02 18 00 22 30.0000000  0 15G16G18G21G22G25G27G29G31R03R09R10R16
                                R18R19R20
  22160889.680   116456283.65209  22160886.480    90745150.48247
  23039757.260   121074800.27708  23039754.680    94344014.98646
  21105015.220   110907611.70409  21105011.600    86421504.44148
  24503701.160   128767822.58808  24503700.540   100338555.12245
  24409303.800   128271746.65408  24409304.380    99952010.34745
  23251084.880   122185297.43308  23251085.280    95209335.28547
  23532182.600   123662443.94208  23532180.480    96360334.96346
  22271421.380   117037101.21609  22271418.720    91197725.86848
  22973767.460   122980382.24607  22973768.600    95651409.56207
  19792837.340   105692649.05909  19792838.000    82205393.32406
  23004281.260   122625757.19208  23004286.900    95375621.39505
  20351484.900   108713978.29009  20351487.400    84555324.64708
  21586284.040   115229044.68709  21586286.500    89622603.04808
  20037723.960   107188315.00609  20037723.400    83368684.58508
  22764011.820   121729402.40107  22764015.880    94678439.43307
 15 02 18 00 23  0.0000000  0 15G16G18G21G22G25G27G29G31R03R09R10R16
                                R18R19R20
  22146142.780   116378788.02209  22146139.600    90684764.30247
  23026908.260   121007278.68908  23026905.720    94291400.78046
  21110198.720   110934851.48809  21110195.120    86442730.25748
  24486345.600   128676620.54908  24486345.020   100267489.25345
  24427501.740   128367377.44808  24427502.340   100026527.82845
  23238468.500   122118997.98208  23238468.840    95157673.40447
  23546074.640   123735447.03408  23546072.580    96417220.46747
  22287017.440   117119058.78009  22287014.760    91261588.88348
  22964108.080   122928674.71307  22964109.240    95611192.64007
  19788548.800   105669748.45109  19788549.460    82187581.73406
  22982252.380   122508330.88408  22982258.040    95284289.82005
  20369510.780   108810269.11309  20369513.240    84630217.48908
  21601000.800   115307603.68809  21601003.320    89683704.48908
  20037298.780   107186040.50809  20037298.200    83366915.53908
  22750387.020   121656544.24507  22750390.860    94621772.07007
 15 02 18 00 23 30.0000000  0 15G16G18G21G22G25G27G29G31R03R09R10R16
                                R18R19R20
  22131431.140   116301478.13709  22131427.980    90624522.85347
  23014098.940   120939965.51308  23014096.420    94238948.98546
  21115455.480   110962476.03009  21115451.880    86464255.87248
  24468974.620   128585337.70308  24468974.080   100196360.37145
  24445731.680   128463176.52608  24445732.400   100101176.43445
  23225872.940   122052807.78408  23225873.160    95106096.65747
  23559970.140   123808468.22708  23559968.160    96474120.06947
  22302668.980   117201308.08409  22302666.280    91325679.21648
  22954553.320   122877527.53007  22954554.440    95571411.51707
  19784410.560   105647650.18409  19784411.180    82170394.18906
  22960285.360   122391234.69008  22960291.080    95193215.02905
  20387643.700   108907131.59609  20387646.120    84705554.95308
  21615725.300   115386204.09309  21615727.860    89744838.12208
  20036934.040   107184089.37009  20036933.460    83365398.00508
  22736808.880   121583936.03207  22736812.660    94565299.06907
 15 02 18 00 24  0.0000000  0 15G16G18G21G22G25G27G29G31R03R09R10R16
                                R18R19R20
  22116754.860   116224353.99309  22116751.660    90564426.13947
  23001329.380   120872861.00308  23001326.800    94186659.77546
  21120784.800   110990481.85609  21120781.220    86486078.59748
  24451588.340   128493974.48708  24451587.620   100125168.83445
  24463993.040   128559140.61008  24463993.740   100175953.62045
  23213297.740   121986724.62708  23213297.880    95054603.32147
  23573868.720   123881505.42408  23573866.780    96531032.13647
  22318375.040   117283844.10409  22318372.360    91389992.97648
  22945103.540   122826941.95707  22945104.580    95532067.23207
  19780422.400   105626353.50208  19780423.020    82153830.09806
  22938380.760   122274471.21908  22938386.460    95102399.01905
  20405882.560   109004560.12809  20405884.940    84781332.66908
  21630456.800   115464842.15809  21630459.440    89806001.05408
  20036629.020   107182457.96309  20036628.460    83364129.14708
  22723277.080   121511575.76607  22723280.800    94509018.92507
 15 02 18 00 24 30.0000000  0 15G16G18G21G22G25G27G29G31R03R09R10R16
                                R18R19R20
  22102115.220   116147422.59709  22102112.060    90504479.62047
  22988601.020   120805972.99908  22988598.400    94134539.28346
  21126187.260   111018871.79909  21126183.620    86508200.63948
  24434188.100   128402538.22308  24434187.320   100053920.36845
  24482286.500   128655273.43908  24482287.280   100250862.28045
  23200743.820   121920753.40108  23200743.980    95003197.21147
  23587771.220   123954563.45508  23587769.340    96587960.44747
  22334136.100   117366669.11809  22334133.460    91454531.92948
  22935760.280   122776926.72008  22935761.220    95493166.54007
  19776585.480   105605864.78708  19776586.180    82137894.43006
  22916540.240   122158049.37308  22916546.000    95011848.72505
  20424227.560   109102555.74009  20424229.960    84857551.45308
  21645196.060   115543521.54709  21645198.740    89867196.12208
  20036384.400   107181149.56009  20036383.840    83363111.51308
  22709792.620   121439468.50207  22709796.300    94452935.56607
 15 02 18 00 25  0.0000000  0 15G16G18G21G22G25G27G29G31R03R09R10R16
                                R18R19R20
  22087511.680   116070680.59209  22087508.500    90444680.67447
  22975913.220   120739298.30708  22975910.720    94082585.01146
  21131661.580   111047639.48909  21131657.920    86530617.03648
  24416773.360   128311026.10708  24416772.540    99982612.77545
  24500610.760   128751568.25108  24500611.600   100325897.17945
  23188210.100   121854888.49208  23188210.280    94951873.95047
  23601676.580   124027636.37308  23601674.680    96644900.34647
  22349950.600   117449774.77409  22349947.940    91519289.55448
  22926523.080   122727479.23308  22926523.880    95454707.43007
  19772899.100   105586179.79009  19772899.780    82122583.87406
  22894763.600   122041967.42608  22894769.380    94921562.79505
  20442676.940   109201108.96309  20442679.380    84934203.93108
  21659941.780   115622235.17309  21659944.440    89928417.83908
  20036198.800   107180156.95509  20036198.240    83362339.50408
  22696354.360   121367608.11607  22696358.020    94397044.21007
 15 02 18 00 25 30.0000000  0 15G16G18G21G22G25G27G29G31R03R09R10R16
                                R18R19R20
  22072944.820   115994131.29709  22072941.640    90385031.88947
  22963266.840   120672841.30308  22963264.400    94030800.36046
  21137207.680   111076784.54709  21137204.060    86553327.47248
  24399344.980   128219441.79108  24399344.080    99911248.89045
  24518965.900   128848025.13908  24518966.780   100401058.35745
  23175696.840   121789131.10608  23175697.020    94900634.47847
  23615584.980   124100725.32708  23615583.020    96701852.74547
  22365818.280   117533159.81609  22365815.620    91584264.88348
  22917392.840   122678604.17208  22917393.520    95416693.52707
  19769363.780   105567301.30409  19769364.400    82107900.60106
  22873051.980   121926231.58308  22873057.640    94831546.03706
  20461230.240   109300217.45009  20461232.780    85011288.28008
  21674693.920   115700983.03709  21674696.560    89989666.17108
  20036072.280   107179480.07309  20036071.740    83361813.05608
  22682962.480   121295995.97507  22682966.140    94341345.93707
 15 02 18 00 26  0.0000000  0 15G16G18G21G22G25G27G29G31R03R09R10R16
                                R18R19R20
  22058415.320   115917778.59809  22058412.200    90325536.30047
  22950662.600   120606605.79808  22950660.200    93979188.30346
  21142825.620   111106307.06809  21142822.020    86576332.03648
  24381903.680   128127789.46608  24381902.640    99839831.96545
  24537351.940   128944644.49708  24537352.760   100476346.13845
  23163204.360   121723482.74808  23163204.560    94849479.94147
  23629496.720   124173831.97808  23629494.800    96758818.93847
  22381738.820   117616822.58709  22381736.140    91649456.62248
  22908370.400   122630306.33108  22908371.000    95379128.58907
  19765980.020   105549232.03608  19765980.600    82093846.72106
  22851406.340   121810847.55508  22851411.880    94741802.92105
  20479887.060   109399879.14108  20479889.660    85088802.89908
  21689452.520   115779765.17609  21689455.180    90050941.15408
  20036004.780   107179118.84109  20036004.220    83361532.11108
  22669617.340   121224633.52207  22669620.960    94285841.85207
 15 02 18 00 26 30.0000000  0 15G16G18G21G22G25G27G29G31R03R09R10R16
                                R18R19R20
  22043923.440   115841623.27009  22043920.300    90266194.50747
  22938100.840   120540593.36908  22938098.400    93927750.07846
  21148514.980   111136204.68009  21148511.360    86599628.88148
  24364449.760   128036070.59908  24364448.620    99768363.17545
  24555768.500   129041424.08608  24555769.380   100551758.77645
  23150732.440   121657942.41108  23150732.680    94798409.59947
  23643411.600   124246955.00308  23643409.640    96815797.88446
  22397711.480   117700759.45609  22397708.840    91714861.94448
  22899456.180   122582588.00108  22899456.720    95342014.38407
  19762747.860   105531972.31908  19762748.380    82080422.49306
  22829827.280   121695818.45708  22829832.660    94652335.84905
  20498646.540   109500088.92309  20498649.200    85166743.80908
  21704217.200   115858579.46909  21704219.800    90112241.15808
  20035995.820   107179070.75609  20035995.200    83361494.71908
  22656318.540   121153519.29207  22656322.220    94230530.84107
 15 02 18 00 27  0.0000000  0 15G16G18G21G22G25G27G29G31R03R09R10R16
                                R18R19R20
  22029469.220   115765666.02809  22029466.100    90207007.07248
  22925581.820   120474805.39908  22925579.180    93876486.75746
  21154275.100   111166474.15009  21154271.460    86623215.49548
  24346983.440   127944286.02908  24346982.100    99696843.16746
  24574215.120   129138361.33408  24574215.980   100627294.28245
  23138280.800   121592508.54308  23138281.020    94747422.21947
  23657329.280   124320092.70808  23657327.260    96872788.27847
  22413735.500   117784966.30409  22413732.940    91780477.65848
  22890650.580   122535450.88108  22890651.040    95305352.24007
  19759667.280   105515522.05409  19759667.800    82067627.84906
  22808315.320   121581147.32008  22808320.640    94563147.20905
  20517507.700   109600841.80109  20517510.380    85245107.14108
  21718987.360   115937422.92209  21718989.860    90173563.84508
  20036044.820   107179332.90809  20036044.160    83361698.63408
  22643065.980   121082652.11207  22643069.740    94175412.00607
 15 02 18 00 27 30.0000000  0 15G16G18G21G22G25G27G29G31R03R09R10R16
                                R18R19R20
  22015053.660   115689911.89109  22015050.560    90147977.88548
  22913106.520   120409247.13108  22913103.760    93825402.40946
  21160106.260   111197116.91309  21160102.620    86647092.97948
  24329505.640   127852440.95708  24329504.140    99625275.97646
  24592691.940   129235457.46908  24592692.840   100702953.56945
  23125849.820   121527183.66308  23125850.100    94696519.75347
  23671250.240   124393247.66208  23671248.160    96929792.10046
  22429810.820   117869442.67109  22429808.300    91846303.38148
  22881954.640   122488900.85008  22881955.100    95269146.72107
  19756738.900   105499884.57309  19756739.420    82055465.35706
  22786871.720   121466840.99608  22786877.020    94474242.29305
  20536470.260   109702136.38509  20536472.940    85323891.78908
  21733763.140   116016296.75909  21733765.540    90234910.15308
  20036152.000   107179906.19509  20036151.320    83362144.54308
  22629860.000   121012034.16107  22629863.780    94120486.98707
 15 02 18 00 28  0.0000000  0 15G16G18G21G22G25G27G29G31R03R09R10R16
                                R18R19R20
  22000676.640   115614360.29609  22000673.560    90089106.53448
  22900674.940   120343918.61908  22900672.120    93774497.10646
  21166007.800   111228129.48409  21166004.120    86671258.61948
  24312016.420   127760535.85008  24312014.780    99553661.97745
  24611198.340   129332709.01808  24611199.320   100778733.98045
  23113439.120   121461965.42208  23113439.460    94645700.39847
  23685174.020   124466417.80408  23685172.020    96986807.75446
  22445936.480   117954183.55409  22445933.940    91912335.22648
  22873368.480   122442938.78108  22873368.940    95233398.48307
  19753962.580   105485059.00009  19753963.020    82043934.35006
  22765496.820   121352901.14808  22765502.140    94385622.41705
  20555533.100   109803966.44409  20555535.760    85403092.91608
  21748543.860   116095197.42209  21748546.300    90296277.32308
  20036316.600   107180786.59009  20036315.900    83362829.30208
  22616700.160   120941663.02907  22616704.000    94065753.94007
 15 02 18 00 28 30.0000000  0 15G16G18G21G22G25G27G29G31R03R09R10R16
                                R18R19R20
  21986339.040   115539015.92809  21986336.000    90030396.66048
  22888288.040   120278825.00708  22888285.220    93723774.84246
  21171979.780   111259512.03009  21171976.040    86695712.55748
  24294516.640   127668575.32508  24294514.760    99482004.76745
  24629734.520   129430117.11208  24629735.400   100854636.36944
  23101049.120   121396856.14208  23101049.480    94594965.93347
  23699101.000   124539605.13508  23699099.040    97043836.81446
  22462112.380   118039188.48809  22462109.820    91978572.82548
  22864893.120   122397569.95208  22864893.600    95198111.67607
  19751338.900   105471048.68209  19751339.320    82033037.44006
  22744191.960   121239334.98308  22744197.360    94297293.19605
  20574695.900   109906330.40109  20574698.520    85482709.30708
  21763329.860   116174126.00909  21763332.280    90357666.22308
  20036538.720   107181974.93409  20036538.060    83363753.58508
  22603586.860   120871540.67607  22603590.720    94011214.39507
 15 02 18 00 29  0.0000000  0 16G16G18G21G22G25G27G29G31R03R04R09R10
                                R16R18R19R20
  21972041.040   115463879.71509  21972038.020    89971848.98648
  22875946.120   120213967.81108  22875943.300    93673236.79146
  21178021.760   111291262.24509  21178017.940    86720452.99248
  24277006.640   127576561.04908  24277004.660    99410305.66545
  24648300.060   129527679.47107  24648301.000   100930658.96545
  23088679.640   121331854.68308  23088680.080    94544315.49247
  23713031.060   124612808.53608  23713029.240    97100878.39346
  22478337.780   118124453.54009  22478335.180    92045013.11948
  22856529.080   122352796.66108  22856529.540    95163288.05307
  23578856.220   126263701.81208  23578858.540    98205111.02606
  19748867.900   105457853.69309  19748868.360    82022774.66706
  22722957.760   121126145.23908  22722963.240    94209256.74305
  20593957.760   110009223.45009  20593960.340    85562737.21108
  21778120.700   116253080.23709  21778123.040    90419075.07608
  20036817.900   107183468.73109  20036817.280    83364915.44108
  22590519.960   120801666.07907  22590523.780    93956867.54607
 15 02 18 00 29 30.0000000  0 16G16G18G21G22G25G27G29G31R03R04R09R10
                                R16R18R19R20
  21957782.840   115388952.49409  21957779.800    89913464.15148
  22863649.320   120149347.86708  22863646.560    93622883.61146
  21184133.020   111323376.83109  21184129.180    86745477.34548
  24259486.540   127484493.72608  24259484.420    99338565.21945
  24666894.340   129625393.07708  24666895.120   101006799.41144
  23076330.380   121266959.25608  23076330.840    94493747.65747
  23726963.900   124686026.00208  23726962.060    97157930.92946
  22494611.840   118209974.06909  22494609.180    92111652.46848
  22848276.460   122308620.12507  22848276.980    95128928.57507
  23559264.500   126158788.37707  23559266.120    98123511.72306
  19746549.480   105445473.22409  19746549.920    82013145.40106
  22701794.740   121013334.77708  22701800.240    94121515.27105
  20613317.500   110112639.74109  20613320.140    85643172.07508
  21792915.720   116332056.88209  21792917.960    90480501.34908
  20037153.660   107185264.94909  20037153.020    83366312.50208
  22577498.960   120732037.06307  22577502.700    93902711.68707
 15 02 18 00 30  0.0000000  0 16G16G18G21G22G25G27G29G31R03R04R09R10
                                R16R18R19R20
  21943564.900   115314236.82609  21943561.880    89855244.17848
  22851398.320   120084968.71209  22851395.620    93572718.06846
  21190313.480   111355855.15709  21190309.560    86770785.14848
  24241957.000   127392376.75608  24241954.780    99266786.07645
  24685517.320   129723257.46808  24685518.180   101083057.35045
  23064001.520   121202170.62308  23064001.940    94443263.07547
  23740899.580   124759258.16308  23740897.700    97214994.91846
  22510934.180   118295748.38709  22510931.460    92178489.58248
  22840136.040   122265044.32807  22840136.640    95095036.38407
  23539686.680   126053948.81107  23539687.860    98041969.88806
  19744383.840   105433908.91309  19744384.320    82004150.94306
  22680703.940   120900908.46308  22680709.400    94034072.60906
  20632774.680   110216576.47009  20632777.300    85724011.74008
  21807714.780   116411055.61109  21807717.060    90541944.80108
  20037545.740   107187362.30509  20037545.080    83367943.80308
  22564523.900   120662654.10507  22564527.580    93848747.22807
 15 02 18 00 30 30.0000000  0 16G16G18G21G22G25G27G29G31R03R04R09R10
                                R16R18R19R20
  21929387.820   115239736.01709  21929384.840    89797191.62448
  22839193.780   120020833.77809  22839191.100    93522742.82246
  21196563.040   111388696.93009  21196559.160    86796376.14248
  24224418.740   127300213.83108  24224416.380    99194971.09846
  24704168.920   129821272.59307  24704169.920   101159432.73445
  23051693.160   121137489.91008  23051693.580    94392862.55447
  23754838.200   124832505.97708  23754836.340    97272071.08746
  22527304.440   118381774.49209  22527301.680    92245522.87848
  22832108.600   122222073.28907  22832109.220    95061614.51307
  23520123.460   125949188.27307  23520124.460    97960489.49506
  19742371.500   105423162.99609  19742371.940    81995792.99906
  22659686.240   120788871.81208  22659691.580    93946932.99605
  20652328.760   110321030.64109  20652331.360    85805253.83408
  21822517.960   116490076.26409  21822520.340    90603405.30008
  20037994.140   107189760.81409  20037993.420    83369809.32308
  22551595.180   120593518.35107  22551598.820    93794975.01907
 15 02 18 00 31  0.0000000  0 16G16G18G21G22G25G27G29G31R03R04R09R10
                                R16R18R19R20
  21915252.100   115165452.32009  21915249.100    89739308.24947
  22827036.300   119956945.93709  22827033.580    93472960.10246
  21202881.400   111421900.19109  21202877.500    86822248.82148
  24206872.180   127208007.38408  24206869.760    99123122.18945
  24722848.980   129919437.02007  24722850.040   101235924.49245
  23039405.280   121072916.93008  23039405.720    94342545.99147
  23768779.900   124905769.85808  23768778.100    97329159.79946
  22543722.020   118468049.33609  22543719.300    92312750.00347
  22824194.700   122179710.04007  22824195.360    95028665.35607
  23500575.880   125844511.71407  23500576.740    97879074.44406
  19740512.560   105413236.02109  19740512.940    81988072.01706
  22638742.420   120677229.10108  22638747.740    93860099.79906
  20671978.920   110425998.17309  20671981.500    85886895.22708
  21837325.040   116569117.56609  21837327.500    90664881.86708
  20038498.500   107192458.56409  20038497.700    83371907.58808
  22538712.660   120524629.64507  22538716.180    93741394.95207
 15 02 18 00 31 30.0000000  0 16G16G18G21G22G25G27G29G31R03R04R09R10
                                R16R18R19R20
  21901157.820   115091386.29709  21901154.800    89681594.47348
  22814925.980   119893306.02309  22814923.300    93423370.57946
  21209268.040   111455462.45809  21209264.180    86848401.23648
  24189317.660   127115758.68408  24189315.160    99051240.33046
  24741556.900   130017748.06407  24741557.960   101312530.42845
  23027137.600   121008450.20208  23027138.100    94292312.21648
  23782724.320   124979047.87208  23782722.500    97386259.52447
  22560186.120   118554568.75009  22560183.440    92380167.68748
  22816394.580   122137955.75907  22816395.240    94996189.85007
  23481044.340   125739921.63607  23481045.260    97797726.64506
  19738806.840   105404127.58009  19738807.240    81980987.66306
  22617873.040   120565983.06908  22617878.300    93773575.11306
  20691724.140   110531473.69609  20691726.820    85968931.71308
  21852135.520   116648176.88209  21852138.060    90726372.42508
  20039058.240   107195452.67309  20039057.420    83374236.35208
  22525875.920   120455985.81107  22525879.340    93688005.35307
 15 02 18 00 32  0.0000000  0 16G16G18G21G22G25G27G29G31R03R04R09R10
                                R16R18R19R20
  21887105.400   115017540.42909  21887102.360    89624052.26748
  22802863.400   119829916.89509  22802860.700    93373976.47446
  21215722.580   111489381.72509  21215718.760    86874831.84548
  24171755.580   127023470.31808  24171753.020    98979327.56046
  24760292.540   130116204.40308  24760293.620   101389249.64445
  23014890.100   120944089.71708  23014890.660    94242161.23047
  23796671.420   125052340.08308  23796669.700    97443370.29747
  22576696.280   118641330.06109  22576693.620    92447773.87448
  22808708.920   122096814.09407  22808709.560    94964190.83407
  23461529.780   125635422.51607  23461530.720    97716449.55606
  19737254.560   105395838.46409  19737254.960    81974540.56706
  22597078.780   120455137.87908  22597083.980    93687362.20705
  20711563.720   110637453.12509  20711566.420    86051360.13008
  21866949.100   116727252.97309  21866951.680    90787876.03308
  20039673.060   107198741.30509  20039672.200    83376794.18708
  22513084.920   120387586.87207  22513088.340    93634806.22207
 15 02 18 00 32 30.0000000  0 16G16G18G21G22G25G27G29G31R03R04R09R10
                                R16R18R19R20
  21873095.460   114943917.99709  21873092.420    89566684.17048
  22790849.360   119766782.71709  22790846.660    93324781.03846
  21222245.180   111523658.41109  21222241.380    86901540.95948
  24154186.780   126931146.40808  24154184.100    98907387.09046
  24779055.980   130214806.57807  24779057.160   101466082.47145
  23002663.200   120879837.09208  23002663.740    94192094.29447
  23810621.460   125125647.93308  23810619.840    97500493.25847
  22593252.240   118728332.03909  22593249.580    92515567.60748
  22801138.460   122056289.54107  22801139.200    94932671.79607
  23442033.360   125531020.33707  23442034.280    97635247.87806
  19735856.100   105388370.88109  19735856.540    81968732.44206
  22576360.860   120344699.94408  22576366.100    93601466.05005
  20731497.260   110743934.33409  20731499.980    86134178.82408
  21881765.920   116806346.22609  21881768.480    90849393.00108
  20040342.960   107202324.83709  20040342.100    83379581.38908
  22500339.900   120319434.16107  22500343.360    93581798.60207
 15 02 18 00 33  0.0000000  0 16G16G18G21G22G25G27G29G31R03R04R09R10
                                R16R18R19R20
  21859128.280   114870519.93709  21859125.200    89509490.89548
  22778884.020   119703904.52009  22778881.360    93275785.06947
