     2.11           OBSERVATION DATA    M                   RINEX VERSION / TYPE
SPIDER V4,0,0,3554                      2015 03 13 02:15    PGM / RUN BY / DATE 
ADJF                                                        MARKER NAME         
ADJF                                                        MARKER NUMBER       
                                                            OBSERVER / AGENCY   
496631              LEICA GRX1200+GNSS  8.20/4.007          REC # / TYPE / VERS 
103293              LEIAT504                                ANT # / TYPE        
  5273000.2084   285396.0090  3566759.2257                  APPROX POSITION XYZ 
        0.0480        0.0000        0.0000                  ANTENNA: DELTA H/E/N
     1     1                                                WAVELENGTH FACT L1/2
     4    C1    L1    P2    L2                              # / TYPES OF OBSERV 
    30.000                                                  INTERVAL            
  2015    02    18    00    00    0.0000000     GPS         TIME OF FIRST OBS   
  2015    02    18    23    59   30.0000000     GPS         TIME OF LAST OBS    
    16                                                      LEAP SECONDS        
    54                                                      # OF SATELLITES     
   G 1   834   834   833   833                              PRN / # OF OBS      
   G 2   933   933   932   932                              PRN / # OF OBS      
   G 3   853   853   853   853                              PRN / # OF OBS      
   G 4   852   852   852   852                              PRN / # OF OBS      
   G 5   668   667   667   667                              PRN / # OF OBS      
   G 6   759   757   758   757                              PRN / # OF OBS      
   G 7   657   657   657   657                              PRN / # OF OBS      
   G 9   799   799   799   799                              PRN / # OF OBS      
   G10   781   781   781   781                              PRN / # OF OBS      
   G11   797   797   797   797                              PRN / # OF OBS      
   G12   827   827   827   827                              PRN / # OF OBS      
   G13   822   822   821   821                              PRN / # OF OBS      
   G14   938   936   937   936                              PRN / # OF OBS      
   G15   726   726   726   726                              PRN / # OF OBS      
   G16   688   688   688   688                              PRN / # OF OBS      
   G17   935   935   935   935                              PRN / # OF OBS      
   G18   931   930   930   930                              PRN / # OF OBS      
   G19   779   779   779   779                              PRN / # OF OBS      
   G20   818   818   818   818                              PRN / # OF OBS      
   G21   726   726   725   725                              PRN / # OF OBS      
   G22   725   724   724   724                              PRN / # OF OBS      
   G23   740   740   740   740                              PRN / # OF OBS      
   G24   845   845   845   845                              PRN / # OF OBS      
   G25   872   872   872   872                              PRN / # OF OBS      
   G27   831   831   831   831                              PRN / # OF OBS      
   G28   898   898   898   898                              PRN / # OF OBS      
   G29   768   768   768   768                              PRN / # OF OBS      
   G30   703   703   702   702                              PRN / # OF OBS      
   G31   811   811   810   810                              PRN / # OF OBS      
   G32   756   755   755   755                              PRN / # OF OBS      
   R 1   781   781   781   781                              PRN / # OF OBS      
   R 2   685   685   685   685                              PRN / # OF OBS      
   R 3   792   792   792   792                              PRN / # OF OBS      
   R 4   919   919   919   919                              PRN / # OF OBS      
   R 5   903   903   903   903                              PRN / # OF OBS      
   R 6   852   852   852   852                              PRN / # OF OBS      
   R 7   671   671   671   664                              PRN / # OF OBS      
   R 8   770   770   770   770                              PRN / # OF OBS      
   R 9   972   972   972   971                              PRN / # OF OBS      
   R10  1011  1011  1011  1010                              PRN / # OF OBS      
   R11   785   785   785   785                              PRN / # OF OBS      
   R12   577   577   577   577                              PRN / # OF OBS      
   R13   622   622   622   622                              PRN / # OF OBS      
   R14   773   773   773   773                              PRN / # OF OBS      
   R15   785   785   785   785                              PRN / # OF OBS      
   R16   831   831   828   828                              PRN / # OF OBS      
   R17   788   788   779   778                              PRN / # OF OBS      
   R18   726   726   725   725                              PRN / # OF OBS      
   R19   953   953   952   949                              PRN / # OF OBS      
   R20   988   988   985   984                              PRN / # OF OBS      
   R21   463   463   459   456                              PRN / # OF OBS      
   R22   598   598   598   598                              PRN / # OF OBS      
   R23   766   766   766   766                              PRN / # OF OBS      
   R24   822   822   821   821                              PRN / # OF OBS      
BIT 2 OF LLI FLAGS DATA COLLECTED UNDER A/S CONDITION       COMMENT             
SNR is mapped to RINEX snr flag value [2-9]                 COMMENT             
Lx:     = 25dBHz -> 1; 26-27dBHz -> 2; 28-31dBHz -> 3       COMMENT             
       32-35dBHz -> 4; 36-38dBHz -> 5; 39-41dBHz -> 6       COMMENT             
       42-44dBHz -> 7; 45-48dBHz -> 8; >=49dBHz -> 9        COMMENT             
                                                            END OF HEADER       
 15 02 18 00 00  0.0000000  0  7G16G18G21G25G27G29G31
  22883326.000   120252712.41008  22883324.080    93703407.45646
  23610992.660   124076689.71007  23610991.420    96683159.99145
  20956460.420   110127295.10309  20956457.700    85813628.50949
  23614996.000   124098101.48307  23614997.860    96700047.10046
  23811230.560   125128884.96407  23811231.960    97503032.29446
  22971646.360   120717220.40608  22971645.060    94065545.01147
  21580530.640   113406486.97709  21580528.660    88368698.12249
 15 02 18 00 00 30.0000000  0  7G16G18G21G25G27G29G31
  22867433.040   120169194.36508  22867431.080    93638328.47946
  23597113.600   124003754.79407  23597112.380    96626327.64945
  20958442.380   110137710.66209  20958439.720    85821744.54049
  23631306.740   124183815.15807  23631308.640    96766836.96646
  23797927.840   125058979.36907  23797929.420    97448560.46546
  22985282.300   120788877.49408  22985281.060    94121381.67447
  21592838.160   113471163.24709  21592836.140    88419095.19849
 15 02 18 00 01  0.0000000  0  7G16G18G21G25G27G29G31
  22851557.660   120085768.79908  22851555.680    93573321.56846
  23583251.980   123930911.38407  23583251.020    96569566.62645
  20960507.520   110148563.31709  20960504.920    85830201.16649
  23647658.920   124269746.65707  23647661.000    96833796.55346
  23784646.940   124989188.97407  23784648.760    97394178.41746
  22998923.060   120860560.18508  22998921.920    94177238.29647
  21605224.680   113536254.69709  21605222.660    88469815.78949
 15 02 18 00 01 30.0000000  0  7G16G18G21G25G27G29G31
  22835700.200   120002437.41308  22835698.280    93508388.05346
  23569408.300   123858161.96307  23569407.260    96512878.81945
  20962655.840   110159852.89309  20962653.280    85838998.25149
  23664052.500   124355895.19107  23664054.500    96900925.25946
  23771388.020   124919513.83307  23771390.040    97339886.18346
  23012568.620   120932268.34108  23012567.540    94233114.75547
  21617689.800   113601759.12109  21617687.700    88520858.17948
 15 02 18 00 02  0.0000000  0  7G16G18G21G25G27G29G31
  22819860.800   119919200.82208  22819858.920    93443528.40546
  23555582.780   123785508.34707  23555581.660    96456265.68745
  20964886.760   110171576.36009  20964884.160    85848133.43049
  23680487.060   124442258.75107  23680488.740    96968221.54946
  23758150.880   124849952.54807  23758152.920    97285682.62946
  23026218.760   121004000.04308  23026217.560    94289009.57346
  21630232.820   113667672.98109  21630230.660    88572219.61448
 15 02 18 00 02 30.0000000  0  7G16G18G21G25G27G29G31
  22804039.960   119836061.92808  22804038.020    93378744.88246
  23541776.060   123712954.19807  23541774.580    96399730.03545
  20967200.400   110183734.47309  20967197.780    85857607.29449
  23696962.560   124528837.53807  23696964.040    97035685.54046
  23744935.620   124780506.06907  23744937.500    97231568.56646
  23039873.520   121075756.04208  23039872.220    94344923.31646
  21642853.460   113733994.87609  21642851.300    88623898.99949
 15 02 18 00 03  0.0000000  0  7G16G18G21G25G27G29G31
  22788238.200   119753023.25308  22788236.180    93314039.43346
  23527988.980   123640503.00008  23527987.380    96343274.62044
  20969596.700   110196327.13509  20969594.080    85867419.77749
  23713478.920   124615631.63307  23713480.460    97103317.27346
  23731742.460   124711175.25107  23731744.140    97177544.58846
  23053533.020   121147536.77008  23053531.700    94400856.33147
  21655551.440   113800723.39009  21655549.300    88675895.22748
 15 02 18 00 03 30.0000000  0  7G16G18G21G25G27G29G31
  22772455.480   119670084.43908  22772453.480    93249411.81746
  23514221.700   123568155.29507  23514220.300    96286899.82245
  20972075.120   110209351.28609  20972072.480    85877568.47049
  23730035.700   124702638.25907  23730037.460    97171114.61646
  23718570.880   124641957.98907  23718572.340    97123609.11346
  23067196.600   121219339.22108  23067195.420    94456806.24547
  21668326.000   113867854.49809  21668323.940    88728205.15448
 15 02 18 00 04  0.0000000  0  7G16G18G21G25G27G29G31
  22756692.560   119587249.73308  22756690.500    93184865.30746
  23500475.100   123495916.25607  23500473.920    96230609.70546
  20974635.780   110222807.65609  20974633.140    85888053.94949
  23746633.260   124789858.78707  23746635.220    97239078.63846
  23705421.180   124572856.43507  23705422.520    97069763.80746
  23080864.800   121291166.10408  23080863.560    94512775.22147
  21681177.100   113935387.73109  21681175.100    88780828.42448
 15 02 18 00 04 30.0000000  0  7G16G18G21G25G27G29G31
  22740949.620   119504519.92708  22740947.500    93120400.54446
  23486749.480   123423787.75207  23486748.020    96174405.74745
  20977278.400   110236694.90409  20977275.800    85898875.19649
  23763271.040   124877291.44707  23763272.860    97307207.97845
  23692293.240   124503869.55607  23692294.700    97016007.84546
  23094537.420   121363016.12108  23094536.120    94568762.23646
  21694104.100   114003319.79209  21694102.180    88833762.48448
 15 02 18 00 05  0.0000000  0  7G16G18G21G25G27G29G31
  22725226.780   119421895.83008  22725224.580    93056018.15146
  23473045.100   123351771.41407  23473043.780    96118289.16945
  20980002.560   110251010.62709  20979999.980    85910030.30949
  23779948.820   124964934.37607  23779950.620    97375501.15346
  23679186.900   124434996.22307  23679188.660    96962340.37246
  23108214.100   121434887.49908  23108212.760    94624765.87747
  21707106.400   114071647.26409  21707104.480    88887004.64348
 15 02 18 00 05 30.0000000  0  7G16G18G21G25G27G29G31
  22709524.500   119339379.82808  22709522.300    92991719.99246
  23459362.800   123279870.64707  23459361.300    96062262.64545
  20982808.180   110265754.39709  20982805.600    85921518.97249
  23796666.560   125052787.18707  23796668.560    97443957.87746
  23666102.400   124366236.87707  23666104.200    96908761.72546
  23121894.820   121506780.34108  23121893.680    94680786.24347
  21720183.540   114140368.09609  21720181.620    88940553.32748
 15 02 18 00 06  0.0000000  0  7G16G18G21G25G27G29G31
  22693842.500   119256970.29608  22693840.380    92927504.79547
  23445702.420   123208084.65007  23445700.660    96006325.52345
  20985694.360   110280921.44609  20985691.760    85933337.45449
  23813423.600   125140845.68207  23813425.640    97512574.86446
  23653039.040   124297588.07107  23653040.780    96855269.17946
  23135578.940   121578691.02708  23135577.860    94736820.49646
  21733334.480   114209476.88909  21733332.620    88994404.30148
 15 02 18 00 06 30.0000000  0  7G16G18G21G25G27G29G31
  22678182.200   119174674.91208  22678180.120    92863378.56046
  23432065.400   123136421.98107  23432063.640    95950484.54345
  20988662.100   110296516.97709  20988659.500    85945489.82749
  23830220.640   125229114.93107  23830222.540    97581356.06145
  23639997.880   124229055.65307  23639999.520    96801867.33046
  23149267.560   121650624.83208  23149266.440    94792872.80846
  21746559.880   114278976.86609  21746558.020    89048560.11049
 15 02 18 00 07  0.0000000  0  7G16G18G21G25G27G29G31
  22662543.340   119092492.55208  22662541.260    92799340.36646
  23418451.840   123064882.46608  23418450.520    95894739.53045
  20991710.620   110312536.90009  20991707.980    85957972.89049
  23847057.180   125317591.07007  23847059.060    97650298.47546
  23626978.280   124160636.56307  23626979.780    96748553.80047
  23162959.920   121722578.76108  23162958.840    94848940.77847
  21759858.700   114348862.57409  21759856.820    89103016.48348
 15 02 18 00 07 30.0000000  0  7G16G18G21G25G27G29G31
  22646926.280   119010424.70308  22646924.200    92735391.41146
  23404862.260   122993468.56307  23404860.860    95839092.35145
  20994839.620   110328979.89609  20994837.000    85970785.62049
  23863932.920   125406272.88107  23863934.560    97719401.19545
  23613980.060   124092330.33207  23613981.400    96695328.19246
  23176656.060   121794552.29208  23176655.000    94905024.01646
  21773230.400   114419131.27109  21773228.500    89157771.28348
 15 02 18 00 08  0.0000000  0  7G16G18G21G25G27G29G31
  22631332.020   118928476.44708  22631329.940    92671535.64447
  23391297.760   122922186.35308  23391296.120    95783547.80145
  20998049.580   110345848.38909  20998046.940    85983929.90249
  23880848.240   125495162.99907  23880849.800    97788666.21145
  23601003.860   124024140.45807  23601005.140    96642193.26946
  23190356.480   121866548.45408  23190355.420    94961124.88447
  21786675.240   114489784.24609  21786673.320    89212825.53248
 15 02 18 00 08 30.0000000  0  7G16G18G21G25G27G29G31
  22615759.980   118846645.14808  22615757.940    92607771.01447
  23377757.800   122851033.65308  23377756.040    95728104.18645
  21001339.320   110363136.07409  21001336.680    85997400.83149
  23897801.800   125584255.42007  23897803.900    97858088.81446
  23588048.700   123956061.64207  23588050.100    96589144.89446
  23204060.220   121938561.70208  23204059.220    95017239.08146
  21800191.760   114560813.81709  21800189.840    89268173.23048
 15 02 18 00 09  0.0000000  0  7G16G18G21G25G27G29G31
  22600210.800   118764934.02108  22600208.840    92544100.02046
  23364243.300   122780014.96308  23364241.740    95672764.98945
  21004708.960   110380843.54409  21004706.280    86011198.86849
  23914794.080   125673550.95107  23914796.120    97927669.73245
  23575115.140   123888095.65707  23575116.600    96536184.43546
  23217767.440   122010593.43208  23217766.480    95073367.66146
  21813779.780   114632219.15209  21813777.880    89323813.72248
 15 02 18 00 09 30.0000000  0  7G16G18G21G25G27G29G31
  22584685.160   118683346.26108  22584683.160    92480525.16046
  23350755.100   122709134.05608  23350753.500    95617533.13145
  21008158.420   110398970.65209  21008155.740    86025323.89249
  23931825.260   125763050.04307  23931827.180    97997409.26445
  23562203.360   123820243.70007  23562204.820    96483312.82946
  23231478.340   122082644.48808  23231477.300    95129511.31046
  21827439.080   114703999.08709  21827437.220    89379746.11748
 15 02 18 00 10  0.0000000  0  7G16G18G21G25G27G29G31
  22569182.460   118601879.11508  22569180.480    92417044.29446
  23337292.780   122638389.23708  23337291.240    95562407.34145
  21011686.700   110417511.84909  21011684.020    86039771.59049
  23948894.180   125852747.05007  23948895.920    98067303.05145
  23549312.400   123752500.94307  23549313.880    96430526.31147
  23245192.000   122154710.32807  23245190.840    95185666.49046
  21841168.260   114776146.35509  21841166.420    89435964.75648
 15 02 18 00 10 30.0000000  0  7G16G18G21G25G27G29G31
  22553704.340   118520541.16608  22553702.360    92353664.09046
  23323858.120   122567789.65108  23323856.700    95507394.72345
  21015294.820   110436472.54009  21015292.100    86054546.15849
  23966001.600   125942647.76907  23966003.320    98137355.50445
  23536443.480   123684873.97607  23536444.820    96377830.00546
  23258909.720   122226797.45708  23258908.380    95241838.26646
  21854968.140   114848664.93309  21854966.280    89492472.71748
 15 02 18 00 11  0.0000000  0  7G16G18G21G25G27G29G31
  22538250.400   118439330.10508  22538248.300    92290382.75747
  23310450.880   122497333.93808  23310449.380    95452494.17846
  21018981.780   110455847.54809  21018979.040    86069643.56349
  23983146.980   126032746.92407  23983148.980    98207562.60245
  23523595.600   123617358.42907  23523596.940    96325220.55746
  23272630.640   122298900.88408  23272629.340    95298022.72546
  21868837.420   114921548.32009  21868835.600    89549264.93248
 15 02 18 00 11 30.0000000  0  7G16G18G21G25G27G29G31
  22522820.920   118358247.44908  22522818.760    92227201.49047
  23297071.400   122427024.50908  23297069.820    95397707.64845
  21022747.240   110475635.17709  21022744.500    86085062.50749
  24000329.820   126123043.31507  24000332.020    98277923.41745
  23510768.800   123549953.94407  23510770.040    96272697.61946
  23286354.480   122371019.83208  23286353.280    95354219.26447
  21882775.580   114994793.73009  21882773.780    89606339.26048
 15 02 18 00 12  0.0000000  0  7G16G18G21G25G27G29G31
  22507416.600   118277297.54808  22507414.480    92164123.66047
  23283720.680   122356866.35308  23283719.160    95343039.00745
  21026591.380   110495836.37909  21026588.660    86100803.70649
  24017550.540   126213538.25307  24017552.800    98348438.91145
  23497963.660   123482662.69208  23497964.580    96220262.88746
  23300081.680   122443156.70808  23300080.620    95410429.78046
  21896782.580   115068400.84609  21896780.820    89663695.43548
 15 02 18 00 12 30.0000000  0  7G16G18G21G25G27G29G31
  22492037.360   118196479.25408  22492035.280    92101148.38247
  23270398.780   122286859.23108  23270397.080    95288488.00945
  21030513.540   110516447.43009  21030510.820    86116864.26349
  24034808.380   126304228.03607  24034810.280    98419106.28145
  23485179.700   123415481.80808  23485180.380    96167914.13546
  23313811.680   122515308.54208  23313810.600    95466651.94546
  21910857.360   115142364.19109  21910855.540    89721329.19348
 15 02 18 00 13  0.0000000  0  7G16G18G21G25G27G29G31
  22476684.100   118115797.24608  22476682.000    92038279.29447
  23257106.620   122217008.26908  23257104.960    95234058.71746
  21034513.780   110537469.01909  21034511.100    86133244.72649
  24052103.320   126395113.98807  24052105.080    98489926.45445
  23472417.180   123348413.48508  23472417.720    96115653.11247
  23327544.940   122587476.97908  23327543.680    95522887.07146
  21924999.900   115216683.68709  21924998.040    89779240.47348
 15 02 18 00 13 30.0000000  0  7G16G18G21G25G27G29G31
  22461356.900   118035252.01708  22461354.760    91975516.79847
  23243844.520   122147315.71008  23243842.880    95179752.85345
  21038591.760   110558898.95709  21038589.040    86149943.38549
  24069435.240   126486194.08407  24069437.240    98560897.93746
  23459675.740   123281456.63507  23459676.600    96063478.96847
  23341281.140   122659661.02707  23341279.780    95579134.34646
  21939209.500   115291355.50009  21939207.600    89837426.28148
 15 02 18 00 14  0.0000000  0  7G16G18G21G25G27G29G31
  22446056.680   117954848.72608  22446054.540    91912864.89547
  23230613.440   122077786.78308  23230611.960    95125574.50545
  21042747.860   110580739.52309  21042745.160    86166962.01249
  24086804.680   126577470.44507  24086806.900    98632022.32545
  23446955.880   123214614.25807  23446957.220    96011394.06847
  23355020.920   122731863.66908  23355019.600    95635396.12046
  21953486.300   115366380.44109  21953484.440    89895887.26148
 15 02 18 00 14 30.0000000  0  7G16G18G21G25G27G29G31
  22430782.920   117874584.75208  22430780.800    91850321.56747
  23217413.140   122008419.20308  23217411.720    95071521.87046
  21046980.960   110602984.66009  21046978.260    86184295.89449
  24104210.340   126668937.45907  24104212.520    98703295.29845
  23434256.660   123147881.55007  23434258.660    95959394.65647
  23368763.160   122804079.53607  23368761.960    95691668.19646
  21967828.840   115441750.96609  21967827.040    89954617.52448
 15 02 18 00 15  0.0000000  0 14G16G18G21G25G27G29G31R03R09R10R16R18
                                R19R20
  22415536.360   117794463.68808  22415534.260    91787889.58847
  23204244.480   121939217.76708  23204242.980    95017598.70645
  21051291.040   110625634.34709  21051288.340    86201945.00449
  24121652.300   126760595.53507  24121654.360    98774717.15645
  23421578.700   123081259.90007  23421581.020    95907481.73947
  23382508.160   122876310.55007  23382507.260    95747952.07646
  21982236.940   115517466.20009  21982235.140    90013616.39548
  23172928.220   124046503.11704  23172931.640    96480625.32305
  19883128.280   106174826.76208  19883131.780    82580435.22306
  23394649.920   124706640.02706  23394657.820    96994080.46504
  20045759.540   107080870.18008  20045764.900    83285160.43508
  21434782.220   114420704.63008  21434787.740    88994002.27408
  20061871.060   107317803.93208  20061873.540    83469557.04808
  22926132.240   122596332.68204  22926138.960    95352733.66406
 15 02 18 00 15 30.0000000  0 14G16G18G21G25G27G29G31R03R09R10R16R18
                                R19R20
  22400317.080   117714486.02108  22400314.980    91725569.34447
  23191107.780   121870184.03408  23191106.260    94963806.20546
  21055677.640   110648686.20609  21055674.960    86219907.49449
  24139130.220   126852442.58507  24139132.040    98846286.26545
  23408921.960   123014748.09808  23408924.020    95855654.39246
  23396255.700   122948554.74707  23396254.940    95804246.21446
  21996709.900   115593522.11509  21996708.100    90072880.73748
  23162046.420   123988252.95904  23162049.980    96435319.68306
  19876239.380   106138040.61008  19876242.920    82551823.77106
  23371681.140   124584203.36306  23371689.100    96898851.95304
  20061764.900   107166368.11708  20061770.280    83351658.81308
  21449450.080   114499002.28308  21449455.460    89054900.44308
  20060905.700   107312640.08908  20060908.200    83465540.74208
  22912104.880   122521323.69604  22912111.960    95294393.40106
 15 02 18 00 16  0.0000000  0 14G16G18G21G25G27G29G31R03R09R10R16R18
                                R19R20
  22385125.540   117634654.17108  22385123.440    91663362.72647
  23178003.580   121801320.96208  23178002.200    94910146.69146
  21060140.660   110672139.48509  21060137.960    86238182.78249
  24156644.180   126944477.87907  24156645.960    98918002.08645
  23396286.340   122948346.40308  23396287.680    95803912.82346
  23410005.960   123020812.36508  23410004.980    95860550.83346
  22011247.240   115669916.50209  22011245.480    90132408.81648
  23151258.980   123930507.53404  23151263.000    96390406.61906
  19869494.340   106102022.72108  19869497.900    82523809.86006
  23348760.040   124462021.29206  23348768.060    96803821.46204
  20077888.720   107252498.64508  20077894.160    83418649.20308
  21464127.840   114577352.54608  21464133.080    89115839.53208
  20060004.160   107307817.68208  20060006.700    83461789.99408
  22898125.560   122446571.00004  22898132.880    95236252.45507
 15 02 18 00 16 30.0000000  0 14G16G18G21G25G27G29G31R03R09R10R16R18
                                R19R20
  22369962.540   117554972.08908  22369960.400    91601272.80847
  23164932.640   121732632.90508  23164931.400    94856623.57146
  21064680.140   110695994.54209  21064677.420    86256771.13849
  24174193.880   127036702.41406  24174195.840    98989865.33045
  23383671.940   122882056.56608  23383672.760    95752258.40746
  23423759.120   123093085.19608  23423758.040    95916867.29446
  22025848.920   115746648.72509  22025847.200    90192200.14048
  23140566.920   123873271.93704  23140570.840    96345890.05606
  19862893.980   106066777.18308  19862897.500    82496396.65706
  23325887.880   124340100.31806  23325895.980    96708994.04805
  20094130.700   107339260.34208  20094136.180    83486130.49808
  21478815.380   114655755.55208  21478820.580    89176819.63508
  20059166.460   107303336.87308  20059169.020    83458304.91608
  22884194.520   122372076.56204  22884202.120    95178312.39807
 15 02 18 00 17  0.0000000  0 14G16G18G21G25G27G29G31R03R09R10R16R18
                                R19R20
  22354828.500   117475442.20908  22354826.300    91539301.48347
  23151895.760   121664123.64908  23151894.460    94803239.75146
  21069295.980   110720250.82209  21069293.240    86275672.13349
  24191779.280   127129115.72506  24191781.640    99061875.63945
  23371078.820   122815879.26907  23371079.560    95700691.72746
  23437515.200   123165373.83407  23437514.140    95973196.08946
  22040514.500   115823716.87909  22040512.800    90252253.22748
  23129970.860   123816550.93004  23129974.800    96301773.75706
  19856438.780   106032306.75408  19856442.280    82469586.32306
  23303065.740   124218445.11506  23303073.720    96614373.33204
  20110490.400   107426650.86108  20110495.920    83554100.87508
  21493512.660   114734210.66008  21493517.980    89237840.25608
  20058392.520   107299196.87808  20058395.040    83455084.92408
  22870312.120   122297841.35504  22870319.720    95120573.96407
 15 02 18 00 17 30.0000000  0 14G16G18G21G25G27G29G31R03R09R10R16R18
                                R19R20
  22339723.100   117396063.25008  22339721.020    91477447.78747
  23138892.660   121595792.06808  23138891.180    94749994.39645
  21073987.200   110744903.11309  21073984.420    86294881.72349
  24209400.000   127221713.16607  24209402.140    99134029.50545
  23358506.280   122749810.69307  23358507.280    95649209.80347
  23451273.380   123237674.45707  23451272.540    96029534.20846
  22055242.780   115901114.55209  22055241.080    90312563.08548
  23119470.900   123760344.28504  23119474.840    96258057.51306
  19850128.440   105998609.87408  19850131.940    82443377.64106
  23280293.480   124097056.35706  23280301.500    96519959.88105
  20126966.420   107514662.64208  20126971.920    83622554.46408
  21508218.660   114812712.37808  21508224.140    89298897.15008
  20057681.260   107295392.36508  20057683.780    83452125.87508
  22856477.620   122223861.79104  22856485.100    95063034.37607
 15 02 18 00 18  0.0000000  0 14G16G18G21G25G27G29G31R03R09R10R16R18
                                R19R20
  22324647.320   117316839.46008  22324645.320    91415714.98447
  23125924.320   121527643.08708  23125922.820    94696891.31045
  21078753.920   110769952.44809  21078751.160    86314400.68349
  24227056.240   127314496.01407  24227058.100    99206327.82845
  23345954.780   122683853.03507  23345956.220    95597814.27347
  23465034.100   123309988.41407  23465033.520    96085882.70146
  22070033.760   115978841.33709  22070032.000    90373129.40448
  23109068.100   123704658.10704  23109072.200    96214746.06406
  19843963.840   105965691.07208  19843967.340    82417774.12706
  23257572.400   123975940.17806  23257580.400    96425758.42005
  20143558.660   107603295.00708  20143564.080    83691490.71808
  21522933.480   114891261.39308  21522938.920    89359990.80708
  20057032.900   107291924.13808  20057035.380    83449428.37508
  22842691.280   122150139.62904  22842698.640    95005694.95207
 15 02 18 00 18 30.0000000  0 14G16G18G21G25G27G29G31R03R09R10R16R18
                                R19R20
  22309601.160   117237771.37708  22309599.140    91354103.51347
  23112990.920   121459677.58708  23112989.440    94643931.20946
  21083595.640   110795395.80809  21083592.880    86334226.68149
  24244747.080   127407461.66707  24244748.920    99278768.56645
  23333424.060   122618004.61307  23333425.840    95546503.86847
  23478797.440   123382314.73907  23478796.860    96142240.85846
  22084886.600   116056893.10809  22084884.820    90433948.94448
  23098762.940   123649494.06204  23098767.040    96171840.71006
  19837945.040   105933550.66408  19837948.500    82392776.03306
  23234903.060   123855099.83706  23234911.120    96331771.50305
  20160266.060   107692542.68508  20160271.420    83760905.56108
  21537656.720   114969854.81108  21537661.940    89421119.01508
  20056446.780   107288788.94308  20056449.260    83446989.90508
  22828952.800   122076673.43104  22828960.120    94948554.65107
 15 02 18 00 19  0.0000000  0 15G16G18G21G22G25G27G29G31R03R09R10R16
                                R18R19R20
  22294585.260   117158862.37408  22294583.180    91292615.99647
  23100093.380   121391900.56208  23100092.020    94591117.96446
  21088512.540   110821234.40509  21088509.780    86354360.64649
  24554777.340                                                  
  24262472.720   127500611.08006  24262475.100    99351352.43046
  23320914.640   122552267.39808  23320916.480    95495280.10347
  23492563.520   123454655.35507  23492562.920    96198610.12646
  22099801.140   116135269.25809  22099799.340    90495021.24748
  23088556.220   123594858.13604  23088560.640    96129346.17006
  19832072.700   105902192.60508  19832076.120    82368386.42606
  23212286.520   123734541.13606  23212294.500    96238003.62604
  20177088.420   107782404.39008  20177093.740    83830797.96808
  21552388.360   115048492.89208  21552393.460    89482281.95808
  20055922.980   107285987.28508  20055925.460    83444810.85208
  22815262.420   122003465.29804  22815269.660    94891615.04006
 15 02 18 00 19 30.0000000  0 15G16G18G21G22G25G27G29G31R03R09R10R16
                                R18R19R20
  22279598.080   117080104.31608  22279596.040    91231246.10247
  23087230.160   121324304.07208  23087228.720    94538445.40245
  21093502.320   110847455.91309  21093499.560    86374792.99449
  24537660.860   128946272.30707  24537661.740   100477625.00645
  24280231.240   127593932.49907  24280233.240    99424070.39845
  23308424.400   122486630.61008  23308426.240    95444134.58447
  23506330.160   123526999.11607  23506329.400    96254981.85746
  22114774.760   116213956.20709  22114773.020    90556335.71948
  23078447.120   123540742.84804  23078451.240    96087256.52006
  19826345.180   105871608.19508  19826348.620    82344598.54706
  23189721.760   123614257.78006  23189729.620    96144449.89404
  20194023.020   107872865.88208  20194028.320    83901156.88208
  21567125.960   115127163.29508  21567131.160    89543470.03308
  20055459.280   107283506.74608  20055461.740    83442881.55008
  22801618.520   121930504.46604  22801625.440    94834867.77806
 15 02 18 00 20  0.0000000  0 15G16G18G21G22G25G27G29G31R03R09R10R16
                                R18R19R20
  22264643.540   117001517.56308  22264641.440    91170009.69347
  23074405.360   121256909.03808  23074403.860    94485929.81646
  21098568.120   110874076.84509  21098565.320    86395536.57749
  24520526.840   128856234.66307  24520527.560   100407466.41444
  24298025.800   127687442.78907  24298027.460    99496935.54545
  23295956.700   122421112.12608  23295958.380    95393081.24347
  23520100.680   123599363.73407  23520099.840    96311369.85546
  22129810.480   116292969.41209  22129808.720    90617904.43248
  23068439.480   123487170.00104  23068443.480    96045588.79106
  19820766.300   105841817.45808  19820769.760    82321427.96906
  23167212.700   123494271.80207  23167220.580    96051127.49905
  20211072.640   107963941.87308  20211077.940    83971993.73708
  21581872.740   115205882.80508  21581878.080    89604696.30908
  20055058.760   107281364.01808  20055061.160    83441214.98808
  22788024.200   121857808.90704  22788030.860    94778326.81007
 15 02 18 00 20 30.0000000  0 15G16G18G21G22G25G27G29G31R03R09R10R16
                                R18R19R20
  22249719.900   116923093.40808  22249717.740    91108899.98447
  23061617.480   121189707.93308  23061615.860    94433565.35446
  21103707.780   110901085.89909  21103704.960    86416582.60149
  24503375.000   128766104.02307  24503375.500   100337235.34345
  24315854.180   127781130.88306  24315855.440    99569939.25445
  23283509.620   122355701.83008  23283511.080    95342112.20747
  23533873.260   123671738.99907  23533872.280    96367766.12046
  22144905.880   116372296.08209  22144904.100    90679717.41248
  23058531.760   123434133.03104  23058535.600    96004337.85906
  19815334.540   105812812.13008  19815338.020    82298868.26606
  23144758.420   123374577.89406  23144766.360    95958032.24505
  20228234.780   108055618.78108  20228240.080    84043297.97608
  21596626.540   115284639.62908  21596631.840    89665951.61608
  20054719.160   107279547.14108  20054721.520    83439801.87408
  22774477.440   121785368.34904  22774484.240    94721984.20407
 15 02 18 00 21  0.0000000  0 15G16G18G21G22G25G27G29G31R03R09R10R16
                                R18R19R20
  22234828.460   116844838.49608  22234826.300    91047922.15247
  23048867.760   121122707.68908  23048866.060    94381357.41046
  21108921.840   110928485.90609  21108919.000    86437933.26749
  24486206.440   128675887.12706  24486207.020   100266937.13845
  24333716.660   127875000.13906  24333718.220    99643084.07445
  23271083.900   122290403.97808  23271085.160    95291230.80147
  23547648.760   123744129.39607  23547647.720    96424174.22646
  22160061.220   116451937.94709  22160059.460    90741775.98648
  23048725.400   123381639.52004  23048729.360    95963509.61206
  19810051.060   105784598.61808  19810054.560    82276924.42706
  23122360.500   123255184.35806  23122368.460    95865170.61905
  20245509.540   108147897.44008  20245514.840    84115070.24808
  21611387.940   115363436.79808  21611393.080    89727238.29908
  20054441.000   107278059.08108  20054443.340    83438644.50508
  22760979.160   121713187.32005  22760986.160    94665843.45307
 15 02 18 00 21 30.0000000  0 15G16G18G21G22G25G27G29G31R03R09R10R16
                                R18R19R20
  22219968.940   116766751.33408  22219966.820    90987075.04247
  23036155.920   121055906.73708  23036154.160    94329304.74946
  21114209.380   110956272.13709  21114206.520    86459584.87949
  24469021.040   128585582.73507  24469022.440   100196570.83145
  24351612.820   127969045.56707  24351614.720    99716366.20245
  23258678.720   122225214.70407  23258680.000    95240433.98947
  23561426.420   123816531.17007  23561425.600    96480591.15246
  22175275.320   116531888.44309  22175273.580    90804075.04548
  23039020.540   123329689.63204  23039024.780    95923104.21206
  19804915.440   105757174.70408  19804918.980    82255594.71706
  23100018.960   123136091.67406  23100026.980    95772543.01705
  20262895.520   108240770.42008  20262900.880    84187304.76408
  21626155.880   115442269.01708  21626161.020    89788552.24408
  20054223.300   107276894.47708  20054225.620    83437738.71208
  22747528.500   121641261.78805  22747535.680    94609901.45007
 15 02 18 00 22  0.0000000  0 15G16G18G21G22G25G27G29G31R03R09R10R16
                                R18R19R20
  22205141.260   116688831.43308  22205139.140    90926358.26047
  23023482.160   120989305.80808  23023480.440    94277407.93946
  21119569.580   110984440.21809  21119566.720    86481534.03949
  24451819.740   128495191.01407  24451821.040   100126136.35945
  24369542.020   128063263.74207  24369543.880    99789782.90845
  23246293.740   122160131.53107  23246295.000    95189719.86347
  23575205.780   123888941.40707  23575205.000    96537014.69346
  22190547.220   116612142.41709  22190545.400    90866610.58248
  23029417.400   123278284.08804  23029421.720    95883122.15306
  19799927.580   105730539.78608  19799931.080    82234878.65906
  23077734.260   123017301.73906  23077742.180    95680150.84105
  20280391.700   108334231.90008  20280397.120    84259996.99708
  21640929.660   115521132.36408  21640934.960    89849890.39508
  20054065.260   107276049.15808  20054067.560    83437081.25208
  22734125.220   121569589.24805  22734132.580    94554156.20807
 15 02 18 00 22 30.0000000  0 15G16G18G21G22G25G27G29G31R03R09R10R16
                                R18R19R20
  22190346.720   116611085.73209  22190344.540    90865777.20247
  23010847.980   120922912.87508  23010846.120    94225673.20546
  21125003.080   111012993.45309  21125000.220    86503783.31549
  24434603.180   128404719.32007  24434604.380   100055639.62245
  24387504.900   128157658.39907  24387506.580    99863337.15544
  23233929.880   122095159.26008  23233931.200    95139092.16647
  23588987.560   123961364.87907  23588986.840    96593448.51846
  22205877.300   116692702.18209  22205875.480    90929384.40348
  23019917.560   123227431.38305  23019921.960    95843570.08506
  19795088.700   105704700.37008  19795092.140    82214781.32706
  23055508.080   122898823.56406  23055515.920    95588001.16805
  20297998.280   108428282.94608  20298003.720    84333147.78808
  21655709.960   115600030.29708  21655715.380    89911255.44408
  20053967.540   107275526.55508  20053969.800    83436674.79108
  22720770.240   121498174.62505  22720777.420    94498611.58807
 15 02 18 00 23  0.0000000  0 15G16G18G21G22G25G27G29G31R03R09R10R16
                                R18R19R20
  22175585.140   116533512.98008  22175582.860    90805330.91847
  22998253.080   120856726.58608  22998251.480    94174099.52746
  21130508.960   111041927.21309  21130506.120    86526329.10949
  24417370.900   128314166.62206  24417371.980    99985079.77945
  24405500.340   128252224.98306  24405501.740    99937025.38845
  23221586.480   122030294.29708  23221587.720    95088548.08947
  23602771.080   124033797.93907  23602770.360    96649889.84546
  22221264.380   116773561.57309  22221262.540    90992391.70048
  23010521.120   123177131.36505  23010525.560    95804447.88406
  19790398.480   105679654.86008  19790401.900    82195301.48306
  23033340.580   122780658.10507  23033348.360    95496094.72005
  20315713.940   108522916.71508  20315719.420    84406751.81208
  21670495.780   115678957.73108  21670501.120    89972643.44808
  20053929.040   107275321.42808  20053931.460    83436515.25408
  22707462.820   121427014.22604  22707469.960    94443264.69207
 15 02 18 00 23 30.0000000  0 15G16G18G21G22G25G27G29G31R03R09R10R16
                                R18R19R20
  22160857.440   116456118.38309  22160855.180    90745023.45847
  22985698.700   120790753.31808  22985697.160    94122691.82046
  21136087.680   111071243.58709  21136084.820    86549173.04949
  24400124.400   128223538.64307  24400125.340    99914461.24644
  24423528.780   128346965.70006  24423530.180   100010849.29345
  23209264.100   121965539.87207  23209265.300    95038090.14246
  23616557.020   124106243.80307  23616556.240    96706341.13546
  22236708.520   116854721.05809  22236706.740    91055632.83948
  23001229.280   123127390.54504  23001233.540    95765760.59906
  19785857.900   105655408.20508  19785861.320    82176442.97406
  23011233.040   122662812.79106  23011240.880    95404437.27305
  20333538.660   108618132.74708  20333544.080    84480808.70308
  21685287.480   115757916.87208  21685292.760    90034056.11008
  20053950.260   107275435.64608  20053952.820    83436604.10908
  22694203.340   121356110.92104  22694210.560    94388117.74007
 15 02 18 00 24  0.0000000  0 15G16G18G21G22G25G27G29G31R03R09R10R16
                                R18R19R20
  22146163.780   116378902.43708  22146161.440    90684855.20747
  22973185.060   120724993.74308  22973183.400    94071450.61846
  21141738.600   111100939.47709  21141735.780    86572312.70849
  24382863.880   128132836.23907  24382864.340    99843784.63445
  24441589.880   128441877.77507  24441591.280   100084806.71545
  23196962.380   121900894.22007  23196963.480    94987716.95647
  23630345.120   124178700.86307  23630344.240    96762801.15046
  22252208.900   116936176.15509  22252207.160    91119104.34448
  22992042.420   123078210.65904  22992046.140    95727509.59506
  19781466.860   105631960.27208  19781470.340    82158205.68706
  22989186.100   122545290.68206  22989194.080    95313031.19205
  20351471.360   108713925.98008  20351476.820    84555314.52608
  21700084.440   115836904.47207  21700089.740    90095490.90308
  20054030.660   107275865.94608  20054033.300    83436938.78908
  22680991.740   121285463.12804  22680999.000    94333169.53507
 15 02 18 00 24 30.0000000  0 15G16G18G21G22G25G27G29G31R03R09R10R16
                                R18R19R20
  22131503.640   116301863.06008  22131501.260    90624824.54647
  22960711.840   120659446.62508  22960710.060    94020374.96946
  21147460.580   111131008.68509  21147457.760    86595743.26349
  24365588.900   128042057.68006  24365589.520    99773048.75945
  24459682.680   128536955.92106  24459684.240   100158893.56345
  23184680.620   121836353.20608  23184681.580    94937425.29646
  23644134.660   124251164.90907  23644133.640    96819266.62746
  22267764.220   117017920.05509  22267762.460    91182800.87648
  22982960.060   123029591.13805  22982963.500    95689694.46606
  19777224.900   105609308.34408  19777228.360    82140587.52006
  22967199.800   122428091.52606  22967207.820    95221876.32605
  20369510.580   108810288.28708  20369516.060    84630262.96208
  21714885.720   115915915.04608  21714891.100    90156943.56708
  20054169.080   107276606.41308  20054171.720    83437514.71808
  22667827.240   121215066.68105  22667834.400    94278416.77907
 15 02 18 00 25  0.0000000  0 15G16G18G21G22G25G27G29G31R03R09R10R16
                                R18R19R20
  22116878.700   116225008.70208  22116876.340    90564938.06047
  22948280.700   120594120.61608  22948279.040    93969471.59946
  21153254.600   111161456.61609  21153251.820    86619468.93249
  24348300.800   127951211.92706  24348301.240    99702260.45945
  24477808.000   128632205.23606  24477809.880   100233113.75845
  23172419.960   121771922.90108  23172420.860    94887219.89647
  23657926.640   124323641.90907  23657925.640    96875742.18846
  22283375.160   117099956.23509  22283373.440    91246725.15748
  22973984.220   122981541.55405  22973987.260    95652322.59006
  19773133.440   105587460.32508  19773137.000    82123594.60906
  22945275.920   122311225.50506  22945284.000    95130980.53805
  20387656.840   108907222.27108  20387662.320    84705656.03808
  21729692.220   115994953.50007  21729697.780    90218417.91508
  20054366.420   107277661.76308  20054368.940    83438335.55808
  22654710.920   121144927.44405  22654717.780    94223864.09307
 15 02 18 00 25 30.0000000  0 15G16G18G21G22G25G27G29G31R03R09R10R16
                                R18R19R20
  22102289.000   116148339.36108  22102286.640    90505195.73147
  22935891.800   120529016.73908  22935890.340    93918741.33746
  21159119.980   111192279.50909  21159117.240    86643486.78249
  24331000.240   127860299.39807  24331000.820    99631420.10445
  24495965.200   128727622.57306  24495967.040   100307464.89545
  23160180.040   121707601.23008  23160180.920    94837099.15647
  23671720.660   124396129.71007  23671719.660    96932226.17146
  22299040.900   117182280.14409  22299039.160    91310873.63848
  22965114.980   122934063.08904  22965117.980    95615394.94806
  19769192.460   105566415.69608  19769196.060    82107226.55906
  22923415.060   122194695.53706  22923423.280    95040346.13105
  20405909.080   109004722.25308  20405914.540    84781489.33008
  21744503.300   116074016.48107  21744508.960    90279911.32708
  20054622.020   107279028.41708  20054624.360    83439398.52408
  22641642.320   121075043.31505  22641649.120    94169509.79507
 15 02 18 00 26  0.0000000  0 15G16G18G21G22G25G27G29G31R03R09R10R16
                                R18R19R20
  22087734.260   116071853.65209  22087731.900    90445596.50447
  22923544.880   120464133.53308  22923543.500    93868183.00946
  21165055.700   111223472.13509  21165052.960    86667792.73449
  24313686.920   127769318.96607  24313687.220    99560526.76545
  24514153.700   128823202.98906  24514155.460   100381943.15145
  23147960.000   121643384.34408  23147960.920    94787060.06447
  23685515.960   124468624.69607  23685515.080    96988715.72146
  22314760.040   117264884.88509  22314758.440    91375240.94548
  22956352.140   122887155.09204  22956355.180    95578911.01006
  19765401.480   105546171.93508  19765405.060    82091481.41206
  22901617.400   122078501.96206  22901625.640    94949973.34805
  20424265.860   109102780.86008  20424271.300    84857757.11508
  21759318.040   116153098.69507  21759323.700    90341419.70508
  20054934.760   107280700.88308  20054936.940    83440699.33708
  22628620.700   121005410.36304  22628627.400    94115350.89507
 15 02 18 00 26 30.0000000  0 15G16G18G21G22G25G27G29G31R03R09R10R16
                                R18R19R20
  22073215.780   115995558.60109  22073213.440    90386145.84147
  22911241.440   120399478.91608  22911239.980    93817802.80746
  21171062.540   111255038.44209  21171059.800    86692389.86449
  24296362.160   127678278.53807  24296362.540    99489586.70845
  24532374.020   128918950.68706  24532375.540   100456551.72845
  23135760.880   121579277.45708  23135761.900    94737106.68047
  23699313.520   124541131.92307  23699312.840    97045214.82045
  22330533.180   117347773.12209  22330531.600    91439829.15548
  22947697.380   122840826.30104  22947700.580    95542877.54106
  19761761.720   105526735.91108  19761765.300    82076364.49806
  22879884.640   121962654.28906  22879892.940    94859869.62605
  20442727.480   109201399.45908  20442732.920    84934460.43708
  21774137.200   116232204.43307  21774142.840    90402946.38707
  20055305.380   107282683.08408  20055307.460    83442241.06108
  22615646.580   120936033.44004  22615653.520    94061391.12407
 15 02 18 00 27  0.0000000  0 15G16G18G21G22G25G27G29G31R03R09R10R16
                                R18R19R20
  22058733.520   115919453.85609  22058731.100    90326843.46347
  22898981.560   120335053.16208  22898980.060    93767600.94546
  21177139.640   111286974.03609  21177136.940    86717274.75349
  24279025.900   127587177.76606  24279026.080    99418599.59146
  24550625.220   129014862.07306  24550627.160   100531287.76745
  23123582.140   121515278.01508  23123583.240    94687237.04647
  23713113.080   124613648.59307  23713112.200    97101721.30846
  22346359.320   117430939.70709  22346357.660    91504634.25848
  22939150.880   122795077.26104  22939154.320    95507295.01706
  19758273.020   105508106.53008  19758276.600    82061874.97806
  22858217.200   121847154.48706  22858225.620    94770036.46705
  20461292.800   109300571.97008  20461298.260    85011594.59308
  21788960.040   116311329.59708  21788965.540    90464488.18507
  20055733.100   107284970.88408  20055735.180    83444020.48208
  22602719.820   120866910.25304  22602727.160    94007628.76807
 15 02 18 00 27 30.0000000  0 15G16G18G21G22G25G27G29G31R03R09R10R16
                                R18R19R20
  22044287.960   115843541.96009  22044285.540    90267691.36147
  22886765.760   120270859.00108  22886764.280    93717579.53646
  21183286.840   111319277.83009  21183284.140    86742446.55249
  24261678.660   127496019.40907  24261678.300    99347567.57244
  24568907.480   129110935.78506  24568909.340   100606150.40444
  23111423.720   121451385.88007  23111424.780    94637451.00547
  23726914.460   124686174.84007  23726913.460    97158235.23646
  22362237.860   117514381.67709  22362236.140    91569653.95548
  22930713.180   122749911.27804  22930717.060    95472165.97806
  19754935.580   105490284.72508  19754939.120    82048013.57406
  22836615.900   121732006.83206  22836624.240    94680477.19605
  20479961.080   109400294.52808  20479966.540    85089156.55808
  21803786.340   116390472.94208  21803791.720    90526044.11807
  20056217.620   107287562.53808  20056219.720    83446036.22408
  22589840.740   120798040.44405  22589848.060    93954063.43207
 15 02 18 00 28  0.0000000  0 15G16G18G21G22G25G27G29G31R03R09R10R16
                                R18R19R20
  22029879.620   115767825.64809  22029877.260    90208691.65247
  22874594.720   120206899.86208  22874593.440    93667741.28046
  21189504.100   111351949.64409  21189501.420    86767905.11949
  24244321.140   127404807.31707  24244320.620    99276493.66944
  24587220.720   129207171.74606  24587222.440   100681139.44845
  23099285.960   121387602.08808  23099287.040    94587749.38447
  23740717.700   124758712.04207  23740716.920    97214757.69246
  22378168.460   117598097.38009  22378166.680    91634886.93948
  22922385.100   122705332.59504  22922389.340    95437493.75206
  19751749.880   105473273.11008  19751753.380    82034782.31206
  22815081.620   121617216.41007  22815089.840    94591195.76805
  20498731.820   109500564.33708  20498737.240    85167144.15808
  21818616.060   116469634.29308  21818621.380    90587614.05708
  20056758.720   107290457.39808  20056760.920    83448287.79008
  22577009.380   120729424.91405  22577016.500    93900695.85807
 15 02 18 00 28 30.0000000  0 15G16G18G21G22G25G27G29G31R03R09R10R16
                                R18R19R20
  22015508.160   115692303.18709  22015505.860    90149843.01547
  22862468.180   120143174.41508  22862466.900    93618085.11646
  21195790.200   111384983.20209  21195787.480    86793645.56249
  24226953.080   127313539.66607  24226952.480    99205376.41846
  24605563.840   129303564.78006  24605565.520   100756250.89144
  23087168.120   121323922.48308  23087169.100    94538128.95147
  23754522.220   124831255.75207  23754521.580    97271285.22145
  22394149.840   117682079.99109  22394148.100    91700327.91048
  22914166.660   122661339.94604  22914170.900    95403277.29906
  19748715.340   105457068.62808  19748718.800    82022178.82306
  22793614.360   121502783.86407  22793622.580    94502192.70305
  20517603.520   109601373.35808  20517608.920    85245551.15308
  21833448.060   116548808.24908  21833453.320    90649193.79707
  20057355.460   107293649.73408  20057357.720    83450770.72608
  22564224.660   120661058.95805  22564231.620    93847522.39307
 15 02 18 00 29  0.0000000  0 15G16G18G21G22G25G27G29G31R03R09R10R16
                                R18R19R20
  22001174.820   115616981.03509  22001172.500    90091150.45048
  22850387.560   120079689.73408  22850386.040    93568616.54446
  21202145.720   111418381.66409  21202143.000    86819670.33949
  24209575.940   127222223.69007  24209575.480    99134221.54646
  24623937.120   129400118.13505  24623938.700   100831487.21444
  23075070.980   121260351.34408  23075071.840    94488593.01847
  23768328.960   124903810.38707  23768328.360    97327821.27646
  22410182.280   117766331.11009  22410180.680    91765978.10448
  22906059.360   122617941.16205  22906063.580    95369522.73706
  19745832.980   105441677.10108  19745836.420    82010207.62706
  22772215.800   121388717.59607  22772223.960    94413474.49505
  20536576.300   109702722.44408  20536581.680    85324378.18908
  21848283.080   116627998.16608  21848288.200    90710785.96107
  20058008.320   107297142.56508  20058010.660    83453487.38508
  22551487.420   120592947.24605  22551494.180    93794546.65207
 15 02 18 00 29 30.0000000  0 16G16G18G21G22G25G27G29G31R03R04R09R10
                                R16R18R19R20
  21986879.520   115541858.59509  21986877.120    90032613.49848
  22838352.620   120016445.22508  22838351.020    93519335.12046
  21208569.780   111452140.29809  21208567.040    86845975.77149
  24192189.520   127130858.70807  24192189.040    99063028.42446
  24642340.360   129496827.38306  24642342.100   100906845.01945
  23062993.880   121196885.54708  23062994.780    94439139.18747
  23782137.180   124976372.55507  23782136.500    97384363.16646
  22426264.660   117850844.71908  22426263.220    91831832.83448
  22898063.280   122575136.09005  22898067.280    95336229.97406
  23540737.740   126059584.01204  23540740.340    98046353.42405
  19743102.460   105427096.39108  19743105.900    81998867.06906
  22750886.220   121275019.02507  22750894.360    94325042.27905
  20555648.840   109804604.33208  20555654.200    85403619.63308
  21863120.220   116707199.41907  21863125.220    90772386.92907
  20058716.500   107300931.36208  20058718.860    83456434.23308
  22538796.960   120525086.06005  22538803.760    93741765.76707
 15 02 18 00 30  0.0000000  0 16G16G18G21G22G25G27G29G31R03R04R09R10
                                R16R18R19R20
  21972623.300   115466941.86109  21972620.920    89974236.84748
  22826364.640   119953447.83308  22826362.960    93470246.27646
  21215062.900   111486261.85809  21215060.140    86872564.00749
  24174795.140   127039451.49407  24174794.160    98991802.37444
  24660773.860   129593695.60906  24660775.860   100982326.71645
  23050937.540   121133529.11908  23050938.560    94389770.58847
  23795947.700   125048946.42607  23795946.800    97440914.22246
  22442397.340   117935622.53308  22442395.840    91897893.44748
  22890179.360   122532932.02005  22890183.020    95303404.63006
  23521416.640   125956122.87004  23521420.600    97965883.76006
  19740524.800   105413331.72908  19740528.220    81988161.21906
  22729627.140   121161696.44907  22729635.140    94236902.50205
  20574821.260   109907019.76908  20574826.620    85483276.06008
  21877959.960   116786415.11107  21877964.940    90833999.12807
  20059480.480   107305018.22308  20059482.840    83459612.90708
  22526154.040   120457479.26804  22526160.880    93689182.74607
 15 02 18 00 30 30.0000000  0 16G16G18G21G22G25G27G29G31R03R04R09R10
                                R16R18R19R20
  21958406.020   115392229.73709  21958403.740    89916019.64247
  22814423.480   119890696.63708  22814421.700    93421349.26546
  21221624.160   111520741.65909  21221621.440    86899431.39749
  24157392.420   126948001.42507  24157390.940    98920542.88344
  24679236.940   129690718.22006  24679238.620   101057928.70244
  23038901.320   121070278.83908  23038902.480    94340484.70147
  23809759.740   125121528.57707  23809758.860    97497471.72245
  22458579.160   118020658.22908  22458577.440    91964155.01248
  22882407.620   122491328.72505  22882411.060    95271046.56606
  23502111.280   125852742.71305  23502115.160    97885477.01705
  19738099.580   105400381.04308  19738103.020    81978088.46306
  22708438.900   121048750.99906  22708446.840    94149056.05505
  20594092.140   110009961.32408  20594097.580    85563341.69408
  21892801.540   116865640.71807  21892806.580    90895619.03807
  20060299.380   107309398.72908  20060301.720    83463019.98208
  22513558.140   120390123.57904  22513565.100    93636795.06007
 15 02 18 00 31  0.0000000  0 16G16G18G21G22G25G27G29G31R03R04R09R10
                                R16R18R19R20
  21944228.380   115317725.96709  21944226.140    89857964.77948
  22802529.980   119828195.99408  22802528.340    93372647.49846
  21228253.520   111555579.16809  21228250.780    86926577.51049
  24139982.380   126856512.48707  24139980.880    98849253.13546
  24697728.940   129787895.57405  24697729.620   101133651.32344
  23026885.540   121007135.93808  23026886.780    94291282.48247
  23823573.480   125194120.95107  23823572.660    97554037.16945
  22474809.740   118105950.23209  22474807.840    92030616.29348
  22874748.820   122450330.53905  22874751.980    95239159.13806
  23482821.900   125749449.93904  23482825.340    97805138.20305
  19735827.180   105388246.50308  19735830.640    81968650.48306
  22687322.480   120936188.47207  22687330.320    94061507.44405
  20613461.040   110113426.50308  20613466.520    85643814.58608
  21907645.060   116944876.51107  21907650.240    90957246.86907
  20061173.080   107314072.38708  20061175.440    83466655.06208
  22501009.280   120323020.23604  22501016.440    93584603.62507
 15 02 18 00 31 30.0000000  0 16G16G18G21G22G25G27G29G31R03R04R09R10
                                R16R18R19R20
  21930090.300   115243430.28109  21930088.080    89800072.05948
  22790684.180   119765945.83208  22790682.500    93324140.90346
  21234950.280   111590771.04209  21234947.560    86953999.75849
  24122565.280   126764985.13707  24122563.940    98777933.41946
  24716249.680   129885224.05906  24716251.120   101209491.61744
  23014889.820   120944098.10108  23014890.920    94242162.12047
  23837388.620   125266720.79807  23837388.240    97610608.44446
  22491088.100   118191493.54708  22491086.260    92097273.39748
  22867203.100   122409937.76304  22867206.220    95207742.57406
  23463549.200   125646246.40804  23463552.260    97724868.77605
  19733707.340   105376926.96108  19733710.900    81959846.39306
  22666278.240   120824010.74607  22666286.020    93974258.10105
  20632926.820   110217409.11808  20632932.340    85724689.92808
  21922489.800   117024118.97907  21922495.100    91018879.89107
  20062100.900   107319035.37108  20062103.280    83470515.17708
  22488507.180   120256166.24105  22488514.460    93532606.15107
 15 02 18 00 32  0.0000000  0 16G16G18G21G22G25G27G29G31R03R04R09R10
                                R16R18R19R20
  21915992.460   115169345.88109  21915990.220    89742343.97448
  22778886.760   119703949.82408  22778884.900    93275832.34646
  21241714.280   111626315.98909  21241711.520    86981697.12549
  24105141.340   126673422.62607  24105140.200    98706586.34646
  24734799.500   129982703.09107  24734801.500   101285449.26645
  23002914.240   120881166.00108  23002915.220    94193124.14747
  23851205.520   125339328.94007  23851205.320    97667186.17646
  22507413.960   118277286.26508  22507412.160    92164124.84948
  22859771.140   122370154.76905  22859774.340    95176800.29106
  23444294.220   125543137.33304  23444297.980    97644672.90606
  19731740.480   105366424.09708  19731743.980    81951677.49906
  22645307.140   120712222.74707  22645314.920    93887311.91105
  20652488.880   110321905.86108  20652494.380    85805965.15008
  21937335.680   117103367.66507  21937341.100    91080517.75808
  20063082.560   107324286.56608  20063084.960    83474599.45208
  22476051.980   120189562.30505  22476059.080    93480803.14107
 15 02 18 00 32 30.0000000  0 16G16G18G21G22G25G27G29G31R03R04R09R10
                                R16R18R19R20
  21901935.060   115095473.80309  21901932.740    89684781.33248
  22767138.000   119642209.82908  22767136.060    93227723.28546
  21248545.120   111662212.13009  21248542.300    87009668.14649
  24087710.880   126581826.84307  24087709.260    98635213.24645
  24753377.800   130080330.97706  24753379.500   101361522.93745
  22990958.680   120818338.95408  22990959.540    94144168.02547
  23865023.980   125411944.62007  23865023.660    97723769.78446
  22523786.520   118363324.89808  22523784.740    92231167.90748
  22852453.520   122330983.83505  22852456.860    95146334.04206
