     2.11           OBSERVATION DATA    G                   RINEX VERSION / TYPE
SPIDER V4,0,0,3554                      2015 04 16 10:36    PGM / RUN BY / DATE 
CABS                                                        MARKER NAME         
CABS                                                        MARKER NUMBER       
                                                            OBSERVER / AGENCY   
462287              LEICA GRX1200PRO    8.10/2.127          REC # / TYPE / VERS 
103298              LEIAT504                                ANT # / TYPE        
  5116912.3402   671231.6412  3737143.4301                  APPROX POSITION XYZ 
        0.0600        0.0000        0.0000                  ANTENNA: DELTA H/E/N
     1     1                                                WAVELENGTH FACT L1/2
     4    C1    L1    P2    L2                              # / TYPES OF OBSERV 
    30.000                                                  INTERVAL            
  2015    02    18    00    00    0.0000000     GPS         TIME OF FIRST OBS   
  2015    02    18    23    59   30.0000000     GPS         TIME OF LAST OBS    
    16                                                      LEAP SECONDS        
    30                                                      # OF SATELLITES     
   G 1   803   803   803   803                              PRN / # OF OBS      
   G 2   938   938   938   938                              PRN / # OF OBS      
   G 3   847   847   847   847                              PRN / # OF OBS      
   G 4   831   831   831   831                              PRN / # OF OBS      
   G 5   643   643   643   643                              PRN / # OF OBS      
   G 6   830   830   830   830                              PRN / # OF OBS      
   G 7   673   673   673   673                              PRN / # OF OBS      
   G 9   806   806   806   806                              PRN / # OF OBS      
   G10   753   753   753   753                              PRN / # OF OBS      
   G11   769   769   769   769                              PRN / # OF OBS      
   G12   830   830   830   830                              PRN / # OF OBS      
   G13   791   791   791   791                              PRN / # OF OBS      
   G14   939   939   939   939                              PRN / # OF OBS      
   G15   701   701   701   701                              PRN / # OF OBS      
   G16   664   664   664   664                              PRN / # OF OBS      
   G17   941   941   941   941                              PRN / # OF OBS      
   G18   905   905   905   905                              PRN / # OF OBS      
   G19   750   750   750   750                              PRN / # OF OBS      
   G20   786   786   786   786                              PRN / # OF OBS      
   G21   742   742   742   742                              PRN / # OF OBS      
   G22   657   657   657   657                              PRN / # OF OBS      
   G23   755   755   755   755                              PRN / # OF OBS      
   G24   817   817   817   817                              PRN / # OF OBS      
   G25   855   855   855   855                              PRN / # OF OBS      
   G27   801   801   801   801                              PRN / # OF OBS      
   G28   876   876   876   876                              PRN / # OF OBS      
   G29   772   772   771   771                              PRN / # OF OBS      
   G30   719   719   719   719                              PRN / # OF OBS      
   G31   871   871   871   871                              PRN / # OF OBS      
   G32   769   769   769   769                              PRN / # OF OBS      
BIT 2 OF LLI FLAGS DATA COLLECTED UNDER A/S CONDITION       COMMENT             
SNR is mapped to RINEX snr flag value [2-9]                 COMMENT             
Lx:     = 25dBHz -> 1; 26-27dBHz -> 2; 28-31dBHz -> 3       COMMENT             
       32-35dBHz -> 4; 36-38dBHz -> 5; 39-41dBHz -> 6       COMMENT             
       42-44dBHz -> 7; 45-48dBHz -> 8; >=49dBHz -> 9        COMMENT             
                                                            END OF HEADER       
 15 02 18 00 00  0.0000000  0  7G16G18G21G25G27G29G31
  22989136.640   120808742.90007  22989138.720    94136692.11946
  23573576.760   123880012.50006  23573579.300    96529893.79745
  20897093.100   109815222.46208  20897094.100    85570407.09549
  23425936.520   123104380.12707  23425941.020    95925618.39945
  24186958.520   127103338.47805  24186964.200    99041582.69245
  22569030.640   118601502.15208  22569032.440    92416974.33747
  21878760.820   114973685.15908  21878762.480    89589902.12048
 15 02 18 00 00 30.0000000  0  7G16G18G21G25G27G29G31
  22972481.920   120721221.71107  22972483.980    94068493.80446
  23558630.180   123801466.92806  23558632.660    96468689.47544
  20897714.420   109818487.79408  20897715.460    85572951.52849
  23443059.860   123194363.15606  23443064.120    95995735.03445
  24172657.840   127028187.29105  24172663.240    98983023.40945
  22582066.280   118670005.07608  22582068.200    92470353.21547
  21891725.780   115041816.88508  21891727.520    89642991.75148
 15 02 18 00 01  0.0000000  0  7G16G18G21G25G27G29G31
  22955849.080   120633815.24407  22955851.100    94000384.89246
  23543701.720   123723016.61006  23543704.200    96407559.39745
  20898417.600   109822183.19308  20898418.680    85575831.07049
  23460226.080   123284571.79607  23460230.280    96066027.46345
  24158373.500   126953121.94705  24158378.600    98924530.99645
  22595114.240   118738572.86908  22595116.240    92523782.63447
  21904764.980   115110338.76408  21904766.800    89696385.40448
 15 02 18 00 01 30.0000000  0  7G16G18G21G25G27G29G31
  22939238.520   120546525.99407  22939240.480    93932367.31946
  23528792.040   123644664.71207  23528794.300    96346505.96345
  20899202.780   109826309.28408  20899203.840    85579046.22049
  23477435.100   123375005.70406  23477439.420    96136495.43146
  24144105.580   126878143.23206  24144110.520    98866106.09745
  22608174.560   118807206.11208  22608176.720    92577263.05547
  21917878.140   115179249.08008  21917880.000    89750081.73848
 15 02 18 00 02  0.0000000  0  7G16G18G21G25G27G29G31
  22922650.340   120459354.62507  22922652.300    93864441.59146
  23513901.260   123566412.93507  23513903.540    96285530.59045
  20900069.340   109830863.04308  20900070.400    85582594.61449
  23494686.440   123465662.44706  23494691.060    96207137.03446
  24129853.880   126803249.77506  24129858.920    98807747.62545
  22621247.040   118875902.76608  22621249.240    92630792.89347
  21931064.520   115248544.00608  21931066.400    89804077.76548
 15 02 18 00 02 30.0000000  0  7G16G18G21G25G27G29G31
  22906085.060   120372303.91907  22906087.080    93796609.89746
  23499030.120   123488264.64906  23499032.500    96224635.86645
  20901017.400   109835845.05008  20901018.440    85586476.70849
  23511980.020   123556541.70106  23511984.920    96277952.03145
  24115618.500   126728442.36706  24115623.700    98749456.19546
  22634331.700   118944663.26808  22634333.860    92684372.48447
  21944323.740   115318221.67208  21944325.660    89858372.03648
 15 02 18 00 03  0.0000000  0  7G16G18G21G25G27G29G31
  22889542.940   120285374.91007  22889544.940    93728873.02346
  23484179.100   123410221.68106  23484181.420    96163823.19445
  20902046.640   109841253.66408  20902047.680    85590691.22249
  23529315.540   123647641.65806  23529320.760    96348938.98446
  24101399.280   126653720.26305  24101404.660    98691231.21845
  22647428.260   119013486.51807  22647430.480    92738000.95847
  21957655.240   115388278.85708  21957657.140    89912962.02848
 15 02 18 00 03 30.0000000  0  7G16G18G21G25G27G29G31
  22873024.520   120198570.14207  22873026.440    93661232.95946
  23469348.520   123332287.22406  23469351.100    96103095.07345
  20903157.000   109847088.67108  20903158.080    85595237.98749
  23546693.020   123738961.90906  23546698.520    96420097.58446
  24087196.300   126579084.16105  24087201.860    98633073.28646
  22660536.780   119082372.08208  22660538.980    92791677.99047
  21971058.660   115458714.01808  21971060.540    89967846.54748
 15 02 18 00 04  0.0000000  0  7G16G18G21G25G27G29G31
  22856529.800   120111889.34907  22856531.500    93593689.48646
  23454538.700   123254461.84906  23454541.380    96042451.93845
  20904347.780   109853346.32308  20904348.840    85600114.08649
  23564111.920   123830499.00706  23564117.560    96491425.17446
  24073009.240   126504531.77205  24073015.100    98574980.54845
  22673656.800   119151318.12408  22673658.940    92845402.14847
  21984533.020   115529521.92608  21984534.820    90023021.52048
 15 02 18 00 04 30.0000000  0  7G16G18G21G25G27G29G31
  22840059.240   120025335.65907  22840060.800    93526245.06246
  23439750.280   123176749.59306  23439753.160    95981896.97244
  20905619.180   109860027.53808  20905620.220    85605320.24249
  23581572.240   123922253.07206  23581577.880    96562921.81646
  24058838.420   126430064.24305  24058844.300    98516953.94246
  22686788.540   119220325.51508  22686790.620    92899174.10847
  21998078.060   115600701.29808  21998079.760    90078485.94348
 15 02 18 00 05  0.0000000  0  7G16G18G21G25G27G29G31
  22823613.240   119938911.16007  22823614.780    93458901.31146
  23424983.940   123099153.17206  23424986.960    95921432.25945
  20906970.940   109867131.11408  20906971.980    85610855.50449
  23599073.820   124014223.02406  23599079.260    96634586.68746
  24044683.740   126355681.74405  24044689.600    98458993.59345
  22699931.820   119289393.59208  22699933.900    92952993.35647
  22011693.240   115672249.59108  22011694.960    90134237.84148
 15 02 18 00 05 30.0000000  0  7G16G18G21G25G27G29G31
  22807192.000   119852617.19207  22807193.660    93391659.27446
  23410240.220   123021674.78706  23410243.140    95861059.54546
  20908402.780   109874655.58608  20908403.840    85616718.73149
  23616616.100   124106407.14806  23616621.400    96706418.45146
  24030545.220   126281383.55405  24030551.100    98401098.94546
  22713086.400   119358521.25007  22713088.480    93006859.03147
  22025377.940   115744163.44308  22025379.760    90190274.59248
 15 02 18 00 06  0.0000000  0  7G16G18G21G25G27G29G31
  22790796.040   119766456.26907  22790797.900    93324520.91147
  23395519.640   122944317.59306  23395522.460    95800781.25545
  20909914.580   109882600.29408  20909915.660    85622909.41449
  23634198.900   124198804.90706  23634204.020    96778416.66845
  24016422.920   126207170.35305  24016428.680    98343270.53846
  22726252.380   119427708.88708  22726254.540    93060771.44347
  22039131.860   115816441.26908  22039133.840    90246594.96448
 15 02 18 00 06 30.0000000  0  7G16G18G21G25G27G29G31
  22774425.940   119680430.92607  22774427.800    93257488.19747
  23380822.880   122867084.91007  23380825.500    95740599.98245
  20911506.340   109890965.24608  20911507.440    85629427.56749
  23651822.120   124291415.75306  23651827.160    96850580.96245
  24002316.900   126133042.75505  24002322.560    98285508.80845
  22739429.700   119496956.48107  22739432.000    93114730.57447
  22052954.660   115889080.80708  22052956.760    90303197.18948
 15 02 18 00 07  0.0000000  0  7G16G18G21G25G27G29G31
  22758081.940   119594542.55007  22758083.760    93190562.20847
  23366150.320   122789978.78607  23366152.580    95680517.32745
  20913177.780   109899748.82208  20913178.900    85636271.92249
  23669485.440   124384237.96706  23669490.460    96922909.94144
  23988227.100   126059000.11706  23988232.740    98227813.30346
  22752618.380   119566263.29707  22752620.700    93168735.85847
  22066845.760   115962078.78108  22066847.860    90360078.71348
 15 02 18 00 07 30.0000000  0  7G16G18G21G25G27G29G31
  22741764.280   119508792.78407  22741766.060    93123744.21947
  23351502.300   122713001.76307  23351504.280    95620535.26445
  20914928.680   109908949.82208  20914929.800    85643441.53449
  23687188.620   124477270.07506  23687193.660    96995402.47945
  23974153.560   125985042.24006  23974159.100    98170183.83645
  22765818.220   119635628.87908  22765820.540    93222786.93947
  22080804.620   116035432.28608  22080806.600    90417237.27648
 15 02 18 00 08  0.0000000  0  7G16G18G21G25G27G29G31
  22725473.520   119423184.55607  22725475.320    93057036.52747
  23336879.340   122636157.56007  23336881.180    95560656.67545
  20916759.060   109918568.52608  20916760.180    85650936.63249
  23704931.840   124570512.16906  23704936.880    97068058.63545
  23960096.400   125911170.31506  23960101.680    98112621.34645
  22779029.360   119705053.93907  22779031.740    93276884.36647
  22094830.880   116109140.18108  22094832.740    90474671.97348
 15 02 18 00 08 30.0000000  0  7G16G18G21G25G27G29G31
  22709209.800   119337718.69607  22709211.700    92990439.77746
  23322281.780   122559447.29607  23322283.560    95500882.45145
  20918668.340   109928601.99408  20918669.480    85658754.92749
  23722714.520   124663961.18806  23722719.580    97140876.01345
  23946055.140   125837382.47805  23946060.260    98055124.38746
  22792251.440   119774536.23807  22792253.880    93331026.37647
  22108923.660   116183197.87708  22108925.380    90532379.24648
 15 02 18 00 09  0.0000000  0  7G16G18G21G25G27G29G31
  22692973.800   119252398.27607  22692975.760    92923956.36247
  23307710.440   122482875.18806  23307712.300    95441215.90445
  20920656.660   109939050.73908  20920657.820    85666896.81249
  23740536.780   124757617.53106  23740541.780    97213854.95145
  23932030.100   125763680.28706  23932035.020    97997694.16645
  22805484.640   119844076.89007  22805487.080    93385213.86647
  22123082.700   116257604.16108  22123084.300    90590358.14048
 15 02 18 00 09 30.0000000  0  7G16G18G21G25G27G29G31
  22676765.780   119167224.37207  22676767.700    92857587.11347
  23293165.700   122406442.76806  23293167.620    95381658.19145
  20922723.540   109949912.43208  20922724.720    85675360.48249
  23758398.220   124851479.11206  23758403.120    97286993.83544
  23918021.060   125690062.87605  23918025.900    97940330.01245
  22818728.660   119913674.52407  22818731.140    93439445.76547
  22137307.380   116332355.47408  22137308.920    90648605.90248
 15 02 18 00 10  0.0000000  0  7G16G18G21G25G27G29G31
  22660586.000   119082198.88407  22660587.860    92791333.51047
  23278648.020   122330152.82706  23278650.060    95322211.50845
  20924868.840   109961186.13308  20924870.020    85684145.19249
  23776298.360   124945544.44406  23776303.340    97360291.46645
  23904028.120   125616529.96105  23904033.020    97883031.68146
  22831983.540   119983328.93208  22831985.940    93493721.89247
  22151597.120   116407448.78808  22151598.700    90707120.15248
 15 02 18 00 10 30.0000000  0  7G16G18G21G25G27G29G31
  22644435.000   118997324.75907  22644436.800    92725197.84546
  23264158.160   122254008.63007  23264160.340    95262878.39445
  20927092.520   109972871.60808  20927093.660    85693250.76649
  23794237.220   125039813.32406  23794242.360    97433747.69646
  23890051.400   125543082.57205  23890056.420    97825799.99646
  22845249.400   120053040.97907  22845251.720    93548042.94947
  22165951.640   116482882.26308  22165953.320    90765899.46548
 15 02 18 00 11  0.0000000  0  7G16G18G21G25G27G29G31
  22628313.200   118912604.28807  22628314.980    92659181.91247
  23249696.700   122178013.27607  23249698.940    95203661.27244
  20929394.460   109984968.27208  20929395.560    85702676.74349
  23812214.600   125134284.66306  23812219.900    97507361.70746
  23876090.960   125469720.72605  23876096.160    97768634.95746
  22858526.060   120122810.06407  22858528.360    93602408.43347
  22180370.540   116558653.63408  22180372.300    90824942.07748
 15 02 18 00 11 30.0000000  0  7G16G18G21G25G27G29G31
  22612220.580   118828037.41707  22612222.440    92593285.66747
  23235263.860   122102167.52807  23235265.980    95144560.72246
  20931774.020   109997472.80708  20931775.060    85712420.53949
  23830229.980   125228955.29606  23830235.380    97581131.00146
  23862146.480   125396442.60705  23862151.880    97711535.14447
  22871813.000   120192633.65807  22871815.380    93656816.39947
  22194852.800   116634758.27408  22194854.700    90884244.37848
 15 02 18 00 12  0.0000000  0  7G16G18G21G25G27G29G31
  22596157.900   118743627.61108  22596159.820    92527511.81147
  23220860.280   122026475.28407  23220862.340    95085579.77145
  20934231.180   110010385.24608  20934232.200    85722482.18249
  23848283.340   125323825.27906  23848288.760    97655055.63046
  23848218.180   125323249.41705  23848223.740    97654501.50746
  22885110.560   120262513.13307  22885113.040    93711267.90847
  22209398.120   116711194.63608  22209400.220    90943805.16748
 15 02 18 00 12 30.0000000  0  7G16G18G21G25G27G29G31
  22580125.360   118659375.96808  22580127.300    92461861.20747
  23206486.260   121950938.43007  23206488.320    95026719.91345
  20936765.680   110023704.16308  20936766.660    85732860.56349
  23866374.240   125418892.73806  23866379.600    97729134.13345
  23834305.940   125250140.56405  23834311.580    97597533.61446
  22898418.580   120332447.65207  22898421.180    93765762.31447
  22224005.900   116787959.27208  22224008.120    91003621.75248
 15 02 18 00 13  0.0000000  0  7G16G18G21G25G27G29G31
  22564123.720   118575286.52308  22564125.580    92396336.98247
  23192142.460   121875561.17607  23192144.640    94967984.42746
  20939377.520   110037429.46908  20939378.460    85743555.60949
  23884502.640   125514157.87606  23884507.880    97803366.67645
  23820410.200   125177102.51305  23820415.600    97540619.60046
  22911737.200   120402437.95607  22911739.960    93820300.17847
  22238675.920   116865051.06508  22238678.200    91063693.26548
 15 02 18 00 13 30.0000000  0  7G16G18G21G25G27G29G31
  22548153.080   118491359.97008  22548154.840    92330939.69347
  23177829.380   121800345.96307  23177831.700    94909375.17346
  20942066.320   110051559.25308  20942067.240    85754565.83449
  23902668.180   125609618.56706  23902673.280    97877751.59945
  23806530.520   125104164.37306  23806535.860    97483784.72046
  22925066.360   120472483.17507  22925069.240    93874880.84447
  22253407.500   116942466.22508  22253409.780    91124016.75048
 15 02 18 00 14  0.0000000  0  7G16G18G21G25G27G29G31
  22532213.820   118407598.55908  22532215.540    92265671.07547
  23163547.480   121725294.90307  23163549.980    94850893.84745
  20944831.960   110066092.83408  20944832.880    85765890.70549
  23920870.560   125705273.65506  23920875.640    97952288.02945
  23792667.080   125031311.19506  23792672.320    97427016.06746
  22938405.940   120542583.21507  22938408.880    93929504.22646
  22268200.220   117020202.34108  22268202.420    91184590.32648
 15 02 18 00 14 30.0000000  0  7G16G18G21G25G27G29G31
  22516306.460   118324005.01808  22516308.200    92200533.26347
  23149297.360   121650410.85507  23149299.920    94792542.67045
  20947674.280   110081029.51808  20947675.240    85777529.67949
  23939109.680   125801122.38905  23939114.780    98026975.31745
  23778819.900   124958543.58106  23778825.040    97370314.08146
  22951755.940   120612737.90907  22951758.900    93984170.21047
  22283053.580   117098256.92708  22283055.680    91245412.06748
 15 02 18 00 15  0.0000000  0  7G16G18G21G25G27G29G31
  22500431.280   118240580.61008  22500433.080    92135527.25347
  23135079.580   121575696.19507  23135082.020    94734323.47945
  20950592.880   110096366.90708  20950593.860    85789480.89349
  23957385.220   125897162.48405  23957390.460    98101811.74544
  23764988.740   124885860.51006  23764993.840    97313677.97746
  22965116.220   120682946.64107  22965119.180    94038878.27647
  22297966.860   117176626.49308  22297968.940    91306479.24348
 15 02 18 00 15 30.0000000  0  7G16G18G21G25G27G29G31
  22484588.320   118157325.53208  22484590.120    92070653.18947
  23120894.280   121501152.01907  23120896.560    94676237.12545
  20953587.200   110112102.35408  20953588.240    85801742.28549
  23975696.880   125993391.22006  23975702.040    98176795.14244
  23751173.320   124813260.46906  23751178.420    97257106.58645
  22978486.480   120753207.05907  22978489.280    94093626.64346
  22312939.220   117255306.46608  22312941.260    91367788.30948
 15 02 18 00 16  0.0000000  0  7G16G18G21G25G27G29G31
  22468778.440   118074244.01208  22468780.180    92005914.35547
  23106742.380   121426782.93907  23106744.400    94618287.22945
  20956657.480   110128236.87908  20956658.560    85814314.65449
  23994044.720   126089809.23106  23994049.800    98251926.04245
  23737374.100   124740745.54606  23737379.200    97200601.53145
  22991866.880   120823521.00507  22991869.500    94148416.70746
  22327970.500   117334296.16008  22327972.560    91429338.70948
 15 02 18 00 16 30.0000000  0  7G16G18G21G25G27G29G31
  22453001.820   117991337.49608  22453003.520    91941311.90147
  23092624.080   121352590.69507  23092625.980    94560475.11445
  20959803.320   110144768.34808  20959804.420    85827196.32849
  24012428.460   126186414.60506  24012433.280    98327202.93845
  23723590.880   124668314.97106  23723595.960    97144162.21945
  23005257.220   120893887.62007  23005259.700    94203247.78646
  22343060.020   117413592.18108  22343062.120    91491127.80648
 15 02 18 00 17  0.0000000  0  7G16G18G21G25G27G29G31
  22437258.800   117908607.60108  22437260.420    91876847.07547
  23078539.920   121278578.01907  23078541.720    94502802.92345
  20963024.440   110161695.34308  20963025.520    85840386.19249
  24030847.620   126283205.70606  24030852.180    98402624.54645
  23709823.700   124595968.50406  23709828.720    97087788.41445
  23018657.500   120964306.49507  23018659.940    94258119.61046
  22358207.280   117493191.51108  22358209.360    91553153.24447
 15 02 18 00 17 30.0000000  0  7G16G18G21G25G27G29G31
  22421550.160   117826058.35608  22421551.720    91812523.00747
  23064490.680   121204749.02707  23064492.560    94445273.84946
  20966320.840   110179017.97608  20966321.880    85853884.35649
  24049302.120   126380182.86906  24049306.520    98478191.14045
  23696072.840   124523707.69905  23696077.800    97031481.36745
  23032067.940   121034778.99907  23032070.460    94313033.22946
  22373412.040   117573092.82008  22373413.980    91615413.98847
 15 02 18 00 18  0.0000000  0  7G16G18G21G25G27G29G31
  22405876.280   117743691.44808  22405877.780    91748341.02347
  23050476.840   121131105.89007  23050478.860    94387889.61545
  20969692.260   110196734.69208  20969693.240    85867689.59649
  24067791.560   126477344.38606  24067795.980    98553901.37244
  23682338.320   124451532.22005  23682343.140    96975240.77146
  23045488.380   121105303.70607  23045490.900    94367987.50746
  22388673.640   117653292.81508  22388675.440    91677907.47447
 15 02 18 00 18 30.0000000  0  7G16G18G21G25G27G29G31
  22390237.360   117661508.10108  22390238.800    91684302.06747
  23036498.660   121057650.10307  23036500.820    94330651.34945
  20973138.200   110214843.20308  20973139.160    85881800.12849
  24086315.380   126574687.92506  24086320.140    98629753.46445
  23668619.800   124379441.05506  23668624.580    96919065.87245
  23058918.740   121175880.21707  23058921.240    94422982.16846
  22403991.360   117733787.90008  22403993.080    91740630.89147
 15 02 18 00 19  0.0000000  0  7G16G18G21G25G27G29G31
  22374633.880   117579511.11308  22374635.340    91620408.33547
  23022556.960   120984385.84907  23022559.220    94273562.33446
  20976658.780   110233344.10208  20976659.740    85896216.42349
  24104873.640   126672213.52105  24104878.860    98705747.41545
  23654917.620   124307435.55306  23654922.360    96862957.74645
  23072359.160   121246509.75607  23072361.660    94478018.14947
  22419364.920   117814576.58008  22419366.680    91803583.08447
 15 02 18 00 19 30.0000000  0  7G16G18G21G25G27G29G31
  22359066.140   117497702.31008  22359067.660    91556661.24147
  23008652.100   120911315.02207  23008654.460    94216624.04846
  20980253.580   110252235.01408  20980254.560    85910936.62049
  24123466.020   126769918.93805  24123471.740    98781881.50645
  23641231.600   124235514.94806  23641236.360    96806915.75546
  23085809.400   121317190.91607  23085811.880    94533094.34246
  22434793.640   117895654.97208  22434795.440    91866761.03747
 15 02 18 00 20  0.0000000  0  7G16G18G21G25G27G29G31
  22343534.780   117416084.63908  22343536.360    91493063.08147
  22994784.720   120838441.04907  22994787.080    94159839.15545
  20983922.440   110271515.07408  20983923.420    85925960.05249
  24142092.400   126867803.38205  24142098.640    98858155.04646
  23627561.800   124163679.70906  23627566.660    96750940.29746
  23099269.440   121387923.88507  23099271.920    94588210.91346
  22450277.080   117977020.91408  22450278.980    91930163.04347
 15 02 18 00 20 30.0000000  0  7G16G18G21G25G27G29G31
  22328039.680   117334657.39108  22328041.240    91429613.31147
  22980954.820   120765764.18507  22980957.140    94103207.84645
  20987664.700   110291180.92508  20987665.700    85941284.09849
  24160752.380   126965863.30305  24160758.760    98934565.36646
  23613907.840   124091927.62006  23613912.720    96695029.62846
  23112738.900   121458706.24407  23112741.360    94643365.96946
  22465814.240   118058669.31208  22465816.280    91993785.15747
 15 02 18 00 21  0.0000000  0  7G16G18G21G25G27G29G31
  22312581.360   117253423.68108  22312582.940    91366314.33347
  22967163.060   120693287.76007  22967165.280    94046732.71845
  20991480.220   110311231.91208  20991481.280    85956908.24249
  24179445.860   127064098.14905  24179452.100    99011111.97445
  23600269.840   124020259.57006  23600274.800    96639184.44747
  23126217.880   121529538.82507  23126220.360    94698560.15946
  22481404.780   118140598.19208  22481406.900    92057625.82147
 15 02 18 00 21 30.0000000  0  7G16G18G21G25G27G29G31
  22297160.540   117172386.93808  22297162.140    91303168.85147
  22953409.880   120621014.91807  22953412.160    93990416.23746
  20995369.060   110331668.20708  20995370.220    85972832.63749
  24198172.720   127162507.61105  24198178.700    99087794.63145
  23586647.960   123948676.50706  23586653.020    96583405.47047
  23139706.640   121600422.55107  23139709.120    94753794.19446
  22497048.340   118222805.64908  22497050.460    92121683.55347
 15 02 18 00 22  0.0000000  0  7G16G18G21G25G27G29G31
  22281777.400   117091548.12108  22281779.040    91240177.59347
  22939695.780   120548947.78207  22939698.100    93934260.04945
  20999330.660   110352486.90508  20999331.900    85989054.99949
  24216932.420   127261089.18305  24216937.960    99164611.41645
  23573042.140   123877177.46106  23573047.180    96527691.97946
  23153204.840   121671355.92607  23153207.280    94809066.91146
  22512744.200   118305287.73208  22512746.240    92185955.28747
 15 02 18 00 22 30.0000000  0  7G16G18G21G25G27G29G31
  22266432.600   117010910.57908  22266434.220    91177343.16847
  22926021.600   120477090.52707  22926023.920    93878267.39946
  21003365.040   110373687.71208  21003366.280    86005575.11949
  24235724.800   127359842.76405  24235729.940    99241562.22145
  23559452.540   123805763.61306  23559457.520    96472044.85147
  23166712.640   121742339.88907  23166715.080    94864379.06246
  22528492.000   118388042.90308  22528493.920    92250439.81047
 15 02 18 00 23  0.0000000  0  7G16G18G21G25G27G29G31
  22251126.440   116930475.93408  22251128.000    91114666.84247
  22912387.680   120405444.57707  22912389.940    93822439.41346
  21007471.780   110395268.84708  21007473.020    86022391.59449
  24254549.520   127458766.14706  24254554.280    99318645.39544
  23545879.000   123734434.31006  23545883.840    96416463.62346
  23180229.920   121813373.48307  23180232.320    94919729.89146
  22544291.040   118471067.65008  22544292.940    92315134.39547
 15 02 18 00 23 30.0000000  0  7G16G18G21G25G27G29G31
  22235859.420   116850247.19408  22235860.920    91052150.96347
  22898794.820   120334013.91307  22898797.020    93766779.18545
  21011650.900   110417230.25308  21011652.120    86039504.38249
  24273406.480   127557859.14006  24273410.920    99395860.69645
  23532321.740   123663190.59906  23532326.440    96360949.08046
  23193756.760   121884457.62807  23193759.140    94975120.10146
  22560141.060   118554360.01508  22560142.920    92380037.50847
 15 02 18 00 24  0.0000000  0  8G16G18G21G22G25G27G29G31
  22220632.240   116770228.14608  22220633.720    90989798.47347
  22885243.780   120262802.44107  22885245.880    93711289.76245
  21015902.420   110439572.15708  21015903.620    86056913.66849
  24546636.600   128993437.16206  24546637.440   100514374.06844
  24292295.620   127657121.85406  24292299.900    99473208.26944
  23518781.040   123592034.08706  23518785.680    96305502.51446
  23207293.500   121955593.84707  23207295.840    95030550.89546
  22576041.720   118637918.58708  22576043.620    92445148.06347
 15 02 18 00 24 30.0000000  0  8G16G18G21G22G25G27G29G31
  22205442.960   116690408.43508  22205444.400    90927601.32247
  22871732.720   120191800.54307  22871734.740    93655963.62446
  21020223.620   110462280.06908  21020224.760    86074608.15349
  24528532.680   128898301.82406  24528533.300   100440242.93145
  24311214.220   127756540.36205  24311218.780    99550677.18145
  23505254.540   123520952.22506  23505259.080    96250114.09846
  23220837.680   122026769.48807  23220840.020    95086012.40546
  22591990.160   118721728.09708  22591992.120    92510454.15847
 15 02 18 00 25  0.0000000  0  8G16G18G21G22G25G27G29G31
  22190295.660   116610809.16508  22190297.100    90865575.93547
  22858265.560   120121029.30407  22858267.480    93600817.22646
  21024617.900   110485372.00308  21024619.000    86092601.88249
  24510416.420   128803102.95706  24510417.280   100366062.29244
  24330165.740   127856132.03405  24330170.560    99628281.05944
  23491745.840   123449963.91406  23491750.380    96194798.60646
  23234392.960   122098002.99107  23234395.340    95141519.00246
  22607989.340   118805804.41308  22607991.400    92575968.15747
 15 02 18 00 25 30.0000000  0  8G16G18G21G22G25G27G29G31
  22175189.300   116531424.68908  22175190.680    90803717.92847
  22844841.400   120050484.04207  22844843.340    93545846.90246
  21029083.480   110508838.62208  21029084.540    86110887.57149
  24492287.140   128707835.22806  24492288.340   100291827.99544
  24349148.400   127955887.75205  24349153.600    99706012.76545
  23478253.440   123379061.35206  23478257.960    96139549.91246
  23247957.720   122169286.38607  23247960.300    95197064.47246
  22624037.380   118890137.16708  22624039.460    92641681.96847
 15 02 18 00 26  0.0000000  0  8G16G18G21G22G25G27G29G31
  22160123.680   116452254.31608  22160125.100    90742026.75147
  22831459.960   119980163.85807  22831462.060    93491051.96246
  21033619.480   110532675.41308  21033620.520    86129461.70249
  24474144.720   128612498.02506  24474146.260   100217539.55944
  24368161.500   128055802.95305  24368167.060    99783868.71846
  23464776.840   123308241.48206  23464781.320    96084365.64546
  23261531.380   122240616.60007  23261534.140    95252646.41446
  22640133.000   118974719.90608  22640135.080    92707590.57347
 15 02 18 00 26 30.0000000  0  8G16G18G21G22G25G27G29G31
  22145099.680   116373302.79208  22145101.160    90680506.10847
  22818122.340   119910074.23407  22818124.680    93436436.68546
  21038226.180   110556884.01808  21038227.260    86148325.55949
  24455990.080   128517096.74205  24455991.820   100143201.12446
  24387205.320   128155879.07605  24387211.120    99861850.07444
  23451316.580   123237507.25207  23451320.960    96029248.12345
  23275114.480   122311996.29407  23275117.340    95308266.92346
  22656276.240   119059552.77308  22656278.240    92773694.08447
 15 02 18 00 27  0.0000000  0  8G16G18G21G22G25G27G29G31
  22130117.500   116294571.14708  22130119.040    90619156.79447
  22804828.800   119840216.65607  22804831.320    93382002.21146
  21042903.080   110581461.47808  21042904.180    86167476.83449
  24437823.520   128421632.31205  24437825.340   100068813.45145
  24406279.380   128256113.65105  24406285.260    99939954.91345
  23437872.320   123166857.43106  23437876.640    95974196.36146
  23288706.680   122383423.88607  23288709.680    95363924.76146
  22672466.300   119144631.82708  22672468.200    92839989.42247
 15 02 18 00 27 30.0000000  0  8G16G18G21G22G25G27G29G31
  22115177.980   116216063.64908  22115179.540    90557982.15147
  22791580.260   119770595.54807  22791582.880    93327752.01146
  21047650.300   110606408.39208  21047651.400    86186915.99749
  24419645.700   128326109.03706  24419647.700    99994379.96945
  24425383.480   128356506.63705  24425389.560   100018183.19144
  23424444.440   123096293.81506  23424448.820    95919211.77946
  23302308.360   122454901.06307  23302311.420    95419621.23246
  22688702.900   119229955.64108  22688704.760    92906475.49247
 15 02 18 00 28  0.0000000  0  8G16G18G21G22G25G27G29G31
  22100281.100   116137780.16108  22100282.660    90496982.05347
  22778376.760   119701211.27507  22778379.380    93273686.35646
  21052467.280   110631721.81108  21052468.380    86206640.74949
  24401456.840   128230527.74505  24401458.780    99919901.23946
  24444517.220   128457054.96205  24444523.400   100096532.51544
  23411032.600   123025814.49106  23411037.060    95864292.87446
  23315919.040   122526426.14806  23315922.180    95475355.01546
  22704985.140   119315519.48708  22704986.960    92973148.59247
 15 02 18 00 28 30.0000000  0  8G16G18G21G22G25G27G29G31
  22085427.160   116059722.16908  22085428.660    90436157.66447
  22765218.700   119632065.64007  22765221.160    93219806.66345
  21057353.400   110657398.61908  21057354.460    86226648.65949
  24383257.200   128134889.67806  24383259.260    99845378.27745
  24463680.000   128557756.00305  24463686.280   100175000.85545
  23397636.600   122955418.54606  23397641.160    95809438.92746
  23329538.480   122597997.71806  23329541.680    95531125.02145
  22721312.260   119401319.52808  22721314.160    93040005.74547
 15 02 18 00 29  0.0000000  0  8G16G18G21G22G25G27G29G31
  22070616.840   115981893.44108  22070618.340    90375511.93347
  22752106.920   119563162.88907  22752109.160    93166116.24246
  21062308.760   110683439.34808  21062309.840    86246940.14549
  24365047.640   128039199.14505  24365049.780    99770814.42846
  24482872.080   128658610.07606  24482878.200   100253588.47544
  23384256.940   122885107.70306  23384261.500    95754651.30746
  23343167.120   122669617.40906  23343170.400    95586932.55146
  22737684.040   119487354.44608  22737686.080    93107045.91247
 15 02 18 00 29 30.0000000  0  8G16G18G21G22G25G27G29G31
  22055850.760   115904297.21408  22055852.300    90315047.36947
  22739041.960   119494506.07408  22739043.960    93112617.46246
  21067333.220   110709843.11908  21067334.300    86267514.52049
  24346829.000   127943459.23606  24346830.840    99696212.06744
  24502093.100   128759616.39306  24502099.100   100332294.65744
  23370893.580   122814882.61706  23370898.120    95699930.49746
  23356804.940   122741285.54806  23356808.360    95642777.80846
  22754100.120   119573621.88908  22754102.300    93174267.28647
 15 02 18 00 30  0.0000000  0  8G16G18G21G22G25G27G29G31
  22041129.260   115826935.43808  22041130.880    90254765.49047
  22726024.420   119426098.15307  22726026.180    93059312.62246
  21072426.540   110736608.65408  21072427.600    86288370.78949
  24328601.300   127847672.46206  24328602.960    99621573.18445
  24521342.860   128860773.49206  24521348.600   100411118.35644
  23357546.480   122744743.42506  23357551.080    95645276.61047
  23370452.020   122813002.02906  23370455.560    95698660.73146
  22770560.080   119660119.40708  22770562.300    93241667.92347
 15 02 18 00 30 30.0000000  0  8G16G18G21G22G25G27G29G31
  22026452.360   115749808.23108  22026454.080    90194666.39547
  22713054.200   119357939.14507  22713055.840    93006201.72345
  21077588.040   110763732.51708  21077589.100    86309506.27549
  24310364.680   127751839.24906  24310366.380    99546898.14845
  24540620.680   128962077.88506  24540626.080   100490056.83645
  23344215.300   122674688.07906  23344219.960    95590688.07047
  23384108.080   122884764.49106  23384111.520    95754579.50246
  22787062.900   119746841.63108  22787065.080    93309243.65347
 15 02 18 00 31  0.0000000  0  8G16G18G21G22G25G27G29G31
  22011820.760   115672918.87008  22011822.480    90134752.62747
  22700132.040   119290032.87807  22700133.620    92953287.77146
  21082817.520   110791213.73008  21082818.600    86330920.21449
  24292119.860   127655962.98706  24292121.540    99472189.49345
  24559926.320   129063528.85205  24559931.540   100569109.50944
  23330900.280   122604717.38707  23330904.960    95536165.49646
  23397773.260   122956574.20107  23397776.540    95810535.07746
  22803608.100   119833786.35908  22803610.120    93376992.77147
 15 02 18 00 31 30.0000000  0  8G16G18G21G22G25G27G29G31
  21997235.140   115596270.75408  21997236.760    90075026.83547
  22687258.620   119222382.84107  22687260.260    92900573.45646
  21088115.060   110819052.62708  21088116.160    86352612.86549
  24273867.480   127560047.56206  24273869.440    99397450.33645
  24579259.680   129165126.22105  24579264.720   100648276.26543
  23317601.660   122534832.74907  23317606.300    95481709.98346
  23411447.660   123028432.00607  23411450.880    95866528.12046
  22820195.360   119920952.06008  22820197.200    93444914.06047
 15 02 18 00 32  0.0000000  0  8G16G18G21G22G25G27G29G31
  21982695.580   115519864.90308  21982697.160    90015489.83247
  22674434.220   119154990.42607  22674436.040    92848059.88746
  21093480.000   110847245.76408  21093481.140    86374581.55549
  24255607.720   127464093.99906  24255610.080    99322681.44545
  24598620.400   129266866.97905  24598625.260   100727554.75544
  23304319.120   122465032.74807  23304323.720    95427320.42146
  23425130.980   123100336.35107  23425134.080    95922557.42546
  22836823.780   120008334.46408  22836825.560    93513004.21647
 15 02 18 00 32 30.0000000  0  8G16G18G21G22G25G27G29G31
  21968202.720   115443704.33108  21968204.220    89956143.94247
  22661659.500   119087859.31608  22661661.620    92795749.96246
  21098912.440   110875793.31108  21098913.540    86396826.40149
  24237341.440   127368106.01305  24237344.160    99247885.76045
  24618008.280   129368751.01205  24618013.080   100806944.88744
  23291052.920   122395318.74607  23291057.540    95372997.87347
  23438823.380   123172288.39707  23438826.200    95978623.93146
  22853493.000   120095931.88208  22853494.780    93581261.91847
 15 02 18 00 33  0.0000000  0  8G16G18G21G22G25G27G29G31
  21953757.000   115367791.70908  21953758.480    89896991.26747
  22648935.080   119020992.18208  22648937.380    92743645.73246
  21104412.020   110904693.59608  21104413.080    86419346.11249
  24219069.160   127272086.02805  24219072.220    99173065.10845
  24637423.160   129470776.86405  24637428.080   100886445.48945
  23277803.120   122325690.86907  23277807.720    95318742.44446
  23452524.700   123244288.06607  23452527.300    96034727.53146
  22870202.480   120183741.17308  22870204.320    93649684.71347
 15 02 18 00 33 30.0000000  0  8G16G18G21G22G25G27G29G31
  21939358.920   115292129.52708  21939360.400    89838033.73947
  22636261.500   118954391.80208  22636263.780    92691749.34846
  21109978.500   110933945.28108  21109979.500    86442139.63449
  24200791.600   127176037.43506  24200794.560    99098222.14145
  24656864.720   129572943.30106  24656869.760   100966055.68745
  23264569.800   122256149.44207  23264574.500    95264554.38046
  23466235.000   123316335.75107  23466237.620    96090868.53546
  22886951.780   120271760.00108  22886953.760    93718270.79046
 15 02 18 00 34  0.0000000  0  8G16G18G21G22G25G27G29G31
  21925008.480   115216717.60908  21925009.960    89779271.21547
  22623638.660   118888057.80708  22623640.740    92640060.53746
  21115611.120   110963544.53608  21115612.060    86465203.99749
  24182508.620   127079959.44606  24182511.520    99023356.32245
  24676332.140   129675246.13705  24676337.380   101045772.15044
  23251352.440   122186691.88007  23251357.200    95210431.66646
  23479953.780   123388428.43907  23479956.380    96147044.60946
  22903739.880   120359982.62208  22903742.020    93787015.67347
 15 02 18 00 34 30.0000000  0  8G16G18G21G22G25G27G29G31
  21910706.500   115141560.34908  21910708.000    89720707.13147
  22611067.440   118821995.40808  22611069.380    92588583.38046
  21121310.040   110993492.35308  21121310.960    86488539.96449
  24164221.180   126983857.45406  24164223.520    98948471.73145
  24695825.560   129777686.24605  24695830.940   101125595.62244
  23238151.520   122117320.59307  23238156.320    95156376.17546
  23493681.580   123460568.65707  23493684.020    96203257.73546
  22920566.760   120448408.43908  22920568.940    93855918.88547
 15 02 18 00 35  0.0000000  0  8G16G18G21G22G25G27G29G31
  21896453.400   115066659.71608  21896454.900    89662343.00747
  22598548.240   118756206.45508  22598550.080    92537319.29446
  21127074.760   111023786.24208  21127075.700    86512145.59749
  24145929.720   126887733.34906  24145931.660    98873569.94045
  24715344.580   129880261.61904  24715350.460   101205524.46045
  23224966.900   122048035.18707  23224971.800    95102387.58847
  23507418.180   123532755.41306  23507420.440    96259507.12446
  22937431.740   120537034.02308  22937433.800    93924977.75547
 15 02 18 00 35 30.0000000  0  8G16G18G21G22G25G27G29G31
  21882249.140   114992015.95708  21882250.700    89604179.05647
  22586081.140   118690691.80508  22586082.960    92486268.96246
  21132904.720   111054422.97508  21132905.660    86536018.37649
  24127634.080   126791587.96606  24127635.740    98798651.54145
  24734888.900   129982969.12205  24734895.060   101285556.25444
  23211798.280   121978834.11307  23211803.260    95048464.71046
  23521163.540   123604987.52907  23521165.620    96315791.85345
  22954333.900   120625855.09808  22954335.820    93994188.95846
 15 02 18 00 36  0.0000000  0  8G16G18G21G22G25G27G29G31
  21868094.360   114917632.07308  21868095.920    89546217.60247
  22573666.740   118625454.30207  22573668.640    92435434.57746
  21138799.700   111085401.38908  21138800.640    86560157.40149
  24109334.900   126695424.29806  24109336.280    98723718.90645
  24754458.360   130085807.48605  24754464.660   101365690.02744
  23198645.780   121909717.73707  23198650.760    94994607.83146
  23534917.620   123677264.88207  23534919.480    96372111.78845
  22971272.640   120714868.48308  22971274.480    94063550.01246
 15 02 18 00 36 30.0000000  0  8G16G18G21G22G25G27G29G31
  21853989.600   114843510.81508  21853991.120    89488460.79047
  22561305.660   118560496.90608  22561307.640    92384818.43846
  21144759.620   111116721.13708  21144760.580    86584562.40249
  24091032.740   126599245.48306  24091033.900    98648774.47245
  24774052.800   130188775.80205  24774058.960   101445925.04845
  23185509.540   121840686.73207  23185514.500    94940817.46646
  23548680.440   123749588.18207  23548682.100    96428467.54846
  22988247.520   120804072.15008  22988249.340    94133059.34546
 15 02 18 00 37  0.0000000  0  8G16G18G21G22G25G27G29G31
  21839935.540   114769655.99508  21839937.000    89430911.58547
  22548998.640   118495823.73908  22549000.740    92334423.78546
  21150784.460   111148382.12208  21150785.440    86609233.30149
  24072728.340   126503055.90006  24072729.620    98573821.63945
  24793672.160   130291874.11705  24793677.680   101526261.37943
  23172389.820   121771742.82907  23172394.800    94887095.00146
  23562452.200   123821959.00706  23562453.840    96484860.35546
  23005258.340   120893464.73607  23005260.160    94202715.88146
 15 02 18 00 37 30.0000000  0  8G16G18G21G22G25G27G29G31
  21825932.340   114696068.73208  21825933.800    89373570.87547
  22536746.060   118431436.04108  22536748.240    92284251.56346
  21156873.740   111180381.59608  21156874.720    86634167.95849
  24054422.140   126406856.72406  24054423.240    98498861.29145
  24813315.740   130395099.85905  24813320.900   101606697.01144
  23159286.540   121702884.95907  23159291.480    94833439.55146
  23576232.640   123894376.05506  23576234.540    96541289.17046
  23022304.320   120983042.29407  23022306.260    94272516.55147
 15 02 18 00 38  0.0000000  0  7G16G18G21G22G27G29G31
  21811980.500   114622751.38908  21811982.000    89316440.49547
  22524548.400   118367336.40808  22524550.560    92234303.82846
  21163027.200   111212718.05708  21163028.160    86659365.20548
  24036114.540   126310650.82706  24036115.960    98423895.78645
  23146199.740   121634113.27407  23146204.540    94779851.26447
  23590021.720   123966839.18606  23590024.120    96597753.90546
  23039385.000   121072801.77407  23039387.020    94342458.97446
 15 02 18 00 38 30.0000000  0  7G16G18G21G22G27G29G31
  21798081.480   114549711.44308  21798082.960    89259526.25747
  22512407.000   118303532.09808  22512408.980    92184586.21146
  21169245.460   111245394.90308  21169246.360    86684827.68749
  24017807.160   126214445.86006  24017808.520    98348930.96745
  23133130.380   121565433.01607  23133134.980    94726334.22146
  23603820.540   124039353.69406  23603823.380    96654258.67546
  23056500.720   121162745.18508  23056502.780    94412544.73246
 15 02 18 00 39  0.0000000  0  7G16G18G21G22G27G29G31
  21784233.920   114476941.77508  21784235.320    89202822.63447
  22500320.580   118240016.97308  22500322.380    92135093.92046
  21175526.380   111278401.33908  21175527.260    86710546.99248
  23999498.760   126118234.77706  23999500.000    98273961.35745
  23120076.620   121496834.79807  23120081.080    94672881.11947
  23617627.340   124111909.88706  23617630.560    96710795.93247
  23073649.220   121252860.43008  23073651.220    94482764.38146
 15 02 18 00 39 30.0000000  0  7G16G18G21G22G27G29G31
  21770438.520   114404446.35608  21770439.860    89146332.70948
  22488289.800   118176794.96508  22488291.500    92085830.05346
  21181870.000   111311737.27708  21181870.880    86736523.05349
  23981190.160   126022022.14806  23981191.220    98198990.56545
  23107038.780   121428320.44107  23107043.200    94619493.34947
  23631442.560   124184509.66306  23631446.040    96767367.14946
  23090830.180   121343146.32708  23090832.140    94553116.99846
 15 02 18 00 40  0.0000000  0  7G16G18G21G22G27G29G31
  21756696.280   114332230.50708  21756697.600    89090060.63247
  22476315.760   118113871.55708  22476317.380    92036798.85846
  21188276.640   111345404.50208  21188277.500    86762757.25949
  23962882.420   125925813.67806  23962883.100    98124023.01145
  23094017.500   121359893.22407  23094021.900    94566173.47946
  23645266.760   124257156.12806  23645270.320    96823974.76346
  23108043.560   121433602.69808  23108045.460    94623602.45746
 15 02 18 00 40 30.0000000  0  7G16G18G21G22G27G29G31
  21743007.200   114260294.19008  21743008.560    89034006.36948
  22464398.340   118051246.27208  22464400.040    91987999.96546
  21194745.520   111379398.85708  21194746.380    86789246.37248
  23944575.440   125829609.35006  23944575.800    98049058.67945
  23081012.360   121291550.73907  23081016.700    94512919.63346
  23659099.540   124329846.65007  23659102.960    96880616.67546
  23125288.340   121524224.44407  23125290.220    94694216.77846
 15 02 18 00 41  0.0000000  0  7G16G18G21G22G27G29G31
  21729372.220   114188641.98908  21729373.620    88978173.49648
  22452538.640   117988924.14708  22452540.440    91939437.29946
  21201276.740   111413720.78108  21201277.580    86815990.73348
  23926270.100   125733413.95006  23926270.300    97974101.28745
  23068023.780   121223295.30907  23068028.120    94459733.62947
  23672941.160   124402583.20707  23672944.300    96937294.46746
  23142564.400   121615010.66608  23142566.260    94764959.26646
 15 02 18 00 41 30.0000000  0  7G16G18G21G22G27G29G31
  21715791.920   114117276.97308  21715793.340    88922564.40748
  22440737.300   117926908.37008  22440739.220    91891113.34646
  21207870.320   111448370.08308  21207871.100    86842990.19349
  23907967.040   125637231.39806  23907967.180    97899153.92745
  23055051.980   121155128.01107  23055056.300    94406616.30147
  23686791.760   124475367.02407  23686794.600    96994009.08946
  23159871.320   121705959.30207  23159873.200    94835828.30046
 15 02 18 00 42  0.0000000  0  7G16G18G21G22G27G29G31
  21702266.560   114046200.95508  21702268.000    88867180.50548
  22428994.620   117865200.39408  22428996.660    91843029.22946
  21214525.800   111483344.63508  21214526.520    86870243.09148
  23889666.540   125541063.27206  23889666.840    97824217.79245
  23042096.820   121087048.33207  23042101.140    94353567.23647
  23700651.180   124548197.38107  23700653.820    97050759.98546
  23177208.400   121797066.77907  23177210.340    94906821.11546
 15 02 18 00 42 30.0000000  0  7G16G18G21G22G27G29G31
  21688796.800   113975416.88408  21688798.200    88812024.09348
  22417311.320   117803803.51508  22417313.420    91795187.54046
  21221242.880   111518642.93508  21221243.540    86897748.25948
  23871369.400   125444913.23606  23871369.840    97749295.75745
  23029158.440   121019057.07307  23029162.780    94300587.07047
  23714519.380   124621074.59406  23714521.880    97107547.38746
  23194575.300   121888330.86507  23194577.320    94977935.96446
 15 02 18 00 43  0.0000000  0  7G16G18G21G22G27G29G31
  21675382.980   113904926.69708  21675384.300    88757096.68148
  22405687.700   117742720.13908  22405689.820    91747590.12946
  21228021.320   111554263.70108  21228021.960    86925504.70148
  23853075.860   125348783.06906  23853076.680    97674389.19145
  23016236.840   120951154.02707  23016241.200    94247675.64547
  23728396.340   124693998.37907  23728398.760    97164371.06345
  23211971.360   121979748.28107  23211973.540    95049170.31946
 15 02 18 00 43 30.0000000  0  7G16G18G21G22G27G29G31
  21662025.360   113834731.81708  21662026.620    88702399.37648
  22394124.000   117681951.91508  22394126.140    91700238.29746
  21234860.600   111590204.19208  21234861.240    86953510.28248
  23834786.600   125252675.13405  23834787.880    97599499.93645
  23003331.840   120883338.46407  23003336.280    94194832.38247
  23742282.000   124766968.56906  23742284.540    97221230.90846
  23229395.880   122071315.04907  23229398.200    95120521.04346
 15 02 18 00 44  0.0000000  0  7G16G18G21G22G27G29G31
  21648724.120   113764833.52408  21648725.400    88647933.18048
  22382620.340   117621499.45608  22382622.420    91653132.51346
  21241760.120   111626461.29608  21241760.760    86981762.57148
  23816502.060   125156590.75706  23816503.600    97524629.07146
  22990443.300   120815609.35207  22990447.840    94142056.47747
  23756175.980   124839983.41406  23756178.860    97278125.57046
  23246848.140   122163027.46507  23246850.580    95191985.24146
 15 02 18 00 44 30.0000000  0  7G16G18G21G22G27G29G31
  21635479.780   113695234.33608  21635481.120    88593700.05348
  22371177.280   117561365.72208  22371179.220    91606275.07546
  21248719.660   111663033.93908  21248720.340    87010260.74048
  23798222.740   125060532.78406  23798224.340    97449778.76645
  22977571.360   120747967.03507  22977575.900    94089348.20947
  23770078.360   124913043.02706  23770081.660    97335055.08546
  23264327.620   122254882.49807  23264330.140    95263560.57546
 15 02 18 00 45  0.0000000  0  7G16G18G21G22G27G29G31
  21622292.220   113625933.34308  21622293.620    88539699.28948
  22359794.640   117501549.91608  22359796.460    91559665.37846
  21255738.340   111699917.65808  21255739.100    87039001.30748
  23779948.700   124964500.99106  23779950.020    97374948.86545
  22964715.440   120680408.74307  22964720.020    94036705.42747
  23783989.000   124986144.64806  23783992.400    97392017.37345
  23281833.120   122346874.20307  23281835.700    95335242.38646
 15 02 18 00 45 30.0000000  0  7G16G18G21G22G27G29G31
  21609162.540   113556936.35408  21609163.960    88485935.41048
  22348473.560   117442057.58808  22348475.240    91513307.74346
  21262816.580   111737114.21308  21262817.380    87067985.62948
  23761680.760   124868500.96506  23761681.800    97300143.70745
  22951876.160   120612937.79507  22951880.740    93984130.68347
  23797908.480   125059291.24206  23797911.640    97449014.70746
  23299364.760   122439003.09607  23299367.340    95407031.10446
 15 02 18 00 46  0.0000000  0  7G16G18G21G22G27G29G31
  21596090.980   113488244.87108  21596092.420    88432409.59448
  22337214.440   117382890.35608  22337215.920    91467203.42646
  21269953.760   111774620.38708  21269954.560    87097211.22148
  23743419.260   124772534.72706  23743420.000    97225364.88445
  22939053.400   120545553.73607  22939058.020    93931623.66347
  23811836.620   125132482.34607  23811839.600    97506046.69146
  23316921.780   122531265.41507  23316924.280    95478923.77446
 15 02 18 00 46 30.0000000  0  7G16G18G21G22G27G29G31
  21583078.560   113419864.27708  21583080.000    88379126.02848
  22326018.260   117324053.56008  22326019.560    91421356.60146
  21277150.320   111812438.62508  21277151.140    87126679.98048
  23725165.220   124676608.05106  23725165.900    97150616.89445
  22926247.740   120478259.62307  22926252.360    93879186.72247
  23825773.780   125205721.05807  23825776.580    97563115.76845
  23334504.240   122623661.42207  23334506.620    95550920.61646
 15 02 18 00 47  0.0000000  0  7G16G18G21G22G27G29G31
  21570125.260   113351794.50408  21570126.740    88326084.66748
  22314885.020   117265547.55308  22314886.200    91375767.52746
  21284405.480   111850564.85608  21284406.340    87156388.73248
  23706918.700   124580721.46006  23706919.380    97075900.12346
  22913458.820   120411053.33707  22913463.420    93826818.21247
  23839719.620   125279005.06107  23839722.100    97620220.15946
  23352111.000   122716185.59707  23352113.240    95623017.36946
 15 02 18 00 47 30.0000000  0  7G16G18G21G22G27G29G31
  21557231.780   113284038.97208  21557233.280    88273288.15548
  22303815.160   117207375.02208  22303816.360    91330438.31146
  21291719.140   111888998.27508  21291720.000    87186336.85749
  23688680.400   124484878.61006  23688681.220    97001217.43646
  22900686.880   120343936.10807  22900691.400    93774519.09547
  23853674.100   125352335.19407  23853676.460    97677360.47845
  23369741.720   122808835.89707  23369743.780    95695212.37046
 15 02 18 00 48  0.0000000  0  7G16G18G21G22G27G29G31
  21544398.720   113216600.95808  21544400.220    88220739.06748
  22292809.380   117149539.77508  22292810.780    91285371.90946
  21299091.100   111927738.06308  21299091.940    87216523.70448
  23670451.160   124389083.11006  23670452.040    96926571.64746
  22887932.060   120276909.11907  22887936.520    93722290.29947
  23867637.300   125425712.55006  23867639.860    97734537.57445
  23387396.180   122901610.62907  23387398.120    95767504.34846
 15 02 18 00 48 30.0000000  0  7G16G18G21G22G27G29G31
  21531626.380   113149481.74808  21531627.820    88168438.39248
  22281867.920   117092042.80908  22281869.540    91240569.08447
  21306520.880   111966781.76308  21306521.720    87246947.37148
  23652231.120   124293336.20907  23652232.120    96851963.73246
  22875194.220   120209971.31007  22875198.600    93670131.01647
  23881609.080   125499136.00506  23881612.060    97791750.67746
  23405073.520   122994505.62307  23405075.400    95839890.01446
 15 02 18 00 49  0.0000000  0  7G16G18G21G22G27G29G31
  21518914.860   113082682.01008  21518916.200    88116386.65448
  22270990.880   117034884.91508  22270992.820    91196030.48647
  21314007.920   112006126.50708  21314008.760    87277605.61548
  23634020.540   124197639.32006  23634021.760    96777394.76846
  22862473.100   120143121.47007  22862477.420    93618040.26947
  23895589.260   125572604.19206  23895592.540    97848998.54546
  23422772.940   123087516.60007  23422774.840    95912366.05646
 15 02 18 00 49 30.0000000  0  7G16G18G21G22G27G29G31
  21506264.680   113016204.65008  21506265.960    88064586.13048
  22260178.980   116978069.03708  22260181.100    91151758.39646
  21321552.000   112045770.99708  21321552.860    87308497.42748
  23615820.180   124101995.81407  23615821.480    96702867.41646
  22849768.840   120076360.38007  22849773.120    93566018.65547
  23909578.120   125646117.62606  23909581.560    97906281.75346
  23440493.940   123180641.13907  23440496.020    95984930.60346
 15 02 18 00 50  0.0000000  0  7G16G18G21G22G27G29G31
  21493676.020   112950050.75508  21493677.300    88013037.65848
  22249432.440   116921595.98508  22249434.540    91107753.43746
  21329152.520   112085712.04608  21329153.400    87339620.32348
  23597630.260   124006407.04206  23597631.520    96628382.68846
  22837081.240   120009686.91307  22837085.520    93514065.32647
  23923575.620   125719675.04606  23923579.000    97963599.18445
  23458235.800   123273875.12407  23458238.060    96057580.41246
 15 02 18 00 50 30.0000000  0  7G16G18G21G22G27G29G31
  21481149.200   112884221.84808  21481150.500    87961742.41148
  22238751.560   116865467.24608  22238753.460    91064016.76946
  21336808.960   112125946.92608  21336809.860    87370972.17948
  23579451.220   123910875.05807  23579452.300    96553942.22846
  22824410.180   119943100.39007  22824414.480    93462179.74847
  23937581.700   125793275.89307  23937584.820    98020950.44446
  23475997.820   123367214.57607  23476000.080    96130312.42546
 15 02 18 00 51  0.0000000  0  7G16G18G21G22G27G29G31
  21468685.300   112818723.69808  21468686.660    87910704.90248
  22228137.400   116809688.63308  22228139.000    91020552.93846
  21344521.800   112166478.31008  21344522.740    87402555.07648
  23561284.040   123815405.85107  23561285.000    96479550.68546
  22811756.340   119876604.49307  22811760.680    93410364.78847
  23951596.760   125866923.20206  23951599.540    98078337.95846
  23493780.040   123460660.17907  23493782.280    96203127.14646
 15 02 18 00 51 30.0000000  0  7G16G18G21G22G27G29G31
  21456284.660   112753557.90609  21456286.040    87859926.37348
  22217590.140   116754261.60908  22217591.520    90977363.07246
  21352290.640   112207303.64008  21352291.560    87434367.03048
  23543129.120   123720001.54207  23543130.020    96405209.71245
  22799119.700   119810198.72707  22799124.020    93358620.06947
  23965620.540   125940616.71106  23965623.020    98135761.41846
  23511581.700   123554208.24407  23511583.940    96276021.71046
 15 02 18 00 52  0.0000000  0  7G16G18G21G22G27G29G31
  21443948.000   112688728.20408  21443949.320    87809409.73748
  22207110.380   116699189.68908  22207111.620    90934449.90347
  21360115.280   112248422.33508  21360116.200    87466407.57348
  23524987.140   123624665.93407  23524988.000    96330922.26045
  22786500.540   119743884.76208  22786504.840    93306946.88847
  23979653.140   126014357.65006  23979655.480    98193221.86146
  23529402.540   123647857.32807  23529404.800    96348994.97346
 15 02 18 00 52 30.0000000  0  7G16G18G21G22G27G29G31
  21431675.300   112624234.78608  21431676.560    87759155.13748
  22196698.100   116644473.02708  22196699.380    90891813.56247
  21367995.040   112289830.84308  21367995.980    87498673.93948
  23506858.360   123529399.68207  23506859.220    96256688.84346
  22773898.500   119677660.68408  22773902.800    93255343.74147
