     2.11           OBSERVATION DATA    M                   RINEX VERSION / TYPE
SPIDER V4,0,0,3554                      2015 03 13 02:06    PGM / RUN BY / DATE 
CKHR                                                        MARKER NAME         
CKHR                                                        MARKER NUMBER       
                                                            OBSERVER / AGENCY   
496547              LEICA GRX1200+GNSS  8.10/4.007          REC # / TYPE / VERS 
10301042            LEIAR25         NONE                    ANT # / TYPE        
  5141838.0877   498328.5776  3730203.3049                  APPROX POSITION XYZ 
        0.0720        0.0000        0.0000                  ANTENNA: DELTA H/E/N
     1     1                                                WAVELENGTH FACT L1/2
     4    C1    L1    P2    L2                              # / TYPES OF OBSERV 
    30.000                                                  INTERVAL            
  2015    02    18    00    00    0.0000000     GPS         TIME OF FIRST OBS   
  2015    02    18    23    59   30.0000000     GPS         TIME OF LAST OBS    
    16                                                      LEAP SECONDS        
    54                                                      # OF SATELLITES     
   G 1   135   135   135   135                              PRN / # OF OBS      
   G 2   930   930   930   930                              PRN / # OF OBS      
   G 3   261   261   261   261                              PRN / # OF OBS      
   G 4   200   200   199   199                              PRN / # OF OBS      
   G 5   646   646   646   646                              PRN / # OF OBS      
   G 6   659   659   659   659                              PRN / # OF OBS      
   G 7   615   615   615   615                              PRN / # OF OBS      
   G 9   546   546   546   546                              PRN / # OF OBS      
   G10   675   675   675   675                              PRN / # OF OBS      
   G11   106   106   106   106                              PRN / # OF OBS      
   G12   819   819   819   819                              PRN / # OF OBS      
   G13   802   801   801   801                              PRN / # OF OBS      
   G14   519   518   518   518                              PRN / # OF OBS      
   G15   709   709   709   709                              PRN / # OF OBS      
   G16   528   528   528   528                              PRN / # OF OBS      
   G17   584   584   584   584                              PRN / # OF OBS      
   G18   823   822   822   822                              PRN / # OF OBS      
   G19   295   295   295   295                              PRN / # OF OBS      
   G20   589   589   589   589                              PRN / # OF OBS      
   G21   734   734   733   733                              PRN / # OF OBS      
   G22   375   375   374   374                              PRN / # OF OBS      
   G23   363   363   363   363                              PRN / # OF OBS      
   G24   826   826   826   826                              PRN / # OF OBS      
   G25   858   858   858   858                              PRN / # OF OBS      
   G27   471   471   471   471                              PRN / # OF OBS      
   G28   600   600   599   599                              PRN / # OF OBS      
   G29   758   758   758   758                              PRN / # OF OBS      
   G30   710   710   710   710                              PRN / # OF OBS      
   G31   641   641   641   641                              PRN / # OF OBS      
   G32    99    99    99    99                              PRN / # OF OBS      
   R 1   595   595   595   595                              PRN / # OF OBS      
   R 2   670   670   670   670                              PRN / # OF OBS      
   R 3   815   815   815   815                              PRN / # OF OBS      
   R 4   900   900   899   899                              PRN / # OF OBS      
   R 5   661   661   661   661                              PRN / # OF OBS      
   R 6   357   357   357   357                              PRN / # OF OBS      
   R 7    77    77    77    76                              PRN / # OF OBS      
   R 8   367   367   367   367                              PRN / # OF OBS      
   R 9   822   822   820   820                              PRN / # OF OBS      
   R10   901   901   901   901                              PRN / # OF OBS      
   R11   704   704   704   704                              PRN / # OF OBS      
   R12   588   588   588   587                              PRN / # OF OBS      
   R13   679   679   679   678                              PRN / # OF OBS      
   R14   768   768   768   768                              PRN / # OF OBS      
   R15   768   768   768   768                              PRN / # OF OBS      
   R16   814   814   813   813                              PRN / # OF OBS      
   R17   788   788   787   787                              PRN / # OF OBS      
   R18   754   754   740   740                              PRN / # OF OBS      
   R19   852   852   843   841                              PRN / # OF OBS      
   R20   645   644   639   638                              PRN / # OF OBS      
   R21    87    87    86    85                              PRN / # OF OBS      
   R22    24    24    24    20                              PRN / # OF OBS      
   R23   458   458   458   455                              PRN / # OF OBS      
   R24   681   681   681   681                              PRN / # OF OBS      
BIT 2 OF LLI FLAGS DATA COLLECTED UNDER A/S CONDITION       COMMENT             
SNR is mapped to RINEX snr flag value [2-9]                 COMMENT             
Lx:     = 25dBHz -> 1; 26-27dBHz -> 2; 28-31dBHz -> 3       COMMENT             
       32-35dBHz -> 4; 36-38dBHz -> 5; 39-41dBHz -> 6       COMMENT             
       42-44dBHz -> 7; 45-48dBHz -> 8; >=49dBHz -> 9        COMMENT             
                                                            END OF HEADER       
 15 02 18 00 00  0.0000000  0  7G16G18G21G25G27G29G31
  22897228.180   120325758.11809  22897225.460    93760322.69046
  23640651.980   124232489.60608  23640650.120    96804545.34045
  20921584.920   109943962.47308  20921581.280    85670724.55448
  23541459.280   123711511.22008  23541459.740    96398725.17646
  24019598.200   126223861.16608  24019599.120    98356261.65546
  22712761.160   119356818.24309  22712758.860    93005521.17647
  21782835.600   114469604.63909  21782833.440    89197100.04448
 15 02 18 00 00 30.0000000  0  7G16G18G21G25G27G29G31
  22880910.360   120240007.47909  22880907.600    93693504.03547
  23626008.440   124155536.63708  23626006.440    96744582.04845
  20922528.120   109948919.15908  20922524.540    85674586.91948
  23558429.840   123800691.81508  23558430.160    96468216.52646
  24005514.920   126149852.77508  24005515.800    98298592.82046
  22726182.160   119427346.44209  22726180.020    93060478.17747
  21795767.500   114537562.93409  21795765.480    89250054.54548
 15 02 18 00 01  0.0000000  0  7G16G18G21G25G27G29G31
  22864613.480   120154366.66008  22864610.700    93626770.94446
  23611381.340   124078670.29008  23611379.100    96684686.25045
  20923553.820   109954308.94209  20923550.200    85678786.76248
  23575441.500   123890087.87208  23575441.900    96537875.74446
  23991449.820   126075941.07708  23991450.960    98240999.34947
  22739612.800   119497925.08709  22739610.600    93115474.52147
  21808774.660   114605915.35309  21808772.560    89303316.15448
 15 02 18 00 01 30.0000000  0  7G16G18G21G25G27G29G31
  22848338.840   120068842.92808  22848336.000    93560129.10047
  23596772.200   124001898.65008  23596769.820    96624864.24145
  20924662.980   109960137.28309  20924659.320    85683328.33548
  23592495.100   123979704.00208  23592495.480    96607706.48646
  23977404.220   126002131.75208  23977405.660    98183485.68146
  22753054.140   119568559.57109  22753052.000    93170514.33247
  21821857.640   114674665.13309  21821855.260    89356887.39248
 15 02 18 00 02  0.0000000  0  7G16G18G21G25G27G29G31
  22832085.640   119983432.19109  22832082.860    93493575.31346
  23582180.340   123925218.62508  23582177.800    96565113.62045
  20925854.100   109966396.41908  20925850.400    85688205.59848
  23609589.180   124069533.16108  23609589.500    96677703.21146
  23963377.100   125928418.73108  23963378.500    98126046.98647
  22766505.000   119639243.10609  22766502.820    93225592.37147
  21835014.680   114743803.70309  21835011.960    89410761.57448
 15 02 18 00 02 30.0000000  0  7G16G18G21G25G27G29G31
  22815854.900   119898139.40709  22815852.060    93427113.42446
  23567606.960   123848635.84808  23567604.380    96505438.76945
  20927127.680   109973089.16409  20927123.940    85693420.73248
  23626724.060   124159577.30008  23626724.520    96747867.48346
  23949368.840   125854804.98008  23949370.100    98068685.70046
  22779965.540   119709978.36109  22779963.160    93280710.72747
  21848245.780   114813331.51909  21848242.660    89464939.07548
 15 02 18 00 03  0.0000000  0  7G16G18G21G25G27G29G31
  22799647.500   119812969.02909  22799644.640    93360746.90847
  23553052.940   123772155.63808  23553050.460    96445843.87245
  20928484.100   109980217.38308  20928480.320    85698975.18848
  23643899.860   124249838.27308  23643900.660    96818200.66246
  23935379.880   125781293.26108  23935381.300    98011403.90846
  22793436.340   119780767.62009  22793433.880    93335871.16647
  21861550.900   114883248.90409  21861547.440    89519420.11948
 15 02 18 00 03 30.0000000  0  7G16G18G21G25G27G29G31
  22783462.880   119727918.02509  22783459.960    93294473.42346
  23538518.100   123695775.63608  23538515.800    96386327.02545
  20929922.300   109987775.27508  20929918.500    85704864.46748
  23661115.940   124340310.14808  23661116.720    96888698.23146
  23921409.480   125707878.74508  23921411.000    97954197.86546
  22806916.200   119851604.99609  22806913.880    93391069.09047
  21874928.680   114953548.82209  21874925.000    89574199.25548
 15 02 18 00 04  0.0000000  0  7G16G18G21G25G27G29G31
  22767301.200   119642987.53709  22767298.220    93228293.83246
  23524002.880   123619497.87708  23524000.640    96326889.81045
  20931441.780   109995760.59308  20931438.060    85711086.79548
  23678371.860   124430991.14808  23678372.460    96959358.72046
  23907457.480   125634560.51608  23907458.860    97897066.81547
  22820405.160   119922489.95709  22820402.700    93446304.10847
  21888378.420   115024227.57009  21888374.640    89629273.57648
 15 02 18 00 04 30.0000000  0  7G16G18G21G25G27G29G31
  22751163.260   119558181.94009  22751160.260    93162211.57247
  23509508.260   123543327.73508  23509505.860    96267536.50445
  20933043.040   110004175.51309  20933039.420    85717643.87948
  23695667.920   124521882.65908  23695668.560    97030183.22946
  23893524.280   125561341.14008  23893525.600    97840012.81947
  22833903.600   119993424.73009  22833901.200    93501577.92947
  21901900.100   115095285.21609  21901896.440    89684643.15048
 15 02 18 00 05  0.0000000  0  7G16G18G21G25G27G29G31
  22735049.060   119473500.89309  22735045.980    93096226.37146
  23495034.320   123467265.54808  23495031.800    96208267.31645
  20934725.440   110013016.48709  20934721.860    85724532.95848
  23713003.580   124612981.37108  23713004.320    97101169.24545
  23879609.520   125488218.29109  23879610.580    97783034.02746
  22847410.920   120064406.23109  22847408.660    93556888.15247
  21915492.840   115166716.87909  21915489.520    89740304.17848
 15 02 18 00 05 30.0000000  0  7G16G18G21G25G27G29G31
  22718959.800   119388951.06709  22718956.660    93030343.39147
  23480582.400   123391318.94208  23480579.720    96149088.18245
  20936489.720   110022287.44209  20936486.040    85731757.08548
  23730379.300   124704291.04908  23730380.080    97172319.59446
  23865714.080   125415196.77708  23865714.980    97726134.13646
  22860928.000   120135438.72409  22860925.540    93612238.13347
  21929157.000   115238524.66309  21929154.200    89796258.27748
 15 02 18 00 06  0.0000000  0  7G16G18G21G25G27G29G31
  22702895.140   119304530.53809  22702891.980    92964561.16947
  23466152.180   123315486.62608  23466149.400    96089998.06945
  20938334.860   110031983.27109  20938331.040    85739312.28948
  23747794.240   124795806.81908  23747794.980    97243630.61246
  23851837.160   125342272.75307  23851837.940    97669310.27047
  22874454.000   120206518.11809  22874451.640    93667624.65347
  21942891.540   115310702.62509  21942889.320    89852500.83648
 15 02 18 00 06 30.0000000  0  7G16G18G21G25G27G29G31
  22686856.200   119220245.35009  22686853.020    92898884.41347
  23451744.780   123239775.49908  23451742.080    96031002.40845
  20940261.520   110042107.60409  20940257.640    85747201.38848
  23765248.820   124887531.91908  23765249.700    97315104.66446
  23837979.200   125269450.31608  23837980.260    97612565.71846
  22887989.520   120277648.04009  22887987.440    93723050.49847
  21956696.940   115383252.15009  21956695.080    89909032.92548
 15 02 18 00 07  0.0000000  0  7G16G18G21G25G27G29G31
  22670842.560   119136093.29509  22670839.380    92833311.40747
  23437360.100   123164184.17608  23437357.400    95972100.06645
  20942268.680   110052655.23609  20942264.780    85755420.32848
  23782742.240   124979461.07908  23782743.420    97386737.73546
  23824139.880   125196725.56709  23824140.880    97555897.08746
  22901533.960   120348824.10809  22901531.680    93778512.35247
  21970571.920   115456166.45009  21970570.260    89965849.25748
 15 02 18 00 07 30.0000000  0  7G16G18G21G25G27G29G31
  22654854.880   119052077.55609  22654851.700    92767844.63447
  23422998.940   123088716.78208  23422996.460    95913294.33445
  20944356.460   110063626.53608  20944352.540    85763969.41348
  23800274.560   125071594.47608  23800275.740    97458529.98446
  23810319.520   125124099.73209  23810320.260    97499305.52146
  22915087.320   120420047.50108  22915084.600    93834011.11347
  21984516.280   115529444.25209  21984514.640    90022948.84148
 15 02 18 00 08  0.0000000  0  7G16G18G21G25G27G29G31
  22638892.760   118968195.90809  22638889.560    92702482.31447
  23408661.160   123013371.89408  23408658.840    95854584.06446
  20946523.920   110075016.71708  20946520.060    85772844.88348
  23817844.960   125163927.26408  23817845.640    97530477.62446
  23796517.340   125051568.77608  23796517.820    97442787.90546
  22928648.780   120491313.74809  22928646.220    93889543.19748
  21998528.800   115603079.38809  21998527.100    90080326.84848
 15 02 18 00 08 30.0000000  0  7G16G18G21G25G27G29G31
  22622957.540   118884456.00609  22622954.360    92637230.47847
  23394348.360   122938157.56708  23394345.900    95795975.51846
  20948771.840   110086829.71409  20948768.040    85782049.83448
  23835454.200   125256463.27608  23835454.860    97602583.60345
  23782734.280   124979137.80508  23782734.640    97386348.26146
  22942219.520   120562627.47009  22942217.120    93945112.29647
  22012609.880   115677074.21509  22012607.920    90137985.14148
 15 02 18 00 09  0.0000000  0  7G16G18G21G25G27G29G31
  22607048.980   118800856.56809  22607045.880    92572088.06747
  23380060.500   122863073.66808  23380057.860    95737468.60045
  20951099.480   110099061.65509  20951095.720    85791581.21948
  23853101.280   125349198.83208  23853102.000    97674845.01446
  23768969.740   124906804.04408  23768970.100    97329984.35546
  22955798.540   120633985.46008  22955796.060    94000715.90247
  22026758.420   115751423.22709  22026756.100    90195919.40348
 15 02 18 00 09 30.0000000  0  7G16G18G21G25G27G29G31
  22591168.080   118717402.62209  22591165.080    92507059.05347
  23365798.540   122788125.76309  23365795.900    95679067.68245
  20953507.140   110111714.30909  20953503.440    85801440.43448
  23870786.660   125442135.82908  23870787.480    97747263.45146
  23755224.340   124834570.66208  23755224.920    97273698.71246
  22969386.280   120705390.37008  22969384.020    94056356.04847
  22040974.520   115826126.93309  22040971.760    90254130.06048
 15 02 18 00 10  0.0000000  0  7G16G18G21G25G27G29G31
  22575314.400   118634091.38909  22575311.520    92442141.22347
  23351562.020   122713311.98808  23351559.160    95620771.25345
  20955993.800   110124782.02708  20955990.100    85811623.08548
  23888509.160   125535268.31608  23888509.840    97819834.16745
  23741497.080   124762432.79909  23741497.720    97217487.40246
  22982982.260   120776837.22809  22982980.000    94112028.93347
  22055256.740   115901177.72509  22055253.400    90312611.17748
 15 02 18 00 10 30.0000000  0  7G16G18G21G25G27G29G31
  22559489.160   118550929.16509  22559486.260    92377339.50747
  23337352.240   122638639.06708  23337349.420    95562584.59445
  20958560.040   110138267.99009  20958556.420    85822131.63248
  23906269.620   125628599.49308  23906270.340    97892559.72946
  23727788.700   124690394.75208  23727789.460    97161353.83846
  22996586.840   120848330.34608  22996584.780    94167737.81747
  22069605.220   115976577.19009  22069601.440    90371363.97848
 15 02 18 00 11  0.0000000  0  7G16G18G21G25G27G29G31
  22543693.240   118467920.71709  22543690.260    92312657.62347
  23323170.140   122564112.64508  23323167.480    95504512.08645
  20961206.220   110152174.10209  20961202.700    85832967.57148
  23924068.280   125722130.95008  23924069.120    97965441.37346
  23714099.620   124618459.02107  23714100.340    97105300.08147
  23010200.560   120919871.63409  23010198.500    94223484.23447
  22084019.980   116052325.63809  22084015.920    90430388.72748
 15 02 18 00 11 30.0000000  0  7G16G18G21G25G27G29G31
  22527925.260   118385059.36809  22527922.220    92248090.35347
  23309014.740   122489726.88508  23309012.520    95446549.17245
  20963930.520   110166490.51309  20963927.040    85844123.22348
  23941903.020   125815853.04408  23941903.680    98038471.60546
  23700428.380   124546617.27008  23700429.100    97049319.58746
  23023822.000   120991451.92009  23023819.600    94279261.08147
  22098498.860   116128411.91209  22098494.680    90489676.71248
 15 02 18 00 12  0.0000000  0  7G16G18G21G25G27G29G31
  22512186.580   118302352.00409  22512183.520    92183643.07547
  23294887.640   122415489.20108  23294885.440    95388701.64545
  20966733.600   110181220.74009  20966730.060    85855601.32648
  23959774.800   125909769.44308  23959775.240    98111653.17645
  23686776.040   124474874.32009  23686776.900    96993415.95646
  23037451.720   121063076.15109  23037449.260    94335072.11947
  22113042.280   116204838.09209  22113038.040    90549229.55748
 15 02 18 00 12 30.0000000  0  7G16G18G21G25G27G29G31
  22496478.040   118219803.01609  22496474.860    92119319.19647
  23280789.760   122341404.77308  23280787.540    95330973.53946
  20969615.800   110196366.57708  20969612.160    85867403.28548
  23977683.500   126003881.67108  23977684.300    98184987.29345
  23673142.960   124403232.68708  23673143.860    96937591.31747
  23051090.120   121134746.66309  23051087.720    94390919.24247
  22127650.160   116281603.97609  22127646.020    90609047.10448
 15 02 18 00 13  0.0000000  0  7G16G18G21G25G27G29G31
  22480798.960   118137409.01309  22480795.740    92055116.10047
  23266720.540   122267470.57208  23266718.140    95273362.49545
  20972575.680   110211920.67808  20972571.980    85879523.37248
  23995628.140   126098182.63908  23995629.240    98258468.51046
  23659528.020   124331686.43808  23659528.980    96881841.12046
  23064736.120   121206456.90109  23064733.900    94446797.33947
  22142321.040   116358701.24309  22142317.020    90669122.87848
 15 02 18 00 13 30.0000000  0  7G16G18G21G25G27G29G31
  22465149.800   118055172.14309  22465146.580    91991035.43447
  23252680.660   122193690.40509  23252678.220    95215871.48645
  20975613.120   110227882.51209  20975609.420    85891961.16548
  24013608.880   126192671.71308  24013609.760    98332096.38645
  23645931.520   124260236.42209  23645932.400    96826165.81446
  23078389.720   121278207.36008  23078387.780    94502706.77047
  22157054.440   116436127.49509  22157050.600    90729455.00048
 15 02 18 00 14  0.0000000  0  7G16G18G21G25G27G29G31
  22449531.500   117973097.32009  22449528.260    91927081.03747
  23238671.160   122120069.18708  23238668.680    95158504.31546
  20978728.500   110244254.18608  20978724.820    85904718.31548
  24031625.780   126287350.64908  24031627.080    98405872.14446
  23632353.800   124188885.15308  23632354.640    96770567.41247
  23092051.360   121350000.80108  23092049.660    94558649.65547
  22171850.500   116513883.18609  22171846.920    90790043.82048
 15 02 18 00 14 30.0000000  0  7G16G18G21G25G27G29G31
  22433944.560   117891187.64509  22433941.420    91863255.35547
  23224692.540   122046610.22609  23224690.040    95101263.60746
  20981921.760   110261035.36908  20981918.140    85917794.57248
  24049678.620   126382219.23708  24049680.140    98479795.69646
  23618795.060   124117633.68808  23618795.840    96715046.92347
  23105721.500   121421837.29609  23105719.840    94614626.11447
  22186708.820   116591966.28409  22186705.540    90850887.77848
 15 02 18 00 15  0.0000000  0 14G16G18G21G25G27G29G31R03R09R10R16R18
                                R19R20
  22418388.660   117809441.33509  22418385.620    91799556.96047
  23210744.600   121973312.89408  23210742.160    95044148.82646
  20985191.900   110278220.69408  20985188.380    85931185.74048
  24067766.700   126477272.31308  24067768.120    98553862.98146
  23605254.640   124046478.11909  23605255.240    96659601.04046
  23119399.220   121493713.31709  23119397.360    94670633.38347
  22201628.220   116670370.36209  22201625.280    90911981.84048
  22934435.320   122769832.13307  22934435.800    95487656.19106
  19927483.920   106411668.89408  19927484.920    82764640.01906
  23318920.440   124302969.64408  23318926.420    96680106.82905
  20191709.880   107860510.38409  20191712.280    83891530.08008
  21198863.820   113161393.67809  21198866.840    88014544.96208
  20104635.940   107546407.69209  20104636.040    83647265.78108
  23179578.220   123951617.16607  23179583.400    96406842.22806
 15 02 18 00 15 30.0000000  0 14G16G18G21G25G27G29G31R03R09R10R16R18
                                R19R20
  22402864.320   117727860.76109  22402861.360    91735987.71547
  23196827.960   121900180.52808  23196825.400    94987162.58946
  20988538.920   110295809.67608  20988535.420    85944891.44948
  24085889.820   126572509.35508  24085890.780    98628073.65545
  23591732.520   123975419.01208  23591733.060    96604230.30947
  23133084.180   121565628.70308  23133082.260    94726671.32847
  22216608.340   116749093.08209  22216605.740    90973324.20148
  22923009.620   122708670.36607  22923010.300    95440085.96307
  19921667.020   106380606.94308  19921667.960    82740480.72406
  23296321.520   124182504.57108  23296327.380    96586411.79205
  20208597.100   107950719.05108  20208599.600    83961692.37008
  21212770.120   113235626.58509  21212773.240    88072281.65508
  20102200.100   107533377.47809  20102200.240    83637131.17408
  23164818.800   123872692.28306  23164823.840    96345456.23507
 15 02 18 00 16  0.0000000  0 14G16G18G21G25G27G29G31R03R09R10R16R18
                                R19R20
  22387372.660   117646451.62009  22387369.680    91672552.05147
  23182943.780   121827219.25608  23182941.280    94930309.66246
  20991963.200   110313804.87208  20991959.800    85958913.68848
  24104048.540   126667932.67508  24104049.000    98702429.48345
  23578229.460   123904459.91608  23578229.900    96548937.59747
  23146777.440   121637586.75009  23146775.560    94782742.49247
  22231649.420   116828135.34209  22231647.100    91034915.55448
  22911682.000   122648033.77007  22911683.100    95392924.20207
  19915998.240   106350335.89708  19915999.120    82716936.56506
  23273777.880   124062333.65308  23273783.580    96492945.52605
  20225599.020   108041540.53308  20225601.680    84032331.26808
  21226692.960   113309947.00009  21226695.960    88130086.42308
  20099828.080   107520688.27909  20099828.180    83627261.81508
  23150101.920   123793995.29806  23150106.640    96284247.53807
 15 02 18 00 16 30.0000000  0 14G16G18G21G25G27G29G31R03R09R10R16R18
                                R19R20
  22371913.340   117565212.39009  22371910.280    91609248.77147
  23169091.860   121754427.90008  23169089.280    94873589.16646
  20995463.820   110332201.23008  20995460.500    85973248.51248
  24122241.760   126763537.53508  24122242.400    98776926.69346
  23564744.780   123833597.32308  23564745.160    96493720.03347
  23160478.320   121709583.69209  23160476.300    94838843.99347
  22246750.260   116907490.86809  22246748.160    91096751.00248
  22900452.340   122587921.85407  22900453.820    95346170.55407
  19910477.180   106320853.87008  19910478.060    82694006.09106
  23251289.620   123942457.80808  23251295.300    96399708.76605
  20242714.260   108132967.54408  20242717.100    84103441.13308
  21240631.120   113384349.49209  21240634.100    88187955.00808
  20097518.860   107508334.89109  20097518.880    83617653.62308
  23135427.080   123715522.62506  23135431.500    96223213.26206
 15 02 18 00 17  0.0000000  0 14G16G18G21G25G27G29G31R03R09R10R16R18
                                R19R20
  22356487.000   117484146.63909  22356483.860    91546080.68447
  23155273.240   121681811.29508  23155270.840    94817004.80846
  20999040.940   110350999.30908  20999037.620    85987896.38048
  24140469.420   126859324.45408  24140469.720    98851565.87846
  23551278.680   123762832.88708  23551279.120    96438579.00247
  23174186.800   121781621.16609  23174184.400    94894977.07346
  22261910.680   116987158.71209  22261908.640    91158829.83348
  22889321.800   122528340.47007  22889323.360    95299829.50307
  19905104.560   106292164.31208  19905105.420    82671691.98806
  23228857.800   123822882.70208  23228863.320    96306705.93505
  20259942.660   108224998.54809  20259945.580    84175020.78308
  21254584.700   113458834.51109  21254587.640    88245887.79808
  20095272.460   107496317.81309  20095272.480    83608307.02908
  23120794.600   123637276.23506  23120798.920    96162355.00607
 15 02 18 00 17 30.0000000  0 14G16G18G21G25G27G29G31R03R09R10R16R18
                                R19R20
  22341094.700   117403259.72709  22341091.540    91483051.94847
  23141489.040   121609374.85809  23141486.600    94760560.87146
  21002694.840   110370200.59908  21002691.500    86002858.43348
  24158731.900   126955295.17208  24158732.060    98926348.20545
  23537831.740   123692169.42408  23537832.140    96383516.64547
  23187903.280   121853701.82808  23187900.440    94951143.79146
  22277130.560   117067138.93309  22277128.560    91221152.06448
  22878291.640   122469296.13707  22878293.660    95253906.23407
  19899881.260   106264272.02408  19899882.240    82649997.98206
  23206483.660   123703615.75308  23206489.100    96213942.75705
  20277283.960   108317632.41109  20277286.960    84247069.32908
  21268554.000   113533403.30309  21268556.860    88303885.74308
  20093089.240   107484638.69109  20093089.180    83599223.27508
  23106205.080   123559259.37905  23106209.580    96101675.29507
 15 02 18 00 18  0.0000000  0 14G16G18G21G25G27G29G31R03R09R10R16R18
                                R19R20
  22325736.340   117322550.68309  22325733.080    91420161.80047
  23127739.140   121537118.21009  23127736.560    94704256.97946
  21006424.680   110389800.87808  21006421.300    86018131.37748
  24177028.480   127051445.48108  24177029.180    99001270.45546
  23524403.440   123621604.14509  23524404.040    96328530.73646
  23201627.240   121925821.63009  23201624.200    95007341.01446
  22292408.740   117147425.69309  22292406.740    91283713.15048
  22867361.920   122410789.54207  22867364.240    95208401.11707
  19894806.940   106237175.75308  19894808.020    82628923.10506
  23184167.440   123584657.68508  23184172.760    96121419.82205
  20294736.960   108410862.78809  20294739.920    84319581.81708
  21282538.060   113608051.19109  21282540.820    88361945.20408
  20090968.360   107473293.13809  20090968.280    83590398.96608
  23091657.860   123481468.43606  23091662.500    96041171.28507
 15 02 18 00 18 30.0000000  0 14G16G18G21G25G27G29G31R03R09R10R16R18
                                R19R20
  22310411.540   117242017.95309  22310408.160    91357409.05047
  23114023.200   121465040.11509  23114020.720    94648092.26646
  21010229.500   110409795.14708  21010226.040    86033711.34248
  24195358.380   127147770.38408  24195359.180    99076328.81846
  23510993.120   123551133.20508  23510993.880    96273618.32047
  23215358.020   121997977.43208  23215355.140    95063566.31447
  22307744.060   117228012.70809  22307741.960    91346508.21048
  22856532.860   122352820.30208  22856535.160    95163313.97106
  19889881.340   106210873.32408  19889882.460    82608465.65606
  23161909.320   123466009.65708  23161914.620    96029138.03805
  20312300.240   108504682.04709  20312303.080    84392552.33508
  21296536.020   113682773.17209  21296538.860    88420062.28608
  20088908.880   107462276.00609  20088908.700    83581830.08808
  23077152.240   123403899.98007  23077156.780    95980840.32307
 15 02 18 00 19  0.0000000  0 14G16G18G21G25G27G29G31R03R09R10R16R18
                                R19R20
  22295121.540   117161668.32609  22295118.140    91294798.96447
  23100342.720   121393148.76208  23100340.300    94592073.04146
  21014110.160   110430188.02509  21014106.680    86049601.89648
  24213722.460   127244274.05508  24213723.300    99151526.46145
  23497601.820   123480761.93708  23497602.600    96218783.64347
  23229096.380   122070174.48608  23229094.180    95119823.69347
  22323137.000   117308902.53609  22323134.760    91409539.21848
  22845806.120   122295397.75408  22845808.240    95118652.02207
  19885105.660   106185371.69408  19885106.800    82588631.04706
  23139711.040   123347680.81008  23139716.500    95937104.51705
  20329974.100   108599092.05309  20329976.920    84465982.30208
  21310548.540   113757572.86809  21310551.460    88478239.82208
  20086911.520   107451591.46909  20086911.300    83573519.91108
  23062689.120   123326559.36206  23062693.340    95920686.54107
 15 02 18 00 19 30.0000000  0 14G16G18G21G25G27G29G31R03R09R10R16R18
                                R19R20
  22279866.220   117081501.47509  22279862.880    91232331.31647
  23086697.700   121321444.03208  23086695.440    94536199.25146
  21018065.840   110450974.98209  21018062.280    86065799.53148
  24232119.780   127340952.27508  24232121.060    99226860.06945
  23484229.020   123410487.49608  23484229.720    96164024.38247
  23242842.100   122142409.19909  23242840.320    95176110.44247
  22338586.520   117390089.24709  22338584.040    91472801.57048
  22835181.400   122238522.21508  22835182.980    95074415.47907
  19880479.720   106160669.66808  19880480.840    82569418.35106
  23117572.920   123229672.73608  23117578.480    95845320.46505
  20347757.300   108694086.11709  20347760.080    84539866.55308
  21324574.760   113832445.87809  21324577.800    88536474.37608
  20084975.480   107441235.19609  20084975.280    83565465.04608
  23048268.040   123249443.79906  23048272.060    95860707.84506
 15 02 18 00 20  0.0000000  0 14G16G18G21G25G27G29G31R03R09R10R16R18
                                R19R20
  22264646.240   117001520.36409  22264642.960    91170008.40747
  23073088.860   121249929.38109  23073086.520    94480473.56846
  21022096.400   110472155.24509  21022092.720    86082303.64048
  24250550.200   127437804.39408  24250550.900    99302329.28445
  23470874.780   123340310.38908  23470875.340    96109340.97347
  23256595.180   122214681.90209  23256593.120    95232426.83247
  22354092.100   117471570.79009  22354089.460    91536293.66148
  22824659.840   122182197.94408  22824660.840    95030607.77506
  19876003.920   106136769.21208  19876005.000    82550829.11006
  23095495.820   123111989.79608  23095501.440    95753789.31905
  20365649.200   108789661.06108  20365652.020    84614202.60908
  21338614.560   113907391.30609  21338617.640    88594765.26608
  20083100.660   107431206.41409  20083100.480    83557664.89308
  23033889.220   123172553.62406  23033893.080    95800904.41707
 15 02 18 00 20 30.0000000  0 14G16G18G21G25G27G29G31R03R09R10R16R18
                                R19R20
  22249461.800   116921725.34909  22249458.500    91107830.48347
  23059516.540   121178606.25608  23059514.180    94424897.10046
  21026201.320   110493726.55308  21026197.560    86099112.45448
  24269013.320   127534828.06408  24269013.820    99377932.07845
  23457538.940   123270229.58008  23457539.320    96054732.57947
  23270355.380   122286991.20809  23270353.100    95288771.75447
  22369653.060   117553343.25109  22369650.300    91600012.44548
  22814241.740   122126427.45708  22814242.440    94987230.74007
  19871678.420   106113670.80808  19871679.500    82532863.68706
  23073480.500   122994635.77608  23073486.020    95662513.97005
  20383648.820   108885812.21208  20383651.780    84688986.80608
  21352667.440   113982406.47509  21352670.380    88653110.39908
  20081286.620   107421502.51209  20081286.420    83550117.42608
  23019552.340   123095887.72307  23019556.440    95741275.48407
 15 02 18 00 21  0.0000000  0 14G16G18G21G25G27G29G31R03R09R10R16R18
                                R19R20
  22234313.320   116842119.23109  22234309.980    91045799.77747
  23045981.200   121107477.61909  23045978.640    94369472.25046
  21030380.420   110515687.95108  21030376.660    86116225.23948
  24287508.920   127632022.52308  24287509.380    99453668.03046
  23444221.500   123200245.51108  23444221.820    96000199.59347
  23284122.560   122359337.74909  23284120.480    95345145.62347
  22385268.980   117635404.35109  22385266.060    91663956.14148
  22803927.860   122071214.36308  22803928.080    94944287.25507
  19867503.500   106091376.53308  19867504.640    82515523.69306
  23051527.660   122877615.00708  23051533.200    95571497.83905
  20401755.680   108982536.12308  20401758.740    84764216.50008
  21366733.120   114057490.53409  21366736.160    88711509.11208
  20079533.160   107412122.78009  20079533.000    83542822.10208
  23005257.320   123019446.75507  23005261.460    95681821.44207
 15 02 18 00 21 30.0000000  0 14G16G18G21G25G27G29G31R03R09R10R16R18
                                R19R20
  22219202.280   116762709.98009  22219198.920    90983922.44747
  23032484.340   121036551.34608  23032481.680    94314205.03146
  21034634.700   110538044.22009  21034630.900    86133645.70448
  24306037.540   127729392.25508  24306037.940    99529540.49445
  23430923.440   123130363.74008  23430923.680    95945746.34147
  23297897.840   122431727.00309  23297895.960    95401552.77847
  22400940.340   117717756.87109  22400937.300    91728126.90948
  22793719.720   122016568.41608  22793719.920    94901784.91307
  19863480.480   106069893.33108  19863481.500    82498814.53606
  23029639.200   122760937.49908  23029644.680    95480748.67905
  20419970.040   109079834.75808  20419973.240    84839893.18508
  21380812.480   114132647.72509  21380815.560    88769964.70108
  20077841.140   107403071.63309  20077840.980    83535782.32708
  22991005.420   122943236.21607  22991009.680    95622546.64507
 15 02 18 00 22  0.0000000  0 14G16G18G21G25G27G29G31R03R09R10R16R18
                                R19R20
  22204127.700   116683492.83509  22204124.400    90922194.83447
  23019025.300   120965823.85309  23019022.780    94259092.71446
  21038962.560   110560786.71509  21038958.660    86151367.14448
  24324598.280   127826929.01308  24324598.560    99605543.18544
  23417643.580   123060577.75708  23417643.840    95891367.70847
  23311679.860   122504151.66808  23311677.880    95457987.56646
  22416665.260   117800391.20509  22416662.120    91792517.27548
  22783616.660   121962485.97908  22783617.180    94859720.83707
  19859608.280   106049215.85008  19859609.220    82482732.04406
  23007814.800   122644600.81908  23007820.320    95390264.62205
  20438290.040   109177697.63108  20438293.280    84916008.73608
  21394904.120   114207869.76909  21394907.100    88828470.72908
  20076209.020   107394340.74709  20076208.820    83528991.65608
  22976795.440   122867249.30206  22976799.820    95563445.79107
 15 02 18 00 22 30.0000000  0 14G16G18G21G25G27G29G31R03R09R10R16R18
                                R19R20
  22189090.160   116604470.98009  22189086.960    90860619.38347
  23005604.860   120895299.15409  23005602.300    94204138.43646
  21043363.860   110583915.00909  21043359.820    86169389.20548
  24343190.640   127924632.76408  24343191.480    99681675.89445
  23404382.080   122990888.44308  23404382.420    95837064.36746
  23325468.640   122576612.71408  23325466.480    95514450.67146
  22432443.440   117883305.73009  22432440.280    91857125.96748
  22773619.660   121908971.63308  22773620.280    94818098.64707
  19855887.340   106029346.29408  19855888.280    82467277.94706
  22986055.320   122528610.13108  22986060.700    95300049.64205
  20456715.160   109276121.68308  20456718.380    84992560.76208
  21409007.900   114283156.21309  21409010.740    88887026.86408
  20074636.700   107385929.90009  20074636.540    83522449.89508
  22962627.480   122791487.05306  22962632.120    95504519.69707
 15 02 18 00 23  0.0000000  0 14G16G18G21G25G27G29G31R03R09R10R16R18
                                R19R20
  22174090.700   116525648.88709  22174087.540    90799199.58947
  22992223.900   120824981.67609  22992221.180    94149345.60946
  21047838.720   110607430.26009  21047834.600    86187712.78048
  24361815.100   128022504.35508  24361815.540    99757939.51845
  23391139.280   122921298.09408  23391139.840    95782838.14447
  23339264.820   122649111.97709  23339262.600    95570943.58147
  22448274.820   117966499.89909  22448271.660    91921952.56648
  22763729.640   121856031.05907  22763730.540    94776922.68407
  19852318.440   106010288.51908  19852319.420    82452455.22506
  22964362.000   122412972.01908  22964367.440    95210108.91705
  20475245.140   109375105.68908  20475248.320    85069548.29808
  21423123.820   114358507.84009  21423126.720    88945633.67808
  20073124.360   107377839.94109  20073124.180    83516157.71508
  22948501.940   122715951.74006  22948506.580    95445770.07507
 15 02 18 00 23 30.0000000  0 15G16G18G21G22G25G27G29G31R03R09R10R16
                                R18R19R20
  22159128.960   116447024.81809  22159125.820    90737934.09547
  22978882.220   120754870.65409  22978879.420    94094713.66446
  21052386.300   110631327.60509  21052382.120    86206334.09348
  24558070.740   129053531.34108                                
  24380470.500   128120538.89408  24380471.620    99834329.93945
  23377914.700   122851802.88808  23377915.280    95728686.12347
  23353067.560   122721645.60008  23353065.340    95627463.25447
  22464158.100   118049967.05409  22464155.060    91986991.87548
  22753946.760   121803663.62807  22753947.640    94736192.45407
  19848901.060   105992039.92708  19848902.060    82438261.87206
  22942734.760   122297686.77908  22942740.220    95120442.63805
  20493878.480   109474641.76508  20493881.660    85146965.22608
  21437250.960   114433919.68909  21437253.940    89004287.33608
  20071671.120   107370065.74209  20071670.800    83510111.13308
  22934418.000   122640639.09106  22934422.520    95387193.62107
 15 02 18 00 24  0.0000000  0 15G16G18G21G22G25G27G29G31R03R09R10R16
                                R18R19R20
  22144204.800   116368598.03209  22144201.680    90676822.34747
  22965579.720   120684965.54209  22965576.920    94040242.18546
  21057005.660   110655602.84209  21057001.520    86225249.87148
  24540273.600   128960006.75208  24540271.460   100488315.19545
  24399156.040   128218732.12208  24399156.980    99910844.16345
  23364707.800   122782400.08408  23364708.240    95674606.08047
  23366876.320   122794210.74709  23366874.080    95684007.53747
  22480092.220   118133701.34909  22480089.240    92052239.36148
  22744271.140   121751869.80707  22744272.260    94695908.45007
  19845634.900   105974598.70308  19845635.820    82424696.47906
  22921174.040   122182756.24408  22921179.600    95031052.25505
  20512613.860   109574723.39508  20512617.240    85224806.46908
  21451388.580   114509387.27009  21451391.560    89062984.35408
  20070276.080   107362603.07709  20070275.700    83504306.85008
  22920375.100   122565546.35407  22920379.580    95328788.20207
 15 02 18 00 24 30.0000000  0 15G16G18G21G22G25G27G29G31R03R09R10R16
                                R18R19R20
  22129320.880   116290382.73409  22129317.780    90615875.38347
  22952319.280   120615281.37009  22952316.440    93985942.83246
  21061698.820   110680266.03408  21061694.740    86244467.94348
  24522462.500   128866410.57408  24522460.580   100415383.48545
  24417874.100   128317094.72208  24417875.080    99987490.34945
  23351520.820   122713101.79509  23351521.220    95620607.42546
  23380693.380   122866819.27609  23380691.120    95740585.56647
  22496078.880   118217712.16909  22496075.940    92117702.30548
  22734705.680   121700665.66208  22734706.920    94656083.03707
  19842522.400   105957978.27308  19842523.320    82411769.46606
  22899682.880   122068196.59808  22899688.400    94941950.31005
  20531452.980   109675358.68608  20531456.460    85303078.34608
  21465538.660   114584921.63809  21465541.760    89121733.27808
  20068941.260   107355462.74109  20068940.960    83498753.25508
  22906375.680   122490685.89606  22906380.120    95270563.40407
 15 02 18 00 25  0.0000000  0 15G16G18G21G22G25G27G29G31R03R09R10R16
                                R18R19R20
  22114476.100   116212373.22409  22114473.080    90555088.78447
  22939099.800   120545812.47609  22939096.880    93931811.24546
  21066464.140   110705308.46208  21066460.180    86263981.53948
  24504636.820   128772737.61508  24504634.700   100342391.91945
  24436622.360   128415617.60108  24436623.260   100064261.40145
  23338352.160   122643899.96708  23338352.540    95566683.97247
  23394517.240   122939462.88109  23394514.960    95797190.94247
  22512116.020   118301988.67909  22512113.160    92183372.28348
  22725249.440   121650046.10008  22725250.580    94616712.30807
  19839562.300   105942171.66508  19839563.240    82399475.43906
  22878260.500   121954003.58608  22878266.060    94853133.55606
  20550393.600   109776535.58908  20550396.920    85381771.47408
  21479699.520   114660513.24409  21479702.600    89180526.75508
  20067664.960   107348635.25509  20067664.600    83493443.00908
  22892418.140   122416049.07506  22892422.560    95212512.60307
 15 02 18 00 25 30.0000000  0 15G16G18G21G22G25G27G29G31R03R09R10R16
                                R18R19R20
  22099671.220   116134573.37009  22099668.220    90494465.54547
  22925922.120   120476563.71809  22925919.240    93877851.20746
  21071301.660   110730730.26908  21071297.820    86283790.74748
  24486797.280   128678991.96208  24486795.080   100269343.71145
  24455401.060   128514301.10808  24455402.020   100141157.61445
  23325202.160   122574796.36308  23325202.480    95512837.04947
  23408347.880   123012143.14808  23408345.600    95853824.87846
  22528203.580   118386530.05009  22528200.700    92249248.65448
  22715903.320   121600016.28907  22715904.320    94577800.28307
  19836755.240   105927181.88308  19836756.160    82387816.71806
  22856908.140   121840183.93108  22856913.740    94764607.16905
  20569435.220   109878252.13408  20569438.360    85460884.32208
  21493871.360   114736162.58909  21493874.300    89239365.13808
  20066447.180   107342121.18009  20066446.800    83488376.52308
  22878502.940   122341637.91507  22878507.160    95154637.32107
 15 02 18 00 26  0.0000000  0 15G16G18G21G22G25G27G29G31R03R09R10R16
                                R18R19R20
  22084906.200   116056982.47709  22084903.120    90434005.12347
  22912786.200   120407534.28909  22912783.500    93824062.05646
  21076210.520   110756527.00909  21076206.800    86303892.10648
  24468943.980   128585173.16008  24468941.700   100196238.43344
  24474209.700   128613140.89708  24474210.660   100218175.59945
  23312070.280   122505788.00208  23312070.560    95459064.36347
  23422184.760   123084857.07708  23422182.520    95910485.04347
  22544340.420   118471329.96809  22544337.460    92315326.49048
  22706667.420   121550576.34208  22706668.460    94539347.05507
  19834100.680   105913006.70208  19834101.620    82376791.57106
  22835626.060   121726738.62608  22835631.660    94676371.95605
  20588576.580   109980501.40008  20588579.660    85540411.49508
  21508053.160   114811865.10609  21508055.920    89298244.88208
  20065287.100   107335915.94409  20065286.700    83483550.24308
  22864629.320   122267449.15907  22864633.480    95096934.97207
 15 02 18 00 26 30.0000000  0 15G16G18G21G22G25G27G29G31R03R09R10R16
                                R18R19R20
  22070181.860   115979604.97609  22070178.660    90373710.98247
  22899693.060   120338729.38209  22899690.280    93770447.85546
  21081191.020   110782700.01309  21081187.400    86324286.66048
  24451077.760   128491286.28408  24451075.540   100123080.12145
  24493048.240   128712138.24808  24493049.220   100295316.35145
  23298957.020   122436877.54808  23298957.320    95405367.94047
  23436028.460   123157606.92308  23436026.400    95967173.20647
  22560526.480   118556388.31909  22560523.480    92381605.71047
  22697542.920   121501732.20808  22697544.040    94501357.18607
  19831599.400   105899649.83308  19831600.300    82366402.88906
  22814415.480   121613674.48608  22814421.140    94588433.19705
  20607817.340   110083281.76108  20607820.460    85620351.75708
  21522245.180   114887622.36609  21522247.860    89357167.19308
  20064184.960   107330020.92809  20064184.600    83478965.24308
  22850797.840   122193485.03507  22850801.780    95039407.36207
 15 02 18 00 27  0.0000000  0 15G16G18G21G22G25G27G29G31R03R09R10R16
                                R18R19R20
  22055498.660   115902443.68409  22055495.400    90313585.32147
  22886643.320   120270152.40409  22886640.640    93717011.26546
  21086242.880   110809248.10508  21086239.340    86344973.49648
  24433199.140   128397334.11408  24433196.840   100049870.88745
  24511916.640   128811292.47807  24511917.460   100372579.38545
  23285862.460   122368065.50908  23285862.760    95351748.22347
  23449879.040   123230392.97408  23449877.380    96023889.53847
  22576761.300   118641703.02109  22576758.280    92448084.67647
  22688530.360   121453487.63608  22688531.560    94463833.66307
  19829251.620   105887113.01108  19829252.540    82356652.02306
  22793277.380   121500996.56908  22793283.080    94500794.84205
  20627156.940   110186590.18108  20627160.120    85700702.73908
  21536447.180   114963433.50509  21536449.840    89416131.39808
  20063140.720   107324435.46709  20063140.440    83474621.02308
  22837008.460   122119746.47007  22837012.380    94982055.21107
 15 02 18 00 27 30.0000000  0 16G16G18G21G22G25G27G29G31R03R04R09R10
                                R16R18R19R20
  22040856.400   115825497.74209  22040853.060    90253627.46147
  22873636.760   120201802.63009  22873634.120    93663751.72746
  21091365.300   110836166.87709  21091361.800    86365949.16048
  24415307.900   128303315.94608  24415305.520    99976610.20445
  24530813.840   128910598.80108  24530814.320   100449960.92545
  23272786.040   122299348.61608  23272786.360    95298202.63147
  23463735.800   123303211.86708  23463734.440    96080631.48347
  22593043.520   118727267.57209  22593040.600    92514758.31947
  22679629.880   121405842.44208  22679630.920    94426776.35707
  23563254.980   126180165.28608  23563258.060    98140121.38806
  19827056.840   105875393.22708  19827057.840    82347536.63606
  22772211.900   121388705.70408  22772217.480    94413457.49405
  20646594.000   110290419.08508  20646597.160    85781458.53208
  21550658.340   115039293.73009  21550660.980    89475133.78908
  20062153.500   107319154.58309  20062153.240    83470513.67308
  22823260.560   122046229.63407  22823264.280    94924875.45607
 15 02 18 00 28  0.0000000  0 16G16G18G21G22G25G27G29G31R03R04R09R10
                                R16R18R19R20
  22026256.660   115748775.32509  22026253.140    90193843.78047
  22860675.160   120133688.88408  22860672.620    93610676.09146
  21096559.340   110863461.62109  21096555.760    86387217.80048
  24397405.600   128209240.91507  24397403.440    99903305.28545
  24549741.180   129010062.24508  24549741.560   100527464.88545
  23259729.000   122230733.25309  23259729.200    95244736.17646
  23477600.140   123376070.29308  23477599.100    96137404.21747
  22609373.980   118813085.66409  22609371.180    92581629.54347
  22670843.340   121358806.40108  22670844.100    94390192.83907
  23543053.280   126071979.51307  23543055.300    98055976.92106
  19825016.540   105864498.25108  19825017.580    82339062.77406
  22751220.940   121276812.37308  22751226.540    94326429.37306
  20666128.980   110394771.00108  20666131.960    85862621.11008
  21564879.640   115115208.42209  21564882.360    89534178.53708
  20061224.240   107314183.33709  20061223.920    83466647.17108
  22809555.100   121972940.98707  22809558.920    94867873.23307
 15 02 18 00 28 30.0000000  0 16G16G18G21G22G25G27G29G31R03R04R09R10
                                R16R18R19R20
  22011698.120   115672269.51809  22011694.460    90134228.87747
  22847757.160   120065804.53308  22847754.580    93557779.22746
  21101822.760   110891120.89609  21101819.100    86408770.49248
  24379491.260   128115101.96808  24379489.240    99829950.48545
  24568696.400   129109672.24308  24568696.360   100605083.07444
  23246689.500   122162210.21009  23246689.620    95191341.60146
  23491470.500   123448958.39409  23491469.440    96194200.12247
  22625750.380   118899145.11509  22625747.700    92648688.83747
  22662169.320   121312372.87408  22662169.860    94354077.91107
  23522862.360   125963855.02008  23522863.420    97971880.04706
  19823129.200   105854419.28009  19823130.060    82331223.57006
  22730303.660   121165311.91908  22730309.280    94239706.83505
  20685759.280   110499632.30808  20685762.120    85944179.89008
  21579109.160   115191166.83609  21579111.860    89593257.30308
  20060350.860   107309510.88809  20060350.500    83463013.06908
  22795890.460   121899870.77307  22795894.320    94811040.83607
 15 02 18 00 29  0.0000000  0 16G16G18G21G22G25G27G29G31R03R04R09R10
                                R16R18R19R20
  21997182.300   115595988.66909  21997178.660    90074789.27147
  22834884.520   119998158.55509  22834882.000    93505068.08846
  21107156.520   110919149.83109  21107152.760    86430611.22848
  24361566.620   128020908.10108  24361564.620    99756552.84045
  24587680.400   129209433.75507  24587680.760   100682819.24545
  23233668.760   122093785.68308  23233668.900    95138023.86147
  23505347.680   123521882.49808  23505346.320    96251024.04446
  22642173.400   118985449.34009  22642170.820    92715938.85947
  22653609.520   121266551.69908  22653610.280    94318439.27707
  23502684.820   125855802.71908  23502685.480    97887839.45406
  19821396.020   105845163.60608  19821396.700    82324024.69606
  22709461.940   121054214.50008  22709467.660    94153297.75805
  20705485.360   110605005.57508  20705488.200    86026136.84808
  21593347.900   115267174.22909  21593350.520    89652374.16508
  20059534.320   107305142.38009  20059533.860    83459615.35308
  22782267.980   121827025.39707  22782271.920    94754383.37207
 15 02 18 00 29 30.0000000  0 16G16G18G21G22G25G27G29G31R03R04R09R10
                                R16R18R19R20
  21982709.600   115519934.91309  21982706.200    90015526.63548
  22822057.640   119930752.98809  22822055.020    93452544.27546
  21112560.220   110947546.44508  21112556.420    86452738.45848
  24343631.880   127926661.12108  24343629.880    99683113.84945
  24606692.940   129309344.90408  24606693.020   100760672.12944
  23220666.720   122025459.35508  23220666.860    95084782.59147
  23519231.400   123594841.75008  23519229.540    96307875.38845
  22658642.380   119071994.90009  22658639.860    92783376.91847
  22645164.460   121221345.27408  22645165.580    94283278.75507
  23482521.300   125747826.41608  23482521.520    97803857.87706
  19819816.960   105836731.44408  19819817.580    82317466.33506
  22688696.640   120943524.27508  22688702.420    94067205.35505
  20725306.460   110710886.09009  20725309.340    86108488.33108
  21607595.540   115343228.70709  21607598.060    89711527.63308
  20058774.120   107301076.30709  20058773.760    83456452.84708
  22768687.320   121754404.01906  22768691.380    94697900.08707
 15 02 18 00 30  0.0000000  0 16G16G18G21G22G25G27G29G31R03R04R09R10
                                R16R18R19R20
  21968280.240   115444108.73409  21968277.020    89956441.34848
  22809276.760   119863589.18909  22809274.140    93400208.91746
  21118033.300   110976308.02708  21118029.620    86475150.09748
  24325687.400   127832362.43108  24325685.240    99609634.55245
  24625733.420   129409402.95007  24625734.220   100838639.37846
  23207683.020   121957229.82108  23207683.220    95031616.78247
  23533121.540   123667834.67608  23533119.080    96364753.02046
  22675156.640   119158777.89609  22675154.020    92851000.01647
  22636834.580   121176755.43008  22636835.580    94248597.82807
  23462372.420   125639929.57507  23462372.560    97719938.09906
  19818391.880   105829121.95408  19818392.660    82311547.84706
  22668008.260   120833243.88508  22668014.140    93981431.75405
  20745221.560   110817268.74508  20745224.460    86191230.39208
  21621851.480   115419327.76809  21621853.940    89770715.77708
  20058069.840   107297309.31509  20058069.520    83453522.99408
  22755148.260   121682005.03506  22755152.660    94641589.80407
 15 02 18 00 30 30.0000000  0 16G16G18G21G22G25G27G29G31R03R04R09R10
                                R16R18R19R20
  21953895.240   115368515.23309  21953892.060    89897537.33748
  22796542.860   119796672.43909  22796540.280    93348065.99346
  21123576.180   111005436.10509  21123572.500    86497847.30048
  24307734.000   127738017.35507  24307731.620    99536119.07645
  24644802.100   129509609.45808  24644803.220   100916722.31045
  23194718.280   121889100.12309  23194718.480    94978528.71447
  23547018.580   123740863.96408  23547016.440    96421658.91847
  22691716.100   119245798.08809  22691713.360    92918807.93747
  22628621.040   121132788.02808  22628621.900    94214401.01607
  23442239.480   125532118.96308  23442239.620    97636085.46906
  19817121.600   105822338.92208  19817122.480    82306272.14706
  22647398.140   120723380.60708  22647404.060    93895982.53905
  20765230.440   110924152.18708  20765233.240    86274361.94108
  21636116.100   115495473.07509  21636118.500    89829939.89008
  20057421.880   107293843.49209  20057421.620    83450827.36008
  22741651.340   121609831.41107  22741655.660    94585454.78607
 15 02 18 00 31  0.0000000  0 16G16G18G21G22G25G27G29G31R03R04R09R10
                                R16R18R19R20
  21939554.020   115293151.44809  21939550.760    89838812.32647
  22783855.580   119730000.28309  22783852.960    93296113.67446
  21129187.540   111034923.53809  21129183.740    86520824.53148
  24289771.240   127643623.07608  24289768.720    99462565.26745
  24663897.700   129609957.74008  24663898.420   100994915.81945
  23181771.560   121821064.81108  23181771.620    94925514.23247
  23560921.720   123813924.68808  23560919.940    96478589.27647
  22708319.140   119333047.09009  22708316.340    92986794.15447
  22620523.300   121089440.62007  22620524.180    94180686.44107
  23422122.320   125424394.30007  23422122.540    97552299.63506
  19816005.140   105816377.26708  19816006.100    82301635.29606
  22626866.160   120613933.36008  22626872.100    93810856.91106
  20785331.160   111031526.87908  20785333.980    86357875.56808
  21650388.200   115571658.07609  21650390.500    89889194.88908
  20056828.920   107290671.69209  20056828.660    83448360.41108
  22728195.620   121537877.68807  22728199.740    94529490.79607
 15 02 18 00 31 30.0000000  0 16G16G18G21G22G25G27G29G31R03R04R09R10
                                R16R18R19R20
  21925257.660   115218023.65009  21925254.460    89780271.20247
  22771216.080   119663579.19109  22771213.460    93244356.99346
  21134867.900   111064773.58209  21134864.000    86544084.31248
  24271800.480   127549186.49708  24271797.560    99388978.48845
  24683020.860   129710450.53707  24683022.000   101073221.83245
  23168843.580   121753128.11108  23168843.560    94872576.63447
  23574831.620   123887020.52109  23574829.820    96535547.03346
  22724965.940   119420526.35409  22724963.260    93054959.78647
  22612542.520   121046720.20507  22612543.660    94147459.49507
  23402022.660   125316763.85407  23402023.140    97468587.08906
  19815043.460   105811242.06108  19815044.420    82297641.23506
  22606413.860   120504910.59908  22606419.760    93726061.43606
  20805523.880   111139393.08008  20805526.740    86441771.48108
  21664668.280   115647885.92609  21664670.560    89948483.20508
  20056291.560   107287797.02109  20056291.260    83446124.56308
  22714781.720   121466147.41607  22714785.860    94473700.65107
 15 02 18 00 32  0.0000000  0 16G16G18G21G22G25G27G29G31R03R04R09R10
                                R16R18R19R20
  21911006.540   115143133.59609  21911003.360    89721915.34448
  22758624.720   119597411.24009  22758622.160    93192797.60046
  21140616.720   111094983.49109  21140612.720    86567624.51148
  24253822.060   127454709.41708  24253818.900    99315360.14445
  24702170.980   129811085.81708  24702171.960   101151638.96545
  23155934.260   121685289.42909  23155934.160    94819715.36647
  23588747.960   123960150.76708  23588746.100    96592531.62646
  22741655.940   119508232.38709  22741653.340    93123302.14047
  22604679.380   121004629.59307  22604680.540    94114722.40007
  23381941.520   125209231.41007  23381942.840    97384950.82507
  19814236.540   105806933.05508  19814237.380    82294289.77706
  22586041.800   120396315.69309  22586047.620    93641598.76705
  20825807.700   111247745.79508  20825810.580    86526045.80308
  21678955.900   115724154.60209  21678958.480    90007803.27708
  20055809.240   107285217.02709  20055808.920    83444117.92108
  22701409.480   121394639.97506  22701413.200    94418083.76907
 15 02 18 00 32 30.0000000  0 16G16G18G21G22G25G27G29G31R03R04R09R10
                                R16R18R19R20
  21896801.040   115068483.09809  21896797.840    89663746.13548
  22746082.060   119531499.11709  22746079.540    93141437.54146
  21146433.760   111125552.23009  21146429.720    86591444.32248
  24235836.380   127360194.33908  24235833.180    99241712.16945
  24721348.040   129911862.22608  24721349.440   101230165.96045
  23143043.580   121617548.92409  23143043.420    94766930.58047
  23602670.480   124033315.35608  23602668.840    96649542.91046
  22758388.580   119596162.34909  22758386.020    93191818.97247
  22596934.380   120963171.75507  22596935.700    94082477.48507
  23361879.580   125101801.28307  23361880.720    97301393.96906
  19813584.460   105803450.61508  19813585.260    82291581.20706
  22565750.920   120288153.45508  22565756.700    93557472.59406
  20846181.980   111356581.20508  20846184.860    86610695.54108
  21693251.000   115800463.02209  21693253.600    90067154.27508
