     2.11           OBSERVATION DATA    M                   RINEX VERSION / TYPE
SPIDER V4,0,0,3554                      2015 03 18 01:03    PGM / RUN BY / DATE 
CKTS                                                        MARKER NAME         
CKTS                                                        MARKER NUMBER       
                                                            OBSERVER / AGENCY   
496659              LEICA GRX1200+GNSS  8.10/4.007          REC # / TYPE / VERS 
10321004            LEIAR25         NONE                    ANT # / TYPE        
  5190783.6897   517202.7561  3658836.0979                  APPROX POSITION XYZ 
        0.0720        0.0000        0.0000                  ANTENNA: DELTA H/E/N
     1     1                                                WAVELENGTH FACT L1/2
     4    C1    L1    P2    L2                              # / TYPES OF OBSERV 
    30.000                                                  INTERVAL            
  2015    02    18    00    00    0.0000000     GPS         TIME OF FIRST OBS   
  2015    02    18    23    59   30.0000000     GPS         TIME OF LAST OBS    
    16                                                      LEAP SECONDS        
    54                                                      # OF SATELLITES     
   G 1   816   816   816   816                              PRN / # OF OBS      
   G 2   779   779   779   779                              PRN / # OF OBS      
   G 3   852   852   852   852                              PRN / # OF OBS      
   G 4   841   841   841   841                              PRN / # OF OBS      
   G 5   537   537   537   537                              PRN / # OF OBS      
   G 6   657   657   656   656                              PRN / # OF OBS      
   G 7   667   667   667   667                              PRN / # OF OBS      
   G 9   806   806   806   806                              PRN / # OF OBS      
   G10   679   679   678   678                              PRN / # OF OBS      
   G11   778   778   778   778                              PRN / # OF OBS      
   G12   830   830   830   830                              PRN / # OF OBS      
   G13   802   802   802   802                              PRN / # OF OBS      
   G14   776   776   776   776                              PRN / # OF OBS      
   G15   587   587   587   587                              PRN / # OF OBS      
   G16   546   546   546   546                              PRN / # OF OBS      
   G17   775   774   774   774                              PRN / # OF OBS      
   G18   726   726   725   725                              PRN / # OF OBS      
   G19   666   666   665   665                              PRN / # OF OBS      
   G20   801   801   801   801                              PRN / # OF OBS      
   G21   734   734   734   734                              PRN / # OF OBS      
   G22   650   650   650   650                              PRN / # OF OBS      
   G23   750   750   750   750                              PRN / # OF OBS      
   G24   830   830   830   830                              PRN / # OF OBS      
   G25   861   861   861   861                              PRN / # OF OBS      
   G27   814   814   814   814                              PRN / # OF OBS      
   G28   634   634   634   634                              PRN / # OF OBS      
   G29   758   758   758   758                              PRN / # OF OBS      
   G30   713   713   713   713                              PRN / # OF OBS      
   G31   690   690   690   690                              PRN / # OF OBS      
   G32   766   766   765   765                              PRN / # OF OBS      
   R 1   768   768   768   768                              PRN / # OF OBS      
   R 2   515   515   515   515                              PRN / # OF OBS      
   R 3   632   632   631   631                              PRN / # OF OBS      
   R 4   800   800   798   798                              PRN / # OF OBS      
   R 5   745   745   745   745                              PRN / # OF OBS      
   R 6   552   552   548   547                              PRN / # OF OBS      
   R 7   684   684   683   683                              PRN / # OF OBS      
   R 8   776   776   776   776                              PRN / # OF OBS      
   R 9   804   804   799   799                              PRN / # OF OBS      
   R10   754   754   750   748                              PRN / # OF OBS      
   R11   505   505   501   499                              PRN / # OF OBS      
   R12   534   534   533   533                              PRN / # OF OBS      
   R13   681   681   681   680                              PRN / # OF OBS      
   R14   774   774   774   774                              PRN / # OF OBS      
   R15   772   772   772   772                              PRN / # OF OBS      
   R16   663   663   663   663                              PRN / # OF OBS      
   R17   513   513   509   508                              PRN / # OF OBS      
   R18   701   701   679   678                              PRN / # OF OBS      
   R19   955   955   940   938                              PRN / # OF OBS      
   R20   994   993   985   983                              PRN / # OF OBS      
   R21   395   395   394   394                              PRN / # OF OBS      
   R22   479   479   479   479                              PRN / # OF OBS      
   R23   621   621   616   616                              PRN / # OF OBS      
   R24   655   655   653   653                              PRN / # OF OBS      
BIT 2 OF LLI FLAGS DATA COLLECTED UNDER A/S CONDITION       COMMENT             
SNR is mapped to RINEX snr flag value [2-9]                 COMMENT             
Lx:     = 25dBHz -> 1; 26-27dBHz -> 2; 28-31dBHz -> 3       COMMENT             
       32-35dBHz -> 4; 36-38dBHz -> 5; 39-41dBHz -> 6       COMMENT             
       42-44dBHz -> 7; 45-48dBHz -> 8; >=49dBHz -> 9        COMMENT             
                                                            END OF HEADER       
 15 02 18 00 00  0.0000000  0  6G18G21G25G27G29G31
  23565591.340   123838064.30808  23565588.940    96497203.25245
  20914889.660   109908492.85708  20914885.840    85642969.28748
  23485777.440   123418588.16508  23485777.960    96170328.24046
  24035580.880   126307838.19308  24035582.100    98421699.04846
  22740386.280   119501529.27109  22740382.940    93118068.58447
  21741179.560   114250664.46709  21741176.320    89026476.75648
 15 02 18 00 00 30.0000000  0  6G18G21G25G27G29G31
  23551123.140   123762033.72508  23551120.940    96437958.65845
  20916165.600   109915197.97808  20916161.740    85648194.07748
  23502509.380   123506515.72308  23502509.960    96238843.19346
  24021749.080   126235152.55308  24021749.980    98365060.93945
  22753631.440   119571132.46009  22753627.860    93172304.77847
  21753798.360   114316976.19609  21753795.060    89078148.20748
 15 02 18 00 01  0.0000000  0  6G18G21G25G27G29G31
  23536672.680   123686096.47108  23536670.680    96378786.82445
  20917523.500   109922333.42509  20917519.560    85653754.17848
  23519283.540   123594665.30408  23519284.280    96307531.15646
  24007935.280   126162562.02008  24007935.900    98308496.91545
  22766885.100   119640780.15408  22766881.620    93226575.71647
  21766493.200   114383687.80409  21766489.960    89130131.27248
 15 02 18 00 01 30.0000000  0  6G18G21G25G27G29G31
  23522240.720   123610256.55608  23522238.760    96319690.83445
  20918963.540   109929900.62109  20918959.500    85659650.69548
  23536100.180   123683037.49408  23536100.980    96376392.59046
  23994140.020   126090068.11208  23994140.760    98252008.21146
  22780147.600   119710473.81909  22780144.440    93280882.42947
  21779263.960   114450798.54309  21779260.760    89182425.34048
 15 02 18 00 02  0.0000000  0  6G18G21G25G27G29G31
  23507827.740   123534515.87608  23507825.600    96260672.14545
  20920485.180   109937896.66209  20920481.000    85665881.39648
  23552958.880   123771630.25008  23552959.600    96445425.89946
  23980363.120   126017669.66508  23980363.940    98195593.90146
  22793418.300   119780211.72409  22793414.700    93335223.61747
  21792109.940   114518304.86309  21792106.860    89235027.63248
 15 02 18 00 02 30.0000000  0  6G18G21G25G27G29G31
  23493434.720   123458879.85108  23493432.400    96201735.03445
  20922088.880   109946324.07808  20922084.720    85672448.22448
  23569859.900   123860445.36008  23569860.540    96514632.44746
  23966604.840   125945369.29708  23966605.920    98139256.02446
  22806697.640   119849996.17509  22806694.820    93389601.09547
  21805031.260   114586206.96009  21805028.300    89287938.32748
 15 02 18 00 03  0.0000000  0  6G18G21G25G27G29G31
  23479061.520   123383347.92108  23479059.060    96142879.04045
  20923773.820   109955178.82308  20923769.780    85679348.03448
  23586802.400   123949478.75108  23586802.920    96584009.08546
  23952864.780   125873163.95908  23952865.560    98082992.15746
  22819985.320   119919823.79908  22819982.840    93444012.19547
  21818026.880   114654499.32809  21818023.940    89341153.14048
 15 02 18 00 03 30.0000000  0  6G18G21G25G27G29G31
  23464709.460   123307927.23108  23464706.940    96084109.70445
  20925540.820   109964464.50308  20925536.860    85686583.63248
  23603787.120   124038734.03408  23603787.680    96653558.64946
  23939143.440   125801058.12708  23939143.960    98026805.87346
  22833281.960   119989698.09008  22833279.740    93498459.65447
  21831097.220   114723184.42809  21831094.140    89394673.97748
 15 02 18 00 04  0.0000000  0  6G18G21G25G27G29G31
  23450378.620   123232618.42708  23450376.020    96025427.55745
  20927389.180   109974177.42109  20927385.140    85694152.14748
  23620813.440   124128208.05708  23620814.080    96723278.63946
  23925440.540   125729049.61108  23925441.000    97970695.35545
  22846587.140   120059617.30609  22846585.460    93552942.12447
  21844241.420   114792257.22909  21844238.100    89448496.92148
 15 02 18 00 04 30.0000000  0  6G18G21G25G27G29G31
  23436068.740   123157419.79908  23436066.180    95966831.26345
  20929317.860   109984312.59009  20929313.780    85702049.69748
  23637880.360   124217895.12708  23637881.040    96793164.65546
  23911755.340   125657133.73408  23911755.880    97914657.05246
  22859899.900   120129576.50809  22859898.400    93607455.77147
  21857458.140   114861710.68709  21857454.720    89502616.49248
 15 02 18 00 05  0.0000000  0  6G18G21G25G27G29G31
  23421781.440   123082339.94408  23421778.940    95908327.52745
  20931327.700   109994874.71508  20931323.720    85710279.93548
  23654988.840   124307800.30008  23654989.560    96863220.60546
  23898089.080   125585316.42508  23898089.680    97858695.55547
  22873221.220   120199580.99808  22873220.080    93662004.69647
  21870747.880   114931548.26109  21870744.500    89557035.35448
 15 02 18 00 05 30.0000000  0  6G18G21G25G27G29G31
  23407516.380   123007376.77108  23407513.820    95849914.70645
  20933417.680   110005857.92808  20933413.760    85718838.28748
  23672137.600   124397917.62608  23672138.380    96933441.86646
  23884440.620   125513592.68708  23884441.340    97802806.95547
  22886550.220   120269625.31409  22886548.740    93716584.66547
  21884109.180   115001762.35909  21884105.920    89611747.61548
 15 02 18 00 06  0.0000000  0  6G18G21G25G27G29G31
  23393275.320   122932539.69808  23393272.660    95791600.15945
  20935588.880   110017267.71109  20935584.920    85727729.04348
  23689327.800   124488252.88608  23689328.580    97003832.97646
  23870811.260   125441969.39408  23870812.120    97746996.65047
  22899887.960   120339716.13108  22899886.600    93771200.84347
  21897542.920   115072357.69809  21897539.860    89666756.95748
 15 02 18 00 06 30.0000000  0  6G18G21G25G27G29G31
  23379057.400   122857824.21808  23379054.760    95733380.32545
  20937839.760   110029096.28408  20937835.760    85736946.11948
  23706557.940   124578797.95208  23706558.800    97074387.52746
  23857199.400   125370439.22808  23857200.400    97691258.92647
  22913233.340   120409845.63508  22913231.580    93825847.19847
  21911047.320   115143324.30909  21911044.420    89722055.59448
 15 02 18 00 07  0.0000000  0  6G18G21G25G27G29G31
  23364864.020   122783237.80508  23364861.460    95675261.08145
  20940171.040   110041347.25608  20940167.060    85746492.34348
  23723828.820   124669556.43908  23723829.620    97145108.41446
  23843606.120   125299006.93208  23843607.140    97635597.44346
  22926586.780   120480018.51709  22926585.120    93880527.34647
  21924622.680   115214664.32709  21924619.840    89777645.20448
 15 02 18 00 07 30.0000000  0  6G18G21G25G27G29G31
  23350694.620   122708777.69108  23350692.260    95617240.24845
  20942581.460   110054014.09308  20942577.500    85756362.61848
  23741139.040   124760521.81808  23741139.860    97215990.50346
  23830030.680   125227666.98208  23830031.180    97580007.91146
  22939947.520   120550229.08109  22939945.940    93935236.82247
  21938267.580   115286369.65609  21938264.780    89833519.47648
 15 02 18 00 08  0.0000000  0  6G18G21G25G27G29G31
  23336551.220   122634453.78008  23336548.920    95559325.57346
  20945072.220   110067103.15208  20945068.280    85766561.88048
  23758489.760   124851700.38808  23758490.400    97287038.71346
  23816473.980   125156426.53208  23816474.300    97524495.90746
  22953316.860   120620483.96809  22953315.000    93989980.91547
  21951982.980   115358445.31609  21951980.320    89889682.29148
 15 02 18 00 08 30.0000000  0  6G18G21G25G27G29G31
  23322433.340   122560263.46808  23322430.860    95501514.98446
  20947642.080   110080607.77309  20947638.060    85777084.96848
  23775879.640   124943085.55508  23775880.240    97358247.89346
  23802935.260   125085280.14108  23802935.640    97469057.19346
  22966693.280   120690777.58009  22966691.840    94044755.08247
  21965767.360   115430883.21609  21965764.940    89946127.38748
 15 02 18 00 09  0.0000000  0  6G18G21G25G27G29G31
  23308342.540   122486215.28608  23308339.800    95443815.12245
  20950291.880   110094532.62109  20950287.800    85787935.50748
  23793309.760   125034682.08708  23793310.440    97429621.79546
  23789415.320   125014233.45408  23789416.160    97413696.23346
  22980077.940   120761115.13408  22980076.640    94099563.52047
  21979621.440   115503686.38509  21979619.120    90002857.10748
 15 02 18 00 09 30.0000000  0  6G18G21G25G27G29G31
  23294277.780   122412304.01108  23294274.900    95386221.93545
  20953019.920   110108868.65208  20953015.860    85799106.45348
  23810778.560   125126481.23208  23810779.380    97501153.58446
  23775912.880   124943278.92408  23775913.600    97358407.01046
  22993469.760   120831488.55609  22993468.200    94154399.94747
  21993543.140   115576844.61409  21993540.780    90059863.49948
 15 02 18 00 10  0.0000000  0  6G18G21G25G27G29G31
  23280239.720   122338533.93408  23280236.860    95328738.79046
  20955826.300   110123616.36308  20955822.320    85810598.19448
  23828286.080   125218483.23208  23828287.020    97572843.43046
  23762428.440   124872417.68208  23762429.300    97303190.52346
  23006868.960   120901899.21809  23006866.500    94209265.38447
  22007532.100   115650356.51909  22007529.560    90117145.49748
 15 02 18 00 10 30.0000000  0  6G18G21G25G27G29G31
  23266229.680   122264911.44608  23266226.860    95271370.65345
  20958711.500   110138778.43509  20958707.560    85822412.78648
  23845832.640   125310690.93308  23845833.720    97644693.55846
  23748962.560   124801653.64808  23748963.040    97248049.78945
  23020275.520   120972351.04809  23020273.020    94264162.87347
  22021588.540   115724223.30309  22021585.780    90174704.00148
 15 02 18 00 11  0.0000000  0  6G18G21G25G27G29G31
  23252248.100   122191438.03708  23252245.340    95214118.65646
  20961675.140   110154352.63409  20961671.220    85834548.53148
  23863417.780   125403101.84808  23863419.080    97716702.03546
  23735514.800   124730985.42908  23735514.540    97192983.67045
  23033689.600   121042841.81508  23033686.880    94319090.70947
  22035711.760   115798441.20109  22035708.920    90232536.10748
 15 02 18 00 11 30.0000000  0  6G18G21G25G27G29G31
  23238296.000   122118118.50709  23238293.180    95156986.57446
  20964717.380   110170339.62409  20964713.460    85847005.94448
  23881041.800   125495716.95908  23881043.000    97788869.63046
  23722085.520   124660414.87708  23722085.220    97137993.65946
  23047110.900   121113373.10408  23047107.740    94374050.15946
  22049901.680   115873009.65809  22049898.900    90290641.36748
 15 02 18 00 12  0.0000000  0  6G18G21G25G27G29G31
  23224372.580   122044949.50908  23224369.620    95099971.78245
  20967836.680   110186732.13408  20967832.880    85859779.32748
  23898703.500   125588529.05408  23898704.420    97861190.72746
  23708673.800   124589936.04408  23708673.740    97083075.11846
  23060538.860   121183938.96608  23060535.940    94429036.52647
  22064156.700   115947919.95709  22064153.840    90349013.01148
 15 02 18 00 12 30.0000000  0  7G16G18G21G25G27G29G31
  22558148.780   118543874.42705  22558147.940    92371840.93043
  23210479.460   121971940.31308  23210476.400    95043081.51446
  20971034.300   110203536.05608  20971030.560    85872873.31048
  23916403.720   125681543.94108  23916404.700    97933669.82545
  23695280.660   124519555.68008  23695281.340    97028233.34346
  23073974.860   121254546.05309  23073972.360    94484054.97247
  22078477.560   116023176.08809  22078474.600    90407654.14348
 15 02 18 00 13  0.0000000  0  7G16G18G21G25G27G29G31
  22542375.120   118460983.88906  22542372.920    92307250.98442
  23196616.240   121899089.36508  23196613.320    94986314.57445
  20974309.100   110220745.42508  20974305.320    85886283.21048
  23934141.260   125774756.02308  23934142.560    98006302.59245
  23681905.420   124449269.39408  23681906.420    96973464.86046
  23087417.820   121325189.27708  23087415.500    94539101.66746
  22092862.980   116098771.28709  22092859.920    90466559.45448
 15 02 18 00 13 30.0000000  0  7G16G18G21G25G27G29G31
  22526630.040   118378243.38706  22526627.880    92242777.87643
  23182784.060   121826401.34608  23182781.320    94929674.58846
  20977661.120   110238360.57208  20977657.360    85900009.30148
  23951916.340   125868165.61608  23951917.900    98079089.24745
  23668548.580   124379078.49708  23668549.220    96918770.70046
  23100867.340   121395870.18208  23100865.980    94594177.63346
  22107312.560   116174703.98509  22107309.540    90525727.76148
 15 02 18 00 14  0.0000000  0  7G16G18G21G25G27G29G31
  22510913.420   118295651.44207  22510910.880    92178420.53944
  23168982.660   121753874.72108  23168979.780    94873160.32845
  20981089.520   110256377.04308  20981085.800    85914048.12248
  23969728.180   125961767.92708  23969729.520    98152026.07445
  23655209.180   124308979.30108  23655209.840    96864147.98947
  23114323.940   121466584.82709  23114322.600    94649279.96646
  22121825.200   116250968.17809  22121822.200    90585154.37348
 15 02 18 00 14 30.0000000  0  7G16G18G21G25G27G29G31
  22495226.200   118213214.23708  22495223.500    92114183.77044
  23155213.180   121681515.88308  23155210.240    94816776.82845
  20984594.740   110274797.51408  20984591.120    85928401.73748
  23987577.420   126055565.79908  23987578.500    98225115.31045
  23641888.000   124238975.78108  23641888.780    96809599.81647
  23127787.780   121537336.67808  23127786.340    94704411.18847
  22136401.140   116327564.89709  22136398.080    90644840.12648
 15 02 18 00 15  0.0000000  0 13G16G18G21G25G27G29G31R03R09R16R18R19
                                R20
  22479568.540   118130932.17908  22479565.720    92050067.89845
  23141475.900   121609326.42508  23141472.960    94760525.33045
  20988176.280   110293618.85708  20988172.680    85943067.72948
  24005463.340   126149556.39608  24005464.180    98298354.72045
  23628584.860   124169066.21208  23628585.560    96755124.87647
  23141258.140   121608124.34608  23141257.120    94759570.37846
  22151039.540   116404490.04309  22151036.480    90704781.77148
  22931471.860   122753973.52907  22931473.120    95475309.81606
  19958271.000   106576057.28508  19958272.140    82892496.00406
  20141143.240   107590366.19908  20141146.180    83681405.01308
  21251680.740   113442912.67209  21251683.880    88233388.05408
  20139533.380   107732937.70809  20139533.060    83792292.26308
  23173652.640   123919953.26606  23173656.500    96382201.22306
 15 02 18 00 15 30.0000000  0 13G16G18G21G25G27G29G31R03R09R16R18R19
                                R20
  22463941.180   118048809.56409  22463938.220    91986076.27846
  23127771.820   121537311.57408  23127768.960    94704409.89246
  20991834.420   110312842.41208  20991830.800    85958047.14248
  24023386.140   126243741.14108  24023387.120    98371745.38945
  23615300.040   124099253.03708  23615300.600    96700725.03947
  23154735.940   121678949.60208  23154733.800    94814758.92647
  22165740.320   116481743.15009  22165737.280    90764978.97348
  22920409.720   122694758.01507  22920411.520    95429253.36107
  19952040.580   106542787.17908  19952041.760    82866619.24406
  20157670.120   107678649.60109  20157673.060    83750069.83308
  21265520.520   113516789.45509  21265523.340    88290847.82008
  20137384.920   107721445.02209  20137384.680    83783353.49008
  23159238.380   123842874.49706  23159242.340    96322251.15207
 15 02 18 00 16  0.0000000  0 13G16G18G21G25G27G29G31R03R09R16R18R19
                                R20
  22448343.880   117966845.07609  22448340.820    91922207.87947
  23114100.860   121465470.46308  23114098.080    94648429.85246
  20995568.200   110332463.69008  20995564.600    85973336.45148
  24041345.000   126338115.39308  24041346.240    98445283.72946
  23602032.760   124029532.81108  23602033.400    96646397.65947
  23168220.360   121749808.88108  23168218.640    94869973.92847
  22180502.340   116559318.16509  22180499.320    90825427.03348
  22909445.520   122636066.73608  22909447.080    95383604.63806
  19945956.620   106510298.99609  19945957.960    82841350.69906
  20174312.840   107767551.57809  20174315.780    83819215.80908
  21279373.780   113590738.35009  21279376.760    88348363.60908
  20135297.840   107710279.90609  20135297.660    83774669.53908
  23144866.540   123766021.92407  23144870.500    96262476.94607
 15 02 18 00 16 30.0000000  0 13G16G18G21G25G27G29G31R03R09R16R18R19
                                R20
  22432777.760   117885044.37709  22432774.620    91858467.09047
  23100464.160   121393809.13408  23100461.360    94592589.87046
  20999378.060   110352484.75308  20999374.560    85988937.29948
  24059340.380   126432681.52408  24059341.600    98518971.59545
  23588783.720   123959909.02408  23588784.260    96592145.39347
  23181711.500   121820705.68408  23181710.360    94925218.10047
  22195325.800   116637215.99909  22195322.820    90886126.60548
  22898580.600   122577906.63507  22898581.720    95338368.99606
  19940020.080   106478598.20608  19940021.320    82816694.48806
  20191071.300   107857072.25509  20191074.240    83888842.97308
  21293240.920   113664761.13009  21293243.780    88405936.86108
  20133272.380   107699444.41909  20133272.380    83766241.95808
  23130537.720   123689399.12106  23130541.660    96202881.45107
 15 02 18 00 17  0.0000000  0 13G16G18G21G25G27G29G31R03R09R16R18R19
                                R20
  22417242.800   117803407.73209  22417239.700    91794854.14948
  23086861.940   121322329.05908  23086859.180    94536891.13346
  21003263.500   110372902.88008  21003260.000    86004847.52448
  24077371.780   126527436.82908  24077372.900    98592806.88746
  23575552.500   123890380.12808  23575552.820    96537967.12846
  23195209.760   121891638.17608  23195208.120    94980490.18047
  22210209.880   116715432.43909  22210206.980    90947074.45748
  22887815.460   122520280.01907  22887816.520    95293548.34706
  19934231.040   106447685.01008  19934232.260    82792650.90506
  20207944.620   107947206.75009  20207947.560    83958947.57008
  21307121.260   113738855.01508  21307123.920    88463565.46808
  20131307.860   107688935.73609  20131307.840    83758068.54008
  23116251.400   123613004.52306  23116255.400    96143463.54306
 15 02 18 00 17 30.0000000  0 13G16G18G21G25G27G29G31R03R09R16R18R19
                                R20
  22401739.360   117721936.51309  22401736.220    91731370.11147
  23073294.440   121251031.70408  23073291.700    94481334.78545
  21007224.020   110393715.48208  21007220.460    86021065.14348
  24095438.720   126622379.10008  24095439.780    98666787.85945
  23562339.260   123820944.95108  23562339.480    96483861.82046
  23208714.540   121962605.25708  23208712.160    95035789.19646
  22225153.880   116793963.59109  22225151.080    91008267.53048
  22877150.160   122463189.31607  22877151.900    95249144.52107
  19928589.580   106417560.25908  19928590.740    82769220.54006
  20224931.940   108037949.94909  20224934.880    84029525.60308
  21321014.240   113813017.16909  21321017.160    88521247.12208
  20129404.040   107678751.26709  20129404.100    83750147.30108
  23102007.720   123536837.51307  23102011.880    96084222.54107
 15 02 18 00 18  0.0000000  0 13G16G18G21G25G27G29G31R03R09R16R18R19
                                R20
  22386267.380   117640630.79108  22386264.240    91668015.06047
  23059761.840   121179917.78708  23059759.020    94425921.37045
  21011258.980   110414919.40608  21011255.380    86037587.69348
  24113540.720   126717505.18808  24113541.840    98740912.06445
  23549143.740   123751601.65708  23549144.060    96429828.11547
  23222225.100   122033604.08708  23222222.820    95091112.88347
  22240156.940   116872804.69709  22240154.120    91069702.13748
  22866585.380   122406636.38308  22866587.520    95205158.93107
  19923095.760   106388223.91108  19923097.040    82746403.39506
  20242032.160   108129296.68208  20242035.220    84100573.03508
  21334919.200   113887244.15408  21334922.540    88578979.18008
  20127560.180   107668887.80009  20127560.340    83742475.74108
  23087806.020   123460895.30906  23087810.620    96025156.48007
 15 02 18 00 18 30.0000000  0 13G16G18G21G25G27G29G31R03R09R16R18R19
                                R20
  22370828.360   117559498.43209  22370825.180    91604795.05746
  23046265.720   121108995.46308  23046262.920    94370657.21946
  21015369.240   110436518.95008  21015365.580    86054418.49448
  24131678.600   126812819.52308  24131679.740    98815182.92645
  23535966.680   123682355.73708  23535967.220    96375870.28847
  23235742.600   122104640.74208  23235740.780    95146466.08247
  22255219.640   116951958.84709  22255216.680    91131380.67448
  22856123.200   122350630.23008  22856125.200    95161598.61006
  19917751.060   106359683.45309  19917752.220    82724205.23906
  20259245.700   108221248.86508  20259248.960    84172091.35808
  21348837.140   113961540.42409  21348840.640    88636765.19708
  20125777.280   107659349.63209  20125776.920    83735057.13608
  23073647.640   123385183.97107  23073652.160    95966269.92307
 15 02 18 00 19  0.0000000  0 13G16G18G21G25G27G29G31R03R09R16R18R19
                                R20
  22355421.500   117478534.97809  22355418.260    91541706.64147
  23032805.500   121038261.60308  23032802.760    94315539.95446
  21019553.600   110458507.39508  21019549.840    86071552.36048
  24149850.980   126908315.03208  24149852.100    98889594.98445
  23522807.040   123613201.23008  23522807.600    96321983.73347
  23249266.580   122175709.32409  23249265.000    95201844.14146
  22270340.160   117031417.34309  22270337.000    91193296.37048
  22845762.920   122295168.71207  22845764.420    95118461.92007
  19912554.580   106331934.36309  19912555.900    82702622.63306
  20276570.840   108313796.85309  20276574.240    84244073.10608
  21362766.800   114035898.30309  21362770.040    88694599.04708
  20124053.720   107650129.24809  20124053.380    83727885.75308
  23059531.300   123309697.39107  23059536.180    95907558.21407
 15 02 18 00 19 30.0000000  0 13G16G18G21G25G27G29G31R03R09R16R18R19
                                R20
  22340048.020   117397746.91409  22340044.700    91478754.91747
  23019382.460   120967722.93309  23019379.780    94260574.78446
  21023812.400   110480887.05409  21023808.620    86088991.05348
  24168058.300   127003994.34008  24168059.260    98964150.27945
  23509665.420   123544142.11108  23509666.000    96268171.49047
  23262797.300   122246813.22008  23262794.860    95257249.78646
  22285518.680   117111181.15909  22285515.480    91255449.97548
  22835505.460   122240258.97608  22835507.120    95075754.38707
  19907507.460   106304982.58908  19907508.820    82681660.12306
  20294007.660   108406941.04509  20294011.040    84316518.58908
  21376708.460   114110320.22608  21376711.840    88752482.80008
  20122389.960   107641229.45409  20122389.900    83720963.70408
  23045457.680   123234439.67707  23045462.480    95849024.52807
 15 02 18 00 20  0.0000000  0 13G16G18G21G25G27G29G31R03R09R16R18R19
                                R20
  22324708.020   117317134.17109  22324704.580    91415939.82347
  23005996.680   120897379.90609  23005993.960    94205762.06846
  21028144.740   110503654.06708  21028141.100    86106731.58848
  24186299.780   127099853.81508  24186300.560    99038845.96145
  23496541.620   123475175.79508  23496541.880    96214431.48946
  23276334.180   122317949.68108  23276332.080    95312680.74247
  22300754.240   117191245.21109  22300751.100    91317837.51548
  22825351.360   122185902.23708  22825352.920    95033476.98607
  19902609.380   106278827.11508  19902610.620    82661316.97006
  20311554.980   108500675.22009  20311558.300    84389422.91108
  21390661.580   114184802.41309  21390664.280    88810413.41108
  20120785.400   107632646.26909  20120784.980    83714287.90608
  23031426.300   123159408.04506  23031431.280    95790666.65207
 15 02 18 00 20 30.0000000  0 13G16G18G21G25G27G29G31R03R09R16R18R19
                                R20
  22309401.600   117236697.98609  22309398.220    91353262.27247
  22992648.600   120827234.75209  22992645.720    94151103.53745
  21032550.480   110526806.93808  21032546.920    86124772.79948
  24204575.100   127195891.96007  24204575.860    99113680.85546
  23483435.440   123406301.98908  23483435.540    96160763.66046
  23289877.460   122389118.19009  23289875.000    95368136.71347
  22316046.260   117271606.39809  22316043.340    91380456.59748
  22815301.160   122132101.75008  22815302.200    94991632.21706
  19897860.700   106253469.31408  19897861.780    82641594.25706
  20329212.040   108594995.49609  20329215.240    84462783.11608
  21404625.960   114259342.97409  21404628.380    88868389.39008
  20119239.560   107624377.77809  20119239.220    83707856.87408
  23017437.160   123084602.09407  23017441.960    95732484.34307
 15 02 18 00 21  0.0000000  0 13G16G18G21G25G27G29G31R03R09R16R18R19
                                R20
  22294129.900   117156445.26509  22294126.780    91290727.71547
  22979339.540   120757294.64109  22979336.340    94096604.77046
  21037030.260   110550348.82208  21037026.760    86143117.13148
  24222885.120   127292112.14908  24222885.920    99188657.57445
  23470347.460   123337525.30408  23470347.340    96107171.49746
  23303427.540   122460323.65808  23303424.820    95423621.42546
  22331395.240   117352266.64209  22331392.620    91443308.71148
  22805356.420   122078865.37308  22805356.680    94950226.16706
  19893262.680   106228915.65209  19893263.660    82622496.96706
  20346978.980   108689902.78009  20346982.020    84536599.86308
  21418601.400   114333945.47409  21418603.560    88926413.52308
  20117753.140   107616427.52009  20117752.800    83701673.39008
  23003491.020   123010026.66906  23003495.780    95674481.28707
 15 02 18 00 21 30.0000000  0 14G16G18G21G22G25G27G29G31R03R09R16R18
                                R19R20
  22278893.120   117076375.99509  22278890.060    91228336.12947
  22966069.460   120687559.44309  22966066.040    94042265.66546
  21041583.540   110574276.46208  21041580.040    86161762.05348
  24541877.640   128968439.87308  24541875.880   100494873.98145
  24241229.160   127388510.87408  24241230.020    99263773.45245
  23457277.480   123268843.38108  23457277.720    96053653.17547
  23316983.860   122531563.53608  23316981.360    95479133.02246
  22346800.260   117433220.75009  22346797.720    91506389.81148
  22795517.320   122026194.67708  22795517.400    94909260.08507
  19888814.920   106205165.04908  19888816.060    82604024.25206
  20364854.640   108785390.93308  20364857.680    84610868.40008
  21432588.120   114408605.84509  21432590.200    88984482.76508
  20116325.580   107608791.76909  20116325.660    83695734.46208
  22989587.480   122935679.01007  22989592.520    95616655.37607
 15 02 18 00 22  0.0000000  0 14G16G18G21G22G25G27G29G31R03R09R16R18
                                R19R20
  22263690.300   116996484.26109  22263687.080    91166082.83447
  22952837.360   120618024.27809  22952834.000    93988082.43446
  21046208.400   110598579.96308  21046204.860    86180699.83848
  24524189.160   128875487.09208  24524187.040   100422443.83744
  24259605.460   127485078.75408  24259606.280    99339021.16345
  23444224.280   123200248.20708  23444224.920    96000202.42347
  23330545.160   122602829.41808  23330543.360    95534664.83047
  22362259.180   117514457.86209  22362256.560    91569691.44148
  22785782.800   121974084.73008  22785782.740    94868730.15006
  19884516.340   106182210.93608  19884517.640    82586171.07206
  20382836.780   108881448.22208  20382840.000    84685579.61008
  21446583.740   114483314.82509  21446585.680    89042589.73508
  20114955.080   107601460.79608  20114954.920    83690032.61508
  22975725.160   122861551.08406  22975730.120    95559000.47807
 15 02 18 00 22 30.0000000  0 14G16G18G21G22G25G27G29G31R03R09R16R18
                                R19R20
  22248523.760   116916783.03509  22248520.460    91103978.00747
  22939645.860   120548703.10508  22939642.800    93934065.96446
  21050906.600   110623268.71608  21050902.960    86199937.84448
  24506485.660   128782456.71308  24506483.640   100349953.25544
  24278015.700   127581825.55908  24278016.660    99414408.27245
  23431189.840   123131750.67208  23431190.340    95946827.76146
  23344113.520   122674132.15409  23344112.040    95590225.34046
  22377773.480   117595986.27709  22377770.900    91633220.06248
  22776155.560   121922550.04308  22776155.540    94828647.65807
  19880369.160   106160065.73108  19880370.440    82568947.01706
  20400926.740   108978081.70208  20400930.220    84760738.95408
  21460590.000   114558081.97409  21460592.140    89100741.93807
  20113643.360   107594444.43909  20113643.140    83684575.47808
  22961905.960   122787653.89506  22961911.040    95501524.95507
 15 02 18 00 23  0.0000000  0 14G16G18G21G22G25G27G29G31R03R09R16R18
                                R19R20
  22233393.300   116837271.06109  22233389.680    91042020.64047
  22926494.780   120479594.50208  22926491.900    93880215.13546
  21055677.180   110648338.04709  21055673.340    86219472.37948
  24488767.120   128689347.61408  24488765.400   100277401.28945
  24296459.000   127678746.45707  24296460.200    99489931.02645
  23418172.980   123063347.08408  23418172.840    95893526.29746
  23357688.340   122745467.79508  23357686.160    95645811.60246
  22393341.980   117677799.68009  22393339.600    91696970.73748
  22766635.760   121871590.32408  22766635.940    94789012.34607
  19876373.060   106138727.46608  19876374.400    82552350.56406
  20419123.260   109075284.21309  20419126.840    84836340.88108
  21474606.380   114632902.15509  21474608.820    89158935.41708
  20112389.540   107587737.54509  20112389.500    83679359.01308
  22948129.180   122713983.63506  22948134.020    95444225.96207
 15 02 18 00 23 30.0000000  0 14G16G18G21G22G25G27G29G31R03R09R16R18
                                R19R20
  22218299.580   116757953.73909  22218296.020    90980214.96747
  22913385.480   120410704.97509  22913382.640    93826535.00946
  21060520.620   110673790.27309  21060516.680    86239305.27848
  24471034.740   128596165.53508  24471033.100   100204792.33445
  24314935.840   127775843.71307  24314937.100    99565591.18145
  23405174.580   122995041.06108  23405174.360    95840300.87446
  23371269.760   122816839.95208  23371267.900    95701426.15447
  22408964.860   117759898.64509  22408962.560    91760943.92548
  22757224.720   121821212.37608  22757224.740    94749829.50807
  19872529.120   106118200.97908  19872530.340    82536385.49206
  20437426.340   109173055.31909  20437429.860    84912385.05508
  21488633.060   114707777.86709  21488635.380    89217172.08008
  20111194.040   107581342.42408  20111194.260    83674385.00708
  22934395.460   122640543.47906  22934400.180    95387105.91307
 15 02 18 00 24  0.0000000  0 14G16G18G21G22G25G27G29G31R03R09R16R18
                                R19R20
  22203241.540   116678823.17109  22203238.100    90918554.80647
  22900316.500   120342026.65909  22900313.540    93773019.46146
  21065434.660   110699613.83208  21065430.800    86259427.55748
  24453287.000   128502902.78908  24453285.240   100132120.53745
  24333444.160   127873105.79308  24333445.440    99641379.76645
  23392192.940   122926822.29008  23392192.960    95787143.44347
  23384856.840   122888238.27208  23384854.540    95757061.21247
  22424639.700   117842270.02509  22424637.340    91825129.38648
  22747920.940   121771409.08908  22747921.000    94711093.65807
  19868835.500   106098477.14509  19868836.720    82521044.78206
  20455833.180   109271381.06609  20455836.540    84988860.61508
  21502667.820   114782697.23609  21502670.240    89275442.67008
  20110054.800   107575247.21509  20110054.980    83669644.29108
  22920702.920   122567323.09706  22920707.720    95330156.75507
 15 02 18 00 24 30.0000000  0 14G16G18G21G22G25G27G29G31R03R09R16R18
                                R19R20
  22188220.700   116599887.99309  22188217.140    90857046.89847
  22887289.520   120273569.07808  22887286.460    93719675.91446
  21070420.240   110725813.29208  21070416.460    86279842.72748
  24435525.640   128409568.49608  24435523.860   100059392.99345
  24351985.020   127970537.99707  24351986.160    99717300.96446
  23379229.320   122858697.40309  23379229.300    95734059.16646
  23398450.120   122959669.38308  23398447.300    95812721.81246
  22440367.220   117924917.77609  22440364.640    91889530.21248
  22738725.960   121722190.84707  22738727.200    94672812.84507
  19865293.720   106079564.01008  19865294.960    82506334.53506
  20474344.380   109370264.08509  20474347.560    85065769.61308
  21516711.660   114857665.76608  21516714.480    89333751.51408
  20108972.560   107569457.09909  20108972.540    83665140.93208
  22907052.740   122494329.23906  22907057.580    95273383.84807
 15 02 18 00 25  0.0000000  0 14G16G18G21G22G25G27G29G31R03R09R16R18
                                R19R20
  22173237.880   116521152.89709  22173234.320    90795694.88547
  22874305.340   120205336.87809  22874302.240    93666507.98846
  21075477.620   110752390.18809  21075473.860    86300551.99648
  24417751.740   128316167.66008  24417749.940    99986613.50045
  24370558.560   128068141.40308  24370559.180    99793355.53545
  23366284.100   122790668.69308  23366283.820    95681049.78846
  23412049.320   123031135.26208  23412047.020    95868409.40946
  22456147.220   118007841.30009  22456144.440    91954145.91848
  22729641.120   121673563.05607  22729643.580    94634991.26907
  19861904.340   106061465.03308  19861905.620    82492257.55306
  20492959.500   109469702.75708  20492962.600    85143110.77408
  21530764.980   114932684.45609  21530767.760    89392099.41908
  20107947.300   107563973.15809  20107947.200    83660875.61308
  22893445.180   122421563.69607  22893449.960    95216788.44607
 15 02 18 00 25 30.0000000  0 15G16G18G21G22G25G27G29G31R03R04R09R16
                                R18R19R20
  22158292.440   116442614.66109  22158288.640    90734496.28447
  22861363.720   120137327.95409  22861360.600    93613514.03346
  21080605.560   110779337.63408  21080601.740    86321550.02848
  24399964.700   128222697.40608  24399962.740    99913779.90445
  24389163.280   128165909.55908  24389163.800    99869538.46645
  23353355.920   122722730.86208  23353355.500    95628111.26746
  23425654.680   123102630.41308  23425652.680    95924119.91747
  22471978.140   118091032.86809  22471975.320    92018970.50048
  22720666.280   121625523.85407  22720669.820    94597627.52207
  23579072.440   126264863.80807                                
  19858666.700   106044176.35008  19858667.960    82478810.78006
  20511676.800   109569688.06908  20511680.060    85220877.11308
  21544826.540   115007746.72808  21544830.040    89450481.13008
  20106978.220   107558788.66109  20106978.040    83656843.25208
  22879879.280   122349021.25307  22879884.280    95160366.61107
 15 02 18 00 26  0.0000000  0 15G16G18G21G22G25G27G29G31R03R04R09R16
                                R18R19R20
  22143386.600   116364284.88109  22143383.080    90673460.14148
  22848466.740   120069553.71709  22848463.620    93560702.95846
  21085805.440   110806663.40808  21085801.620    86342842.82948
  24382166.660   128129169.53308  24382164.540    99840901.41745
  24407800.760   128263850.31708  24407801.280    99945855.90945
  23340446.480   122654893.06008  23340445.860    95575250.68546
  23439266.720   123174164.34508  23439265.500    95979860.59846
  22487861.180   118174498.41009  22487858.360    92084008.57148
  22711803.620   121578085.53007  22711808.120    94560731.11407
  23559037.940   126157572.20507  23559039.940    98122565.32706
  19855582.740   106027708.17809  19855584.040    82466002.21706
  20530497.480   109670225.57008  20530500.980    85299072.92008
  21558897.940   115082860.51309  21558901.580    89508903.00408
  20106066.520   107553911.49408  20106066.200    83653049.94108
  22866357.080   122276711.11807  22866361.220    95104125.43106
 15 02 18 00 26 30.0000000  0 15G16G18G21G22G25G27G29G31R03R04R09R16
                                R18R19R20
  22128518.300   116286151.95209  22128515.000    90612577.36247
  22835612.240   120002003.24909  22835609.200    93508066.25146
  21091074.540   110834352.66108  21091070.640    86364418.88448
  24364355.640   128035573.10808  24364353.480    99767969.45145
  24426468.180   128361948.85708  24426469.040   100022296.30845
  23327553.760   122587141.94508  23327553.120    95522457.66446
  23452883.560   123245723.19508  23452883.020    96035620.71247
  22503793.180   118258221.69509  22503790.380    92149247.47048
  22703051.820   121531237.74407  22703056.700    94524293.96407
  23539011.680   126050330.91008  23539013.400    98039155.51806
  19852650.120   106012048.04708  19852651.420    82453822.10006
  20549418.240   109771297.32508  20549421.860    85377684.25408
  21572976.040   115158011.14308  21572980.100    89567353.46608
  20105209.440   107549326.61609  20105209.000    83649483.94108
  22852875.360   122204618.98406  22852879.260    95048053.81907
 15 02 18 00 27  0.0000000  0 15G16G18G21G22G25G27G29G31R03R04R09R16
                                R18R19R20
  22113689.100   116208224.92309  22113685.920    90551855.05947
  22822802.000   119934686.25808  22822799.220    93455611.46546
  21096413.760   110862410.53208  21096409.880    86386282.15948
  24346533.280   127941917.19808  24346531.120    99694991.13745
  24445166.820   128460210.82808  24445167.620   100098864.03745
  23314678.860   122519484.26408  23314678.680    95469737.40047
  23466506.940   123317313.66309  23466506.420    96091405.44147
  22519775.020   118342206.97109  22519772.240    92214690.52147
  22694412.520   121484990.56608  22694417.300    94488323.95507
  23518996.820   125943151.19107  23518997.980    97955793.51405
  19849870.420   105997204.16008  19849871.640    82442276.86606
  20568439.820   109872906.72408  20568443.360    85456713.75308
  21587062.280   115233204.12909  21587066.260    89625836.89908
  20104407.920   107545039.80009  20104407.260    83646149.77608
  22839436.000   122132752.19707  22839440.080    94992157.50207
 15 02 18 00 27 30.0000000  0 15G16G18G21G22G25G27G29G31R03R04R09R16
                                R18R19R20
  22098898.940   116130501.64009  22098895.540    90491291.39447
  22810035.820   119867600.59109  22810033.240    93403336.94346
  21101821.900   110890831.06508  21101818.120    86408428.05148
  24328699.300   127848199.69708  24328697.020    99621964.79645
  24463895.440   128558630.05207  24463896.440   100175554.32745
  23301820.860   122451915.14408  23301820.900    95417086.18547
  23480135.700   123388930.89408  23480134.900    96147211.03347
  22535805.220   118426446.36409  22535802.500    92280331.58048
  22685885.580   121439342.25508  22685889.480    94452819.81807
  23498993.200   125836032.64707  23498994.160    97872479.13506
  19847242.760   105983172.26908  19847243.940    82431363.14506
  20587560.360   109975044.70108  20587563.700    85536154.38108
  21601155.420   115308433.30409  21601158.800    89684348.46307
  20103660.860   107541044.48008  20103660.600    83643042.29008
  22826037.760   122061105.43607  22826042.180    94936432.27507
 15 02 18 00 28  0.0000000  0 15G16G18G21G22G25G27G29G31R03R04R09R16
                                R18R19R20
  22084149.160   116052991.68209  22084145.920    90430894.10147
  22797315.780   119800756.61609  22797313.160    93351250.73946
  21107300.360   110919621.12608  21107296.660    86430861.86748
  24310855.640   127754431.34008  24310853.200    99548898.81045
  24482655.180   128657213.08807  24482656.320   100252372.25045
  23288981.200   122384442.62808  23288981.460    95364510.27547
  23493770.840   123460583.16908  23493769.820    96203043.93346
  22551884.760   118510945.05909  22551882.060    92346174.69647
  22677472.860   121394304.25408  22677475.720    94417790.28007
  23479003.140   125728988.06607  23479004.580    97789222.32206
  19844768.840   105969961.66608  19844770.000    82421088.23406
  20606780.640   110077715.42108  20606783.720    85616009.38308
  21615256.580   115383705.67909  21615259.600    89742893.62908
  20102969.560   107537347.23708  20102969.380    83640166.70308
  22812681.740   121989686.63506  22812686.400    94880884.33507
 15 02 18 00 28 30.0000000  0 15G16G18G21G22G25G27G29G31R03R04R09R16
                                R18R19R20
  22069440.220   115975696.06509  22069436.980    90370663.77847
  22784642.000   119734155.53209  22784639.360    93299353.82746
  21112848.540   110948777.04308  21112844.820    86453580.76548
  24293002.360   127660612.78508  24292999.840    99475793.71645
  24501445.680   128755957.24907  24501446.460   100329315.75245
  23276159.540   122317065.13808  23276159.940    95312008.39147
  23507412.040   123532268.65308  23507410.520    96258902.74346
  22568012.800   118595698.74109  22568010.080    92412216.49847
  22669174.480   121349877.65708  22669175.960    94383236.29207
  23459027.460   125622020.16007  23459028.960    97706025.04906
  19842448.540   105957571.68708  19842449.660    82411451.59206
  20626099.520   110180913.27708  20626102.520    85696274.35508
  21629365.300   115459018.45609  21629368.460    89801470.14608
  20102333.620   107533945.16509  20102333.300    83637520.64008
  22799368.260   121918493.87507  22799372.860    94825512.23207
 15 02 18 00 29  0.0000000  0 15G16G18G21G22G25G27G29G31R03R04R09R16
                                R18R19R20
  22054771.760   115898613.31509  22054768.760    90310599.33048
  22772014.240   119667796.48608  22772011.700    93247645.49446
  21118465.500   110978294.12808  21118461.740    86476581.11048
  24275139.380   127566743.35308  24275136.680    99402648.95845
  24520265.880   128854857.72008  24520266.600   100406381.02444
  23263355.620   122249779.29308  23263355.740    95259577.89147
  23521059.140   123603983.77709  23521057.480    96314784.59346
  22584188.160   118680701.01809  22584185.520    92478452.02647
  22660990.140   121306062.36808  22660990.620    94349157.78607
  23439066.280   125515129.66207  23439067.620    97622888.03506
  19840281.540   105945999.79308  19840282.680    82402451.20306
  20645515.660   110284630.86208  20645518.740    85776943.56208
  21643481.020   115534366.97209  21643483.820    89860074.62608
  20101751.880   107530833.52908  20101751.660    83635100.46708
  22786096.620   121847523.67107  22786100.540    94770313.18506
 15 02 18 00 29 30.0000000  0 15G16G18G21G22G25G27G29G31R03R04R09R16
                                R18R19R20
  22040143.640   115821742.64609  22040140.760    90250700.12447
  22759432.400   119601678.58309  22759429.920    93196125.07146
  21124150.240   111008167.39708  21124146.440    86499858.98748
  24257266.580   127472822.03808  24257263.620    99329463.74945
  24539114.780   128953909.63907  24539115.840   100483564.28845
  23250568.420   122182581.58608  23250568.480    95207216.09947
  23534711.520   123675724.85209  23534709.300    96370686.71346
  22600409.620   118765945.53409  22600407.100    92544876.29447
  22652919.600   121262857.72408  22652919.300    94315554.22006
  23419119.780   125408317.47608  23419120.980    97539811.92306
  19838267.200   105935243.29808  19838268.360    82394085.04006
  20665027.620   110388860.48308  20665030.880    85858011.00908
  21657602.220   115609746.46108  21657604.820    89918703.10308
  20101223.640   107528007.54709  20101223.560    83632902.50808
  22772865.740   121776771.94207  22772869.100    94715284.13707
 15 02 18 00 30  0.0000000  0 15G16G18G21G22G25G27G29G31R03R04R09R16
                                R18R19R20
  22025558.560   115745097.53609  22025555.680    90190976.70347
  22746899.160   119535816.19109  22746896.480    93144803.74746
  21129904.640   111038407.05408  21129900.840    86523422.35748
  24239386.660   127378863.09608  24239383.420    99256249.19745
  24557994.560   129053123.25908  24557995.800   100560873.60445
  23237799.880   122115483.59608  23237800.400    95154932.00847
  23548370.460   123747503.46808  23548368.100    96426618.06946
  22616678.960   118851441.39509  22616676.640    92611496.42948
  22644965.760   121220278.66808  22644964.660    94282437.21307
  23399191.200   125301600.16807  23399192.480    97456809.59806
  19836407.840   105925314.65709  19836408.960    82386362.75706
  20684637.040   110493610.26508  20684640.380    85939483.03908
  21671730.880   115685167.63309  21671733.800    89977364.04408
  20100750.660   107525477.19009  20100750.460    83630934.46308
  22759677.820   121706250.29306  22759681.220    94660434.00307
 15 02 18 00 30 30.0000000  0 15G16G18G21G22G25G27G29G31R03R04R09R16
                                R18R19R20
  22011015.120   115668671.08009  22011012.040    90131423.61447
  22734413.240   119470202.47309  22734410.400    93093676.19346
  21135726.760   111069002.67508  21135722.960    86547263.10248
  24221498.340   127284859.96608  24221494.800    99183000.18045
  24576903.120   129152488.25508  24576904.360   100638300.82645
  23225048.780   122048476.31308  23225049.480    95102718.58747
  23562034.740   123819310.30109  23562032.620    96482571.39446
  22632993.880   118937176.37909  22632991.580    92678302.86747
  22637127.240   121178318.87108  22637125.800    94249801.84506
  23379279.440   125194972.60108  23379280.460    97373877.09406
  19834701.980   105916205.52108  19834703.340    82379277.86806
  20704341.380   110598866.70409  20704344.680    86021349.12908
  21685865.320   115760620.04308  21685868.480    90036049.21007
  20100330.980   107523232.21509  20100330.860    83629188.37908
  22746531.040   121635949.41007  22746535.020    94605755.57407
 15 02 18 00 31  0.0000000  0 15G16G18G21G22G25G27G29G31R03R04R09R16
                                R18R19R20
  21996513.940   115592466.44209  21996510.840    90072043.38047
  22721975.340   119404841.10109  22721972.500    93042745.29546
  21141616.480   111099953.07808  21141612.600    86571380.32448
  24203602.200   127190815.90408  24203598.620    99109719.27945
  24595840.340   129252003.91008  24595841.920   100715845.47045
  23212315.200   121981560.37508  23212315.820    95050576.32547
  23575704.800   123891146.52008  23575702.500    96538547.64146
  22649353.860   119023148.11109  22649351.480    92745293.81248
  22629404.840   121136981.99708  22629403.640    94217650.97807
  23359385.520   125088440.41207  23359386.160    97291018.71806
  19833149.860   105907917.14309  19833151.320    82372831.36606
  20724139.960   110704626.42209  20724143.080    86103606.67108
  21700005.760   115836103.31009  21700008.480    90094758.42407
  20099964.540   107521271.67309  20099964.080    83627663.55508
  22733425.740   121565869.98706  22733430.040    94551249.34607
 15 02 18 00 31 30.0000000  0 15G16G18G21G22G25G27G29G31R03R04R09R16
                                R18R19R20
  21982056.000   115516489.76409  21982052.880    90012840.81348
  22709586.820   119339738.47909  22709583.960    92992015.99946
  21147574.320   111131261.41609  21147570.440    86595776.42348
  24185699.500   127096737.66808  24185696.100    99036411.74345
  24614806.800   129351672.94608  24614808.100   100793509.69744
  23199599.900   121914739.96708  23199599.760    94998508.50747
  23589380.780   123963015.93508  23589377.940    96594549.74346
  22665759.080   119109358.05309  22665756.520    92812470.36847
  22621800.160   121096274.85808  22621798.900    94185989.95506
  23339510.820   124982011.89908  23339511.460    97208241.03406
  19831752.400   105900454.61108  19831753.660    82367027.14906
  20744032.760   110810889.62308  20744035.700    86186255.80608
  21714152.500   115911620.66308  21714155.460    90153494.06607
  20099651.800   107519598.54109  20099651.400    83626362.19708
  22720362.020   121496015.35706  22720366.520    94496918.02307
 15 02 18 00 32  0.0000000  0 15G16G18G21G22G25G27G29G31R03R04R09R16
                                R18R19R20
  21967640.860   115440737.10109  21967637.740    89953812.77048
  22697246.900   119274890.93409  22697243.960    92941485.45746
  21153598.620   111162919.17109  21153594.760    86620444.80248
  24167789.480   127002621.35908  24167786.260    98963074.56445
  24633800.880   129451487.57007  24633802.200   100871287.23145
  23186901.280   121848008.49408  23186901.040    94946510.02947
  23603062.000   124034911.89608  23603059.640    96650572.54846
  22682207.740   119195796.92209  22682205.180    92879825.29447
  22614312.660   121056194.32408  22614311.500    94154816.26306
  23319655.100   124875685.01908  23319655.660    97125542.35706
  19830508.540   105893811.90708  19830509.760    82361860.59206
  20764017.580   110917645.44908  20764020.500    86269288.08908
  21728304.280   115987164.03208  21728307.460    90212250.04407
  20099391.260   107518204.40209  20099390.520    83625277.90608
  22707339.600   121426379.03107  22707343.980    94442756.44906
 15 02 18 00 32 30.0000000  0 15G16G18G21G22G25G27G29G31R03R04R09R16
                                R18R19R20
  21953269.340   115365213.70509  21953265.920    89894963.37047
  22684956.640   119210304.55909  22684953.420    92891158.42646
  21159689.840   111194928.74008  21159685.940    86645387.33248
  24149873.360   126908472.96407  24149870.240    98889712.35246
  24652823.240   129551449.97407  24652823.960   100949180.05045
  23174220.320   121781369.63609  23174220.040    94894583.68347
  23616749.140   124106838.00808  23616747.000    96706618.81546
  22698700.060   119282465.35309  22698697.540    92947359.11247
  22606943.420   121016746.84208  22606942.640    94124134.92207
  23299819.580   124769467.60708  23299820.420    97042928.79406
  19829418.900   105887993.05808  19829420.040    82357334.81406
  20784094.560   111024893.64408  20784097.560    86352703.33108
  21742461.080   116062736.14808  21742464.520    90271028.35507
  20099183.240   107517091.84709  20099182.800    83624412.58708
  22694358.800   121356964.28307  22694363.020    94388767.25807
 15 02 18 00 33  0.0000000  0 15G16G18G21G22G25G27G29G31R03R04R09R16
                                R18R19R20
  21938942.060   115289923.57109  21938938.800    89836295.78947
  22672716.740   119145983.34009  22672713.520    92841038.02046
  21165847.920   111227289.75008  21165843.940    86670603.72648
  24131952.060   126814296.47508  24131948.860    98816328.21445
  24671873.820   129651560.10808  24671874.320   101027187.91944
  23161557.320   121714824.82509  23161557.120    94842730.60847
  23630442.380   124178795.65309  23630439.860    96762689.64446
  22715235.840   119369361.62909  22715233.360    93015070.47347
  22599693.040   120977935.94908  22599692.580    94093948.64007
  23280005.580   124663366.21508  23280006.880    96960405.53506
  19828483.940   105883000.14608  19828485.020    82353451.43606
  20804263.280   111132631.44909  20804266.460    86436499.36408
  21756623.800   116138337.44208  21756627.700    90329829.35308
  20099027.880   107516260.86409  20099027.820    83623766.25908
  22681419.620   121287772.32707  22681424.080    94334951.33207
 15 02 18 00 33 30.0000000  0 15G16G18G21G22G25G27G29G31R03R04R09R16
                                R18R19R20
  21924658.920   115214865.14309  21924655.620    89777808.71147
  22660526.980   119081925.99509  22660523.840    92791123.22046
  21172071.780   111259996.73609  21172067.760    86696089.67548
  24114025.320   126720091.08308  24114022.180    98742921.60846
  24690951.440   129751812.92107  24690951.520   101105306.97245
  23148911.380   121648370.18508  23148911.140    94790947.82147
  23644141.000   124250781.08608  23644138.340    96818782.17146
  22731813.860   119456479.32609  22731811.280    93082954.37347
  22592561.780   120939761.25208  22592560.740    94064257.32207
  23260213.440   124557381.07708  23260214.760    96877972.70806
  19827703.060   105878829.74308  19827704.080    82350207.78306
  20824522.260   111240850.88108  20824525.520    86520670.00808
  21770791.140   116213962.97909  21770794.680    90388649.17407
  20098923.760   107515706.21109  20098923.760    83623334.88708
  22668521.400   121218798.76207  22668525.720    94281305.20307
 15 02 18 00 34  0.0000000  0 15G16G18G21G22G25G27G29G31R03R04R09R16
                                R18R19R20
  21910421.840   115140048.48609  21910418.140    89719509.98647
  22648389.240   119018142.47909  22648386.300    92741421.80446
  21178362.780   111293056.14108  21178358.740    86721850.27248
  24096094.960   126625866.44508  24096091.840    98669499.95945
  24710057.480   129852214.48308  24710057.760   101183541.91545
  23136283.840   121582013.36508  23136283.740    94739241.25747
  23657845.680   124322801.73408  23657843.900    96874902.01546
  22748435.020   119543823.13609  22748432.260    93151014.47047
  22585551.100   120902232.99408  22585550.480    94035068.70907
  23240445.420   124451524.47108  23240446.580    96795639.80706
  19827077.680   105875490.08308  19827078.560    82347610.26306
  20844872.140   111349555.66408  20844875.340    86605218.14008
  21784964.680   116289619.22409  21784967.620    90447492.94008
  20098872.960   107515434.16809  20098872.860    83623123.31508
  22655665.440   121150051.24107  22655669.440    94227834.93807
 15 02 18 00 34 30.0000000  0 15G16G18G21G22G25G27G29G31R03R04R09R16
                                R18R19R20
  21896229.020   115065465.38609  21896225.440    89661393.33047
