     2.11           OBSERVATION DATA    G                   RINEX VERSION / TYPE
SPIDER V4,0,0,3554                      2015 03 31 01:31    PGM / RUN BY / DATE 
EADB                                                        MARKER NAME         
EADB                                                        MARKER NUMBER       
                                                            OBSERVER / AGENCY   
462408              LEICA GRX1200PRO    3.00/2.127          REC # / TYPE / VERS 
103310              LEIAT504                                ANT # / TYPE        
  5238464.6656   142765.3090  3625629.6523                  APPROX POSITION XYZ 
        0.0770        0.0000        0.0000                  ANTENNA: DELTA H/E/N
     1     1                                                WAVELENGTH FACT L1/2
     4    C1    L1    P2    L2                              # / TYPES OF OBSERV 
    30.000                                                  INTERVAL            
  2015    02    18    00    00    0.0000000     GPS         TIME OF FIRST OBS   
  2015    02    18    23    59   30.0000000     GPS         TIME OF LAST OBS    
    16                                                      LEAP SECONDS        
    30                                                      # OF SATELLITES     
   G 1   835   835   835   835                              PRN / # OF OBS      
   G 2   926   926   926   926                              PRN / # OF OBS      
   G 3   845   845   845   845                              PRN / # OF OBS      
   G 4   849   849   849   849                              PRN / # OF OBS      
   G 5   674   674   674   674                              PRN / # OF OBS      
   G 6   725   725   724   724                              PRN / # OF OBS      
   G 7   658   658   658   658                              PRN / # OF OBS      
   G 9   789   789   789   789                              PRN / # OF OBS      
   G10   785   785   785   785                              PRN / # OF OBS      
   G11   800   800   800   800                              PRN / # OF OBS      
   G12   818   818   818   818                              PRN / # OF OBS      
   G13   822   822   822   822                              PRN / # OF OBS      
   G14   926   926   926   926                              PRN / # OF OBS      
   G15   731   731   731   731                              PRN / # OF OBS      
   G16   694   694   694   694                              PRN / # OF OBS      
   G17   928   928   928   928                              PRN / # OF OBS      
   G18   937   937   937   937                              PRN / # OF OBS      
   G19   778   778   778   778                              PRN / # OF OBS      
   G20   818   818   818   818                              PRN / # OF OBS      
   G21   704   704   704   704                              PRN / # OF OBS      
   G22   775   775   775   775                              PRN / # OF OBS      
   G23   731   731   731   731                              PRN / # OF OBS      
   G24   842   842   842   842                              PRN / # OF OBS      
   G25   857   857   857   857                              PRN / # OF OBS      
   G27   833   833   833   833                              PRN / # OF OBS      
   G28   909   909   909   909                              PRN / # OF OBS      
   G29   742   742   742   742                              PRN / # OF OBS      
   G30   694   694   694   694                              PRN / # OF OBS      
   G31   780   780   780   780                              PRN / # OF OBS      
   G32   746   746   746   746                              PRN / # OF OBS      
BIT 2 OF LLI FLAGS DATA COLLECTED UNDER A/S CONDITION       COMMENT             
SNR is mapped to RINEX snr flag value [2-9]                 COMMENT             
Lx:     = 25dBHz -> 1; 26-27dBHz -> 2; 28-31dBHz -> 3       COMMENT             
       32-35dBHz -> 4; 36-38dBHz -> 5; 39-41dBHz -> 6       COMMENT             
       42-44dBHz -> 7; 45-48dBHz -> 8; >=49dBHz -> 9        COMMENT             
                                                            END OF HEADER       
 15 02 18 00 00  0.0000000  0  7G16G18G21G25G27G29G31
  22752290.466   119564103.08008  22752289.346    93166828.99646
  23746092.549   124786606.11707  23746092.620    97236344.64745
  20990453.986   110305590.63409  20990452.461    85952407.44049
  23762241.844   124871415.92307  23762245.240    97302409.33145
  23677121.452   124424127.96107  23677124.164    96953888.78546
  23046492.443   121110130.80708  23046492.275    94371527.83947
  21566170.095   113330982.51909  21566169.189    88309849.73148
 15 02 18 00 00 30.0000000  0  7G16G18G21G25G27G29G31
  22736719.237   119482276.84308  22736718.450    93103068.30846
  23732248.209   124713855.02207  23732248.246    97179655.56145
  20992290.490   110315241.62209  20992288.947    85959927.70249
  23778692.237   124957862.29107  23778695.054    97369770.16146
  23663712.331   124353662.49507  23663714.929    96898980.67945
  23060570.599   121184111.26508  23060570.177    94429174.93247
  21578786.519   113397282.11909  21578785.577    88361511.73148
 15 02 18 00 01  0.0000000  0  7G16G18G21G25G27G29G31
  22721167.830   119400553.14808  22721166.886    93039387.53846
  23718419.683   124641185.38007  23718419.185    97123029.90045
  20994211.662   110325337.63609  20994210.156    85967794.73049
  23795181.489   125044515.45607  23795184.416    97437292.09346
  23650327.677   124283325.62907  23650330.031    96844172.78846
  23074653.423   121258117.35108  23074653.024    94486841.99247
  21591481.844   113463996.31609  21591480.772    88413496.80848
 15 02 18 00 01 30.0000000  0  7G16G18G21G25G27G29G31
  22705635.552   119318930.69608  22705634.609    92975785.64746
  23704606.428   124568596.76707  23704606.131    97066467.37545
  20996216.971   110335875.70009  20996215.591    85976006.21549
  23811709.572   125131371.86907  23811712.882    97504972.40046
  23636967.006   124213114.57707  23636969.150    96789462.93546
  23088740.447   121332145.94408  23088740.435    94544526.58747
  21604255.129   113531120.03809  21604253.949    88465800.98948
 15 02 18 00 02  0.0000000  0  7G16G18G21G25G27G29G31
  22690123.039   119237411.72908  22690122.020    92912264.40446
  23690809.427   124496092.60107  23690809.314    97009970.68645
  20998306.193   110346854.41709  20998304.791    85984561.07649
  23828276.602   125218431.07407  23828279.862    97572810.72346
  23623630.255   124143029.57207  23623632.528    96734851.29046
  23102831.783   121406196.69508  23102831.985    94602228.44047
  21617105.880   113598651.31609  21617104.894    88518422.74348
 15 02 18 00 02 30.0000000  0  7G16G18G21G25G27G29G31
  22674631.234   119156001.56208  22674630.041    92848827.93546
  23677029.237   124423678.99506  23677029.691    96953544.59146
  21000479.947   110358277.10409  21000478.260    85993461.88149
  23844882.395   125305695.82507  23844886.014    97640809.23446
  23610318.156   124073074.11507  23610320.478    96680340.60646
  23116928.022   121480272.74308  23116928.341    94659950.00547
  21630034.466   113666591.27509  21630033.433    88571362.94948
 15 02 18 00 03  0.0000000  0  7G16G18G21G25G27G29G31
  22659160.164   119074700.91108  22659159.085    92785476.79946
  23663266.824   124351357.68307  23663267.251    96897190.38645
  21002737.623   110370141.95609  21002736.221    86002707.23049
  23861527.270   125393164.45007  23861530.198    97708966.60645
  23597030.409   124003247.34807  23597032.904    96625930.21246
  23131028.835   121554372.70308  23131029.019    94717690.20547
  21643040.086   113734936.73609  21643039.306    88624619.13548
 15 02 18 00 03 30.0000000  0  7G16G18G21G25G27G29G31
  22643709.240   118993505.57308  22643708.145    92722207.72146
  23649521.509   124279125.37707  23649521.724    96840905.53144
  21005078.467   110382442.11409  21005076.691    86012291.77949
  23878209.202   125480830.31407  23878212.257    97777277.62745
  23583766.215   123933543.31707  23583768.552    96571615.43946
  23145132.864   121628489.62708  23145132.720    94775443.62847
  21656121.474   113803679.83209  21656120.648    88678185.16848
 15 02 18 00 04  0.0000000  0  7G16G18G21G25G27G29G31
  22628279.869   118912423.86708  22628278.967    92659027.19047
  23635794.753   124206991.31907  23635794.741    96784697.20544
  21007502.815   110395182.52409  21007501.189    86022219.38349
  23894930.252   125568699.02407  23894933.057    97845746.76145
  23570526.403   123863968.38507  23570529.007    96517401.27946
  23159241.407   121702630.26808  23159241.031    94833215.52347
  21669279.336   113872824.23909  21669278.286    88732063.90448
 15 02 18 00 04 30.0000000  0  7G16G18G21G25G27G29G31
  22612871.768   118831453.72108  22612870.667    92595933.59346
  23622086.462   124134954.57507  23622086.706    96728564.72145
  21010010.333   110408359.02509  21010008.467    86032486.79949
  23911688.733   125656765.93807  23911691.942    97914370.31145
  23557310.346   123794518.72507  23557312.922    96463284.71346
  23173353.647   121776790.46408  23173353.113    94891002.66946
  21682512.305   113942363.83409  21682511.394    88786250.58348
 15 02 18 00 05  0.0000000  0  7G16G18G21G25G27G29G31
  22597485.492   118750598.79408  22597484.446    92532929.77547
  23608397.376   124063019.65907  23608397.931    96672511.59945
  21012600.777   110421972.18009  21012599.028    86043094.46349
  23928485.493   125745032.13107  23928488.579    97983149.13645
  23544118.759   123725196.15707  23544121.260    96409267.19046
  23187469.863   121850971.27308  23187469.367    94948805.86947
  21695820.472   114012298.10009  21695819.400    88840744.79948
 15 02 18 00 05 30.0000000  0  7G16G18G21G25G27G29G31
  22582121.519   118669860.16308  22582120.421    92470016.56846
  23594728.197   123991188.73407  23594729.032    96616539.52245
  21015274.066   110436020.41009  21015272.365    86054041.14249
  23945319.512   125833496.12507  23945322.679    98052082.08946
  23530950.866   123655999.87907  23530953.569    96355348.04046
  23201589.756   121925171.50108  23201589.534    95006624.18947
  21709202.835   114082623.76809  21709202.094    88895544.00448
 15 02 18 00 06  0.0000000  0  7G16G18G21G25G27G29G31
  22566779.615   118589238.72508  22566778.661    92407194.68746
  23581079.541   123919463.43907  23581080.292    96560649.74945
  21018029.744   110450501.47409  21018028.022    86065325.09949
  23962191.225   125922156.10207  23962193.766    98121167.77745
  23517807.059   123586928.99007  23517809.734    96301526.60646
  23215713.079   121999389.91008  23215712.751    95064456.68246
  21722659.212   114153337.94609  21722658.479    88950645.93548
 15 02 18 00 06 30.0000000  0  7G16G18G21G25G27G29G31
  22551460.537   118508736.83408  22551459.596    92344465.95946
  23567451.740   123847847.20407  23567451.785    96504844.88445
  21020867.772   110465415.37809  21020865.969    86076946.33049
  23979099.780   126011011.97507  23979102.441    98190406.12845
  23504687.521   123517984.16207  23504689.915    96247803.42246
  23229839.885   122073626.52708  23229839.556    95122303.36746
  21736189.389   114224438.59909  21736188.677    89006049.02248
 15 02 18 00 07  0.0000000  0  7G16G18G21G25G27G29G31
  22536164.857   118428357.49308  22536163.905    92281832.72346
  23553844.770   123776343.90807  23553845.008    96449128.06344
  21023788.223   110480762.23109  21023786.235    86088904.92349
  23996046.175   126100064.03407  23996048.426    98259797.35545
  23491591.980   123449166.44307  23491594.215    96194179.25246
  23243970.271   122147882.33108  23243969.984    95180165.01446
  21749792.750   114295924.42709  21749791.843    89061752.24248
 15 02 18 00 07 30.0000000  0  7G16G18G21G25G27G29G31
  22520892.458   118348100.46208  22520891.504    92219294.79646
  23540259.822   123704954.30407  23540260.208    96393499.85945
  21026790.482   110496539.08409  21026788.557    86101198.58449
  24013028.766   126189309.43706  24013031.773    98329339.19645
  23478520.164   123380473.83707  23478522.440    96140652.58246
  23258103.964   122222155.13608  23258103.508    95238039.89946
  21763468.589   114367791.00809  21763467.541    89117752.15848
 15 02 18 00 08  0.0000000  0  7G16G18G21G25G27G29G31
  22505644.141   118267969.36308  22505642.990    92156854.99346
  23526697.693   123633683.08307  23526697.558    96337963.85645
  21029874.783   110512747.01009  21029872.954    86113828.14449
  24030048.508   126278749.47307  24030051.529    98399032.68845
  23465472.568   123311908.38107  23465474.726    96087224.99746
  23272241.134   122296446.40408  23272240.872    95295929.16846
  21777216.690   114440038.23709  21777215.626    89174048.67548
 15 02 18 00 08 30.0000000  0  7G16G18G21G25G27G29G31
  22490419.759   118187964.07008  22490418.705    92094513.21547
  23513157.808   123562530.63307  23513157.966    96282520.45645
  21033040.312   110529382.28709  21033038.406    86126790.70449
  24047104.824   126368380.48407  24047107.921    98468875.01545
  23452448.749   123243467.37507  23452450.920    96033894.37646
  23286381.242   122370753.17608  23286380.929    95353830.52746
  21791036.161   114512660.98509  21791035.292    89230637.80448
 15 02 18 00 09  0.0000000  0  7G16G18G21G25G27G29G31
  22475219.866   118108088.15208  22475218.706    92032272.26146
  23499641.362   123491501.79407  23499641.504    96227173.33745
  21036287.272   110546445.92909  21036285.679    86140087.05749
  24064197.786   126458203.98207  24064200.609    98538867.33945
  23439448.775   123175152.99107  23439451.130    95980662.44346
  23300524.578   122445077.06308  23300524.409    95411745.21346
  21804927.280   114585658.80709  21804926.494    89287519.20148
 15 02 18 00 09 30.0000000  0  7G16G18G21G25G27G29G31
  22460045.310   118028345.38408  22460044.181    91970135.05547
  23486149.531   123420601.02507  23486149.588    96171926.04145
  21039616.065   110563938.54209  21039614.261    86153717.67149
  24081327.389   126548220.99606  24081329.952    98609010.45045
  23426473.476   123106967.14507  23426475.750    95927530.64846
  23314671.354   122519419.62408  23314671.394    95469674.43846
  21818889.756   114659031.20909  21818888.806    89344692.47348
 15 02 18 00 10  0.0000000  0  7G16G18G21G25G27G29G31
  22444895.096   117948730.16108  22444893.829    91908097.23747
  23472680.818   123349823.73907  23472680.821    96116774.94045
  21043024.758   110581851.74909  21043023.202    86167676.02449
  24098492.220   126638423.10706  24098494.985    98679297.79646
  23413521.086   123038902.22007  23413523.527    95874493.08746
  23328820.558   122593773.22508  23328820.537    95527612.28446
  21832921.429   114732768.08609  21832920.354    89402149.75448
 15 02 18 00 10 30.0000000  0  7G16G18G21G25G27G29G31
  22429770.546   117869250.26908  22429769.150    91846164.86547
  23459237.419   123279178.29707  23459237.142    96061726.54044
  21046514.496   110600190.25909  21046512.728    86181965.77049
  24115693.170   126728815.33406  24115696.561    98749733.24946
  23400592.766   122970964.06507  23400595.212    95821554.29546
  23342972.852   122668143.68308  23342973.075    95585563.24646
  21847022.944   114806872.70609  21847022.072    89459893.58848
 15 02 18 00 11  0.0000000  0  7G16G18G21G25G27G29G31
  22414671.306   117789903.51108  22414670.120    91784336.23647
  23445819.122   123208663.60708  23445818.995    96006780.06545
  21050084.185   110618949.10309  21050082.595    86196583.05849
  24132929.639   126819392.59007  24132932.813    98820312.91445
  23387687.767   122903148.52607  23387690.414    95768711.05546
  23357127.483   122742526.08408  23357127.473    95643523.54746
  21861193.385   114881338.71809  21861192.667    89517919.02648
 15 02 18 00 11 30.0000000  0  7G16G18G21G25G27G29G31
  22399598.956   117710698.62208  22399597.881    91722618.15447
  23432427.482   123138289.25207  23432427.141    95951942.91445
  21053734.770   110638133.90109  21053733.287    86211532.25149
  24150202.254   126910160.97906  24150205.362    98891041.51945
  23374807.617   122835462.50607  23374809.980    95715968.73646
  23371285.361   122816926.80008  23371285.376    95701498.10746
  21875433.493   114956170.58209  21875432.420    89576229.55748
 15 02 18 00 12  0.0000000  0  7G16G18G21G25G27G29G31
  22384553.523   117631634.58608  22384552.314    91661009.82446
  23419061.833   123068054.94707  23419062.099    95897214.95444
  21057465.833   110657740.33109  21057464.078    86226809.99649
  24167510.282   127001116.62506  24167513.746    98961916.01945
  23361951.370   122767902.87507  23361953.716    95663324.89146
  23385446.212   122891342.85508  23385446.123    95759484.62046
  21889742.062   115031362.68109  21889741.032    89634820.77748
 15 02 18 00 12 30.0000000  0  7G16G18G21G25G27G29G31
  22369534.179   117552707.58808  22369533.124    91599508.28047
  23405722.851   122997957.78007  23405722.927    95842593.80645
  21061275.896   110677762.06609  21061274.242    86242411.35649
  24184853.172   127092253.12506  24184856.213    99032931.46345
  23349118.372   122700464.23507  23349120.674    95610775.32346
  23399608.895   122965768.59808  23399608.824    95817478.67346
  21904117.606   115106906.89709  21904116.885    89693686.36848
 15 02 18 00 13  0.0000000  0  7G16G18G21G25G27G29G31
  22354542.041   117473923.21608  22354540.846    91538117.87847
  23392411.163   122928003.82407  23392411.006    95788084.24745
  21065165.119   110698200.78909  21065163.518    86258337.63849
  24202230.919   127183572.71307  24202234.022    99104089.55845
  23336308.772   122633149.68007  23336311.113    95558322.44046
  23413773.953   123040206.51607  23413774.317    95875482.21746
  21918560.587   115182804.11509  21918559.695    89752827.03948
 15 02 18 00 13 30.0000000  0  7G16G18G21G25G27G29G31
  22339577.733   117395285.93608  22339576.819    91476842.09447
  23379127.907   122858199.40607  23379127.418    95733691.20745
  21069134.260   110719058.39209  21069132.657    86274590.31749
  24219643.637   127275077.56906  24219647.131    99175392.01744
  23323523.515   122565962.22807  23323525.759    95505968.61546
  23427942.004   123114659.62208  23427942.310    95933497.59146
  21933070.494   115259054.56709  21933069.326    89812242.95748
 15 02 18 00 14  0.0000000  0  7G16G18G21G25G27G29G31
  22324641.429   117316794.87508  22324640.349    91415680.24847
  23365872.705   122788543.69307  23365872.518    95679414.04445
  21073182.408   110740331.17509  21073180.673    86291166.51549
  24237090.885   127366763.81706  24237094.038    99246835.80845
  23310761.699   122498898.93607  23310764.105    95453711.55746
  23442112.298   123189124.77208  23442112.769    95991522.34646
  21947646.922   115335653.02809  21947645.889    89871930.04848
 15 02 18 00 14 30.0000000  0  7G16G18G21G25G27G29G31
  22309733.560   117238453.05608  22309732.257    91354634.69747
  23352646.519   122719040.11807  23352646.498    95625255.45345
  21077309.310   110762018.88409  21077307.808    86308066.03749
  24254572.607   127458631.54306  24254575.882    99318421.00844
  23298023.737   122431960.71107  23298026.031    95401551.92946
  23456284.947   123263602.29307  23456285.249    96049556.75046
  21962288.803   115412597.72309  21962287.810    89931886.92348
 15 02 18 00 15  0.0000000  0  7G16G18G21G25G27G29G31
  22294853.888   117160260.88408  22294852.818    91293705.75747
  23339449.558   122649690.33607  23339449.768    95571216.70745
  21081514.837   110784118.32409  21081513.101    86325286.38449
  24272088.829   127550678.03407  24272091.379    99390145.54045
  23285309.328   122365145.79207  23285311.659    95349488.38846
  23470459.410   123338090.85207  23470459.633    96107599.76446
  21976996.096   115489884.57009  21976995.119    89992110.42648
 15 02 18 00 15 30.0000000  0  7G16G18G21G25G27G29G31
  22280003.418   117082220.35908  22280002.203    91232894.97147
  23326282.704   122580497.46008  23326282.876    95517300.20345
  21085798.373   110806628.74109  21085796.524    86342826.97149
  24289638.749   127642902.80307  24289641.208    99462008.96945
  23272618.419   122298454.55207  23272620.790    95297521.21246
  23484636.165   123412589.98408  23484636.389    96165651.02246
  21991768.036   115567511.13909  21991766.844    90052598.64148
 15 02 18 00 16  0.0000000  0  7G16G18G21G25G27G29G31
  22265182.366   117004335.04608  22265181.301    91172205.13647
  23313146.339   122511465.61507  23313146.223    95463509.17845
  21090160.276   110829550.62909  21090158.614    86360688.18749
  24307222.724   127735306.40207  24307225.201    99534011.76145
  23259951.302   122231888.49607  23259953.466    95245651.60946
  23498815.406   123487101.05508  23498815.298    96223711.56746
  22006604.228   115645476.44709  22006603.235    90113350.80748
 15 02 18 00 16 30.0000000  0  7G16G18G21G25G27G29G31
  22250391.029   116926606.48408  22250389.929    91111637.44047
  23300040.882   122442596.84808  23300040.331    95409845.21245
  21094600.187   110852882.02009  21094598.346    86378868.49349
  24324839.910   127827887.37006  24324843.211    99606152.72545
  23247307.778   122165446.98507  23247310.185    95193879.04846
  23512996.617   123561623.41508  23512996.638    96281780.90846
  22021504.467   115723777.48109  22021503.612    90174364.57948
 15 02 18 00 17  0.0000000  0  7G16G18G21G25G27G29G31
  22235629.789   116849035.14608  22235628.568    91051192.25847
  23286966.890   122373892.96507  23286966.559    95356309.77245
  21099117.360   110876620.48909  21099115.750    86397366.00549
  24342490.853   127920643.57807  24342494.091    99678430.22245
  23234687.774   122099128.91807  23234690.073    95142202.67547
  23527179.783   123636155.67308  23527179.730    96339857.95746
  22036467.808   115802410.43408  22036466.816    90235636.98948
 15 02 18 00 17 30.0000000  0  7G16G18G21G25G27G29G31
  22220898.022   116771619.31108  22220896.830    90990868.25347
  23273924.094   122305352.48108  23273923.981    95302901.62645
  21103711.020   110900760.42809  21103709.351    86416176.34749
  24360174.414   128013569.81507  24360176.989    99750840.29544
  23222090.654   122032930.00907  23222092.946    95090619.16846
  23541363.870   123710693.52008  23541363.996    96397939.37146
  22051493.047   115881368.47108  22051492.051    90297162.72348
 15 02 18 00 18  0.0000000  0  7G16G18G21G25G27G29G31
  22206198.552   116694373.85508  22206197.575    90930677.01047
  23260915.346   122236990.98908  23260915.285    95249632.96845
  21108383.302   110925313.59409  21108381.565    86435308.69149
  24377892.718   128106678.16407  24377894.630    99823392.28945
  23209518.438   121966863.22307  23209520.727    95039138.59947
  23555551.067   123785248.99507  23555551.073    96456034.52046
  22066581.897   115960661.88109  22066581.163    90358949.77148
 15 02 18 00 18 30.0000000  0  7G16G18G21G25G27G29G31
  22191529.525   116617287.22508  22191528.422    90870609.53247
  23247938.576   122168797.34807  23247938.576    95196495.11245
  21113131.340   110950264.98309  21113129.712    86454751.33749
  24395642.319   128199953.97706  24395644.506    99896074.72145
  23196968.705   121900914.80907  23196971.145    94987750.25046
  23569739.240   123859808.87707  23569739.407    96514133.12546
  22081731.801   116040274.54209  22081731.075    90420985.59548
 15 02 18 00 19  0.0000000  0  7G16G18G21G25G27G29G31
  22176891.573   116540364.11008  22176890.315    90810669.46547
  23234994.767   122100777.86308  23234994.550    95143492.95545
  21117955.857   110975617.20909  21117954.065    86474506.32149
  24413424.401   128293399.67006  24413427.124    99968889.47545
  23184442.444   121835088.14207  23184444.518    94936456.77646
  23583929.406   123934376.48308  23583929.015    96572237.73046
  22096942.560   116120207.21108  22096941.684    90483270.77648
 15 02 18 00 19 30.0000000  0  7G16G18G21G25G27G29G31
  22162286.099   116463612.76608  22162284.965    90750863.24547
  23222086.073   122032941.06308  23222085.774    95090633.11345
  21122857.219   111001374.38209  21122855.363    86494576.84949
  24431239.567   128387019.87006  24431242.845   100041840.22045
  23171940.141   121769388.91007  23171942.439    94885262.60146
  23598121.673   124008956.97808  23598121.594    96630352.37246
  22112214.561   116200462.68108  22112213.660    90545807.49648
 15 02 18 00 20  0.0000000  0  7G16G18G21G25G27G29G31
  22147712.786   116387029.17308  22147711.468    90691187.74347
  23209211.278   121965283.55608  23209210.962    95037913.00645
  21127834.136   111027528.78809  21127832.367    86514956.91149
  24449087.126   128480807.24107  24449089.521   100114921.31044
  23159461.007   121703810.71407  23159463.139    94834162.73746
  23612314.900   124083543.76308  23612314.829    96688471.92346
  22127546.569   116281032.17908  22127545.574    90608588.90348
 15 02 18 00 20 30.0000000  0  7G16G18G21G25G27G29G31
  22133171.801   116310616.62808  22133170.750    90631645.53047
  23196371.448   121897809.79708  23196370.972    94985336.04745
  21132886.971   111054081.11809  21132885.338    86535647.04249
  24466966.208   128574762.70106  24466968.344   100188133.35244
  23147005.392   121638355.41907  23147007.354    94783158.63046
  23626509.759   124158138.53307  23626509.933    96746597.68746
  22142937.839   116361914.91108  22142937.463    90671614.36648
 15 02 18 00 21  0.0000000  0  7G16G18G21G25G27G29G31
  22118664.389   116234379.72408  22118663.386    90572240.17147
  23183567.540   121830524.83608  23183567.286    94932906.24945
  21138015.588   111081032.30909  21138013.728    86556647.97649
  24484877.094   128668887.72706  24484879.570   100261477.48744
  23134573.377   121573025.39807  23134575.460    94732252.16146
  23640706.544   124232743.79807  23640706.997    96804731.60746
  22158389.021   116443110.63908  22158388.293    90734883.74647
 15 02 18 00 21 30.0000000  0  7G16G18G21G25G27G29G31
  22104190.300   116158317.12308  22104188.984    90512970.63447
  23170799.428   121763427.23608  23170798.959    94880622.43045
  21143219.185   111108377.83309  21143217.562    86577956.17949
  24502819.832   128763177.61006  24502822.866   100334950.09445
  23122164.519   121507816.97107  23122166.720    94681440.41746
  23654904.723   124307355.82307  23654904.912    96862870.82046
  22173898.514   116524613.04008  22173897.715    90798392.11048
 15 02 18 00 22  0.0000000  0  8G16G18G21G22G25G27G29G31
  22089748.706   116082426.69009  22089747.649    90453835.25347
  23158066.682   121696516.20108  23158065.789    94828483.97745
  21148496.769   111136111.78209  21148495.165    86599567.05249
  24547106.932   128995918.76616  24547108.629   100516314.48754
  24520793.374   128857627.18006  24520796.515   100408547.15245
  23109778.296   121442726.08507  23109780.443    94630720.27646
  23669103.827   124381970.06008  23669103.333    96921011.79046
  22189464.806   116606415.36608  22189464.169    90862134.16847
 15 02 18 00 22 30.0000000  0  8G16G18G21G22G25G27G29G31
  22075341.770   116006717.35809  22075340.504    90394840.99547
  23145371.268   121629801.63408  23145370.333    94776498.61345
  21153849.303   111164239.47609  21153847.467    86621484.74049
  24530068.158   128906385.43505  24530070.783   100446548.97945
  24538797.952   128952242.34406  24538801.137   100482273.22645
  23097415.438   121377759.57508  23097417.783    94580097.06446
  23683304.217   124456593.26707  23683303.622    96979159.72546
  22205089.083   116688521.90008  22205088.542    90926113.27148
 15 02 18 00 23  0.0000000  0  8G16G18G21G22G25G27G29G31
  22060970.050   115931193.36309  22060968.947    90335991.15147
  23132714.071   121563287.83308  23132713.206    94724669.70045
  21159276.841   111192761.91309  21159275.236    86643710.01649
  24513013.643   128816766.97706  24513016.151   100376717.11145
  24556834.021   129047024.24506  24556837.507   100556129.17945
  23085076.841   121312919.50208  23085078.909    94529572.37146
  23697506.445   124531227.26107  23697506.442    97037316.05846
  22220771.427   116770932.08108  22220770.590    90990328.97748
 15 02 18 00 23 30.0000000  0  8G16G18G21G22G25G27G29G31
  22046632.757   115855850.94709  22046631.583    90277282.79447
  23120094.631   121496972.19508  23120094.126    94672995.21146
  21164778.429   111221672.26409  21164776.565    86666237.56849
  24495942.490   128727060.12207  24495944.164   100306816.27345
  24574900.988   129141966.04706  24574903.910   100630109.79744
  23072761.218   121248200.12208  23072763.118    94479141.73547
  23711709.710   124605866.23607  23711709.714    97095476.26946
  22236509.604   116853637.44708  22236509.027    91054774.68548
 15 02 18 00 24  0.0000000  0  8G16G18G21G22G25G27G29G31
  22032330.978   115780694.30709  22032329.855    90218719.20147
  23107513.569   121430859.20608  23107513.192    94621478.63945
  21170353.823   111250971.25609  21170351.880    86689067.95649
  24478855.376   128637269.42006  24478856.314   100236850.00944
  24592998.424   129237068.90506  24593001.309   100704215.90145
  23060468.774   121183603.48808  23060470.826    94428806.73246
  23725914.364   124680512.41407  23725914.658    97153642.07546
  22252304.019   116936637.31508  22252303.339    91119449.91047
 15 02 18 00 24 30.0000000  0  8G16G18G21G22G25G27G29G31
  22018063.877   115705720.25009  22018062.520    90160297.88247
  23094970.844   121364946.55408  23094970.399    94570118.15145
  21176001.694   111280651.61109  21175999.972    86712195.51249
  24461752.521   128547383.99715  24461753.508   100166795.25354
  24611125.950   129332326.32206  24611128.868   100778442.44445
  23048198.790   121119124.34808  23048201.009    94378563.28847
  23740119.563   124755160.29907  23740119.743    97211809.24246
  22268152.689   117019923.82308  22268152.273    91184348.48747
 15 02 18 00 25  0.0000000  0  8G16G18G21G22G25G27G29G31
  22003833.512   115630939.26809  22003832.391    90102027.00847
  23082468.484   121299245.02308  23082467.656    94518922.16845
  21181723.603   111310720.88009  21181722.049    86735626.11949
  24444634.711   128457430.89107  24444635.550   100096702.57544
  24629283.675   129427745.71506  24629286.864   100852795.15045
  23035952.552   121054770.96508  23035954.700    94328417.82647
  23754326.509   124829817.96308  23754326.543    97269984.02646
  22284057.310   117103502.48408  22284056.534    91249474.68547
 15 02 18 00 25 30.0000000  0  8G16G18G21G22G25G27G29G31
  21989639.523   115556349.91609  21989638.430    90043905.45147
  23070005.998   121233754.22008  23070005.114    94467890.39245
  21187518.589   111341173.92509  21187516.912    86759355.76849
  24427502.918   128367401.27607  24427503.726   100026550.18445
  24647470.935   129523322.53805  24647474.501   100927270.54945
  23023729.873   120990539.84908  23023731.850    94278367.63947
  23768534.560   124904481.77307  23768534.511    97328163.59346
  22300016.397   117187367.42608  22300015.620    91314823.94348
 15 02 18 00 26  0.0000000  0  8G16G18G21G22G25G27G29G31
  21975482.399   115481953.91709  21975481.232    89985934.56247
  23057583.724   121168475.88008  23057583.160    94417024.18945
  21193386.304   111372008.72509  21193384.541    86783382.88649
  24410355.744   128277297.07806  24410357.000    99956339.64444
  24665688.436   129619055.02606  24665691.809   101001867.25144
  23011530.262   120926430.36808  23011532.299    94228412.23747
  23782743.918   124979151.17507  23782743.358    97386347.54145
  22316029.088   117271514.93908  22316028.602    91380393.39747
 15 02 18 00 26 30.0000000  0  8G16G18G21G22G25G27G29G31
  21961362.595   115407753.90809  21961361.397    89928116.38447
  23045202.831   121103413.53808  23045202.485    94366326.30446
  21199326.493   111403224.91009  21199324.953    86807707.19349
  24393194.390   128187121.61905  24393196.314    99886073.53443
  24683935.462   129714943.04206  24683938.311   101076585.22144
  22999353.935   120862443.40307  22999356.026    94178552.30847
  23796953.792   125053826.91007  23796953.875    97444536.38845
  22332095.554   117355943.32008  22332094.664    91446181.73347
 15 02 18 00 27  0.0000000  0  8G16G18G21G22G25G27G29G31
  21947280.855   115333753.70909  21947279.470    89870453.90447
  23032863.740   121038571.67508  23032863.667    94315800.21845
  21205339.414   111434822.30509  21205337.655    86832328.54449
  24376020.741   128096878.98106  24376023.073    99815755.10845
  24702212.178   129810987.17806  24702215.061   101151424.77144
  22987201.146   120798580.56708  22987203.311    94128789.09947
  23811165.745   125128510.22607  23811165.832    97502731.16546
  22348214.936   117440651.64908  22348214.467    91512188.19447
 15 02 18 00 27 30.0000000  0  8G16G18G21G22G25G27G29G31
  21933236.201   115259948.42609  21933234.957    89812943.31647
  23020565.757   120973945.71608  23020565.419    94265442.35646
  21211423.156   111466792.49109  21211421.412    86857240.38849
  24358834.446   128006564.45607  24358836.115    99745380.60845
  24720516.295   129907178.99505  24720520.080   101226379.35646
  22975070.676   120734834.42107  22975072.665    94079116.81847
  23825377.525   125203193.88607  23825378.012    97560926.19446
  22364385.580   117525629.64208  22364385.052    91578404.78747
 15 02 18 00 28  0.0000000  0  8G16G18G21G22G25G27G29G31
  21919230.012   115186345.46909  21919228.786    89755590.38647
  23008310.467   120909543.79308  23008309.699    94215259.04245
  21217578.794   111499140.02409  21217577.005    86882446.26449
  24341636.047   127916186.57006  24341637.179    99674956.74745
  24738850.111   130003523.00406  24738853.555   101301452.55945
  22962963.389   120671210.72707  22962965.442    94029539.95147
  23839590.537   125277883.82707  23839591.172    97619126.08746
  22380608.581   117610880.30808  22380607.587    91644833.88547
 15 02 18 00 28 30.0000000  0  8G16G18G21G22G25G27G29G31
  21905261.861   115112942.18609  21905260.673    89698393.04747
  22996097.297   120845363.71308  22996096.345    94165248.61645
  21223804.619   111531857.80109  21223802.894    86907940.64549
  24324424.979   127825742.61006  24324425.891    99604481.39944
  24757211.746   130100013.13906  24757214.803   101376639.64344
  22950878.550   120607704.46907  22950880.753    93980054.60947
  23853803.754   125352574.72507  23853804.281    97677326.76646
  22396881.264   117696395.98808  22396880.959    91711469.43847
 15 02 18 00 29  0.0000000  0  8G16G18G21G22G25G27G29G31
  21891332.718   115039744.04209  21891331.373    89641355.55048
  22983927.643   120781411.65808  22983926.747    94115415.86846
  21230101.628   111564948.05809  21230099.870    86933725.26849
  24307202.675   127735238.85407  24307202.957    99533959.33344
  24775601.564   130196651.81706  24775604.332   101451942.56644
  22938816.710   120544319.04307  22938818.942    93930663.41547
  23868017.734   125427269.97307  23868018.040    97735530.82946
  22413205.155   117782177.30508  22413204.635    91778312.00447
 15 02 18 00 29 30.0000000  0  8G16G18G21G22G25G27G29G31
  21877444.518   114966761.96909  21877443.352    89584486.42547
  22971803.458   120717698.57408  22971803.088    94065769.35445
  21236470.564   111598417.66409  21236468.842    86959805.49049
  24289971.319   127644686.21907  24289971.098    99463399.18745
  24794020.784   130293446.34506  24794024.134   101527366.79645
  22926779.246   120481062.83708  22926781.488    93881372.89847
  23882234.026   125501977.81507  23882234.333    97793744.70245
  22429580.349   117868229.87108  22429579.838    91845365.91347
 15 02 18 00 30  0.0000000  0  8G16G18G21G22G25G27G29G31
  21863595.100   114893982.43709  21863593.971    89527775.12148
  22959722.512   120654212.02508  22959721.977    94016299.34846
  21242908.568   111632249.95009  21242906.953    86986168.31949
  24272727.633   127554071.97206  24272727.835    99392791.09545
  24812466.585   130390380.15606  24812470.414   101602899.57244
  22914763.718   120417920.56107  22914765.888    93832171.17947
  23896450.069   125576682.71807  23896450.210    97851956.30846
  22446003.852   117954535.99708  22446003.515    91912617.40747
 15 02 18 00 30 30.0000000  0  7G16G18G21G22G27G29G31
  21849786.062   114821415.48509  21849784.860    89471229.46348
  22947686.478   120590962.20708  22947685.831    93967013.81246
  21249416.950   111666451.41309  21249415.170    87012818.81949
  24255473.902   127463406.60006  24255474.615    99322143.20044
  22902771.343   120354900.11008  22902773.419    93783064.36846
  23910666.951   125651392.49807  23910667.311    97910171.64846
  22462476.634   118041100.48708  22462476.018    91980070.23747
 15 02 18 00 31  0.0000000  0  7G16G18G21G22G27G29G31
  21836017.920   114749063.19209  21836016.682    89414851.07447
  22935695.800   120527951.89508  22935694.966    93917914.88145
  21255994.965   111701019.92909  21255993.456    87039755.33249
  24238211.305   127372692.47807  24238211.917    99251457.17945
  22890802.150   120292001.07708  22890804.187    93734052.17546
  23924884.740   125726107.32507  23924885.079    97968390.97246
  22478997.999   118127920.18908  22478997.167    92047721.92447
 15 02 18 00 31 30.0000000  0  7G16G18G21G22G27G29G31
  21822290.654   114676926.79809  21822289.320    89358640.91548
  22923751.156   120465182.61508  22923750.314    93869003.77746
  21262642.654   111735953.74109  21262641.111    87066976.49549
  24220939.671   127281931.64506  24220940.080    99180734.64544
  22878855.629   120229222.74708  22878857.871    93685134.04147
  23939103.281   125800825.98407  23939103.764    98026613.29646
  22495567.208   118214991.68708  22495566.537    92115569.81947
 15 02 18 00 32  0.0000000  0  7G16G18G21G22G27G29G31
  21808605.489   114605010.42809  21808604.232    89302602.20748
  22911853.309   120402659.01008  22911852.560    93820284.11846
  21269359.872   111771252.55109  21269358.383    87094482.06649
  24203659.843   127191128.28705  24203660.618    99109979.04346
  22866932.582   120166566.83608  22866934.769    93636311.30447
  23953322.756   125875550.26607  23953322.933    98084839.94646
  22512184.177   118302314.01308  22512183.713    92183613.16047
 15 02 18 00 32 30.0000000  0  7G16G18G21G22G27G29G31
  21794961.831   114533312.80009  21794960.432    89246733.93848
  22900002.092   120340380.72308  22900001.385    93771755.60346
  21276145.787   111806912.24309  21276144.031    87122268.84849
  24186371.518   127100281.87206  24186373.230    99039190.01746
  22855032.387   120104030.36108  22855034.290    93587581.61447
  23967543.080   125950277.01207  23967543.290    98143068.55746
  22528847.636   118389881.48508  22528847.261    92251847.50947
 15 02 18 00 33  0.0000000  0  7G16G18G21G22G27G29G31
  21781359.614   114461832.63509  21781358.427    89191035.12848
  22888197.374   120278346.63508  22888197.013    93723417.39046
  21282999.212   111842927.29909  21282997.523    87150332.53349
  24169076.302   127009391.39907  24169076.812    98968366.51445
  22843154.087   120041609.53608  22843156.086    93538942.04347
  23981762.734   126025002.57907  23981762.827    98201296.24545
  22545556.682   118477687.17708  22545555.836    92320267.52047
 15 02 18 00 33 30.0000000  0  7G16G18G21G22G27G29G31
  21767800.191   114390577.79709  21767798.828    89135511.89948
  22876440.411   120216564.97408  22876440.285    93675275.86846
  21289920.942   111879301.73609  21289919.419    87178676.26249
  24151773.991   126918465.63807  24151773.353    98897515.49244
  22831298.901   119979310.05008  22831300.767    93490397.02647
  23995983.359   126099732.71507  23995983.523    98259527.49446
  22562311.564   118565734.39508  22562310.523    92388875.72247
 15 02 18 00 34  0.0000000  0  7G16G18G21G22G27G29G31
  21754284.362   114319551.44509  21754282.968    89080166.71248
  22864732.597   120155039.02508  22864732.361    93627333.59646
  21296911.195   111916035.10709  21296909.411    87207299.67349
  24134464.760   126827507.26506  24134463.616    98826639.07744
  22819466.789   119917132.69208  22819468.706    93441947.17947
  24010204.963   126174467.90907  24010205.312    98317762.65646
  22579111.756   118654020.97008  22579111.068    92457670.42647
 15 02 18 00 34 30.0000000  0  7G16G18G21G22G27G29G31
  21740811.388   114248750.11409  21740809.873    89024996.85948
  22853072.645   120093766.22208  22853072.320    93579588.58246
  21303968.236   111953120.61009  21303966.603    87236197.47449
  24117149.165   126736514.13907  24117148.202    98755735.59945
  22807657.142   119855072.01608  22807658.889    93393588.26947
  24024426.399   126249202.99407  24024426.836    98375997.73146
  22595956.110   118742538.68008  22595955.708    92526645.22547
 15 02 18 00 35  0.0000000  0  7G16G18G21G22G27G29G31
  21727382.908   114178183.88409  21727381.761    88970010.20448
  22841462.932   120032756.73508  22841462.277    93532048.73946
  21311093.443   111990563.88509  21311091.854    87265374.06149
  24099828.964   126645496.36607  24099828.090    98684812.88945
  22795870.801   119793135.65808  22795872.740    93345326.20647
  24038649.878   126323945.13307  24038650.181    98434238.29545
  22612845.470   118831292.39508  22612844.915    92595803.92447
 15 02 18 00 35 30.0000000  0  7G16G18G21G22G27G29G31
  21713998.402   114107847.45309  21713997.111    88915202.61048
  22829902.726   119972006.09808  22829901.827    93484710.59846
  21318285.226   112028356.21009  21318283.345    87294822.63849
  24082502.938   126554449.48706  24082502.375    98613867.51245
  22784107.067   119731316.59808  22784108.934    93297155.54447
  24052872.875   126398687.86307  24052873.306    98492479.36345
  22629777.939   118920272.55708  22629777.108    92665139.11047
 15 02 18 00 36  0.0000000  0  7G16G18G21G22G27G29G31
  21700658.076   114037743.44409  21700656.827    88860576.13048
  22818391.787   119911516.83308  22818391.314    93437576.12846
  21325543.020   112066496.01709  21325540.981    87324541.97649
  24065171.775   126463376.13906  24065171.229    98542901.45944
  22772365.448   119669614.72908  22772367.470    93249076.21247
  24067096.149   126473430.91807  24067096.509    98550720.66045
  22646752.693   119009475.80408  22646752.007    92734648.10947
 15 02 18 00 36 30.0000000  0  7G16G18G21G22G27G29G31
  21687363.586   113967880.71009  21687362.235    88806137.65348
  22806932.661   119851298.22008  22806931.961    93390652.55746
  21332867.993   112104989.14009  21332866.087    87354536.62349
  24047837.734   126372285.95207  24047836.752    98471922.23544
  22760647.505   119608036.89408  22760649.391    93201093.51347
  24081320.943   126548181.02907  24081320.862    98608967.47646
  22663770.701   119098906.44808  22663770.205    92804334.28647
 15 02 18 00 37  0.0000000  0  7G16G18G21G22G27G29G31
  21674113.991   113898253.93009  21674112.857    88751883.04148
  22795524.046   119791345.47908  22795523.547    93343936.16346
  21340258.422   112143826.35609  21340256.634    87384799.39849
  24030500.103   126281174.18207  24030498.943    98400926.24546
  22748951.948   119546575.67008  22748953.604    93153201.68947
  24095544.948   126622930.90007  24095545.301    98667214.04945
  22680830.286   119188554.20308  22680829.547    92874189.65947
 15 02 18 00 37 30.0000000  0  7G16G18G21G22G27G29G31
  21660910.452   113828868.95509  21660909.125    88697816.83748
  22784167.023   119731664.73308  22784166.635    93297431.72646
  21347714.675   112183009.72809  21347712.847    87415331.90749
  24013159.469   126190047.06507  24013158.412    98329918.29546
  22737279.130   119485234.69408  22737280.829    93105403.56247
  24109770.199   126697684.15907  24109770.373    98725463.28145
  22697931.148   119278420.05908  22697930.307    92944214.97247
 15 02 18 00 38  0.0000000  0  7G16G18G21G22G27G29G31
  21647752.573   113759723.20909  21647751.229    88643937.05048
  22772861.510   119672253.79908  22772860.916    93251137.50946
  21355235.608   112222532.77609  21355234.032    87446129.09049
  23995814.981   126098902.60106  23995813.956    98258896.83445
  22725628.400   119424009.19408  22725630.063    93057695.40647
  24123994.803   126772435.86407  24123995.394    98783711.30145
  22715071.987   119368496.27808  22715071.710    93014404.18447
 15 02 18 00 38 30.0000000  0  7G16G18G21G22G27G29G31
  21634641.925   113690826.91809  21634640.538    88590251.64848
  22761609.331   119613122.82408  22761608.426    93205061.44446
  21362822.386   112262401.65909  21362820.662    87477195.75749
  23978469.129   126007751.28607  23978467.893    98187870.04345
  22714000.944   119362907.06208  22714002.726    93010083.40447
  24138221.275   126847194.07507  24138221.320    98841964.46345
  22732253.858   119458787.74408  22732253.358    93084761.16247
 15 02 18 00 39  0.0000000  0  7G16G18G21G22G27G29G31
  21621578.043   113622175.12709  21621576.517    88536756.76148
  22750409.712   119554268.05208  22750408.710    93159200.60646
  21370473.256   112302607.81709  21370471.762    87508525.23349
  23961121.775   125916588.70207  23961119.908    98116834.31844
  22702395.622   119301921.15208  22702397.305    92962561.96047
  24152446.879   126921951.50207  24152447.210    98900216.91746
  22749474.858   119549284.83508  22749474.311    93155278.36647
 15 02 18 00 39 30.0000000  0  7G16G18G21G22G27G29G31
  21608562.298   113553777.58109  21608560.802    88483459.98948
  22739264.325   119495699.34008  22739263.517    93113562.68246
  21378189.443   112343156.93409  21378187.821    87540121.95549
  23943773.900   125825425.19107  23943772.322    98045797.98145
  22690813.775   119241058.97908  22690815.625    92915136.91547
  24166674.151   126996716.03707  24166674.539    98958474.92045
  22766736.239   119639992.28208  22766735.588    93225959.47147
 15 02 18 00 40  0.0000000  0  7G16G18G21G22G27G29G31
  21595593.807   113485627.88809  21595592.478    88430356.34048
  22728172.241   119437410.63608  22728171.544    93068142.94046
  21385969.208   112384039.12209  21385967.649    87571978.20549
  23926424.086   125734254.83107  23926423.491    97974756.35446
  22679254.126   119180312.08108  22679255.936    92867801.70147
  24180901.035   127071479.04007  24180900.819    99016731.81645
  22784034.870   119730898.38908  22784034.615    93296795.34547
 15 02 18 00 40 30.0000000  0  7G16G18G21G22G27G29G31
  21582672.920   113417727.01109  21582671.336    88377446.57648
  22717133.690   119379402.56908  22717133.150    93022941.87646
  21393811.593   112425251.20009  21393809.979    87604091.51949
  23909073.742   125643078.94107  23909072.925    97903710.37545
  22667716.082   119119679.03608  22667717.896    92820555.19947
  24195127.471   127146239.15006  24195127.822    99074986.39145
  22801370.834   119821999.24408  22801370.338    93367783.01446
 15 02 18 00 41  0.0000000  0  7G16G18G21G22G27G29G31
  21569801.657   113350088.85409  21569800.241    88324741.53548
  22706151.226   119321689.73508  22706150.685    92977970.85846
  21401718.549   112466802.97009  21401717.019    87636469.52649
  23891725.535   125551911.81308  23891724.127    97832671.10245
  22656201.819   119059171.42308  22656203.555    92773406.42947
  24209355.431   127221007.83407  24209355.547    99133247.67045
  22818745.537   119913303.46008  22818744.887    93438929.13846
 15 02 18 00 41 30.0000000  0  7G16G18G21G22G27G29G31
  21556979.247   113282706.82009  21556977.992    88272236.06548
  22695223.639   119264265.78608  22695222.987    92933224.95246
  21409688.489   112508684.57109  21409686.779    87669104.54648
  23874377.466   125460747.71606  23874376.313    97761634.23445
  22644709.838   118998780.65508  22644711.512    92726348.71647
  24223583.327   127295776.71606  24223584.421    99191509.03246
  22836156.632   120004799.53808  22836156.121    93510224.73047
 15 02 18 00 42  0.0000000  0  7G16G18G21G22G27G29G31
  21544206.893   113215587.05009  21544205.306    88219934.95848
  22684352.373   119207136.67708  22684351.599    92888708.77946
  21417721.613   112550898.23109  21417719.811    87701998.31349
  23857030.516   125369592.81707  23857030.194    97690604.68446
  22633240.687   118938510.45108  22633242.412    92679384.94947
  24237812.566   127370549.46607  24237812.689    99249773.50545
  22853604.427   120096488.41308  22853604.057    93581670.55147
 15 02 18 00 42 30.0000000  0  7G16G18G21G22G27G29G31
  21531484.003   113148728.87709  21531482.653    88167837.69648
  22673537.188   119150302.24608  22673536.456    92844422.23046
  21425816.742   112593438.82809  21425814.880    87735146.83048
  23839686.651   125278447.41008  23839685.820    97619582.37246
  22621794.085   118878358.03008  22621795.811    92632512.96947
  24252041.102   127445323.20907  24252041.873    99308038.69645
  22871087.999   120188364.38908  22871087.595    93653262.18246
 15 02 18 00 43  0.0000000  0  7G16G18G21G22G27G29G31
  21518811.053   113082131.85609  21518809.586    88115943.91848
  22662777.972   119093762.68608  22662777.309    92800365.44846
  21433973.492   112636302.71209  21433971.669    87768547.26648
  23822343.857   125187310.94307  23822342.995    97548567.08845
  22610369.125   118818320.74108  22610371.136    92585730.71247
  24266270.130   127520095.13007  24266269.970    99366302.53045
  22888605.912   120280421.98908  22888605.334    93724995.36746
 15 02 18 00 43 30.0000000  0  7G16G18G21G22G27G29G31
  21506189.783   113015806.73109  21506188.551    88064262.01348
  22652077.204   119037529.11408  22652076.614    92756547.11146
  21442192.985   112679496.44009  21442191.040    87802204.71848
  23805004.760   125096195.24807  23805003.288    97477567.95145
  22598968.150   118758407.11808  22598969.831    92539044.80447
  24280499.867   127594874.68507  24280500.245    99424572.25145
  22906159.381   120372666.84108  22906158.898    93796874.43147
 15 02 18 00 44  0.0000000  0  7G16G18G21G22G27G29G31
  21493618.366   112949743.07809  21493616.852    88012783.85348
  22641432.349   118981590.61608  22641431.687    92712958.69546
  21450472.436   112723005.21609  21450470.486    87836107.66448
  23787668.225   125005090.33208  23787666.772    97406577.19046
  22587587.960   118698604.28508  22587589.819    92492445.21247
  24294729.324   127669648.54906  24294729.708    99482837.55545
  22923745.933   120465083.60508  22923745.430    93868887.46447
 15 02 18 00 44 30.0000000  0  7G16G18G21G22G27G29G31
  21481098.906   112883953.06109  21481097.407    87961518.91348
  22630846.105   118925959.96308  22630845.529    92669610.14946
  21458813.322   112766837.62009  21458811.499    87870262.78348
  23770335.927   124914008.70907  23770334.541    97335604.66646
  22576230.891   118638922.35808  22576232.579    92445939.83847
  24308958.981   127744426.68307  24308959.613    99541106.20145
  22941366.378   120557679.10608  22941365.816    93941039.75047
 15 02 18 00 45  0.0000000  0  7G16G18G21G22G27G29G31
  21468631.792   112818438.75009  21468630.436    87910468.81348
  22620318.963   118870639.43008  22620318.381    92626503.26746
  21467215.731   112810992.14309  21467213.817    87904668.90348
  23753008.363   124822953.18407  23753006.870    97264652.47044
  22564896.837   118579361.37708  22564898.559    92399528.70547
  24323189.561   127819209.35306  24323190.538    99599378.33645
  22959020.045   120650450.56908  22959019.762    94013329.17646
 15 02 18 00 45 30.0000000  0  7G16G18G21G22G27G29G31
  21456216.492   112753195.99909  21456215.308    87859630.31448
  22609850.016   118815624.86608  22609849.233    92583634.79246
  21475677.758   112855460.64309  21475675.984    87939319.68448
  23735685.316   124731919.77008  23735682.966    97193717.35345
  22553584.456   118519914.69708  22553586.215    92353206.63847
  24337419.995   127893989.69106  24337420.353    99657648.73645
  22976705.426   120743388.74408  22976705.125    94085748.50047
 15 02 18 00 46  0.0000000  0  7G16G18G21G22G27G29G31
  21443855.045   112688235.18609  21443853.626    87809011.50948
  22599441.335   118760926.87908  22599440.832    92541013.00846
  21484200.634   112900248.72209  21484198.933    87974219.48748
  23718368.653   124640919.46307  23718366.467    97122808.12346
  22542295.539   118460590.66208  22542297.355    92306980.14647
  24351651.046   127968776.34006  24351651.389    99715923.98045
  22994423.743   120836498.91208  22994423.339    94158301.84446
 15 02 18 00 46 30.0000000  0  7G16G18G21G22G27G29G31
  21431545.956   112623550.30009  21431544.449    87758607.70848
  22589091.793   118706539.57408  22589091.110    92498633.31346
  21492782.702   112945347.44809  21492780.981    88009361.35148
  23701056.581   124549946.69707  23701055.011    97051920.41646
  22531028.250   118401380.84908  22531029.928    92260842.63247
  24365882.581   128043561.03106  24365882.706    99774197.75245
  23012172.910   120929769.94308  23012172.722    94230980.53747
 15 02 18 00 47  0.0000000  0  7G16G18G21G22G27G29G31
  21419290.827   112559149.22909  21419289.480    87708425.06548
  22578802.983   118652471.39008  22578802.273    92456502.27646
  21501424.527   112990760.66909  21501422.875    88044748.27448
  23683752.302   124459010.22008  23683749.841    96981060.88745
  22519783.903   118342291.09408  22519785.414    92214798.69847
  24380114.116   128118349.65607  24380114.723    99832474.51345
  23029952.903   121023204.53408  23029952.935    94303786.63347
 15 02 18 00 47 30.0000000  0  7G16G18G21G22G27G29G31
  21407089.581   112495031.93309  21407088.207    87658463.54748
  22568574.686   118598721.72908  22568574.035    92414619.44746
  21510125.509   113036484.13709  21510123.610    88080376.95448
  23666454.579   124368110.38307  23666451.765    96910229.84745
  22508561.894   118283319.03508  22508563.371    92168846.46547
  24394346.136   128193139.77006  24394346.858    99890752.54046
  23047762.934   121116797.40608  23047762.663    94376716.11646
 15 02 18 00 48  0.0000000  0  7G16G18G21G22G27G29G31
  21394942.145   112431196.47709  21394940.674    87608721.64948
  22558406.892   118545289.30008  22558406.119    92372983.81146
  21518884.165   113082511.78109  21518882.441    88116242.65548
  23649162.920   124277245.66707  23649161.530    96839426.34646
  22497361.367   118224460.55608  22497362.922    92122982.74647
  24408578.131   128267927.12905  24408578.945    99949028.39845
  23065602.070   121210541.73408  23065601.346    94449763.63346
 15 02 18 00 48 30.0000000  0  7G16G18G21G22G27G29G31
  21382850.281   112367653.33109  21382848.818    87559207.51948
  22548301.443   118492184.52508  22548300.589    92331603.47846
  21527702.201   113128850.37209  21527700.367    88152350.64948
  23631880.797   124186426.83908  23631879.314    96768658.52946
  22486184.023   118165723.75108  22486185.630    92077213.82547
  24422810.809   128342720.29506  24422811.388   100007308.72145
  23083470.913   121304442.76208  23083470.482    94522933.22647
 15 02 18 00 49  0.0000000  0  7G16G18G21G22G27G29G31
  21370814.220   112304403.22109  21370812.663    87509921.72848
  22538258.505   118439408.31108  22538257.782    92290479.17646
  21536578.843   113175497.03709  21536576.924    88188698.69748
  23614607.485   124095655.44107  23614605.729    96697927.61745
  22475029.679   118107107.43508  22475031.301    92031538.80447
  24437044.424   128417517.85107  24437045.038   100065592.51245
  23101368.413   121398496.41208  23101368.662    94596221.69047
 15 02 18 00 49 30.0000000  0  7G16G18G21G22G27G29G31
  21358832.706   112241440.93509  21358831.463    87460860.21748
  22528276.945   118386955.63908  22528276.132    92249606.98546
  21545512.135   113222442.33509  21545510.371    88225279.44948
  23597341.781   124004926.77507  23597340.677    96627230.02346
  22463896.862   118048604.11408  22463898.403    91985951.82447
  24451277.439   128492312.47407  24451278.125   100123873.96545
  23119293.551   121492692.14908  23119293.344    94669620.92146
 15 02 18 00 50  0.0000000  0  7G16G18G21G22G27G29G31
  21346908.098   112178776.04409  21346906.649    87412030.44248
  22518358.767   118334835.98308  22518358.270    92208994.28147
  21554503.311   113269691.56409  21554501.692    88262097.03148
  23580087.143   123914251.01008  23580085.889    96556573.67546
  22452786.872   117990221.09808  22452788.505    91940458.58447
  24465510.988   128567111.46807  24465511.648   100182158.89646
  23137246.431   121587034.61108  23137245.798    94743134.53346
 15 02 18 00 50 30.0000000  0  7G16G18G21G22G27G29G31
  21335039.491   112116406.68409  21335038.073    87363430.95248
  22508503.829   118283047.58908  22508503.163    92168639.70446
  21563551.166   113317238.58109  21563549.428    88299146.65448
  23562842.138   123823626.83208  23562841.060    96485957.54546
  22441698.986   117931954.27208  22441700.614    91895055.90247
  24479744.922   128641911.01606  24479745.983   100240444.18145
  23155225.747   121681516.51908  23155225.195    94816756.75246
 15 02 18 00 51  0.0000000  0  7G16G18G21G22G27G29G31
  21323227.768   112054335.47609  21323226.371    87315063.78748
  22498712.432   118231593.26408  22498711.753    92128545.45546
  21572655.582   113365082.88909  21572653.843    88336427.93348
  23545607.704   123733057.29907  23545605.725    96415383.91845
  22430633.383   117873804.01208  22430635.167    91849744.02547
  24493979.244   128716711.12906  24493980.014   100298729.94044
  23173231.030   121776135.57608  23173230.934    94890485.80647
 15 02 18 00 51 30.0000000  0  7G16G18G21G22G27G29G31
  21311473.728   111992567.60909  21311472.264    87266932.99348
  22488985.523   118180478.20108  22488984.807    92088715.54846
  21581816.937   113413225.47809  21581815.150    88373941.63948
  23528383.913   123642548.13907  23528382.117    96344857.37346
  22419590.419   117815773.37308  22419592.211    91804525.37647
  24508213.817   128791515.31905  24508214.756   100357019.01747
  23191262.619   121870891.78108  23191262.498    94964321.76446
 15 02 18 00 52  0.0000000  0  7G16G18G21G22G27G29G31
  21299777.152   111931101.65609  21299775.790    87219037.45248
  22479322.775   118129700.86908  22479322.037    92049148.80746
  21591033.846   113461660.60109  21591032.123    88411683.29248
  23511171.992   123552098.41308  23511170.213    96274377.13046
  22408569.508   117757858.75208  22408571.461    91759397.12247
  24522449.016   128866319.82408  24522449.058   100415308.22744
  23209319.085   121965778.74208  23209318.865    95038259.59846
 15 02 18 00 52 30.0000000  0  7G16G18G21G22G27G29G31
  21288136.523   111869929.17809  21288135.019    87171370.59748
  22469722.898   118079252.95608  22469722.252    92009838.76347
  21600304.138   113510376.03109  21600302.300    88449643.36848
  23493969.939   123461700.10908  23493967.598    96203936.95346
  22397568.941   117700049.50908  22397570.497    91714350.98247
  24536685.108   128941113.14918  24536683.595   100473630.34154
  23227397.923   122060782.89608  23227397.444    95112288.76646
 15 02 18 00 53  0.0000000  0  7G16G18G21G22G27G29G31
  21276558.853   111809088.67409  21276557.504    87123962.42148
  22460192.993   118029172.93608  22460192.429    91970815.38446
  21609634.194   113559406.31109  21609632.374    88487848.77348
  23476784.987   123371392.48407  23476782.842    96133567.43646
  22386595.193   117642381.94708  22386596.914    91669415.24248
  24550919.947   129015933.60808  24550922.145   100531932.01046
  23245505.390   122155937.68308  23245505.024    95186435.30946
 15 02 18 00 53 30.0000000  0  6G16G18G21G22G27G31
  21265028.947   111748498.13609  21265027.594    87076749.02448
