     2.11           OBSERVATION DATA    G                   RINEX VERSION / TYPE
SPIDER V4,0,0,3554                      2015 03 24 06:04    PGM / RUN BY / DATE 
CNAJ                                                        MARKER NAME         
CNAJ                                                        MARKER NUMBER       
                                                            OBSERVER / AGENCY   
496642              LEICA GRX1200+GNSS  8.10/4.007          REC # / TYPE / VERS 
10321018            LEIAR25         NONE                    ANT # / TYPE        
  5206098.7325   612081.0247  3621806.3029                  APPROX POSITION XYZ 
        0.0720        0.0000        0.0000                  ANTENNA: DELTA H/E/N
     1     1                                                WAVELENGTH FACT L1/2
     4    C1    L1    P2    L2                              # / TYPES OF OBSERV 
    30.000                                                  INTERVAL            
  2015    01    16    00    00    0.0000000     GPS         TIME OF FIRST OBS   
  2015    01    16    23    59   30.0000000     GPS         TIME OF LAST OBS    
    16                                                      LEAP SECONDS        
    30                                                      # OF SATELLITES     
   G 1   814   814   814   814                              PRN / # OF OBS      
   G 2   942   942   942   942                              PRN / # OF OBS      
   G 3   848   848   848   848                              PRN / # OF OBS      
   G 4   842   842   842   842                              PRN / # OF OBS      
   G 5   652   652   652   652                              PRN / # OF OBS      
   G 6   804   804   797   797                              PRN / # OF OBS      
   G 7   668   668   668   668                              PRN / # OF OBS      
   G 9   812   812   812   812                              PRN / # OF OBS      
   G10   761   759   759   759                              PRN / # OF OBS      
   G11   781   781   781   781                              PRN / # OF OBS      
   G12   842   842   840   840                              PRN / # OF OBS      
   G13   800   800   800   800                              PRN / # OF OBS      
   G14   947   947   947   947                              PRN / # OF OBS      
   G15   705   705   702   702                              PRN / # OF OBS      
   G16   664   664   664   664                              PRN / # OF OBS      
   G17   938   938   937   937                              PRN / # OF OBS      
   G18   901   900   897   896                              PRN / # OF OBS      
   G19   758   758   757   757                              PRN / # OF OBS      
   G20   847   847   846   846                              PRN / # OF OBS      
   G21   744   744   741   741                              PRN / # OF OBS      
   G22   655   655   655   655                              PRN / # OF OBS      
   G23   755   755   751   751                              PRN / # OF OBS      
   G24   837   837   837   837                              PRN / # OF OBS      
   G25   863   863   863   863                              PRN / # OF OBS      
   G27   802   802   802   802                              PRN / # OF OBS      
   G28   866   866   862   862                              PRN / # OF OBS      
   G29   786   786   780   780                              PRN / # OF OBS      
   G30   709   709   707   707                              PRN / # OF OBS      
   G31   849   849   847   847                              PRN / # OF OBS      
   G32   774   772   765   765                              PRN / # OF OBS      
BIT 2 OF LLI FLAGS DATA COLLECTED UNDER A/S CONDITION       COMMENT             
SNR is mapped to RINEX snr flag value [2-9]                 COMMENT             
Lx:     = 25dBHz -> 1; 26-27dBHz -> 2; 28-31dBHz -> 3       COMMENT             
       32-35dBHz -> 4; 36-38dBHz -> 5; 39-41dBHz -> 6       COMMENT             
       42-44dBHz -> 7; 45-48dBHz -> 8; >=49dBHz -> 9        COMMENT             
                                                            END OF HEADER       
 15 01 16 00 00  0.0000000  0  8G02G12G14G21G24G25G29G31
  23965644.440   125940334.59208  23965638.940    98135312.15645
  22890063.580   120288296.28607  22890064.120    93731249.54946
  23071695.660   121242593.00806  23071694.780    94474719.35145
  23507247.420   123531507.93907  23507247.960    96258298.78245
  24488247.880   128686668.84907  24488251.600   100275342.46744
  20803861.080   109325088.16009  20803861.240    85188408.41848
  20112173.660   105690285.67408  20112170.800    82356099.35848
  21896193.320   115065270.39809  21896186.020    89661254.11446
 15 01 16 00 00 30.0000000  0  8G02G12G14G21G24G25G29G31
  23978368.080   126007197.98207  23978362.760    98187413.49045
  22902076.900   120351422.14008  22902077.080    93780438.48546
  23084382.840   121309267.39506  23084382.660    94526673.36245
  23489648.920   123439027.16607  23489649.320    96186236.09245
  24508909.100   128795242.76708  24508912.320   100359945.26343
  20806998.260   109341573.89709  20806998.320    85201254.44348
  20114500.620   105702517.54708  20114498.240    82365630.70248
  21883237.820   114997187.54009  21883230.600    89608202.52846
 15 01 16 00 01  0.0000000  0  8G02G12G14G21G24G25G29G31
  23991159.400   126074417.98107  23991154.420    98239792.70045
  22914115.820   120414681.73108  22914115.220    93829731.67946
  23097125.340   121376233.02406  23097125.800    94578854.36944
  23472076.020   123346681.02107  23472076.080    96114278.27845
  24529589.440   128903916.03008  24529591.260   100444625.50943
  20810179.620   109358292.22509  20810179.620    85214281.69148
  20116905.200   105715156.90808  20116903.220    82375479.54248
  21870351.020   114929466.16609  21870344.180    89555432.61046
 15 01 16 00 01 30.0000000  0  8G02G12G14G21G24G25G29G31
  24004017.380   126141988.16507  24004012.720    98292444.76346
  22926179.020   120478070.28108  22926177.920    93879125.33047
  23109922.180   121443482.16407  23109923.000    94631256.27744
  23454528.300   123254467.63507  23454528.260    96042423.93745
  24550287.620   129012682.90508  24550288.900   100529378.71344
  20813404.380   109375238.91609  20813404.320    85227486.89448
  20119386.720   105728198.09808  20119384.660    82385641.50348
  21857532.360   114862103.95809  21857526.020    89502942.58646
 15 01 16 00 02  0.0000000  0  8G02G12G14G21G24G25G29G31
  24016942.400   126209910.86507  24016938.300    98345371.55645
  22938267.740   120541592.66908  22938265.940    93928623.30546
  23122773.740   121511016.75907  23122774.040    94683880.60944
  23437006.960   123162393.63807  23437006.760    95970678.15444
  24571003.900   129121545.54408  24571005.600   100614206.47645
  20816673.540   109392418.83509  20816673.440    85240873.82448
  20121945.680   105741643.78208  20121943.180    82396118.66548
  21844783.120   114795107.46909  21844777.500    89450737.55646
 15 01 16 00 02 30.0000000  0  8G02G12G14G21G24G25G29G31
  24029932.740   126278176.40007  24029929.220    98398565.48445
  22950380.240   120605241.59608  22950377.980    93978219.85146
  23135677.700   121578825.92407  23135677.000    94736718.93243
  23419510.940   123070453.70006  23419510.300    95899036.83043
  24591736.440   129230494.17408  24591738.680   100699101.22244
  20819985.740   109409824.85609  20819985.660    85254436.96048
  20124580.000   105755484.83608  20124577.000    82406903.90448
  21832102.440   114728471.25209  21832097.460    89398813.27046
 15 01 16 00 03  0.0000000  0  8G02G12G14G21G24G25G29G31
  24042989.460   126346790.56608  24042986.320    98452031.06745
  22962518.020   120669024.28108  22962515.460    94027920.66347
  23148634.980   121646914.15207  23148633.400    94789774.68044
  23402042.380   122978658.06006  23402041.840    95827507.94844
  24612486.220   129339533.72708  24612488.700   100784066.79844
  20823342.640   109427465.11109  20823342.500    85268182.61248
  20127290.840   105769728.08108  20127287.400    82418002.53348
  21819492.340   114662205.91909  21819487.820    89347177.97247
 15 01 16 00 03 30.0000000  0  8G02G12G14G21G24G25G29G31
  24056111.260   126415746.40008  24056108.320    98505762.89645
  22974680.160   120732936.20408  22974677.440    94077722.15346
  23161643.940   121715273.76807  23161641.700    94843041.89544
  23384600.820   122887004.21907  23384600.580    95756089.55344
  24633251.960   129448657.77907  24633254.640   100869098.27045
  20826743.340   109445335.26609  20826743.180    85282107.40848
  20130076.720   105784366.69208  20130073.020    82429409.25448
  21806952.280   114596308.21609  21806947.920    89295829.13546
 15 01 16 00 04  0.0000000  0  8G02G12G14G21G24G25G29G31
  24069298.220   126485044.70808  24069295.280    98559761.58844
  22986867.260   120796979.66008  22986864.320    94127626.11446
  23174704.460   121783904.44208  23174701.620    94896520.33444
  23367187.320   122795497.21207  23367187.220    95684785.56844
  24654033.920   129557867.17207  24654036.880   100954196.16545
  20830188.400   109463438.44309  20830188.140    85296213.76148
  20132937.820   105799401.66908  20132934.220    82441124.81748
  21794483.280   114530783.29909  21794478.820    89244770.77146
 15 01 16 00 04 30.0000000  0  8G02G12G14G21G24G25G29G31
  24082549.080   126554678.58107  24082546.000    98614021.76545
  22999078.640   120861150.45908  22999075.320    94177629.31645
  23187814.960   121852798.02508  23187811.860    94950203.61744
  23349801.480   122704134.28707  23349800.900    95613593.82244
  24674830.800   129667154.05808  24674833.920   101039354.52644
  20833676.960   109481770.08809  20833676.520    85310498.14448
  20135872.840   105814826.33108  20135869.720    82453144.04248
  21782084.700   114465628.31409  21782080.040    89194000.64246
 15 01 16 00 05  0.0000000  0  8G02G12G14G21G24G25G29G31
  24095864.740   126624653.49307  24095861.660    98668547.66545
  23011315.700   120925456.45408  23011311.840    94227737.85545
  23200976.260   121921958.83507  23200972.700    95004095.20243
  23332445.000   122612925.56307  23332443.980    95542522.25544
  24695643.740   129776524.39708  24695646.640   101124577.88245
  20837210.540   109500338.25409  20837210.020    85324966.83848
  20138883.100   105830646.93008  20138880.600    82465471.76848
  21769758.500   114400853.10709  21769753.200    89143526.46546
 15 01 16 00 05 30.0000000  0  8G02G12G14G21G24G25G29G31
  24109244.040   126694962.42007  24109240.900    98723333.83845
  23023577.560   120989892.14608  23023573.300    94277947.48945
  23214186.740   121991378.74408  23214182.760    95058188.60944
  23315117.200   122521868.11607  23315115.940    95471568.53744
  24716471.120   129885970.58708  24716473.560   101209860.37244
  20840788.200   109519138.32509  20840787.660    85339616.23648
  20141967.480   105846856.84708  20141965.600    82478102.85748
  21757504.040   114336454.79909  21757498.060    89093345.96046
 15 01 16 00 06  0.0000000  0  8G02G12G14G21G24G25G29G31
  24122686.560   126765602.60707  24122683.140    98778378.14145
  23035864.020   121054457.49108  23035859.640    94328258.11845
  23227445.720   122061054.01907  23227441.380    95112481.04844
  23297818.480   122430963.82207  23297816.900    95400734.18244
  24737312.340   129995490.06408  24737313.880   101295200.04343
  20844409.820   109538169.92409  20844409.380    85354446.05248
  20145125.620   105863453.93008  20145124.120    82491035.65748
  21745321.660   114272435.37709  21745315.160    89043460.70646
 15 01 16 00 06 30.0000000  0  8G02G12G14G21G24G25G29G31
  24136193.100   126836578.51108  24136189.360    98833684.03245
  23048176.480   121119159.15608  23048171.780    94378675.02145
  23240753.720   122130988.58807  23240749.620    95166975.48044
  23280550.560   122340221.68607  23280549.220    95330026.18544
  24758168.180   130105086.95308  24758169.100   101380600.16143
  20848076.880   109557440.35709  20848076.520    85369461.95948
  20148358.460   105880443.35208  20148357.200    82504274.17648
  21733212.880   114208803.21109  21733206.060    88993877.20046
 15 01 16 00 07  0.0000000  0  8G02G12G14G21G24G25G29G31
  24149761.900   126907881.24908  24149757.800    98889244.60844
  23060513.260   121183989.90808  23060508.720    94429192.47644
  23254109.040   122201172.09407  23254105.340    95221663.94244
  23263312.860   122249637.40707  23263311.460    95259441.17544
  24779037.080   130214752.88808  24779038.420   101466053.94043
  20851788.120   109576943.17309  20851787.840    85384658.95348
  20151664.140   105897816.55508  20151663.240    82517811.74148
  21721176.840   114145553.99309  21721169.800    88944592.08946
 15 01 16 00 07 30.0000000  0  7G02G12G14G21G25G29G31
  24163393.720   126979515.77807  24163389.280    98945063.69044
  23072876.060   121248957.19408  23072871.600    94479816.29844
  23267512.500   122271608.73707  23267509.180    95276549.59144
  23246107.080   122159220.22607  23246105.780    95188986.36845
  20855544.960   109596685.79809  20855544.800    85400042.78748
  20155043.660   105915578.90308  20155043.180    82531652.51348
  21709215.200   114082696.83809  21709208.260    88895612.47546
 15 01 16 00 08  0.0000000  0  7G02G12G14G21G25G29G31
  24177087.420   127051476.06607  24177082.620    99001136.61744
  23085264.100   121314057.03908  23085259.760    94530543.47844
  23280962.560   122342291.34706  23280959.940    95331626.98744
  23228932.900   122068968.37908  23228931.520    95118660.40045
  20859346.740   109616664.71709  20859346.740    85415610.77448
  20158496.240   105933724.75108  20158496.020    82545792.13748
  21697327.620   114020229.72709  21697321.120    88846936.81046
 15 01 16 00 08 30.0000000  0  7G02G12G14G21G25G29G31
  24190843.020   127123762.14007  24190837.780    99057463.41844
  23097677.820   121379291.51208  23097673.600    94581375.54044
  23294458.840   122413218.78906  23294457.340    95386895.04645
  23211791.040   121978886.27708  23211789.600    95048466.69045
  20863194.020   109636882.53609  20863194.080    85431364.91148
  20162022.080   105952254.08708  20162021.980    82560230.58548
  21685515.160   113958156.94309  21685509.200    88798568.39146
 15 01 16 00 09  0.0000000  0  7G02G12G14G21G25G29G31
  24204660.680   127196374.81907  24204654.940    99114044.70444
  23110117.760   121444663.19708  23110113.440    94632314.53344
  23308000.820   122484390.68305  23308001.320    95442353.53944
  23194682.340   121888979.18608  23194680.940    94978409.34344
  20867087.440   109657342.55709  20867087.460    85447307.76648
  20165621.700   105971169.17708  20165621.380    82574969.61048
  21673778.940   113896483.56309  21673773.600    88750511.21646
 15 01 16 00 09 30.0000000  0  7G02G12G14G21G25G29G31
  24218534.800   127269284.17707  24218528.900    99170857.20144
  23122578.540   121510145.08208  23122574.540    94683339.39944
  23321586.480   122555764.39305  23321586.080    95497998.69345
  23177602.080   121799221.55408  23177600.660    94908468.44245
  20871021.720   109678017.16509  20871021.600    85463417.84747
  20169289.240   105990440.04408  20169288.480    82589985.86848
  21662114.120   113835183.94509  21662109.440    88702745.28347
 15 01 16 00 10  0.0000000  0  7G02G12G14G21G25G29G31
  24232475.920   127342545.38107  24232470.180    99227943.84145
  23135071.060   121575794.25708  23135067.600    94734494.60845
  23335221.960   122627417.68706  23335221.520    95553832.41945
  23160561.460   121709672.75408  23160559.960    94838690.26744
  20875007.780   109698964.23509  20875007.420    85479740.23447
  20173035.160   106010122.27808  20173033.900    82605322.65748
  21650531.980   113774317.77209  21650527.820    88655317.09947
 15 01 16 00 10 30.0000000  0  7G02G12G14G21G25G29G31
  24246472.340   127416097.19607  24246466.880    99285256.91045
  23147584.320   121641552.21808  23147581.420    94785734.53545
  23348897.240   122699276.93707  23348895.880    95609826.55744
  23143549.800   121620276.68208  23143547.920    94769031.08044
  20879034.620   109720125.46709  20879034.020    85496229.48147
  20176847.900   106030155.24509  20176846.180    82620932.74748
  21639021.620   113713828.43609  21639017.820    88608182.54547
 15 01 16 00 11  0.0000000  0  7G02G12G14G21G25G29G31
  24260528.880   127489964.79407  24260523.700    99342816.06945
  23160123.200   121707445.73108  23160120.280    94837080.10545
  23362616.140   122771365.74507  23362614.060    95665999.68144
  23126572.880   121531062.75908  23126570.360    94699513.79743
  20883107.480   109741528.44109  20883106.780    85512907.11347
  20180732.240   106050564.59409  20180730.120    82636836.13648
  21627588.400   113653744.80609  21627584.860    88561364.14548
 15 01 16 00 11 30.0000000  0  7G02G12G14G21G25G29G31
  24274645.340   127564147.74907  24274640.680    99400620.94544
  23172688.360   121773477.10408  23172685.460    94888533.15445
  23376378.160   122843683.03307  23376375.380    95722350.78845
  23109631.220   121442034.71508  23109628.340    94630141.38744
  20887226.720   109763175.26909  20887226.020    85529774.75147
  20184688.200   106071350.62709  20184685.740    82653033.05348
  21616233.040   113594070.70709  21616229.580    88514864.84748
 15 01 16 00 12  0.0000000  0  7G02G12G14G21G25G29G31
  24288821.200   127638643.22607  24288816.960    99458669.34445
  23185279.420   121839645.22108  23185276.960    94940092.63745
  23390182.520   122916224.49707  23390179.560    95778876.58546
  23092725.420   121353194.48808  23092722.280    94560915.28644
  20891392.260   109785065.55609  20891391.560    85546832.09647
  20188715.180   106092510.50809  20188712.460    82669521.26848
  21604955.740   113534807.69909  21604952.380    88468685.87548
 15 01 16 00 12 30.0000000  0  7G02G12G14G21G25G29G31
  24303055.320   127713445.38207  24303051.200    99516956.69845
  23197896.040   121905946.37708  23197893.560    94991755.86645
  23404028.220   122988983.66308  23404025.260    95835571.99745
  23075854.900   121264540.24007  23075851.960    94491834.16244
  20895603.560   109807195.97409  20895602.740    85564076.57847
  20192812.160   106114039.18809  20192809.260    82686296.85448
  21593756.260   113475953.99809  21593752.960    88422825.84248
 15 01 16 00 13  0.0000000  0  7G02G12G14G21G25G29G31
  24317347.740   127788553.57307  24317343.720    99575482.56744
  23210538.260   121972382.20108  23210535.740    95043524.03445
  23417914.960   123061958.91907  23417912.180    95892435.82745
  23059020.640   121176076.02208  23059017.860    94422901.10745
  20899861.000   109829568.80109  20899860.020    85581509.96647
  20196979.180   106135936.45509  20196976.100    82703359.65448
  21582635.360   113417513.47309  21582632.120    88377287.77948
 15 01 16 00 13 30.0000000  0  7G02G12G14G21G25G29G31
  24331697.360   127863961.93907  24331693.220    99634242.34744
  23223205.660   122038949.07508  23223203.060    95095394.29545
  23431841.460   123135143.36007  23431838.760    95949462.64545
  23042222.340   121087800.58608  23042219.700    94354115.14745
  20904163.840   109852180.58809  20904162.960    85599129.53047
  20201215.120   106158196.69409  20201211.900    82720705.28648
  21571592.780   113359484.60009  21571589.580    88332070.48148
 15 01 16 00 14  0.0000000  0  7G02G12G14G21G25G29G31
  24346104.460   127939672.35707  24346100.340    99693237.48845
  23235898.620   122105651.61907  23235896.100    95147370.23845
  23445807.900   123208537.86307  23445805.100    96006653.14245
  23025461.220   120999720.35808  23025458.580    94285481.29145
  20908513.020   109875035.93309  20908512.300    85616938.88647
  20205520.460   106180822.35109  20205517.160    82738335.67748
  21560629.680   113301873.36709  21560626.440    88287178.62248
 15 01 16 00 14 30.0000000  0  7G02G12G14G21G25G29G31
  24360568.640   128015682.64107  24360564.520    99752466.27445
  23248617.340   122172489.21407  23248614.400    95199451.44245
  23459813.640   123282138.98307  23459810.800    96064004.65645
  23008737.460   120911837.00008  23008734.860    94217000.83245
  20912908.500   109898134.91409  20912908.000    85634938.07147
  20209895.020   106203811.82609  20209891.560    82756249.55948
  21549746.360   113244681.44209  21549743.120    88242613.49048
 15 01 16 00 15  0.0000000  0  7G02G12G14G21G25G29G31
  24375088.920   128091987.85507  24375084.980    99811924.86144
  23261361.280   122239459.78007  23261357.900    95251636.31545
  23473857.680   123355940.95107  23473854.440    96121512.66744
  22992051.180   120824150.40608  22992048.580    94148673.70644
  20917350.020   109921475.52709  20917349.660    85653125.55647
  20214337.920   106227160.24009  20214334.360    82774443.13348
  21538942.760   113187908.53209  21538939.440    88198374.87948
 15 01 16 00 15 30.0000000  0  7G02G12G14G21G25G29G31
  24389665.560   128168589.48007  24389661.580    99871614.40345
  23274131.360   122306566.72307  23274127.980    95303927.41444
  23487940.060   123429944.28607  23487936.640    96179177.57343
  22975403.420   120736666.62208  22975400.700    94080504.61044
  20921838.300   109945061.86809  20921838.020    85671504.51547
  20218849.540   106250870.14009  20218845.960    82792918.39048
  21528219.980   113131560.28009  21528216.480    88154467.16248
 15 01 16 00 16  0.0000000  0  7G02G12G14G21G25G29G31
  24404297.900   128245482.84607  24404293.920    99931531.30444
  23286926.800   122373807.67907  23286923.340    95356322.91144
  23502059.640   123504143.62106  23502055.680    96236995.23444
  22958794.180   120649385.53308  22958791.460    94012493.45244
  20926372.880   109968891.99909  20926372.680    85690073.43947
  20223429.180   106274937.49809  20223425.740    82811672.18248
  21517578.000   113075636.47609  21517574.180    88110890.18947
 15 01 16 00 16 30.0000000  0  7G02G12G14G21G25G29G31
  24418985.700   128322666.94107  24418981.460    99991674.73844
  23299748.060   122441183.56008  23299743.640    95408823.63543
  23516215.780   123578536.41006  23516211.280    96294963.64742
  22942224.140   120562310.32908  22942221.300    93944642.70945
  20930954.160   109992967.24209  20930953.940    85708833.35947
  20228076.660   106299361.08009  20228073.400    82830703.52948
  21507017.460   113020140.21709  21507013.080    88067646.33647
 15 01 16 00 17  0.0000000  0  7G02G12G14G21G25G29G31
  24433728.560   128400140.46807  24433723.740   100052043.72644
  23312595.240   122508695.78907  23312590.440    95461430.56344
  23530408.200   123653120.45806  23530403.600    96353081.09241
  22925693.940   120475443.97808  22925690.620    93876954.73344
  20935582.400   110017288.96809  20935582.100    85727785.35347
  20232791.940   106324140.42209  20232788.840    82850012.11448
  21496538.860   112965074.10309  21496533.780    88024737.67647
 15 01 16 00 17 30.0000000  0  7G02G12G14G21G25G29G31
  24448526.460   128477902.73607  24448520.880   100112637.68144
  23325468.640   122576345.66308  23325463.520    95514144.73844
  23544636.460   123727894.21605  23544633.620    96411346.42343
  22909204.360   120388790.49708  22909200.480    93809432.57844
  20940257.920   110041859.09909  20940257.600    85746930.90247
  20237574.980   106349275.08009  20237571.940    82869597.56248
  21486142.800   112910441.77709  21486136.980    87982167.02047
 15 01 16 00 18  0.0000000  0  7G02G12G14G21G25G29G31
  24463377.980   128555946.68107  24463371.560   100173451.13444
  23338367.500   122644128.09808  23338361.860    95566962.25244
  23558899.180   123802849.68505  23558897.500    96469753.25544
  22892754.880   120302347.38908  22892750.720    93742074.35744
  20944979.900   110066673.34509  20944979.580    85766266.66147
  20242424.440   106374758.49709  20242421.480    82889454.77648
  21475828.740   112856240.43509  21475822.360    87939932.18547
 15 01 16 00 18 30.0000000  0  7G02G12G14G21G25G29G31
  24478283.500   128634274.17007  24478276.040   100234485.51543
  23351292.180   122712047.27708  23351286.140    95619886.26944
  23573196.720   123877987.90305  23573196.240    96528302.47944
  22876346.800   120216120.94108  22876342.340    93674884.95845
  20949749.120   110091736.21209  20949748.780    85785796.14847
  20247340.600   106400592.94509  20247337.820    82909585.52548
  21465597.860   112802476.34309  21465591.180    87898038.06947
 15 01 16 00 19  0.0000000  0  7G02G12G14G21G25G29G31
  24493241.840   128712879.08507  24493233.580   100295736.07743
  23364242.320   122780099.80508  23364235.440    95672914.24243
  23587527.860   123953301.87605  23587528.360    96586988.64745
  22859979.500   120130109.63708  22859975.220    93607863.24645
  20954565.140   110117044.53409  20954564.580    85805516.90647
  20252322.520   106426773.58209  20252319.980    82929986.02148
  21455449.840   112749147.84109  21455443.120    87856483.38047
 15 01 16 00 19 30.0000000  0  7G02G12G14G21G25G29G31
  24508253.160   128791762.34107  24508244.140   100357203.57443
  23377218.260   122848288.75408  23377211.440    95726048.49044
  23601892.840   124028791.04405  23601893.700    96645811.31445
  22843653.980   120044318.36108  22843650.180    93541012.96445
  20959428.640   110142601.30309  20959427.560    85825431.26947
  20257370.360   106453300.98509  20257368.040    82950656.73548
  21445385.520   112696259.42409  21445379.040    87815271.61947
 15 01 16 00 20  0.0000000  0  7G02G12G14G21G25G29G31
  24523316.820   128870920.91307  24523307.620   100418885.55043
  23390219.980   122916613.64008  23390213.700    95779288.64244
  23616290.900   124104452.06705  23616291.720    96704767.94345
  22827370.640   119958748.92908  22827367.360    93474335.56545
  20964339.520   110168406.67009  20964337.900    85845539.33547
  20262483.780   106480172.93509  20262481.520    82971595.90948
  21435405.220   112643812.64109  21435399.100    87774403.97947
 15 01 16 00 20 30.0000000  0  7G02G12G14G21G25G29G31
  24538432.100   128950351.42607  24538422.880   100480779.46044
  23403247.280   122985072.75308  23403241.320    95832633.38944
  23630721.080   124180280.11707  23630721.200    96763854.62644
  22811129.660   119873402.37608  22811126.820    93407831.82745
  20969297.540   110194459.76909  20969295.540    85865840.44747
  20267662.160   106507386.40209  20267659.880    82992801.21348
  21425509.060   112591808.29309  21425503.400    87733881.10847
 15 01 16 00 21  0.0000000  0  7G02G12G14G21G25G29G31
  24553599.320   129030055.51606  24553590.860   100542886.57044
  23416300.680   123053670.07308  23416295.060    95886085.81045
  23645183.280   124256276.26406  23645182.720    96823072.38544
  22794932.280   119788284.79008  22794929.780    93341506.52045
  20974303.400   110220764.77909  20974301.160    85886337.86247
  20272905.960   106534943.60509  20272903.560    83014274.37348
  21415698.120   112540251.96709  21415692.960    87693707.34847
 15 01 16 00 21 30.0000000  0  7G02G12G14G21G25G29G31
  24568817.540   129110027.28906  24568809.620   100605202.17444
  23429379.920   123122402.26908  23429374.980    95939643.35545
  23659676.100   124332433.53606  23659674.880    96882415.66445
  22778778.240   119703394.55908  22778775.860    93275358.36345
  20979356.540   110247318.41609  20979354.320    85907029.00547
  20278214.200   106562838.82309  20278211.660    83036010.91948
  21405972.040   112489141.88409  21405967.360    87653881.31748
 15 01 16 00 22  0.0000000  0  7G02G12G14G21G25G29G31
  24584086.960   129190267.81607  24584079.400   100667727.21444
  23442485.440   123191272.74808  23442481.040    95993308.59845
  23674199.520   124408751.78806  23674197.520    96941884.40045
  22762668.580   119618737.33208  22762665.840    93209391.74445
  20984457.700   110274124.62209  20984455.620    85927916.95247
  20283587.300   106591073.99709  20283584.620    83058012.35248
  21396331.900   112438483.61509  21396327.700    87614407.33248
 15 01 16 00 22 30.0000000  0  7G02G12G14G21G25G29G31
  24599406.320   129270771.00007  24599399.220   100730456.95644
  23455616.520   123260277.26008  23455612.560    96047078.33145
  23688752.440   124485224.14107  23688749.720    97001473.18344
  22746602.980   119534311.48608  22746599.660    93143605.40145
  20989606.220   110301179.91009  20989604.300    85948998.98647
  20289024.040   106619643.39509  20289021.380    83080274.22148
  21386777.320   112388274.96509  21386773.500    87575283.71848
 15 01 16 00 23  0.0000000  0  7G02G12G14G21G25G29G31
  24614776.420   129351541.75907  24614770.040   100793395.19844
  23468774.520   123329423.13508  23468770.900    96100958.20545
  23703335.320   124561854.55607  23703331.960    97061185.15944
  22730583.120   119450126.46908  22730579.340    93078006.72744
  20994803.560   110328491.89209  20994801.820    85970281.03448
  20294525.380   106648552.18809  20294522.760    83102800.55448
  21377310.120   112338525.14209  21377306.560    87536517.62648
 15 01 16 00 23 30.0000000  0  7G02G12G14G21G25G29G31
  24630195.660   129432571.71007  24630189.920   100856535.42944
  23481958.200   123398704.40308  23481955.000    96154943.58045
  23717946.300   124638633.49308  23717942.320    97121012.87444
  22714608.200   119366178.34108  22714604.080    93012592.65145
  21000048.660   110356054.74509  21000047.160    85991758.58448
  20300089.660   106677792.80609  20300087.220    83125585.46148
  21367929.420   112289229.60909  21367925.980    87498105.54348
 15 01 16 00 24  0.0000000  0  7G02G12G14G21G25G29G31
  24645664.380   129513862.88707  24645659.480   100919879.18745
  23495168.560   123468125.19008  23495165.320    96209037.66145
  23732585.640   124715562.54307  23732581.300    97180957.61343
  22698679.340   119282473.29108  22698675.260    92947367.97344
  21005342.380   110383873.22109  21005341.080    86013435.31448
  20305717.420   106707367.39909  20305715.180    83148630.59948
  21358636.420   112240394.68309  21358633.040    87460052.36048
 15 01 16 00 24 30.0000000  0  7G02G12G14G21G25G29G31
  24661181.940   129595411.13107  24661178.020   100983423.28844
  23508405.100   123537683.74308  23508401.600    96263239.08144
  23747252.480   124792636.75307  23747247.900    97241015.40844
  22682796.880   119199012.07708  22682792.800    92882333.30445
  21010684.460   110411945.93109  21010683.380    86035310.13948
  20311408.080   106737272.40309  20311405.900    83171933.20348
  21349431.060   112192020.15009  21349427.640    87422357.92348
 15 01 16 00 25  0.0000000  0  7G02G12G14G21G25G29G31
  24676747.560   129677212.55306  24676744.600   101047164.66844
  23521667.780   123607378.36208  23521664.000    96317546.56845
  23761945.700   124869850.37407  23761941.280    97301181.85843
  22666960.940   119115794.64108  22666957.060    92817488.60845
  21016074.600   110440271.31009  21016073.700    86057381.85148
  20317161.120   106767504.47509  20317158.840    83195490.66048
  21340313.440   112144106.45009  21340309.920    87385022.57848
 15 01 16 00 25 30.0000000  0  7G02G12G14G21G25G29G31
  24692361.500   129759267.88006  24692359.680   101111103.87144
  23534957.180   123677212.22108  23534952.860    96371962.53845
  23776665.480   124947203.97607  23776661.620    97361457.35743
  22651172.540   119032826.33008  22651168.680    92752838.02245
  21021513.460   110468853.14109  21021512.760    86079653.38848
  20322976.840   106798065.13109  20322974.320    83219304.16448
  21331284.520   112096658.47209  21331280.840    87348050.13248
 15 01 16 00 26  0.0000000  0  7G02G12G14G21G25G29G31
  24708023.500   129841576.22906  24708022.820   101175240.21445
  23548273.280   123747186.56008  23548268.300    96426487.94644
  23791411.320   125024695.72507  23791408.320    97421840.50542
  22635432.360   118950110.83208  22635428.160    92688384.41945
  21027001.320   110497693.18509  21027000.800    86102126.13648
  20328855.060   106828953.91709  20328852.280    83243373.34248
  21322344.860   112049679.43209  21322341.120    87311443.07648
 15 01 16 00 26 30.0000000  0  7G02G12G14G21G25G29G31
  24723732.540   129924130.51606  24723732.840   101239568.24745
  23561615.280   123817296.76009  23561609.760    96481119.25845
  23806181.620   125102317.52005  23806179.280    97482324.96643
  22619739.780   118867645.57608  22619735.400    92624125.83145
  21032537.500   110526787.16909  21032537.120    86124796.76948
  20334794.320   106860163.90109  20334791.360    83267692.80648
  21313493.860   112003166.39609  21313490.240    87275199.16448
 15 01 16 00 27  0.0000000  0  7G02G12G14G21G25G29G31
  24739488.500   130006929.12307  24739488.940   101304086.63345
  23574983.120   123887543.26009  23574977.160    96535856.77045
  23820975.900   125180066.61105  23820973.660    97542908.72644
  22604095.300   118785433.24708  22604091.060    92560064.33645
  21038122.220   110556135.94809  21038121.940    86147665.92548
  20340794.300   106891693.54309  20340791.140    83292261.34648
  21304731.900   111957121.75709  21304728.580    87239320.22848
 15 01 16 00 27 30.0000000  0  7G02G12G14G21G25G29G31
  24755290.420   130089966.80007  24755290.320   101368791.34545
  23588376.060   123957922.74408  23588370.420    96590697.88645
  23835793.420   125257937.14505  23835791.180    97603587.00343
  22588498.700   118703472.86008  22588494.700    92496199.14445
  21043755.020   110585736.95409  21043754.840    86170731.64748
  20346854.240   106923538.96909  20346850.820    83317075.97248
  21296058.700   111911544.09609  21296055.740    87203805.18048
 15 01 16 00 28  0.0000000  0  7G02G12G14G21G25G29G31
  24771137.960   130173242.81107  24771136.940   101433681.74146
  23601794.560   124028437.07509  23601789.480    96645644.10344
  23850634.360   125335926.99806  23850632.540    97664358.27644
  22572950.580   118621768.01308  22572946.860    92432533.07244
  21049436.180   110615591.79309  21049436.000    86193995.13448
  20352974.020   106955699.41609  20352970.440    83342136.06048
  21287474.800   111866436.23209  21287472.060    87168656.20848
 15 01 16 00 28 30.0000000  0  7G02G12G14G21G25G29G31
  24787030.580   130256754.55208  24787028.140   101498755.83645
  23615238.580   124099086.56808  23615234.000    96700695.65644
  23865497.960   125414033.42307  23865496.740    97725220.34744
  22557451.600   118540321.02008  22557448.040    92369067.91245
  21055165.840   110645701.34909  21055165.700    86217457.10748
  20359153.400   106988173.18008  20359149.740    83367440.30548
  21278980.760   111821800.55209  21278978.020    87133875.16947
 15 01 16 00 29  0.0000000  0  7G02G12G14G21G25G29G31
  24802968.380   130340503.53507  24802964.620   101564014.76346
  23628708.720   124169873.68508  23628704.460    96755854.44945
  23880384.000   125492256.52808  23880382.920    97786173.31244
  22542002.860   118459137.28508  22541999.740    92305807.88145
  21060944.660   110676069.29209  21060944.600    86241120.42548
  20365392.660   107020961.61208  20365389.120    83392989.71548
  21270577.660   111777641.98709  21270574.680    87099465.89147
 15 01 16 00 29 30.0000000  0  6G12G14G21G25G29G31
  23642205.480   124240800.68408  23642201.620    96811122.21945
  23895291.840   125570594.73708  23895290.740    97847216.03344
  22526605.060   118378220.55408  22526602.220    92242755.91845
  21066773.060   110706697.47309  21066772.940    86264986.54248
  20371691.780   107054064.53609  20371688.460    83418784.19848
  21262266.040   111733963.81409  21262262.560    87065430.94347
 15 01 16 00 30  0.0000000  0  6G12G14G21G25G29G31
  23655730.180   124311876.13908  23655727.100    96866505.64045
  23910222.460   125649053.62508  23910221.200    97908352.78844
  22511260.240   118297581.74808  22511257.460    92179920.53446
  21072652.800   110737595.25009  21072652.520    86289062.74048
  20378052.060   107087489.34108  20378049.080    83444829.49048
  21254047.860   111690776.79209  21254043.680    87031778.71247
 15 01 16 00 30 30.0000000  0  6G12G14G21G25G29G31
  23669280.760   124383088.37608  23669278.600    96921995.64144
  23925172.960   125727618.03508  23925171.540    97969571.71644
  22495966.380   118217210.84908  22495963.340    92117293.88846
  21078581.540   110768750.91609  21078581.040    86313339.87248
  20384470.860   107121221.84508  20384468.160    83471114.54248
  21245921.160   111648070.64009  21245916.180    86998501.18147
 15 01 16 00 31  0.0000000  0  6G12G14G21G25G29G31
  23682857.360   124454435.84208  23682856.080    96977591.09445
  23940142.580   125806283.40907  23940141.140    98030869.33544
  22480723.740   118137108.94008  22480720.280    92054876.83645
  21084559.220   110800163.66509  21084558.280    86337817.33548
  20390947.800   107155259.36108  20390945.260    83497637.29048
  21237885.920   111605845.46909  21237880.400    86965598.42947
 15 01 16 00 31 30.0000000  0  6G12G14G21G25G29G31
  23696460.740   124525923.95508  23696460.120    97033296.07845
  23955131.780   125885052.16808  23955130.060    98092247.49743
  22465533.440   118057283.29108  22465529.720    91992675.05445
  21090586.860   110831839.30109  21090585.500    86362499.64648
  20397483.480   107189605.00908  20397480.880    83524400.14948
  21229943.580   111564108.45309  21229937.960    86933076.07947
 15 01 16 00 32  0.0000000  0  6G12G14G21G25G29G31
  23710089.680   124597546.00308  23710089.460    97089105.38245
  23970138.860   125963914.44907  23970136.400    98153698.61444
  22450394.760   117977729.40808  22450390.900    91930685.05945
  21096663.240   110863771.61809  21096661.700    86387381.95948
  20404076.420   107224251.03208  20404073.720    83551397.05448
  21222093.280   111522854.75609  21222087.740    86900930.33347
 15 01 16 00 32 30.0000000  0  6G12G14G21G25G29G31
  23723744.360   124669301.34408  23723743.740    97145018.62544
  23985163.220   126042866.51107  23985160.140    98215219.64544
  22435307.900   117898448.65608  22435304.320    91868907.90745
  21102788.320   110895960.35009  21102786.780    86412464.08848
  20410726.020   107259194.62708  20410723.340    83578625.84048
  21214335.100   111482085.22409  21214329.640    86869161.85247
 15 01 16 00 33  0.0000000  0  6G12G14G21G25G29G31
  23737425.080   124741193.23808  23737423.840    97201038.27845
  24000204.800   126121908.83707  24000201.200    98276810.97743
  22420274.000   117819446.81008  22420270.720    91807348.06145
  21108962.920   110928409.46109  21108961.680    86437749.08548
  20417432.580   107294437.64308  20417429.940    83606087.91848
  21206669.960   111441804.98809  21206664.620    86837774.65447
 15 01 16 00 33 30.0000000  0  6G12G14G21G25G29G31
  23751133.020   124813228.87308  23751131.080    97257169.91345
  24015264.160   126201044.98407  24015260.780    98338475.38243
  22405294.780   117740732.62908  22405291.880    91746012.34045
  21115188.580   110961126.22709  21115187.600    86463242.65448
  20424197.120   107329984.91808  20424194.540    83633787.08348
  21199099.440   111402022.67208  21199094.400    86806775.42847
 15 01 16 00 34  0.0000000  0  6G12G14G21G25G29G31
  23764867.080   124885401.39108  23764864.280    97313408.23244
  24030339.340   126280265.02707  24030336.480    98400205.17844
  22390369.380   117662300.89408  22390366.820    91684896.76245
  21121464.120   110994103.98609  21121463.180    86488939.60447
  20431018.000   107365827.87808  20431015.440    83661716.66248
  21191622.640   111362732.84008  21191618.000    86776159.95447
 15 01 16 00 34 30.0000000  0  6G12G14G21G25G29G31
  23778627.960   124957714.00008  23778624.440    97369755.73644
  24045430.300   126359569.50306  24045427.980    98462000.73244
  22375499.220   117584158.08808  22375496.420    91624006.27445
  21127790.300   111027347.03109  21127789.180    86514843.26647
  20437895.640   107401968.60708  20437893.000    83689878.26748
  21184240.600   111323940.80908  21184236.320    86745932.39747
 15 01 16 00 35  0.0000000  0  6G12G14G21G25G29G31
  23792416.620   125030172.99608  23792413.140    97426217.24945
  24060537.600   126438961.02906  24060536.260    98523864.09944
  22360685.620   117506311.79808  22360681.940    91563346.82344
  21134168.180   111060861.36109  21134166.740    86540958.31948
  20444830.520   107438410.72508  20444827.840    83718274.72048
  21176954.560   111285653.95308  21176950.840    86716098.47748
 15 01 16 00 35 30.0000000  0  6G12G14G21G25G29G31
  23806230.840   125102765.70408  23806227.680    97482782.96945
  24075658.680   126518424.62706  24075657.880    98585783.65144
  22345926.580   117428751.85208  22345922.160    91502910.51644
  21140595.460   111094635.46909  21140593.580    86567275.79748
  20451820.180   107475140.97708  20451817.500    83746895.67348
  21169762.580   111247862.06308  21169759.720    86686650.26448
 15 01 16 00 36  0.0000000  0  6G12G14G21G25G29G31
  23820071.460   125175496.67908  23820068.360    97539456.45045
  24090793.800   126597960.80607  24090793.340    98647759.76944
  22331223.320   117351484.53808  22331218.420    91442702.23145
  21147072.880   111128673.57109  21147070.760    86593798.99248
  20458865.100   107512161.17509  20458862.420    83775742.58948
  21162665.680   111210570.07508  21162663.680    86657591.59048
 15 01 16 00 36 30.0000000  0  6G12G14G21G25G29G31
  23833937.880   125248363.74808  23833934.700    97596235.96744
  24105942.060   126677564.71908  24105941.820    98709788.66343
  22316575.780   117274510.02308  22316570.780    91382722.09945
  21153600.120   111162974.48509  21153598.080    86620526.96748
  20465964.640   107549467.61809  20465961.680    83804812.53248
  21155664.140   111173778.19208  21155662.680    86628922.60048
 15 01 16 00 37  0.0000000  0  6G12G14G21G25G29G31
  23847830.620   125321369.67508  23847827.380    97653123.71345
  24121103.360   126757236.35908  24121102.720    98771870.40743
  22301984.880   117197832.76308  22301979.900    91322973.59245
  21160177.860   111197541.15509  21160176.040    86647462.02848
  20473118.940   107587061.56109  20473115.520    83834106.52648
  21148758.800   111137490.70308  21148757.540    86600646.64148
 15 01 16 00 37 30.0000000  0  6G12G14G21G25G29G31
  23861749.520   125394513.08108  23861746.320    97710118.56945
  24136276.740   126836971.15408  24136275.280    98834001.34543
  22287450.540   117121453.47408  22287445.740    91263457.29345
  21166806.120   111232372.78309  21166804.520    86674603.54048
  20480327.420   107624940.29309  20480323.500    83863622.42748
  21141949.560   111101707.71108  21141948.280    86572763.79948
 15 01 16 00 38  0.0000000  0  6G12G14G21G25G29G31
  23875694.100   125467792.24108  23875691.240    97767219.20145
  24151461.280   126916764.35908  24151457.580    98896177.87441
  22272972.800   117045372.62308  22272968.460    91204173.54245
  21173484.640   111267468.07009  21173483.200    86701950.51348
  20487589.120   107663099.56709  20487584.740    83893356.92948
  21135236.360   111066428.92108  21135234.980    86545273.85148
 15 01 16 00 38 30.0000000  0  6G12G14G21G25G29G31
  23889665.160   125541212.12108  23889662.700    97824429.49044
  24166657.160   126996617.77007  24166651.060    98958401.27541
  22258553.020   116969597.25308  22258549.320    91145127.82445
  21180214.380   111302832.36409  21180213.020    86729507.10848
  20494904.660   107701543.00509  20494899.960    83923312.85948
  21128620.420   111031660.82608  21128618.820    86518181.83548
 15 01 16 00 39  0.0000000  0  6G12G14G21G25G29G31
  23903662.280   125614769.93908  23903660.240    97881747.30645
  24181863.320   127076525.73207  24181857.480    99020667.13741
  22244190.940   116894126.72507  22244188.000    91086319.68645
  21186994.880   111338463.42809  21186993.600    86757271.56748
  20502273.380   107740266.29209  20502268.540    83953486.83848
  21122101.580   110997402.29108  21122099.640    86491486.87848
 15 01 16 00 39 30.0000000  0  6G12G14G21G25G29G31
  23917685.680   125688465.84008  23917684.200    97939172.66045
  24197079.280   127156485.43507  24197074.360    99082973.29741
  22229887.140   116818963.20607  22229884.920    91027750.76546
  21193826.200   111374361.72409  21193825.080    86785244.23648
  20509694.960   107779267.71809  20509690.320    83983877.55948
  21115680.180   110963655.13608  21115677.900    86465190.41148
 15 01 16 00 40  0.0000000  0  6G12G14G21G25G29G31
  23931735.200   125762297.84808  23931734.320    97996704.08745
  24212304.120   127236491.60207  24212300.240    99145315.57042
  22215641.920   116744106.52708  22215639.920    90969420.89845
  21200707.980   111410525.60409  21200707.040    86813423.86848
  20517168.780   107818543.42209  20517164.280    84014482.01048
  21109356.000   110930418.19808  21109353.300    86439291.49448
 15 01 16 00 40 30.0000000  0  6G12G14G21G25G29G31
  23945812.000   125836272.41207  23945811.460    98054346.57445
  24227538.460   127316547.79807  24227534.640    99207696.90543
  22201456.960   116669565.37508  22201454.960    90911336.94145
  21207641.620   111446962.06209  21207640.900    86841815.90448
  20524695.540   107858098.21308  20524691.400    84045303.92648
  21103130.460   110897700.00108  21103127.340    86413796.80748
 15 01 16 00 41  0.0000000  0  6G12G14G21G25G29G31
  23959915.460   125910387.06708  23959914.940    98112098.23944
  24242781.180   127396648.49906  24242777.740    99270112.86343
  22187332.120   116595339.25208  22187329.820    90853498.42245
  21214626.740   111483669.19909  21214626.240    86870418.84748
  20532274.220   107897927.71108  20532270.700    84076339.89647
  21097003.340   110865499.42109  21096999.860    86388705.44648
 15 01 16 00 41 30.0000000  0  6G12G14G21G25G29G31
  23974045.200   125984638.90308  23974044.600    98169956.83745
  24258031.260   127476787.84706  24258027.140    99332559.01143
  22173267.060   116521426.97608  22173264.500    90795904.44345
  21221662.840   111520644.37509  21221662.520    86899230.66448
  20539904.180   107938028.03808  20539901.600    84107586.88247
  21090974.400   110833814.73709  21090970.440    86364016.08448
 15 01 16 00 42  0.0000000  0  6G12G14G21G25G29G31
  23988205.680   126059052.10208  23988205.300    98227941.13845
  24273292.440   127556987.15906  24273285.300    99395048.84643
  22159266.940   116447854.94808  22159264.020    90738575.60445
  21228754.540   111557912.20709  21228754.400    86928270.53148
  20547590.260   107978421.29408  20547588.200    84139062.13447
  21085048.460   110802671.65209  21085044.100    86339748.74148
 15 01 16 00 42 30.0000000  0  6G12G14G21G25G29G31
  24002377.880   126133527.04008  24002377.500    98285973.54745
  24288545.240   127637143.59106  24288538.860    99457508.25042
  22145313.080   116374525.56808  22145309.940    90681435.82745
  21235883.040   111595373.61509  21235883.000    86957461.22948
  20555313.160   108019006.08808  20555311.100    84170686.67947
  21079206.840   110771972.17609  21079202.180    86315827.06148
 15 01 16 00 43  0.0000000  0  6G12G14G21G25G29G31
  24016590.080   126208211.78808  24016589.480    98344169.43845
  24303817.820   127717402.99406  24303813.120    99520047.86943
  22131434.160   116301589.33608  22131430.760    90624602.41845
  21243076.600   111633177.50708  21243076.720    86986918.78448
  20563100.600   108059929.45308  20563098.480    84202575.01447
  21073477.980   110741866.01509  21073473.040    86292367.68648
 15 01 16 00 43 30.0000000  0  6G12G14G21G25G29G31
  24030826.960   126283025.83108  24030825.980    98402466.09345
  24319094.220   127797680.82907  24319091.060    99582601.92343
  22117614.880   116228966.80308  22117611.220    90568013.44445
  21250319.960   111671243.01409  21250320.160    87016580.19148
  20570936.600   108101108.56308  20570934.660    84234662.63247
  21067846.580   110712273.23909  21067841.600    86269308.38448
 15 01 16 00 44  0.0000000  0  6G12G14G21G25G29G31
  24045090.480   126357980.42008  24045089.120    98460872.29745
  24334375.980   127877986.00307  24334374.040    99645177.25443
  22103857.820   116156671.82708  22103854.280    90511679.69246
  21257615.560   111709582.25209  21257615.880    87046454.90848
  20578823.160   108142552.92608  20578821.380    84266956.93247
  21062315.160   110683206.87809  21062310.400    86246659.26048
 15 01 16 00 44 30.0000000  0  6G12G14G21G25G29G31
  24059378.340   126433063.79908  24059376.900    98519378.83045
  24349660.220   127958303.67607  24349658.760    99707762.32943
  22090160.860   116084694.41508  22090157.600    90455593.44645
  21264961.220   111748183.69309  21264961.620    87076533.95948
  20586757.940   108184249.25408  20586756.060    84299447.57447
  21056881.820   110654656.51509  21056877.400    86224412.22147
 15 01 16 00 45  0.0000000  0  6G12G14G21G25G29G31
  24073692.660   126508286.85708  24073691.400    98577994.17545
  24364948.320   128038641.82207  24364947.100    99770363.33344
  22076526.620   116013047.24608  22076523.620    90399764.50646
  21272359.020   111787058.73809  21272359.460    87106826.19848
  20594742.860   108226206.96309  20594740.240    84332141.90847
  21051549.060   110626634.35109  21051544.900    86202576.76547
 15 01 16 00 45 30.0000000  0  6G12G14G21G25G29G31
  24088032.720   126583644.30008  24088031.440    98636714.23245
  24380238.780   128118992.45006  24380237.640    99832974.06844
  22062954.720   115941727.50208  22062951.840    90344190.70646
  21279808.000   111826202.85609  21279808.440    87137328.09048
  20602776.420   108268419.48309  20602772.780    84365034.80047
  21046316.300   110599136.92309  21046312.180    86181150.18247
 15 01 16 00 46  0.0000000  0  6G12G14G21G25G29G31
  24102399.320   126659140.02808  24102397.680    98695542.07645
  24395531.720   128199356.04406  24395530.480    99895594.88545
  22049446.320   115870740.31808  22049443.180    90288875.99046
  21287308.780   111865619.92309  21287309.160    87168042.67748
  20610858.560   108310887.87909  20610854.000    84398127.07947
  21041184.460   110572168.85109  21041180.160    86160136.09347
 15 01 16 00 46 30.0000000  0  5G12G21G25G29G31
  24116793.220   126734779.60907  24116791.340    98754482.05245
  22036002.900   115800093.70808  22035999.180    90233826.69645
  21294862.680   111905316.21909  21294863.020    87198974.83448
  20618990.080   108353617.34509  20618984.960    84431422.76447
  21036154.740   110545736.95809  21036150.180    86139539.79448
 15 01 16 00 47  0.0000000  0  5G12G21G25G29G31
  24131214.940   126810567.14206  24131213.260    98813537.24845
  22022625.300   115729793.53008  22022621.160    90179047.35945
  21302470.620   111945296.02209  21302470.980    87230127.91248
  20627171.240   108396609.75709  20627166.000    84464923.34747
  21031228.060   110519846.51509  21031223.160    86119365.41347
 15 01 16 00 47 30.0000000  0  5G12G21G25G29G31
  24145660.500   126886480.33607  24145659.220    98872690.35345
  22009309.420   115659819.42708  22009305.420    90124522.10545
  21310128.420   111985537.74109  21310128.820    87261485.09648
  20635397.720   108439841.59908  20635392.700    84498610.47047
  21026400.480   110494477.05609  21026395.260    86099596.98947
 15 01 16 00 48  0.0000000  0  6G12G14G21G25G29G31
  24160124.740   126962490.40108  24160123.740    98931918.99445
  24456718.320   128520933.72206  24456709.400   100146160.72043
  21996050.480   115590145.14808  21996046.820    90070230.48545
  21317830.620   112026013.39809  21317831.100    87293024.56548
  20643663.840   108483282.24709  20643659.240    84532460.33047
  21021666.740   110469601.39209  21021661.340    86080213.36147
 15 01 16 00 48 30.0000000  0  6G12G14G21G25G29G31
  24174624.120   127038684.65307  24174623.300    98991291.10545
  24472015.940   128601328.25306  24472007.240   100208805.74342
  21982865.600   115520859.20008  21982862.340    90016241.45546
  21325593.940   112066810.34609  21325594.500    87324814.36648
  20651986.200   108527017.88709  20651982.080    84566540.05748
  21017043.440   110445307.20009  21017038.100    86061282.81847
 15 01 16 00 49  0.0000000  0  6G12G14G21G25G29G31
  24189149.560   127115017.24006  24189149.000    99050770.97444
  24487312.540   128681718.38506  24487305.460   100271447.25943
  21969746.560   115451917.68308  21969743.380    89962520.78946
  21333409.640   112107882.59209  21333410.300    87356818.70548
  20660355.600   108571000.11409  20660351.920    84600811.94747
  21012522.060   110421549.50808  21012517.020    86042770.32247
 15 01 16 00 49 30.0000000  0  6G12G14G21G25G29G31
  24203701.400   127191489.75407  24203701.020    99110359.84844
  24502608.420   128762103.55606  24502603.260   100334084.96144
  21956694.020   115383324.44108  21956691.080    89909071.53346
  21341278.220   112149232.85009  21341278.960    87389039.67548
  20668772.000   108615228.99108  20668768.660    84635276.01347
  21008103.380   110398332.15208  21008098.880    86024678.87847
 15 01 16 00 50  0.0000000  0  6G12G14G21G25G29G31
  24218279.200   127268095.45408  24218278.380    99170052.67343
  24517901.720   128842474.11906  24517898.580   100396711.23243
  21943706.900   115315074.44908  21943703.920    89855889.73246
  21349198.520   112190854.78509  21349199.320    87421472.33048
  20677233.900   108659697.42208  20677230.980    84669926.74147
  21003786.420   110375649.34608  21003782.580    86007003.96447
 15 01 16 00 50 30.0000000  0  5G12G21G25G29G31
  24232886.520   127344855.27108  24232885.020    99229865.63644
  21930789.540   115247190.96508  21930786.480    89802993.52947
  21357174.720   112232770.18609  21357175.500    87454133.65848
  20685744.920   108704424.40008  20685742.480    84704778.91148
  20999575.360   110353523.26308  20999572.220    85989762.86547
 15 01 16 00 51  0.0000000  0  5G12G21G25G29G31
  24247515.640   127421730.06007  24247513.540    99289768.06945
  21917934.560   115179635.75808  21917931.180    89750353.11947
  21365199.320   112274939.47509  21365199.920    87486992.82848
  20694297.340   108749368.40108  20694295.300    84739800.20248
  20995463.080   110331915.31908  20995460.480    85972925.50247
 15 01 16 00 51 30.0000000  0  5G12G21G25G29G31
  24262169.980   127498740.60006  24262168.120    99349776.19044
  21905146.280   115112431.89208  21905142.580    89697986.48046
  21373276.440   112317384.09509  21373276.740    87520066.52948
  20702894.900   108794549.20408  20702893.160    84775006.01348
  20991453.900   110310847.68808  20991451.560    85956509.15148
 15 01 16 00 52  0.0000000  0  5G12G21G25G29G31
  24276851.740   127575895.70407  24276850.260    99409896.92945
  21892426.740   115045589.97708  21892422.900    89645901.88346
  21381407.760   112360113.42409  21381407.680    87553362.10648
  20711538.940   108839974.20408  20711537.480    84810402.11248
  20987549.720   110290330.58208  20987547.460    85940521.78147
 15 01 16 00 52 30.0000000  0  5G12G21G25G29G31
  24291557.420   127653173.40408  24291555.180    99470113.30944
  21879772.240   114979090.90308  21879768.360    89594084.43746
  21389589.240   112403106.37509  21389588.820    87586863.09548
  20720224.880   108885619.97808  20720223.660    84845970.22848
  20983746.480   110270343.19609  20983744.220    85924947.17548
 15 01 16 00 53  0.0000000  0  5G12G21G25G29G31
  24306289.580   127730589.21809  24306285.720    99530437.36243
  21867185.940   114912951.57908  21867182.200    89542547.32846
  21397823.880   112446378.78309  21397823.080    87620581.84848
  20728955.340   108931500.60508  20728954.320    84881721.37248
  20980047.300   110250902.11309  20980045.040    85909798.26748
 15 01 16 00 53 30.0000000  0  5G12G21G25G29G31
  24321047.660   127808141.45508  24321042.680    99590867.82043
  21854667.940   114847171.57508  21854664.260    89491290.19446
  21406111.260   112489928.86209  21406110.140    87654516.97748
  20737730.020   108977612.47208  20737729.100    84917652.67248
  20976451.940   110232006.52509  20976449.680    85895074.42348
 15 01 16 00 54  0.0000000  0  5G12G21G25G29G31
  24335832.520   127885835.48108  24335828.080    99651408.64444
  21842219.740   114781757.93108  21842216.020    89440318.54946
  21414452.500   112533762.42109  21414451.300    87688672.97648
  20746549.700   109023958.94408  20746548.600    84953766.81248
  20972961.500   110213662.53809  20972959.140    85880780.41248
 15 01 16 00 54 30.0000000  0  5G12G21G25G29G31
  24350644.200   127963672.66406  24350640.560    99712060.92745
  21829842.100   114716714.05008  21829838.500    89389635.01746
  21422848.100   112577881.44709  21422846.900    87723051.42048
  20755414.500   109070540.91308  20755412.920    84990064.46348
  20969576.460   110195872.91909  20969573.940    85866918.36148
 15 01 16 00 55  0.0000000  0  5G12G21G25G29G31
  24365482.260   128041649.03207  24365479.380    99772821.59445
  21817534.640   114652038.65008  21817531.240    89339238.62446
  21431297.420   112622282.99209  21431296.220    87757650.00147
  20764323.040   109117353.01908  20764321.060    85026541.43148
  20966296.340   110178635.15709  20966293.640    85853486.33548
 15 01 16 00 55 30.0000000  0  5G12G21G25G29G31
  24380346.580   128119761.07008  24380343.580    99833688.09045
  21805296.920   114587729.42308  21805293.920    89289127.56046
  21439799.680   112666963.13509  21439798.580    87792465.68548
  20773274.000   109164389.26008  20773271.820    85063193.04548
  20963120.620   110161946.07409  20963117.620    85840481.84848
 15 01 16 00 56  0.0000000  0  5G12G21G25G29G31
  24395232.720   128197986.76608  24395229.380    99894643.14944
  21793125.300   114523766.48708  21793122.440    89239286.33846
  21448350.820   112711900.59908  21448349.880    87827481.88247
  20782262.940   109211626.77608  20782260.820    85100001.49147
  20960045.440   110145785.03709  20960042.000    85827888.84048
 15 01 16 00 56 30.0000000  0  5G12G21G25G29G31
  24410146.880   128276359.79508  24410142.820    99955713.03843
  21781026.460   114460184.84808  21781023.240    89189742.21746
  21456957.380   112757129.55609  21456956.580    87862725.19147
  20791296.180   109259097.97908  20791294.280    85136992.02847
  20957077.280   110130186.42609  20957073.460    85815734.08148
 15 01 16 00 57  0.0000000  0  5G12G21G25G29G31
  24425087.380   128354871.23008  24425078.900   100016890.95841
  21768998.880   114396977.09508  21768995.000    89140489.41046
  21465617.860   112802641.46609  21465617.220    87898189.00347
  20800371.960   109306792.07108  20800370.000    85174156.25047
  20954214.660   110115142.58909  20954210.680    85804011.60648
 15 01 16 00 57 30.0000000  0  5G12G21G25G29G31
  24440053.860   128433519.29704                                
  21757042.480   114334143.81908  21757037.900    89091528.41546
  21474332.060   112848434.96009  21474331.480    87933872.22647
  20809489.800   109354706.07608  20809487.260    85211491.84846
  20951457.360   110100652.38109  20951453.420    85792720.53248
 15 01 16 00 58  0.0000000  0  5G12G21G25G29G31
  24455047.680   128512317.16207  24455045.000   100139306.97344
  21745160.060   114271700.04008  21745155.040    89042870.93546
  21483102.580   112894523.67309  21483101.940    87969785.50947
  20818651.700   109402851.76508  20818648.220    85249008.01146
  20948808.140   110086730.21309  20948804.360    85781872.09048
 15 01 16 00 58 30.0000000  0  5G12G21G25G29G31
  24470068.200   128591252.36408  24470066.280   100200814.88145
  21733349.600   114209635.07808  21733344.360    88994508.63646
  21491927.140   112940895.94209  21491926.340    88005919.73047
  20827854.960   109451215.50908  20827850.620    85286694.05146
  20946264.840   110073364.51609  20946261.220    85771457.26148
 15 01 16 00 59  0.0000000  0  5G12G21G25G29G31
