     2.11           OBSERVATION DATA    G                   RINEX VERSION / TYPE
SPIDER V4,0,0,3554                      2015 04 16 01:33    PGM / RUN BY / DATE 
CABS                                                        MARKER NAME         
CABS                                                        MARKER NUMBER       
                                                            OBSERVER / AGENCY   
462287              LEICA GRX1200PRO    8.10/2.127          REC # / TYPE / VERS 
103298              LEIAT504                                ANT # / TYPE        
  5116912.3402   671231.6412  3737143.4301                  APPROX POSITION XYZ 
        0.0600        0.0000        0.0000                  ANTENNA: DELTA H/E/N
     1     1                                                WAVELENGTH FACT L1/2
     4    C1    L1    P2    L2                              # / TYPES OF OBSERV 
    30.000                                                  INTERVAL            
  2015    02    05    00    00    0.0000000     GPS         TIME OF FIRST OBS   
  2015    02    05    23    59   30.0000000     GPS         TIME OF LAST OBS    
    16                                                      LEAP SECONDS        
    30                                                      # OF SATELLITES     
   G 1   804   804   804   804                              PRN / # OF OBS      
   G 2   941   941   941   941                              PRN / # OF OBS      
   G 3   846   846   846   846                              PRN / # OF OBS      
   G 4   832   832   832   832                              PRN / # OF OBS      
   G 5   645   645   645   645                              PRN / # OF OBS      
   G 6   831   831   831   831                              PRN / # OF OBS      
   G 7   672   672   672   672                              PRN / # OF OBS      
   G 9   806   806   806   806                              PRN / # OF OBS      
   G10   751   751   751   751                              PRN / # OF OBS      
   G11   770   770   770   770                              PRN / # OF OBS      
   G12   829   829   829   829                              PRN / # OF OBS      
   G13   792   792   792   792                              PRN / # OF OBS      
   G14   939   939   939   939                              PRN / # OF OBS      
   G15   700   700   700   700                              PRN / # OF OBS      
   G16   658   658   658   658                              PRN / # OF OBS      
   G17   941   941   941   941                              PRN / # OF OBS      
   G18   897   897   897   897                              PRN / # OF OBS      
   G19   750   750   750   750                              PRN / # OF OBS      
   G20   808   808   808   808                              PRN / # OF OBS      
   G21   742   742   742   742                              PRN / # OF OBS      
   G22   656   656   656   656                              PRN / # OF OBS      
   G23   755   755   755   755                              PRN / # OF OBS      
   G24   814   814   814   814                              PRN / # OF OBS      
   G25   856   856   856   856                              PRN / # OF OBS      
   G27   792   792   792   792                              PRN / # OF OBS      
   G28   869   869   869   869                              PRN / # OF OBS      
   G29   783   783   783   783                              PRN / # OF OBS      
   G30   718   718   718   718                              PRN / # OF OBS      
   G31   870   870   870   870                              PRN / # OF OBS      
   G32   770   770   770   770                              PRN / # OF OBS      
BIT 2 OF LLI FLAGS DATA COLLECTED UNDER A/S CONDITION       COMMENT             
SNR is mapped to RINEX snr flag value [2-9]                 COMMENT             
Lx:     = 25dBHz -> 1; 26-27dBHz -> 2; 28-31dBHz -> 3       COMMENT             
       32-35dBHz -> 4; 36-38dBHz -> 5; 39-41dBHz -> 6       COMMENT             
       42-44dBHz -> 7; 45-48dBHz -> 8; >=49dBHz -> 9        COMMENT             
                                                            END OF HEADER       
 15 02 05 00 00  0.0000000  0  4G21G25G29G31
  21327043.440   112074519.29908  21327044.260    87330871.30948
  21904639.100   115109811.76008  21904643.280    89696043.63948
  21239801.780   111616273.45908  21239803.340    86973879.09848
  21003076.980   110371922.29909  21003077.720    86004099.98249
 15 02 05 00 00 30.0000000  0  4G21G25G29G31
  21318483.940   112029539.08308  21318484.780    87295821.80548
  21916419.120   115171716.16008  21916423.300    89744280.81747
  21250579.860   111672912.18908  21250581.320    87018013.16048
  21006152.200   110388082.59709  21006152.980    86016692.41449
 15 02 05 00 01  0.0000000  0  4G21G25G29G31
  21310009.020   111985003.23008  21310009.880    87261118.55948
  21928257.360   115233926.71708  21928261.600    89792756.56048
  21261390.920   111729724.24908  21261392.280    87062282.29348
  21009337.080   110404819.08909  21009337.840    86029733.83249
 15 02 05 00 01 30.0000000  0  4G21G25G29G31
  21301614.520   111940890.13408  21301615.460    87226744.72948
  21940149.540   115296420.87908  21940153.820    89841453.29147
  21272230.400   111786685.82708  21272231.680    87106667.92848
  21012627.280   110422109.05409  21012628.020    86043206.53049
 15 02 05 00 02  0.0000000  0  4G21G25G29G31
  21293302.680   111897211.18108  21293303.640    87192709.19748
  21952097.660   115359208.77308  21952101.940    89890378.91247
  21283100.060   111843806.27308  21283101.320    87151177.35548
  21016024.640   110439962.22209  21016025.360    86057118.08649
 15 02 05 00 02 30.0000000  0  4G21G25G29G31
  21285073.000   111853963.64508  21285073.900    87159009.83248
  21964100.980   115422286.55808  21964105.160    89939530.41947
  21293998.920   111901080.25308  21294000.160    87195806.41848
  21019528.340   110458374.29809  21019529.020    86071465.15449
 15 02 05 00 03  0.0000000  0  4G21G25G29G31
  21276926.460   111811153.07008  21276927.300    87125650.95748
  21976160.340   115485658.70208  21976164.420    89988911.29247
  21304927.740   111958511.76908  21304929.000    87240558.25048
  21023139.140   110477349.25409  21023139.820    86086250.82349
 15 02 05 00 03 30.0000000  0  4G21G25G29G31
  21268862.640   111768777.06608  21268863.380    87092630.70048
  21988275.100   115549321.98308  21988279.160    90038519.02747
  21315885.740   112016096.59708  21315887.020    87285429.53748
  21026856.360   110496883.50309  21026857.040    86101472.30649
 15 02 05 00 04  0.0000000  0  4G21G25G29G31
  21260880.900   111726832.58608  21260881.580    87059946.70148
  22000444.460   115613272.13108  22000448.540    90088350.29748
  21326871.840   112073829.26808  21326873.180    87330416.02148
  21030679.120   110516972.36609  21030679.800    86117125.95749
 15 02 05 00 04 30.0000000  0  4G21G25G29G31
  21252982.860   111685328.03308  21252983.480    87027605.49048
  22012669.760   115677516.60808  22012673.940    90138410.91048
  21337887.260   112131716.12208  21337888.700    87375522.65048
  21034608.820   110537623.05509  21034609.520    86133217.38949
 15 02 05 00 05  0.0000000  0  4G21G25G29G31
  21245166.680   111644253.93708  21245167.300    86995599.70948
  22024949.040   115742044.99908  22024953.320    90188692.75647
  21348929.860   112189746.04108  21348931.420    87420740.76548
  21038643.340   110558824.56609  21038644.080    86149738.03949
 15 02 05 00 05 30.0000000  0  4G21G25G29G31
  21237434.380   111603620.70208  21237435.020    86963937.45448
  22037284.120   115806866.51508  22037288.460    90239203.01547
  21360001.200   112247926.71208  21360002.860    87466076.35548
  21042784.320   110580585.58209  21042785.100    86166694.66249
 15 02 05 00 06  0.0000000  0  5G16G21G25G29G31
  24570982.340   129121385.56506  24570984.100   100614066.51044
  21229785.820   111563427.54508  21229786.480    86932618.11948
  22049674.760   115871979.39808  22049679.060    90289940.30347
  21371100.880   112306255.82908  21371102.540    87511527.61748
  21047031.360   110602903.79909  21047032.180    86184085.47649
 15 02 05 00 06 30.0000000  0  5G16G21G25G29G31
  24553651.560   129030312.66305  24553653.280   100543100.61745
  21222218.520   111523661.21508  21222219.200    86901631.38548
  22062118.180   115937369.42508  22062122.380    90340893.55347
  21382226.120   112364719.01908  21382227.700    87557083.34148
  21051381.700   110625764.88509  21051382.540    86201899.30649
 15 02 05 00 07  0.0000000  0  5G16G21G25G29G31
  24536319.440   128939231.71606  24536320.860   100472128.50145
  21214736.960   111484345.35708  21214737.660    86870995.67648
  22074618.620   116003059.17108  22074622.740    90392080.35548
  21393380.920   112423337.42108  21393382.420    87602760.00548
  21055839.460   110649190.39809  21055840.260    86220152.95049
 15 02 05 00 07 30.0000000  0  5G16G21G25G29G31
  24518984.220   128848134.27005  24518985.500   100401143.48545
  21207339.480   111445471.23508  21207340.180    86840704.17748
  22087174.180   116069038.97108  22087178.360    90443493.16048
  21404563.200   112482099.97908  21404564.580    87648549.00448
  21060402.720   110673170.36209  21060403.460    86238838.62949
 15 02 05 00 08  0.0000000  0  5G16G21G25G29G31
  24501645.820   128757020.21305  24501647.120   100330145.54944
  21200025.940   111407038.26508  21200026.620    86810756.42148
  22099784.580   116135307.45908  22099788.960    90495130.92747
  21415772.620   112541005.27708  21415773.860    87694449.23248
  21065071.100   110697702.88309  21065071.800    86257954.87349
 15 02 05 00 08 30.0000000  0  5G16G21G25G29G31
  24484304.660   128665891.86005  24484306.080   100259136.47245
  21192796.680   111369048.10008  21192797.320    86781153.70948
  22112449.940   116201865.09008  22112454.500    90546994.00547
  21427008.980   112600052.42908  21427010.160    87740459.99248
  21069844.640   110722787.91109  21069845.300    86277501.64149
 15 02 05 00 09  0.0000000  0  5G16G21G25G29G31
  24466960.300   128574747.04905  24466961.680   100188114.55945
  21185651.340   111331499.07408  21185652.000    86751894.73448
  22125169.880   116268709.26508  22125174.500    90599080.36547
  21438271.620   112659238.08808  21438272.820    87786578.67748
  21074722.720   110748422.26809  21074723.340    86297476.45149
 15 02 05 00 09 30.0000000  0  5G16G21G25G29G31
  24449613.100   128483587.56506  24449614.420   100117081.24444
  21178590.040   111294391.84208  21178590.740    86722980.01248
  22137944.420   116335839.81808  22137948.940    90651389.86847
  21449560.360   112718561.14908  21449561.640    87832804.42248
  21079705.160   110774605.05709  21079705.740    86317878.61549
 15 02 05 00 10  0.0000000  0  5G16G21G25G29G31
  24432263.480   128392415.40306  24432264.780   100046038.01344
  21171613.180   111257728.35008  21171613.900    86694411.07448
  22150773.680   116403257.62208  22150778.040    90703923.20847
  21460875.300   112778021.95408  21460876.660    87879137.50448
  21084792.040   110801336.60509  21084792.620    86338708.38749
 15 02 05 00 10 30.0000000  0  5G16G21G25G29G31
  24414911.440   128301230.03306  24414912.740    99974984.54445
  21164720.540   111221507.39308  21164721.300    86666186.96948
  22163657.240   116470960.69208  22163661.440    90756678.82747
  21472215.860   112837617.76308  21472217.380    87925575.78348
  21089982.860   110828614.45109  21089983.480    86359963.84949
 15 02 05 00 11  0.0000000  0  5G16G21G25G29G31
  24397557.980   128210037.96005  24397559.360    99903925.79844
  21157913.280   111185735.11608  21157914.040    86638312.48448
  22176596.020   116538954.00708  22176600.140    90809660.60847
  21483582.880   112897352.19308  21483584.500    87972122.08448
  21095278.400   110856442.86709  21095279.100    86381648.31749
 15 02 05 00 11 30.0000000  0  5G16G21G25G29G31
  24380202.520   128118834.89606  24380203.960    99832858.51045
  21151190.400   111150406.09808  21151191.120    86610783.39648
  22189588.880   116607231.64708  22189592.980    90862863.94647
  21494975.240   112957219.38808  21494976.880    88018771.83448
  21100677.440   110884815.32609  21100678.260    86403756.71949
 15 02 05 00 12  0.0000000  0  5G16G21G25G29G31
  24362845.740   128027624.39906  24362847.220    99761785.40144
  21144552.420   111115523.45408  21144553.140    86583602.13148
  22202636.200   116675796.01808  22202640.400    90916290.71447
  21506393.180   113017220.64008  21506394.780    88065526.04248
  21106180.320   110913733.47909  21106181.220    86426290.33649
 15 02 05 00 12 30.0000000  0  5G16G21G25G29G31
  24345488.120   127936407.46706  24345489.000    99690708.28445
  21137999.620   111081088.60208  21138000.360    86556769.79748
  22215737.960   116744646.67308  22215742.340    90969940.55847
  21517836.380   113077354.60408  21517837.920    88112383.66648
  21111786.860   110943196.11709  21111787.760    86449248.22349
 15 02 05 00 13  0.0000000  0  5G16G21G25G29G31
  24328128.500   127845181.80606  24328129.440    99619623.34645
  21131531.240   111047097.46408  21131532.040    86530283.21248
  22228893.400   116813779.32908  22228897.920    91023810.14847
  21529303.940   113137616.72108  21529305.460    88159341.14348
  21117496.080   110973198.29609  21117497.000    86472626.53549
 15 02 05 00 13 30.0000000  0  5G16G21G25G29G31
  24310767.820   127753951.05606  24310768.900    99548534.47045
  21125148.000   111013553.55808  21125148.800    86504145.11448
  22242103.120   116883196.58708  22242107.580    91077901.50447
  21540796.120   113198008.64208  21540797.680    88206399.76748
  21123308.440   111003742.13109  21123309.280    86496426.91349
 15 02 05 00 14  0.0000000  0  5G16G21G25G29G31
  24293406.780   127662718.37006  24293407.980    99477444.07745
  21118850.400   110980459.43408  21118851.180    86478357.49148
  22255367.280   116952899.84008  22255371.620    91132215.70247
  21552313.180   113258531.29008  21552314.700    88253560.25848
  21129223.980   111034828.06509  21129224.740    86520649.70349
 15 02 05 00 14 30.0000000  0  5G16G21G25G29G31
  24276045.220   127571483.32905  24276046.620    99406351.84445
  21112638.160   110947814.04208  21112638.960    86452919.54248
  22268685.460   117022887.25408  22268689.680    91186751.32547
  21563854.640   113319182.21408  21563856.140    88300820.71348
  21135242.180   111066453.77709  21135242.940    86545293.10349
 15 02 05 00 15  0.0000000  0  5G16G21G25G29G31
  24258683.480   127480247.13205  24258685.060    99335258.73045
  21106511.400   110915617.63808  21106512.180    86427831.45148
  22282057.600   117093158.37608  22282061.740    91241508.02147
  21575420.220   113379959.81008  21575421.700    88348179.87148
  21141362.800   111098617.82909  21141363.560    86570355.99049
 15 02 05 00 15 30.0000000  0  5G16G21G25G29G31
  24241321.740   127389010.82705  24241323.420    99264165.49945
  21100470.080   110883870.16908  21100470.860    86403093.17448
  22295483.580   117163712.55108  22295487.720    91296485.27347
  21587009.760   113440863.17008  21587011.220    88395637.02648
  21147585.660   111131319.06309  21147586.440    86595837.45749
 15 02 05 00 16  0.0000000  0  5G16G21G25G29G31
  24223960.140   127297775.60306  24223961.800    99193073.11444
  21094514.340   110852572.48608  21094515.080    86378705.38549
  22308963.300   117234549.14208  22308967.560    91351682.60447
  21598623.040   113501891.06608  21598624.460    88443191.22548
  21153910.420   111164555.88609  21153911.260    86621736.27149
 15 02 05 00 16 30.0000000  0  5G16G21G25G29G31
  24206598.680   127206540.78806  24206600.340    99121981.07745
  21088643.920   110821723.29708  21088644.660    86354667.06449
  22322496.500   117305666.60908  22322500.860    91407098.79847
  21610259.560   113563041.27808  21610261.000    88490840.73548
  21160336.640   111198325.94209  21160337.540    86648050.58849
 15 02 05 00 17  0.0000000  0  5G16G21G25G29G31
  24189237.440   127115306.63506  24189239.040    99050889.54445
  21082858.640   110791321.66108  21082859.400    86330977.48849
  22336082.860   117377063.01508  22336087.280    91462732.35647
  21621918.840   113624311.19508  21621920.280    88538583.51948
  21166863.820   111232626.66209  21166864.780    86674778.41849
 15 02 05 00 17 30.0000000  0  5G16G21G25G29G31
  24171877.300   127024078.12606  24171878.860    98979802.39945
  21077159.480   110761372.43808  21077160.260    86307640.44049
  22349723.060   117448741.97808  22349727.380    91518586.07847
  21633601.560   113685704.29508  21633603.040    88586422.28448
  21173492.520   111267460.64509  21173493.500    86701921.76949
 15 02 05 00 18  0.0000000  0  5G16G21G25G29G31
  24154518.200   126932854.79906  24154519.540    98908719.30945
  21071545.940   110731873.12108  21071546.740    86284653.96349
  22363416.460   117520700.93108  22363420.720    91574657.97647
  21645306.960   113747216.86308  21645308.560    88634354.14748
  21180222.080   111302824.56109  21180223.040    86729478.05349
 15 02 05 00 18 30.0000000  0  5G16G21G25G29G31
  24137160.760   126841640.23206  24137161.820    98837643.04145
  21066018.720   110702827.38108  21066019.520    86262020.92749
  22377163.520   117592942.23508  22377167.660    91630949.88847
  21657035.600   113808851.23008  21657037.260    88682380.92248
  21187052.840   111338720.11609  21187053.720    86757448.60749
 15 02 05 00 19  0.0000000  0  5G16G21G25G29G31
  24119804.640   126750432.71206  24119805.600    98766572.23245
  21060577.220   110674232.14008  21060578.020    86239738.92949
  22390963.560   117665462.09708  22390967.600    91687458.85847
  21668786.520   113870602.69508  21668788.180    88730498.93648
  21193983.880   111375142.74009  21193984.680    86785829.85749
 15 02 05 00 19 30.0000000  0  5G16G21G25G29G31
  24102450.540   126659236.07206  24102451.460    98695509.91144
  21055222.000   110646090.32608  21055222.800    86217810.24749
  22404817.020   117738262.77308  22404821.020    91744186.63547
  21680560.160   113932473.63508  21680561.800    88778710.04848
  21201015.400   111412093.60109  21201016.160    86814622.72549
 15 02 05 00 20  0.0000000  0  5G16G21G25G29G31
  24085098.320   126568049.75306  24085099.360    98624455.64945
  21049952.780   110618400.54608  21049953.560    86196233.79949
  22418723.500   117811342.00008  22418727.500    91801131.46647
  21692355.880   113994460.77508  21692357.540    88827011.70648
  21208146.760   111449569.42109  21208147.580    86843824.65949
 15 02 05 00 20 30.0000000  0  5G16G21G25G29G31
  24067747.920   126476873.36106  24067749.120    98553409.13744
  21044769.240   110591160.93808  21044770.020    86175008.13549
  22432682.600   117884697.36308  22432686.700    91858291.46547
  21704173.200   114056561.59208  21704174.920    88875401.94048
  21215377.420   111487567.14009  21215378.300    86873433.26349
 15 02 05 00 21  0.0000000  0  5G16G21G25G29G31
  24050399.900   126385709.42406  24050401.240    98482372.34944
  21039671.680   110564373.14008  21039672.440    86154134.52849
  22446694.500   117958329.68508  22446698.680    91915667.29447
  21716012.280   114118776.33508  21716013.980    88923880.95348
  21222707.400   111526086.62409  21222708.340    86903448.44349
 15 02 05 00 21 30.0000000  0  5G16G21G25G29G31
  24033055.000   126294561.28806  24033056.320    98411347.86745
  21034660.560   110538039.26108  21034661.240    86133614.62949
  22460759.380   118032240.50108  22460763.680    91973260.11147
  21727873.240   114181106.07108  21727874.920    88972449.57548
  21230136.780   111565128.39209  21230137.760    86933870.59449
 15 02 05 00 22  0.0000000  0  5G16G21G25G29G31
  24015714.540   126203436.28506  24015715.920    98340341.42045
  21029737.100   110512166.11308  21029737.720    86113453.73449
  22474878.300   118106435.57108  22474882.720    92031074.43147
  21739757.080   114243555.69608  21739758.700    89021111.62448
  21237666.540   111604697.41209  21237667.480    86964703.58348
 15 02 05 00 22 30.0000000  0  5G16G21G25G29G31
  23998375.900   126112321.14306  23998377.340    98269342.62144
  21024898.620   110486739.52108  21024899.200    86093640.81549
  22489048.340   118180899.72908  22489052.880    92089098.42947
  21751660.900   114306110.31408  21751662.460    89069855.47248
  21245293.560   111644777.60109  21245294.480    86995934.88649
 15 02 05 00 23  0.0000000  0  6G16G18G21G25G29G31
  23981041.120   126021226.18106  23981042.420    98198359.55345
  24475721.400   128620778.41405  24475727.700   100224012.91644
  21020146.840   110461768.50208  21020147.400    86074182.88449
  22503271.100   118255641.32608  22503275.700    92147338.61647
  21763586.180   114368777.69508  21763587.680    89118687.18748
  21253019.320   111685376.30009  21253020.180    87027570.22749
 15 02 05 00 23 30.0000000  0  6G16G18G21G25G29G31
  23963709.960   125930150.64106  23963711.280    98127391.61545
  24460628.500   128541465.95305  24460632.200   100162203.59142
  21015481.200   110437250.28808  21015481.760    86055077.79349
  22517546.100   118330657.46907  22517550.680    92205792.74847
  21775532.340   114431554.80308  21775533.780    89167604.40048
  21260842.980   111726489.64809  21260843.800    87059606.59048
 15 02 05 00 24  0.0000000  0  6G16G18G21G25G29G31
  23946381.900   125839091.48906  23946383.240    98056436.45645
  24445523.100   128462090.11105  24445527.700   100100352.79943
  21010901.060   110413181.58408  21010901.660    86036322.96349
  22531872.440   118405943.35907  22531877.000    92264457.05147
  21787498.380   114494436.38908  21787499.760    89216603.01648
  21268763.440   111768111.95909  21268764.280    87092039.55249
 15 02 05 00 24 30.0000000  0  6G16G18G21G25G29G31
  23929058.540   125748056.78306  23929059.760    97985500.34445
  24430407.560   128382660.77205  24430413.040   100038460.39044
  21006407.780   110389569.40108  21006408.420    86017923.87449
  22546251.440   118481505.45908  22546255.940    92323336.58547
  21799485.400   114557428.25508  21799486.760    89265687.57848
  21276781.760   111810248.65509  21276782.620    87124873.33049
 15 02 05 00 25  0.0000000  0  6G16G18G21G25G29G31
  23911739.120   125657042.38306  23911740.160    97914580.03645
  24415281.600   128303174.94504  24415287.320    99976523.82244
  21002000.020   110366406.66308  21002000.680    85999874.99949
  22560681.920   118557337.65208  22560686.280    92382426.58147
  21811492.260   114620524.32808  21811493.600    89314853.34648
  21284896.620   111852892.55509  21284897.480    87158102.34449
 15 02 05 00 25 30.0000000  0  6G16G18G21G25G29G31
  23894424.680   125566054.36306  23894425.560    97843680.32144
  24400146.320   128223639.62105  24400151.820    99914548.73644
  20997678.940   110343699.50808  20997679.620    85982181.12449
  22575164.500   118633443.81107  22575168.860    92441730.05147
  21823519.560   114683728.20108  21823520.940    89364103.10648
  21293108.620   111896046.72509  21293109.460    87191728.96149
 15 02 05 00 26  0.0000000  0  6G16G18G21G25G29G31
  23877115.000   125475091.37306  23877115.800    97772800.08345
  24385001.760   128144054.41805  24385007.020    99852534.75144
  20993444.120   110321445.66508  20993444.800    85964840.47949
  22589698.520   118709820.46807  22589702.960    92501244.30847
  21835566.480   114747035.77808  21835567.960    89413433.67648
  21301416.820   111939706.43209  21301417.620    87225749.49848
 15 02 05 00 26 30.0000000  0  6G16G18G21G25G29G31
  23859811.240   125384159.81506  23859812.080    97701944.34945
  24369848.880   128064427.31505  24369853.980    99790488.13444
  20989296.320   110299648.89408  20989296.980    85947856.00449
  22604284.800   118786472.55107  22604289.500    92560973.18647
  21847634.040   114810451.98008  21847635.620    89462848.88848
  21309821.940   111983875.67309  21309822.740    87260167.07848
 15 02 05 00 27  0.0000000  0  6G16G18G21G25G29G31
  23842512.080   125293252.21306  23842513.040    97631107.27744
  24354687.060   127984751.51805  24354691.680    99728403.46843
  20985234.000   110278301.27708  20985234.600    85931221.50749
  22618921.600   118863390.18707  22618926.480    92620908.99247
  21859720.400   114873966.68308  21859722.040    89512340.86248
  21318321.960   112028543.64009  21318322.740    87294973.27148
 15 02 05 00 27 30.0000000  0  6G16G18G21G25G29G31
  23825219.080   125202377.02906  23825220.060    97560295.47845
  24339517.700   127905036.65506  24339522.200    99666288.46844
  20981258.500   110257409.83908  20981259.040    85914942.46449
  22633610.160   118940579.77707  22633615.120    92681056.71847
  21871826.780   114937586.05808  21871828.400    89561914.39748
  21326917.860   112073715.53609  21326918.660    87330172.14148
 15 02 05 00 28  0.0000000  0  6G16G18G21G25G29G31
  23807931.940   125111532.82906  23807933.020    97489507.76745
  24324340.920   127825282.12706  24324344.880    99604142.43944
  20977369.200   110236971.47208  20977369.740    85899016.47449
  22648349.820   119018037.77507  22648354.800    92741413.57146
  21883952.440   115001306.34208  21883953.940    89611566.55048
  21335608.780   112119386.71309  21335609.600    87365760.05948
 15 02 05 00 28 30.0000000  0  6G16G18G21G25G29G31
  23790651.260   125020722.36106  23790652.320    97418746.37645
  24309157.320   127745492.56706  24309161.060    99541969.14943
  20973566.440   110216987.85708  20973566.980    85883444.82649
  22663140.920   119095765.41507  22663145.760    92801980.53446
  21896097.420   115065128.27008  21896098.820    89661297.90848
  21344394.780   112165557.51809  21344395.640    87401737.29348
 15 02 05 00 29  0.0000000  0  6G16G18G21G25G29G31
  23773376.920   124929945.23407  23773378.020    97348010.95645
  24293967.140   127665668.25006  24293970.440    99479768.66044
  20969849.780   110197456.66908  20969850.340    85868225.73049
  22677982.940   119173759.85507  22677987.480    92862755.39247
  21908261.260   115129049.37808  21908262.620    89711106.55448
  21353275.140   112212224.08809  21353276.040    87438100.84048
 15 02 05 00 29 30.0000000  0  6G16G18G21G25G29G31
  23756109.640   124839205.11707  23756110.760    97277304.37645
  24278771.060   127585813.83705  24278774.280    99417544.79543
  20966219.620   110178380.20408  20966220.200    85853360.96549
  22692876.120   119252022.67007  22692880.300    92923739.37746
  21920444.120   115193070.64508  21920445.500    89760993.24748
  21362249.860   112259386.37809  21362250.780    87474850.66448
 15 02 05 00 30  0.0000000  0  6G16G18G21G25G29G31
  23738849.480   124748502.12807  23738850.600    97206626.73845
  24263569.520   127505930.79706  24263572.700    99355298.58044
  20962675.760   110159757.14908  20962676.340    85838849.50049
  22707819.900   119330551.87307  22707823.880    92984930.93147
  21932645.620   115257190.05508  21932647.040    89810956.41948
  21371318.400   112307041.78809  21371319.340    87511984.73448
 15 02 05 00 30 30.0000000  0  6G16G18G21G25G29G31
  23721596.740   124657838.09907  23721598.000    97135979.48045
  24248363.020   127426021.97106  24248366.240    99293032.25145
  20959218.380   110141588.62108  20959218.960    85824692.21949
  22722814.260   119409347.30407  22722818.240    93046329.95247
  21944865.780   115321407.67608  21944867.280    89860996.10448
  21380480.600   112355189.34008  21380481.540    87549502.29648
 15 02 05 00 31  0.0000000  0  6G16G18G21G25G29G31
  23704351.880   124567215.53306  23704353.200    97065364.49545
  24233152.220   127346090.89306  24233155.660    99230748.59844
  20955847.520   110123874.63208  20955848.080    85810889.11949
  22737859.240   119488409.26807  22737863.400    93107936.66347
  21957104.620   115385723.47208  21957106.180    89911112.30048
  21389736.160   112403827.65508  21389737.100    87587402.26748
 15 02 05 00 31 30.0000000  0  6G16G18G21G25G29G31
  23687114.640   124476633.28807  23687115.980    96994780.92445
  24217937.160   127266137.33606  24217940.740    99168447.37943
  20952562.600   110106612.18708  20952563.140    85797437.86849
  22752954.200   119567734.24407  22752958.700    93169748.31247
  21969361.460   115450133.71908  21969363.040    89961302.09348
  21399084.220   112452952.26708  21399085.160    87625681.17248
 15 02 05 00 32  0.0000000  0  6G16G18G21G25G29G31
  23669885.740   124386095.01506  23669887.000    96924231.63345
  24202718.820   127186166.34306  24202722.520    99106132.58043
  20949364.140   110089804.23008  20949364.720    85784340.76449
  22768099.620   119647323.88207  22768104.300    93231766.19347
  21981636.560   115514639.97108  21981638.180    90011566.70048
  21408524.940   112502563.64908  21408525.880    87664339.38148
 15 02 05 00 32 30.0000000  0  6G16G18G21G25G29G31
  23652665.300   124295601.49706  23652666.480    96853717.23545
  24187497.420   127106179.30105  24187501.480    99043805.27942
  20946251.840   110073448.89308  20946252.400    85771596.35049
  22783295.160   119727176.50507  22783299.880    93293988.99447
  21993929.620   115579240.65008  21993931.280    90061904.88148
  21418057.780   112552658.99009  21418058.700    87703374.70048
 15 02 05 00 33  0.0000000  0  6G16G18G21G25G29G31
  23635453.480   124205153.32706  23635454.580    96783238.15845
  24172273.480   127026178.66705  24172277.600    98981467.34144
  20943225.620   110057545.78208  20943226.160    85759204.32449
  22798540.560   119807290.80607  22798545.160    93356415.69347
  22006240.340   115643934.01508  22006242.060    90112315.27948
  21427682.280   112603235.80909  21427683.160    87742785.19148
 15 02 05 00 33 30.0000000  0  6G16G18G21G25G29G31
  23618250.780   124114752.83806  23618251.840    96712796.22145
  24157047.420   126946167.20706  24157051.540    98919121.02244
  20940285.640   110042095.87008  20940286.140    85747165.44649
  22813835.820   119887666.83607  22813840.140    93419046.34446
  22018568.840   115708720.45408  22018570.540    90162798.20348
  21437398.200   112654292.89209  21437399.020    87782569.91748
 15 02 05 00 34  0.0000000  0  6G16G18G21G25G29G31
  23601057.440   124024401.24206  23601058.480    96642392.39445
  24141819.700   126866146.83505  24141824.040    98856767.70643
  20937431.620   110027097.79408  20937432.120    85735478.63949
  22829180.540   119968303.37707  22829184.620    93481879.97346
  22030914.780   115773598.53108  22030916.420    90213352.53247
  21447205.020   112705827.90609  21447205.840    87822727.05448
 15 02 05 00 34 30.0000000  0  6G16G18G21G25G29G31
  23583873.800   123934100.79606  23583874.900    96572028.40945
  24126591.040   126786121.85206  24126595.480    98794410.80443
  20934663.700   110012552.45508  20934664.200    85724144.62349
  22844574.640   120049200.55707  22844578.700    93544916.70246
  22043278.260   115838568.32408  22043279.780    90263978.33048
  21457102.620   112757840.05608  21457103.460    87863255.98848
 15 02 05 00 35  0.0000000  0  6G16G18G21G25G29G31
  23566699.780   123843850.67506  23566700.960    96501703.63745
  24111361.640   126706092.02306  24111366.060    98732050.08745
  20931981.540   109998457.79308  20931982.040    85713161.78049
  22860017.620   120130355.27107  22860021.820    93608154.12846
  22055658.660   115903627.25808  22055660.100    90314673.57948
  21467090.120   112810324.65109  21467090.980    87904153.06148
 15 02 05 00 35 30.0000000  0  6G16G18G21G25G29G31
  23549536.080   123753654.89706  23549537.320    96431421.22844
  24096132.340   126626062.35506  24096136.760    98669689.51344
  20929385.380   109984815.31108  20929385.920    85702531.28249
  22875509.920   120211769.17807  22875514.380    93671593.51546
  22068056.220   115968776.63908  22068057.620    90365439.31447
  21477167.660   112863282.38408  21477168.520    87945418.81748
 15 02 05 00 36  0.0000000  0  6G16G18G21G25G29G31
  23532382.420   123663511.61306  23532383.620    96361179.71945
  24080903.140   126546032.01405  24080907.320    98607328.38944
  20926874.660   109971621.61408  20926875.220    85692250.49049
  22891050.840   120293438.03607  22891055.520    93735231.56346
  22080470.140   116034011.96608  22080471.460    90416272.03047
  21487334.100   112916707.55808  21487335.040    87987048.81248
 15 02 05 00 36 30.0000000  0  6G16G18G21G25G29G31
  23515240.060   123573427.91407  23515241.300    96290984.64745
  24065675.200   126466008.97206  24065679.300    98544973.01744
  20924450.240   109958881.43708  20924450.820    85682323.08049
  22906641.320   120375366.63307  22906646.140    93799072.01046
  22092901.440   116099338.89308  22092902.740    90467176.10948
  21497590.240   112970603.95108  21497591.200    88029045.98748
 15 02 05 00 37  0.0000000  0  6G16G18G21G25G29G31
  23498108.120   123483398.78506  23498109.300    96220832.08345
  24050448.240   126385989.50406  24050451.860    98482620.34544
  20922110.960   109946588.34608  20922111.520    85672744.05049
  22922279.980   120457547.61307  22922284.840    93863109.11846
  22105348.680   116164749.67008  22105350.020    90518145.52747
  21507934.440   113024963.20908  21507935.420    88071403.84148
 15 02 05 00 37 30.0000000  0  6G16G18G21G25G29G31
  23480988.020   123393432.22106  23480989.200    96150728.28745
  24035223.520   126305982.05906  24035226.760    98420277.08844
  20919857.940   109934748.34908  20919858.460    85663518.08849
  22937967.640   120539986.17307  22937972.480    93927346.93146
  22117812.820   116230249.61208  22117814.300    90569184.43348
  21518367.440   113079788.98408  21518368.400    88114125.21548
 15 02 05 00 38  0.0000000  0  7G16G18G21G25G27G29G31
  23463880.560   123303532.17506  23463881.820    96080676.33046
  24020002.160   126225992.22206  24020004.920    98357947.53344
  20917691.560   109923363.63008  20917692.020    85654646.88949
  22953704.680   120622684.38507  22953709.460    93991787.07446
  24623057.040   129395032.54605  24623060.500   100827322.96845
  22130294.380   116295840.81008  22130295.900    90620294.45547
  21528889.380   113135081.96508  21528890.300    88157210.64348
 15 02 05 00 38 30.0000000  0  7G16G18G21G25G27G29G31
  23446782.740   123213682.50006  23446784.040    96010663.61745
  24004781.160   126146004.83806  24004783.540    98295619.85744
  20915608.420   109912416.41408  20915608.860    85646116.60149
  22969487.620   120705623.70907  22969492.320    94056415.09646
  24608267.980   129317316.03905  24608271.420   100766764.82544
  22142789.880   116361504.93308  22142791.360    90671461.30447
  21539496.460   113190822.44408  21539497.380    88200644.76848
 15 02 05 00 39  0.0000000  0  7G16G18G21G25G27G29G31
  23429698.400   123123903.72707  23429699.700    95940706.12745
  23989564.560   126066041.15206  23989566.800    98233310.67444
  20913611.900   109901924.62508  20913612.360    85637941.19349
  22985319.820   120788822.10807  22985324.440    94121244.98946
  24593496.460   129239691.58705  24593500.080   100706278.39144
  22155302.660   116427260.05408  22155304.160    90722699.04047
  21550191.900   113247027.19308  21550192.820    88244440.66048
 15 02 05 00 39 30.0000000  0  7G16G18G21G25G27G29G31
  23412626.920   123034192.43407  23412628.200    95870801.22445
  23974351.960   125986099.32206  23974353.940    98171018.46944
  20911701.000   109891883.03808  20911701.520    85630116.58649
  23001200.240   120872273.99207  23001204.720    94186272.39846
  24578741.400   129162154.26705  24578745.400   100645859.86144
  22167831.820   116493101.04508  22167833.300    90774003.69247
  21560974.380   113303689.32908  21560975.300    88288592.96548
 15 02 05 00 40  0.0000000  0  7G16G18G21G25G27G29G31
  23395568.700   122944550.68607  23395569.880    95800950.54645
  23959143.860   125906182.04006  23959145.960    98108745.41244
  20909875.860   109882292.12508  20909876.420    85622643.14949
  23017128.740   120955978.54907  23017132.980    94251496.69146
  24564002.800   129084704.21705  24564007.220   100585509.32045
  22180377.160   116559027.02608  22180378.580    90825374.57047
  21571843.500   113360806.82408  21571844.400    88333100.09048
 15 02 05 00 40 30.0000000  0  6G16G18G21G25G29G31
  23378523.920   122854979.71007  23378524.940    95731154.98845
  23943940.580   125826291.05306  23943942.720    98046492.82244
  20908136.160   109873150.23708  20908136.740    85615519.60649
  23033105.060   121039934.33007  23033109.060    94316916.74646
  22192938.400   116625036.59808  22192939.740    90876810.57647
  21582798.720   113418376.92308  21582799.640    88377959.88948
 15 02 05 00 41  0.0000000  0  7G16G18G21G25G27G29G31
  23361491.620   122765474.36107  23361492.600    95661410.56145
  23928741.780   125746422.59606  23928744.000    97984257.81845
  20906480.620   109864450.53908  20906481.200    85608740.62349
  23049127.820   121124133.96107  23049131.660    94382526.83346
  24534574.840   128930056.63405  24534578.840   100464995.75145
  22205514.160   116691122.47108  22205515.400    90928306.04347
  21593838.380   113476390.86208  21593839.360    88423165.54548
 15 02 05 00 41 30.0000000  0  7G16G18G21G25G27G29G31
  23344474.120   122676047.00507  23344475.100    95591726.90946
  23913549.940   125666590.32206  23913552.120    97922050.99944
  20904911.320   109856203.93008  20904911.880    85602314.70449
  23065198.840   121208587.53407  23065202.720    94448334.77546
  24519885.200   128852864.52505  24519889.640   100404846.18644
  22218106.480   116757295.58008  22218107.700    90979869.49047
  21604964.240   113534857.54808  21604965.220    88468723.98848
 15 02 05 00 42  0.0000000  0  7G16G18G21G25G27G29G31
  23327470.240   122586691.19107  23327471.220    95522099.01645
  23898363.960   125586788.53106  23898366.300    97859867.92444
  20903426.600   109848401.56608  20903427.120    85596234.94849
  23081316.460   121293285.96207  23081320.480    94514333.52446
  24505211.520   128775755.46105  24505216.420   100344761.29545
  22230713.620   116823546.79808  22230714.900    91031493.80547
  21616174.260   113593766.61408  21616175.280    88514627.14048
 15 02 05 00 42 30.0000000  0  7G16G18G21G25G27G29G31
  23310480.560   122497410.25907  23310481.580    95452529.47745
  23883184.780   125507021.49906  23883186.880    97797711.92444
  20902026.560   109841044.17708  20902027.040    85590501.92649
  23097480.800   121378229.86407  23097484.940    94580523.56046
  24490554.140   128698730.85005  24490559.160   100284742.22744
  22243335.740   116889876.80908  22243337.080    91083179.51647
  21627468.320   113653117.21608  21627469.340    88560874.34848
 15 02 05 00 43  0.0000000  0  7G16G18G21G25G27G29G31
  23293505.920   122408208.23107  23293506.980    95383021.42045
  23868013.080   125427293.86906  23868015.160    97735586.62344
  20900711.480   109834133.44308  20900711.980    85585116.94949
  23113692.000   121463420.38707  23113696.300    94646905.77446
  24475913.160   128621792.81905  24475918.320   100224790.60745
  22255973.180   116956287.32808  22255974.600    91134927.97047
  21638846.360   113712909.12808  21638847.360    88607465.43148
 15 02 05 00 43 30.0000000  0  7G16G18G21G25G27G29G31
  23276546.200   122319084.39307  23276547.280    95313574.30845
  23852849.040   125347606.10706  23852851.120    97673492.39244
  20899480.800   109827666.35708  20899481.320    85580077.65949
  23129949.580   121548854.50907  23129954.040    94713477.78746
  24461288.260   128544939.25205  24461293.540   100164904.82544
  22268625.400   117022775.35008  22268626.920    91186736.80447
  21650307.600   113773138.20608  21650308.560    88654397.17248
 15 02 05 00 44  0.0000000  0  7G16G18G21G25G27G29G31
  23259602.080   122230042.45707  23259603.200    95244191.01045
  23837693.400   125267962.79406  23837695.420    97611432.73544
  20898335.020   109821645.45808  20898335.560    85575386.04949
  23146253.700   121634533.59307  23146258.200    94780240.69346
  24446679.860   128468172.43105  24446685.180   100105086.61045
  22281292.720   117089342.48508  22281294.300    91238607.29147
  21661852.020   113833804.51408  21661852.920    88701669.59748
 15 02 05 00 44 30.0000000  0  7G16G18G21G25G27G29G31
  23242673.860   122141084.27607  23242675.080    95174872.97845
  23822546.680   125188367.07906  23822548.940    97549410.23345
  20897274.040   109816070.02308  20897274.580    85571041.56349
  23162604.240   121720456.60207  23162608.780    94847193.66046
  24432087.980   128391492.24005  24432093.280   100045335.89744
  22293975.060   117155988.51608  22293976.640    91290539.24647
  21673479.160   113894905.47808  21673480.020    88749280.72248
 15 02 05 00 45  0.0000000  0  7G16G18G21G25G27G29G31
  23225761.420   122052208.91207  23225762.620    95105619.46945
  23807409.060   125108818.92706  23807411.420    97487424.72844
  20896297.160   109810936.55508  20896297.700    85567041.46449
  23179000.440   121806620.05307  23179004.980    94914333.96946
  24417512.200   128314896.13605  24417517.320    99985650.69944
  22306671.740   117222709.99608  22306673.360    91342529.99647
  21685188.120   113956436.37308  21685188.960    88797226.85448
 15 02 05 00 45 30.0000000  0  7G16G18G21G25G27G29G31
  23208865.340   121963419.39607  23208866.480    95036432.85245
  23792281.240   125029322.09006  23792283.700    97425479.24345
  20895404.540   109806245.94508  20895405.120    85563386.44749
  23195442.500   121893024.23407  23195447.020    94981661.86146
  24402952.760   128238385.36105  24402957.720    99926031.99845
  22319382.880   117289507.31408  22319384.460    91394579.83647
  21696978.580   114018395.75608  21696979.480    88845506.87848
 15 02 05 00 46  0.0000000  0  7G16G18G21G25G27G29G31
  23191986.020   121874717.86607  23191987.100    94967314.79545
  23777163.700   124949879.01306  23777166.080    97363575.62845
  20894596.080   109801997.39808  20894596.680    85560075.89749
  23211930.300   121979668.47807  23211934.780    95049176.83846
  24388409.620   128161960.25005  24388414.280    99866480.04644
  22332108.480   117356380.48908  22332110.000    91446688.78447
  21708850.280   114080781.99708  21708851.240    88894119.52148
 15 02 05 00 46 30.0000000  0  7G16G18G21G25G27G29G31
  23175123.680   121786105.51407  23175124.640    94898266.21745
  23762057.040   124870493.04907  23762059.440    97301716.59245
  20893871.740   109798190.89508  20893872.340    85557109.80149
  23228463.680   122066551.78507  23228468.120    95116878.07546
  24373882.620   128085620.62005  24373887.100    99806994.72744
  22344848.380   117423328.70508  22344849.760    91498856.19947
  21720802.740   114143592.70408  21720803.780    88943062.92148
 15 02 05 00 47  0.0000000  0  7G16G18G21G25G27G29G31
  23158278.660   121697584.28407  23158279.580    94829288.67245
  23746961.780   124791166.46506  23746964.040    97239903.74545
  20893231.340   109794825.48608  20893231.940    85554487.40949
  23245042.420   122153672.92407  23245046.740    95184764.65246
  24359371.840   128009366.32705  24359376.100    99747575.86944
  22357602.440   117490351.25908  22357603.700    91551081.55047
  21732835.520   114206825.44208  21732836.620    88992335.16448
 15 02 05 00 47 30.0000000  0  7G16G18G21G25G27G29G31
  23141451.420   121609156.60407  23141452.300    94760384.00545
  23731878.440   124711902.54306  23731880.600    97178139.74844
  20892674.800   109791900.85108  20892675.400    85552208.47049
  23261666.360   122241031.66707  23261670.580    95252836.38645
  24344877.400   127933198.14305  24344881.520    99688224.10744
  22370370.620   117557448.42408  22370371.860    91603365.03547
  21744948.260   114270478.45408  21744949.380    89041934.89948
 15 02 05 00 48  0.0000000  0  7G16G18G21G25G27G29G31
  23124642.280   121520824.19207  23124643.120    94691553.56945
  23716807.340   124632703.62706  23716809.500    97116426.41445
  20892202.060   109789416.45708  20892202.640    85550272.57549
  23278335.320   122328627.00207  23278339.600    95321092.46446
  24330399.360   127857115.94705  24330403.560    99628939.35645
  22383152.760   117624619.32308  22383154.080    91655705.98447
  21757140.500   114334549.05808  21757141.580    89091860.02548
 15 02 05 00 48 30.0000000  0  7G16G18G21G25G27G29G31
  23107851.620   121432588.73607  23107852.380    94622798.67845
  23701749.100   124553572.60906  23701751.280    97054765.97245
  20891812.940   109787371.55508  20891813.500    85548679.14849
  23295049.120   122416457.94907  23295053.400    95389532.15146
  24315937.680   127781119.76605  24315942.040    99569721.61445
  22395948.860   117691863.54308  22395950.300    91708104.07147
  21769411.860   114399035.07508  21769412.840    89142108.84848
 15 02 05 00 49  0.0000000  0  7G16G18G21G25G27G29G31
  23091079.740   121344452.09607  23091080.440    94554120.78746
  23686704.220   124474512.29006  23686706.460    96993160.60544
  20891507.420   109785766.16008  20891508.000    85547428.20449
  23311807.440   122504523.46707  23311811.880    95458154.60246
  24301492.340   127705209.64105  24301496.960    99510570.95145
  22408758.820   117759180.64908  22408760.380    91760558.93947
  21781761.780   114463934.10908  21781762.700    89192679.50448
 15 02 05 00 49 30.0000000  0  7G16G18G21G25G27G29G31
  23074327.020   121256415.93407  23074327.700    94485521.20946
  23671673.080   124395525.14206  23671675.500    96931612.28445
  20891285.300   109784599.14808  20891285.900    85546518.85449
  23328610.060   122592822.46207  23328614.720    95526958.97746
  24287063.360   127629385.35405  24287068.200    99451487.17546
  22421582.480   117826569.81608  22421584.160    91813069.95647
  21794189.820   114529243.67908  21794190.720    89243570.05348
 15 02 05 00 50  0.0000000  0  7G16G18G21G25G27G29G31
  23057593.560   121168481.32107  23057594.300    94417000.74246
  23656656.240   124316613.05206  23656658.800    96870122.39144
  20891146.260   109783868.50908  20891146.840    85545949.52549
  23345456.780   122681353.19306  23345461.620    95595943.94046
  24272650.600   127553646.29605  24272655.640    99392469.80145
  22434419.740   117894030.04608  22434421.480    91865636.35647
  21806695.360   114594960.59608  21806696.320    89294778.01648
 15 02 05 00 50 30.0000000  0  7G16G18G21G25G27G29G31
  23040879.800   121080649.90107  23040880.660    94348560.68846
  23641654.180   124237778.40006  23641656.980    96808692.85744
  20891090.100   109783573.35408  20891090.620    85545719.54449
  23362347.340   122770114.50506  23362352.360    95665108.55145
  24258254.000   127477992.22505  24258259.160    99333518.63946
  22447270.360   117961560.30008  22447272.080    91918257.31547
  21819277.980   114661082.50808  21819278.980    89346301.56548
 15 02 05 00 51  0.0000000  0  7G16G18G21G25G27G29G31
  23024186.100   120992924.16007  23024187.120    94280202.98046
  23626667.680   124159024.93806  23626670.460    96747326.58545
  20891117.020   109783714.53908  20891117.460    85545829.57149
  23379281.820   122859106.09506  23379286.840    95734452.61846
  24243873.700   127402423.92205  24243878.900    99274634.29445
  22460134.380   118029161.25508  22460136.100    91970933.36947
  21831937.260   114727607.39708  21831938.300    89398139.12748
 15 02 05 00 51 30.0000000  0  7G16G18G21G25G27G29G31
  23007512.720   120905305.40907  23007513.940    94211928.64746
  23611697.080   124080354.76306  23611699.880    96686025.23444
  20891226.680   109784290.67208  20891227.100    85546278.51649
  23396259.960   122948326.58906  23396264.900    95803975.06145
  24229509.620   127326940.94405  24229514.840    99215816.45745
  22473011.620   118096831.72108  22473013.360    92023663.58447
  21844672.700   114794532.46008  21844673.720    89450288.51248
 15 02 05 00 52  0.0000000  0  7G16G18G21G25G27G29G31
  22990859.860   120817794.07307  22990861.160    94143738.02446
  23596742.660   124001768.69006  23596745.240    96624789.42944
  20891418.660   109785299.42108  20891419.040    85547064.55849
  23413281.280   123037773.17007  23413285.860    95873673.65945
  24215161.560   127251541.65905  24215166.660    99157063.81645
  22485901.740   118164569.60408  22485903.500    92076446.32747
  21857483.460   114861853.70508  21857484.540    89502746.60748
 15 02 05 00 52 30.0000000  0  7G16G18G21G25G27G29G31
  22974228.260   120730394.35107  22974229.600    94075634.37046
  23581805.220   123923271.81006  23581807.620    96563623.08044
  20891693.180   109786741.98608  20891693.560    85548188.63949
  23430345.860   123127447.16607  23430350.100    95943549.48345
  24200829.800   127176228.35306  24200834.880    99098378.17645
  22498805.120   118232376.89508  22498806.780    92129283.16347
  21870369.580   114929570.96708  21870370.660    89555513.29048
 15 02 05 00 53  0.0000000  0  7G16G18G21G25G27G29G31
  22957618.000   120643106.46007  22957619.280    94007617.84746
  23566885.160   123844865.85906  23566887.440    96502527.60144
  20892049.820   109788616.30208  20892050.240    85549649.15349
  23447453.240   123217346.10307  23447457.220    96013600.58745
  24186514.260   127100999.53305  24186519.080    99039758.37645
  22511721.360   118300251.45308  22511722.820    92182172.41347
  21883330.300   114997680.36508  21883331.460    89608585.53048
 15 02 05 00 53 30.0000000  0  7G16G18G21G25G27G29G31
  22941029.500   120555933.10907  22941030.740    93939690.58246
  23551983.000   123766553.91206  23551985.160    96441505.36244
  20892488.640   109790922.42108  20892489.060    85551446.13749
  23464603.300   123307469.54407  23464607.180    96083826.62045
  24172215.040   127025855.98605  24172219.580    98981205.03946
  22524650.500   118368193.43108  22524651.720    92235114.19647
  21896365.280   115066179.75308  21896366.460    89661961.66048
 15 02 05 00 54  0.0000000  0  7G16G18G21G25G27G29G31
  22924463.320   120468877.39807  22924464.540    93871854.97146
  23537099.420   123688339.72206  23537101.600    96380559.30445
  20893009.600   109793660.16608  20893010.040    85553579.44949
  23481796.020   123397817.67107  23481799.960    96154227.73245
  24157932.220   126950798.90106  24157936.560    98922719.05145
  22537592.600   118436203.78208  22537593.720    92288109.25047
  21909474.280   115135067.96508  21909475.480    89715640.77248
 15 02 05 00 54 30.0000000  0  7G16G18G21G25G27G29G31
  22907919.640   120381940.27207  22907920.840    93804111.76846
  23522234.860   123610225.15906  23522236.940    96319690.85845
  20893612.520   109796828.50108  20893612.940    85556048.29349
  23499031.040   123488388.67306  23499035.160    96224802.52346
  24143665.600   126875827.51206  24143669.940    98864299.85045
  22550547.440   118504281.24308  22550548.540    92341156.59747
  21922656.680   115204341.93408  21922657.920    89769620.47648
 15 02 05 00 55  0.0000000  0  7G16G18G21G25G27G29G31
  22891399.100   120295124.73507  22891400.320    93736463.30846
  23507389.880   123532214.09706  23507391.940    96258903.07945
  20894297.420   109800427.64308  20894297.840    85558852.82849
  23516308.360   123579182.61606  23516312.800    96295551.00646
  24129415.620   126800942.93606  24129419.920    98805948.28845
  22563515.040   118572426.38008  22563516.240    92394256.67847
  21935912.240   115274000.11508  21935913.440    89823899.55948
 15 02 05 00 55 30.0000000  0  7G16G18G21G25G27G29G31
  22874901.700   120208430.49607  22874902.900    93668909.36246
  23492564.620   123454306.79606  23492566.740    96198196.15545
  20895063.660   109804454.17208  20895064.080    85561990.38349
  23533627.420   123670196.05206  23533632.280    96366470.53646
  24115181.660   126726142.88905  24115186.000    98747662.61345
  22576495.020   118640636.58008  22576496.240    92447407.46547
  21949240.040   115344037.66908  21949241.140    89878474.25748
 15 02 05 00 56  0.0000000  0  7G16G18G21G25G27G29G31
  22858428.080   120121860.60307  22858429.100    93601452.31046
  23477759.780   123376507.28606  23477761.940    96137573.21746
  20895911.300   109808908.57108  20895911.720    85565461.34849
  23550988.320   123761429.02806  23550993.500    96437561.13746
  24100963.920   126651428.51605  24100968.380    98689443.67445
  22589487.500   118708912.61308  22589488.760    92500609.54847
  21962639.820   115414453.50508  21962640.800    89933343.71448
 15 02 05 00 56 30.0000000  0  7G16G18G21G25G27G29G31
  22841978.400   120035416.55707  22841979.320    93534093.31746
  23462975.820   123298818.04006  23462978.160    96077036.20845
  20896840.120   109813789.48008  20896840.540    85569264.66749
  23568390.880   123852880.03506  23568396.140    96508821.63446
  24086762.320   126576799.33005  24086767.000    98631291.12146
  22602492.280   118777253.44008  22602493.580    92553862.12647
  21976110.900   115485244.24008  21976111.800    89988505.30248
 15 02 05 00 57  0.0000000  0  7G16G18G21G25G27G29G31
  22825553.000   119949100.10607  22825553.880    93466833.75547
  23448213.320   123221241.58506  23448215.720    96016587.07345
  20897849.940   109819096.12808  20897850.400    85573399.72649
  23585834.780   123944547.82306  23585840.020    96580251.02546
  24072576.840   126502255.28805  24072581.660    98573204.89646
  22615509.340   118845658.65408  22615510.640    92607164.87847
  21989652.840   115556407.39508  21989653.700    90043957.08848
 15 02 05 00 57 30.0000000  0  7G16G18G21G25G27G29G31
  22809152.160   119862913.22007  22809153.100    93399675.14946
  23433472.660   123143780.30206  23433475.180    95956227.67745
  20898940.560   109824827.42708  20898941.040    85577865.67549
  23603319.820   124036431.20606  23603324.960    96651848.43445
  24058407.580   126427796.31505  24058412.480    98515185.00246
  22628538.500   118914127.57808  22628539.840    92660517.26447
  22003265.000   115627940.13608  22003265.980    90099696.86348
 15 02 05 00 58  0.0000000  0  7G16G18G21G25G27G29G31
  22792776.240   119776857.46607  22792777.280    93332618.72846
  23418754.460   123066436.84506  23418757.100    95895960.11445
  20900111.720   109830982.07408  20900112.240    85582661.50549
  23620845.640   124128528.89206  23620850.560    96723612.83246
  24044254.520   126353422.17605  24044259.480    98457231.19445
  22641579.820   118982660.11408  22641581.180    92713919.21147
  22016946.940   115699839.72008  22016948.120    90155722.49948
 15 02 05 00 58 30.0000000  0  7G16G18G21G25G27G29G31
  22776425.720   119690934.87007  22776426.740    93265666.06346
  23404059.280   122989213.63106  23404061.820    95835786.22845
  20901363.380   109837559.65808  20901363.920    85587786.89249
  23638411.920   124220839.66006  23638416.620    96795543.28245
  24030117.720   126279132.78805  24030122.480    98399343.41646
  22654633.020   119051255.05408  22654634.400    92767369.79747
  22030698.200   115772103.55508  22030699.560    90212031.96048
 15 02 05 00 59  0.0000000  0  7G16G18G21G25G27G29G31
  22760100.860   119605147.00407  22760101.820    93198818.37647
  23389387.600   122912113.21507  23389389.940    95775708.05945
  20902695.080   109844558.14108  20902695.680    85593240.26449
  23656018.340   124313362.02706  23656022.820    96867638.60845
  24015997.000   126204927.82705  24016001.560    98341521.43046
  22667698.100   119119912.29008  22667699.520    92820868.91947
  22044518.220   115844728.48408  22044519.680    90268622.79648
 15 02 05 00 59 30.0000000  0  7G16G18G21G25G27G29G31
  22743802.380   119519497.84507  22743803.280    93132078.77247
  23374740.300   122835140.12507  23374742.380    95715729.08545
  20904107.220   109851979.08608  20904107.840    85599022.81749
  23673665.040   124406096.81506  23673669.520    96939899.44645
  24001892.820   126130809.30406  24001897.200    98283766.79246
  22680775.300   119188633.13208  22680776.760    92874417.61147
  22058407.040   115917714.19508  22058408.440    90325494.76448
 15 02 05 01 00  0.0000000  0  7G16G18G21G25G27G29G31
  22727530.500   119433988.85407  22727531.460    93065448.38547
  23360117.740   122758296.87307  23360119.480    95655851.26045
  20905599.460   109859820.93408  20905600.080    85605133.35649
  23691351.760   124499042.47506  23691356.280    97012324.61745
  23987804.900   126056776.76106  23987809.280    98226079.18045
  22693864.420   119257416.77508  22693865.900    92928015.24047
  22072363.920   115991057.55008  22072365.200    90382645.41048
 15 02 05 01 00 30.0000000  0  7G16G18G21G25G27G29G31
  22711285.460   119348621.38907  22711286.600    92998928.30547
  23345520.100   122681585.07207  23345521.580    95596075.87945
  20907171.460   109868081.85808  20907172.060    85611570.44549
  23709078.280   124592196.87006  23709082.880    97084912.43545
  23973733.160   125982829.19205  23973737.540    98168457.73745
  22706965.200   119326262.01408  22706966.740    92981660.87247
  22086388.140   116064754.67508  22086389.220    90440071.71648
 15 02 05 01 01  0.0000000  0  7G16G18G21G25G27G29G31
  22695067.320   119263394.93707  22695068.540    92932518.10746
  23330947.480   122605005.34507  23330948.840    95536403.42445
  20908822.520   109876758.43608  20908823.120    85618331.41549
  23726844.060   124685556.83206  23726848.500    97157660.42845
  23959677.300   125908964.69706  23959681.560    98110901.03945
  22720077.200   119395166.41807  22720078.820    93035352.59647
  22100478.820   116138801.33008  22100479.740    90497770.38648
 15 02 05 01 01 30.0000000  0  7G16G18G21G25G27G29G31
  22678877.320   119178315.74507  22678878.500    92866222.63947
  23316401.200   122528564.66907  23316402.560    95476839.30445
  20910553.400   109885854.34808  20910554.000    85625419.14949
  23744649.580   124779125.27706  23744653.920    97230570.87445
  23945637.980   125835187.30205  23945642.220    98053412.23146
  22733201.120   119464133.50307  22733202.800    93089093.15547
  22114636.160   116213198.66708  22114637.020    90555742.31148
 15 02 05 01 02  0.0000000  0  7G16G18G21G25G27G29G31
  22662715.220   119093382.93707  22662716.360    92800041.23847
  23301881.200   122452262.56807  23301882.760    95417383.16645
  20912363.300   109895365.44208  20912363.900    85632830.39549
  23762494.060   124872898.11106  23762498.380    97303640.59646
  23931614.680   125761494.14806  23931618.780    97995989.04946
  22746336.440   119533160.39407  22746338.160    93142880.32447
  22128859.140   116287941.09408  22128860.020    90613983.14548
 15 02 05 01 02 30.0000000  0  7G16G18G21G25G27G29G31
  22646581.640   119008600.11507  22646582.740    92733976.71247
  23287388.400   122376103.40407  23287390.160    95358038.40245
  20914252.320   109905292.39608  20914252.960    85640565.69449
  23780377.520   124966875.74406  23780381.900    97376869.87245
  23917607.680   125687886.86105  23917611.620    97938632.76146
  22759483.340   119602248.27907  22759485.160    93196715.02647
  22143147.640   116363027.56608  22143148.580    90672492.06148
 15 02 05 01 03  0.0000000  0  7G16G18G21G25G27G29G31
  22630476.520   118923967.31707  22630477.660    92668029.09347
  23272922.980   122300087.77907  23272924.900    95298805.49145
  20916219.820   109915631.73908  20916220.480    85648622.32949
  23798299.280   125061054.89506  23798303.820    97450256.18646
  23903616.640   125614363.26805  23903620.440    97881341.73346
  22772641.360   119671394.51707  22772643.280    93250595.19147
  22157500.740   116438453.29508  22157501.740    90731265.33648
 15 02 05 01 03 30.0000000  0  7G16G18G21G25G27G29G31
  22614400.820   118839489.11407  22614402.000    92602201.93047
  23258486.020   122224221.15807  23258488.000    95239688.69044
  20918266.160   109926385.32308  20918266.820    85657001.74749
  23816259.680   125155436.83006  23816264.360    97523800.51646
