     2.11           OBSERVATION DATA    G                   RINEX VERSION / TYPE
SPIDER V4,0,0,3554                      2015 03 24 00:02    PGM / RUN BY / DATE 
CJSR                                                        MARKER NAME         
CJSR                                                        MARKER NUMBER       
                                                            OBSERVER / AGENCY   
496548              LEICA GRX1200+GNSS  8.20/4.007          REC # / TYPE / VERS 
10321013            LEIAR25         NONE                    ANT # / TYPE        
  5147913.4740   536355.0963  3716357.4907                  APPROX POSITION XYZ 
        0.0720        0.0000        0.0000                  ANTENNA: DELTA H/E/N
     1     1                                                WAVELENGTH FACT L1/2
     4    C1    L1    P2    L2                              # / TYPES OF OBSERV 
    30.000                                                  INTERVAL            
  2015    02    05    13    15   30.0000000     GPS         TIME OF FIRST OBS   
  2015    02    05    23    59   30.0000000     GPS         TIME OF LAST OBS    
    16                                                      LEAP SECONDS        
    20                                                      # OF SATELLITES     
   G 2   603   603   600   600                              PRN / # OF OBS      
   G 5   521   521   521   521                              PRN / # OF OBS      
   G 6   286   286   283   283                              PRN / # OF OBS      
   G 7   250   250   250   250                              PRN / # OF OBS      
   G 9   169   169   169   169                              PRN / # OF OBS      
   G10   313   313   313   313                              PRN / # OF OBS      
   G12   797   797   797   797                              PRN / # OF OBS      
   G13   746   746   746   746                              PRN / # OF OBS      
   G14   455   454   454   454                              PRN / # OF OBS      
   G15   707   707   707   707                              PRN / # OF OBS      
   G17   441   441   441   441                              PRN / # OF OBS      
   G18   304   304   302   302                              PRN / # OF OBS      
   G20   154   154   154   154                              PRN / # OF OBS      
   G21   206   206   206   206                              PRN / # OF OBS      
   G24   804   804   804   804                              PRN / # OF OBS      
   G25   619   619   619   619                              PRN / # OF OBS      
   G28   573   573   573   573                              PRN / # OF OBS      
   G29   508   508   507   507                              PRN / # OF OBS      
   G30   411   411   411   411                              PRN / # OF OBS      
   G31   317   317   317   317                              PRN / # OF OBS      
BIT 2 OF LLI FLAGS DATA COLLECTED UNDER A/S CONDITION       COMMENT             
SNR is mapped to RINEX snr flag value [2-9]                 COMMENT             
Lx:     = 25dBHz -> 1; 26-27dBHz -> 2; 28-31dBHz -> 3       COMMENT             
       32-35dBHz -> 4; 36-38dBHz -> 5; 39-41dBHz -> 6       COMMENT             
       42-44dBHz -> 7; 45-48dBHz -> 8; >=49dBHz -> 9        COMMENT             
                                                            END OF HEADER       
 15 02 05 13 15 30.0000000  0 10G02G05G06G07G09G10G13G20G28G30
  21787269.160   114492872.83009  21787269.260    89215222.48248
  22388222.620   117650906.55309  22388224.320    91676040.91248
  22888528.560   120280022.80608  22888536.620    93724720.36947
  20884206.380   109747241.89409  20884206.520    85517333.25848
  22467150.440   118065666.49109  22467153.640    91999237.18648
  20280119.900   106572749.64709  20280120.260    83043701.58648
  23944989.600   125831773.96008  23944994.780    98050759.34145
  21857154.400   114860117.12109  21857155.780    89501395.66247
  23887485.440   125529628.69007  23887497.300    97815355.58744
  20284442.580   106595466.75809  20284444.940    83061413.01249
 15 02 05 13 16  0.0000000  0 10G02G05G06G07G09G10G13G20G28G30
  21792017.480   114517825.43809  21792017.560    89234666.01748
  22372539.960   117568493.67909  22372541.600    91611823.18048
  22906659.400   120375300.45108  22906667.400    93798962.48947
  20893059.300   109793764.35809  20893059.460    85553584.53948
  22479051.980   118128209.09109  22479055.080    92047971.66948
  20284766.480   106597168.19909  20284766.940    83062729.04448
  23930718.680   125756779.63509  23930723.480    97992322.34646
  21872569.900   114941125.99709  21872571.360    89564519.38847
  23870413.900   125439918.75307  23870425.720    97745452.43544
  20281905.860   106582135.60009  20281908.120    83051025.13649
 15 02 05 13 16 30.0000000  0 10G02G05G06G07G09G10G13G20G28G30
  21796866.240   114543305.16609  21796866.040    89254520.34148
  22356897.520   117486292.15209  22356899.240    91547770.14248
  22924825.560   120470763.60908  22924833.520    93873349.14747
  20901990.180   109840696.71709  20901990.440    85590155.20848
  22490972.220   118190849.75509  22490975.180    92096782.55947
  20289502.120   106622054.70209  20289502.720    83082121.13448
  23916464.800   125681874.89509  23916469.580    97933955.20246
  21888046.400   115022455.12809  21888047.960    89627892.66147
  23853348.600   125350241.72207  23853360.340    97675574.93444
  20279471.240   106569341.18109  20279473.420    83041055.50849
 15 02 05 13 17  0.0000000  0 10G02G05G06G07G09G10G13G20G28G30
  21801815.240   114569311.81609  21801814.800    89274785.24948
  22341295.860   117404305.28809  22341297.680    91483884.38348
  22943026.680   120566410.36308  22943034.740    93947878.85147
  20910998.800   109888037.85209  20910999.200    85627044.41148
  22502911.260   118253589.40809  22502914.140    92145670.58448
  20294327.080   106647410.22909  20294327.740    83101878.70148
  23902228.120   125607060.96309  23902232.920    97875658.82845
  21903583.820   115104104.53209  21903585.420    89691515.49147
  23836290.300   125260601.64508  23836301.760    97605726.18145
  20277138.900   106557084.39709  20277140.940    83031504.81249
 15 02 05 13 17 30.0000000  0 10G02G05G06G07G09G10G13G20G28G30
  21806864.460   114595845.37809  21806864.140    89295460.69648
  22325735.760   117322536.59109  22325737.500    91420168.61848
  22961262.480   120662238.84808  22961270.720    94022550.17747
  20920085.080   109935787.39309  20920085.640    85664251.85648
  22514869.220   118316429.13809  22514872.220    92194636.57747
  20299241.600   106673236.38009  20299242.240    83122002.98248
  23888008.960   125532339.09309  23888013.600    97817434.18545
  21919182.280   115186074.14609  21919183.780    89755387.84047
  23819239.840   125171002.65708  23819251.020    97535909.41845
  20274909.000   106545366.24309  20274911.080    83022373.82649
 15 02 05 13 18  0.0000000  0 10G02G05G06G07G09G10G13G20G28G30
  21812013.640   114622904.03409  21812013.300    89316545.32448
  22310217.580   117240988.27609  22310219.300    91356624.56648
  22979532.380   120758245.97908  22979540.640    94097360.68548
  20929248.760   109983943.31109  20929249.320    85701775.94348
  22526846.120   118379368.66609  22526849.240    92243680.34948
  20304245.720   106699533.23409  20304246.380    83142494.05048
  23873807.280   125457708.78708  23873811.600    97759280.88245
  21934841.440   115268362.70709  21934842.820    89819508.72147
  23802197.640   125081447.61708  23802208.700    97466126.91145
  20272781.460   106534186.30709  20272783.660    83013662.22949
 15 02 05 13 18 30.0000000  0 10G02G05G06G07G09G10G13G20G28G30
  21817262.200   114650484.43109  21817261.860    89338036.49148
  22294741.400   117159660.72109  22294743.140    91293252.54448
  22997835.300   120854426.88808  22997843.500    94172306.59447
  20938489.100   110032501.70709  20938489.560    85739613.65948
  22538841.520   118442405.95409  22538844.840    92292800.28447
  20309339.100   106726298.98009  20309339.780    83163350.47948
  23859622.620   125383168.61308  23859626.780    97701197.85344
  21950560.720   115350967.00409  21950562.040    89883875.63847
  23785164.100   124991937.98608  23785175.220    97396379.81145
  20270755.880   106523542.38509  20270758.120    83005368.29849
 15 02 05 13 19  0.0000000  0 10G02G05G06G07G09G10G13G20G28G30
  21822609.840   114678585.58609  21822609.320    89359933.46348
  22279307.860   117078556.75309  22279309.560    91230054.73548
  23016170.740   120950778.79908  23016178.880    94247385.75347
  20947805.860   110081461.33509  20947806.240    85777764.02248
  22550855.560   118505541.17409  22550859.100    92341996.51548
  20314521.820   106753533.95809  20314522.480    83184572.55048
  23845455.140   125308718.75708  23845458.860    97643185.17144
  21966339.780   115433885.90109  21966341.080    89948487.68647
  23768139.960   124902476.98508  23768150.840    97326670.59746
  20268832.340   106513434.44809  20268834.600    82997492.02249
 15 02 05 13 19 30.0000000  0 10G02G05G06G07G09G10G13G20G28G30
  21828056.220   114707205.58109  21828055.400    89382234.74548
  22263917.300   116997678.44109  22263918.840    91167032.75348
  23034538.100   121047298.53208  23034546.320    94322595.67347
  20957198.500   110130819.63409  20957198.840    85816225.03348
  22562888.220   118568774.02308  22562891.920    92391268.80947
  20319793.840   106781238.13709  20319794.400    83206160.22248
  23831304.940   125234359.31408  23831308.720    97585243.01044
  21982178.400   115517118.16109  21982179.840    90013343.90947
  23751125.520   124813066.86008  23751136.100    97257001.04046
  20267010.720   106503862.03609  20267013.000    82990033.03949
 15 02 05 13 20  0.0000000  0 10G02G05G06G07G09G10G13G20G28G30
  21833601.600   114736346.31409  21833600.780    89404941.78148
  22248570.620   116917031.13809  22248572.080    91104190.77948
  23052937.380   121143986.23708  23052945.580    94397936.49047
  20966667.280   110180577.62909  20966667.560    85854997.49048
  22574939.980   118632107.45508  22574943.860    92440619.49947
  20325155.740   106809414.82509  20325156.220    83228116.08948
  23817172.360   125160093.43008  23817176.160    97527373.75345
  21998077.020   115600665.90509  21998078.480    90078445.97347
  23734121.900   124723714.39108  23734132.360    97187376.44245
  20265291.540   106494827.88409  20265293.840    82982993.47449
 15 02 05 13 20 30.0000000  0 10G02G05G06G07G09G10G13G20G28G30
  21839244.760   114766001.62209  21839244.140    89428049.76848
  22233267.420   116836612.55009  22233268.700    91041527.01048
  23071367.140   121240834.34708  23071375.340    94473402.30847
  20976211.040   110230729.45409  20976211.280    85894076.82448
  22587010.080   118695536.88708  22587014.080    92490044.95947
  20330606.680   106838059.34509  20330607.100    83250436.49748
  23803056.800   125085916.69908  23803060.560    97469573.97845
  22014034.340   115684522.68909  22014035.840    90143788.84447
  23717128.880   124634418.45808  23717139.260    97117795.89046
  20263673.820   106486327.09409  20263676.140    82976369.52349
 15 02 05 13 21  0.0000000  0 10G02G05G06G07G09G10G13G20G28G30
  21844985.860   114796172.06309  21844985.480    89451559.15748
  22218008.600   116756427.15409  22218009.740    90979044.95748
  23089827.180   121337841.82308  23089835.560    94548992.32047
  20985829.600   110281274.86809  20985829.900    85933462.86148
  22599098.960   118759064.11708  22599102.920    92539546.64347
  20336147.000   106867173.74209  20336147.360    83273123.04248
  23788958.720   125011831.29008  23788962.480    97411845.31546
  22030050.660   115768689.46309  22030052.280    90209373.26147
  23700147.400   124545183.49708  23700157.760    97048262.84146
  20262157.920   106478361.28509  20262160.280    82970162.43249
 15 02 05 13 21 30.0000000  0 10G02G05G06G07G09G10G13G20G28G30
  21850824.440   114826854.27309  21850824.180    89475467.33448
  22202794.240   116676475.56509  22202795.400    90916745.10348
  23108316.740   121435004.03408  23108325.380    94624702.86347
  20995522.240   110332210.03509  20995522.600    85973152.59948
  22611206.260   118822687.43109  22611210.200    92589123.19447
  20341776.480   106896756.60409  20341776.720    83296174.63548
  23774877.500   124937835.43308  23774881.500    97354186.46346
  22046125.420   115853163.29409  22046127.160    90275196.95647
  23683177.780   124456010.61608  23683188.240    96978778.18245
  20260743.420   106470928.32909  20260745.820    82964370.56249
 15 02 05 13 22  0.0000000  0 10G02G05G06G07G09G10G13G20G28G30
  21856760.680   114858049.27209  21856760.440    89499775.09348
  22187625.220   116596762.71509  22187626.460    90854631.27648
  23126835.740   121532320.70408  23126844.380    94700533.72347
  21005289.240   110383536.09509  21005289.620    86013146.92848
  22623332.360   118886409.38909  22623336.080    92638776.60947
  20347495.560   106926810.78609  20347495.880    83319593.47348
  23760813.920   124863931.92509  23760817.960    97296599.52946
  22062258.920   115937945.57209  22062260.800    90341260.97847
  23666221.020   124366905.90907  23666231.560    96909346.64545
  20259430.840   106464030.50409  20259433.100    82958995.65749
 15 02 05 13 22 30.0000000  0 10G02G05G06G07G09G10G13G20G28G30
  21862793.760   114889752.65709  21862793.660    89524478.97448
  22172501.560   116517288.19709  22172502.780    90792703.15848
  23145383.000   121629785.69708  23145391.680    94776480.17247
  21015129.580   110435247.58109  21015130.000    86053441.58548
  22635476.580   118950226.84509  22635480.140    92688504.43147
  20353303.680   106957332.94309  20353304.060    83343376.97148
  23746767.400   124790117.60209  23746771.380    97239082.05646
  22078450.300   116023031.82909  22078452.180    90407561.88747
  23649277.100   124277868.75008  23649287.780    96839967.70844
  20258219.380   106457664.29909  20258221.660    82954035.01949
 15 02 05 13 23  0.0000000  0 10G02G05G06G07G09G10G13G20G28G30
  21868923.880   114921966.07409  21868923.780    89549580.28748
  22157424.400   116438057.82509  22157425.660    90730965.27348
  23163958.640   121727399.64408  23163967.400    94852542.68547
  21025043.720   110487346.62809  21025044.060    86094038.22948
  22647639.660   119014143.28209  22647643.160    92738309.37947
  20359201.580   106988326.68509  20359201.980    83367527.93448
  23732738.460   124716396.27108  23732742.680    97181637.03646
  22094700.080   116108424.64009  22094702.020    90474101.65947
  23632347.620   124188906.77508  23632358.000    96770647.34845
  20257109.660   106451832.82609  20257111.980    82949491.04749
 15 02 05 13 23 30.0000000  0 10G02G05G06G07G09G10G13G20G28G30
  21875149.340   114954680.75109  21875149.240    89575072.17848
  22142392.780   116359066.36009  22142394.160    90669413.54748
  23182560.660   121825152.17408  23182569.380    94928713.19547
  21035029.820   110539823.46209  21035030.000    86134929.23848
  22659820.140   119078151.25809  22659823.540    92788185.65947
  20365187.840   107019784.82509  20365188.200    83392040.75848
  23718725.840   124642760.84508  23718730.140    97124258.92446
  22111006.480   116194114.95109  22111008.480    90540873.23647
  23615431.580   124100015.05708  23615441.620    96701381.71944
  20256100.200   106446528.24309  20256102.520    82945357.62249
 15 02 05 13 24  0.0000000  0 10G02G05G06G07G09G10G13G20G28G30
  21881471.520   114987903.49309  21881471.400    89600959.97148
  22127408.660   116280324.42009  22127410.080    90608056.27548
  23201190.040   121923048.86308  23201198.720    95004996.04147
  21045089.100   110592684.77009  21045089.160    86176119.85548
  22672019.600   119142259.19708  22672023.080    92838139.84347
  20371264.060   107051715.73709  20371264.460    83416921.98848
  23704731.240   124569219.91908  23704735.500    97066954.42345
  22127371.020   116280110.15309  22127372.920    90607882.41547
  23598531.160   124011205.24908  23598541.040    96632179.92645
  20255192.540   106441758.57309  20255194.860    82941641.03349
 15 02 05 13 24 30.0000000  0 10G02G05G06G07G09G10G13G20G28G30
  21887889.260   115021628.52909  21887889.060    89627239.17148
  22112471.880   116201830.79809  22112473.180    90546892.48048
  23219845.520   122021082.69608  23219854.240    95081385.80047
  21055220.380   110645924.45109  21055220.380    86217605.30548
  22684237.200   119206463.09708  22684240.820    92888168.78047
  20377429.540   107084115.51409  20377429.960    83442168.57048
  23690753.980   124495769.81008  23690758.380    97009720.67845
  22143792.560   116366404.96709  22143794.340    90675125.04947
  23581646.120   123922476.27208  23581655.700    96563041.12145
  20254385.880   106437519.33109  20254388.200    82938337.75849
 15 02 05 13 25  0.0000000  0 10G02G05G06G07G09G10G13G20G28G30
  21894401.900   115055852.09209  21894401.600    89653906.83548
  22097582.440   116123586.10309  22097583.700    90485922.66948
  23238526.100   122119248.75508  23238535.040    95157878.53147
  21065422.920   110699538.71409  21065422.860    86259382.63248
  22696472.580   119270760.85208  22696476.380    92938270.87647
  20383683.820   107116982.08509  20383684.300    83467778.88748
  23676793.700   124422408.13308  23676798.200    96952555.84945
  22160270.340   116452995.77009  22160272.220    90742598.31847
  23564776.860   123833829.62708  23564786.160    96493966.43445
  20253679.700   106433807.97509  20253681.960    82935445.82849
 15 02 05 13 25 30.0000000  0 10G02G05G06G07G09G10G13G20G28G30
  21901010.160   115090578.66409  21901009.960    89680966.44048
  22082741.800   116045598.29209  22082743.100    90425153.03248
  23257232.420   122217549.97408  23257241.500    95234476.56448
  21075697.440   110753531.47909  21075697.340    86301454.89648
  22708726.880   119335158.36108  22708730.920    92988450.68647
  20390028.020   107150321.21709  20390028.560    83493757.43048
  23662851.440   124349141.09108  23662855.720    96895464.72144
  22176805.300   116539887.27509  22176807.280    90810305.89247
  23547924.880   123745273.85608  23547934.060    96424962.57745
  20253074.900   106430629.87409  20253077.120    82932969.42249
 15 02 05 13 26  0.0000000  0 10G02G05G06G07G09G10G13G20G28G30
  21907712.040   115125797.73809  21907712.020    89708409.81148
  22067948.880   115967861.30909  22067950.160    90364578.83648
  23275962.280   122315974.82009  23275971.420    95311170.92248
  21086042.040   110807892.59309  21086041.940    86343814.17948
  22720998.540   119399647.00808  22721002.800    93038701.51847
  20396460.500   107184124.42209  20396461.100    83520097.57548
  23648925.700   124275960.39708  23648929.740    96838440.86445
  22193395.620   116627069.66409  22193397.660    90878240.12747
  23531089.160   123656803.58708  23531098.240    96356025.34446
  20252569.780   106427975.85809  20252572.020    82930901.38849
 15 02 05 13 26 30.0000000  0 10G02G05G06G07G09G10G13G20G28G30
  21914509.040   115161516.34909  21914509.100    89736242.43348
  22053205.740   115890386.30809  22053207.140    90304208.78548
  23294716.780   122414529.10609  23294725.900    95387966.15248
  21096457.880   110862628.03009  21096457.860    86386465.13248
  22733289.280   119464235.53808  22733293.700    93089030.16947
  20402982.980   107218400.30709  20402983.640    83546806.04848
  23635017.980   124202874.69608  23635022.140    96781491.05545
  22210042.680   116714550.05009  22210044.700    90946406.56547
  23514271.920   123568430.47808  23514280.800    96287163.81446
  20252166.020   106425854.16409  20252168.280    82929248.14749
 15 02 05 13 27  0.0000000  0 10G02G05G06G07G09G10G13G20G28G30
  21921399.780   115197727.04009  21921399.760    89764458.50748
  22038511.800   115813169.79709  22038513.340    90244040.15548
  23313494.260   122513203.99809  23313503.340    95464855.36648
  21106943.540   110917730.64009  21106943.620    86429402.20948
  22745597.960   119528917.99008  22745602.440    93139432.01247
  20409594.280   107253142.74709  20409594.940    83573878.06548
  23621127.180   124129878.33308  23621131.200    96724610.86445
  22226745.160   116802321.61509  22226747.180    91014799.88847
  23497472.700   123480152.24608  23497481.360    96218376.24045
  20251862.340   106424258.30709  20251864.580    82928004.65049
 15 02 05 13 27 30.0000000  0 10G02G05G06G07G09G10G13G20G28G30
  21928383.600   115234427.37509  21928383.480    89793056.11547
  22023867.480   115736213.70709  22023868.920    90184074.43448
  23332293.980   122611996.04708  23332303.140    95541835.85447
  21117498.520   110973197.75209  21117498.700    86472623.30848
  22757924.540   119593693.90909  22757929.020    93189906.69347
  20416294.300   107288351.35309  20416294.960    83601313.33048
  23607253.420   124056971.26908  23607257.180    96667800.28845
  22243502.640   116890382.31209  22243504.620    91083418.51747
  23480692.000   123391971.73608  23480700.540    96149664.80445
  20251658.500   106423187.15409  20251660.720    82927170.01949
 15 02 05 13 28  0.0000000  0 10G02G05G06G07G09G10G13G20G28G30
  21935460.640   115271617.86308  21935460.540    89822035.65347
  22009273.500   115659522.61509  22009274.900    90124315.21348
  23351115.760   122710904.65908  23351125.080    95618907.19347
  21128122.900   111029029.28009  21128123.120    86516128.36448
  22770269.400   119658565.53008  22770273.740    93240455.95547
  20423083.420   107324028.20209  20423084.020    83629113.45448
  23593397.040   123984155.60308  23593400.720    96611060.91245
  22260315.300   116978733.18209  22260317.400    91152263.25047
  23463930.740   123303893.52408  23463938.980    96081033.08046
  20251554.780   106422642.39609  20251557.060    82926745.56149
 15 02 05 13 28 30.0000000  0 10G02G05G06G07G09G10G13G20G28G30
  21942630.440   115309295.63409  21942630.520    89851394.86748
  21994730.180   115583098.08809  21994731.620    90064763.70748
  23369958.880   122809926.07007  23369968.580    95696066.38247
  21138816.120   111085222.56209  21138816.380    86559915.29848
  22782632.300   119723532.06008  22782636.580    93291079.14747
  20429961.440   107360172.20409  20429962.000    83657277.58748
  23579557.740   123911430.85408  23579561.520    96554392.46345
  22277182.700   117067371.92309  22277185.020    91221332.28047
  23447189.420   123215919.79208  23447197.380    96012482.74145
  20251550.980   106422622.56609  20251553.240    82926730.12549
 15 02 05 13 29  0.0000000  0 10G02G05G06G07G09G10G13G20G28G30
  21949893.300   115347461.99809  21949893.440    89881134.81948
  21980238.700   115506945.50609  21980240.240    90005424.09048
  23388823.340   122909060.23607  23388833.540    95773313.38446
  21149578.440   111141778.92509  21149578.720    86603985.16548
  22795013.720   119788596.33808  22795017.980    93341778.52748
  20436928.920   107396786.24609  20436929.440    83685807.99148
  23565736.220   123838800.02408  23565740.240    96497797.19945
  22294105.200   117156299.76909  22294107.560    91290626.61247
  23430469.180   123128057.20208  23430476.980    95944019.01146
  20251647.420   106423129.82709  20251649.760    82927125.42249
 15 02 05 13 29 30.0000000  0 10G02G05G06G07G09G10G13G20G28G30
  21957247.580   115386108.11209  21957247.740    89911248.59848
  21965798.240   115431060.41309  21965799.800    89946292.90948
  23407707.620   123008297.25608  23407718.020    95850640.53547
  21160408.080   111198689.19409  21160408.400    86648330.79648
  22807412.400   119853751.51308  22807416.660    93392548.71747
  20443984.600   107433863.33509  20443985.000    83714699.20748
  23551931.500   123766256.29008  23551935.440    96441269.77245
  22311081.140   117245508.79109  22311083.620    91360140.02347
  23413769.260   123040301.63308  23413777.020    95875638.66345
  20251842.720   106424156.62709  20251845.140    82927925.54849
 15 02 05 13 30  0.0000000  0 10G02G05G06G07G09G10G13G20G28G30
  21964693.700   115425236.75109  21964693.720    89941738.37048
  21951410.040   115355449.75709  21951411.560    89887375.59248
  23426611.980   123107638.81408  23426622.460    95928049.18647
  21171305.620   111255956.28409  21171305.960    86692954.47848
  22819829.260   119919002.12408  22819833.540    93443393.28647
  20451129.180   107471407.99109  20451129.540    83743954.76048
  23538144.120   123693804.23908  23538147.920    96384813.77844
  22328111.120   117335001.84809  22328113.620    91429874.77247
  23397091.220   122952660.80508  23397099.020    95807347.71745
  20252137.680   106425706.87009  20252140.120    82929133.55349
 15 02 05 13 30 30.0000000  0 10G02G05G06G07G09G10G13G20G28G30
  21972231.180   115464845.45609  21972231.160    89972602.23048
  21937074.420   115280115.39709  21937075.820    89828673.57548
  23445535.720   123207081.46108  23445546.240    96005536.59047
  21182270.460   111313577.06009  21182270.800    86737853.75748
  22832264.200   119984347.64908  22832268.480    93494311.81247
  20458362.400   107509419.06109  20458362.820    83773573.74548
  23524374.120   123621443.88508  23524377.940    96328429.24845
  22345194.840   117424777.27909  22345197.400    91499829.55147
  23380435.720   122865137.23908  23380443.080    95739148.09145
  20252532.040   106427779.28309  20252534.460    82930748.43649
 15 02 05 13 31  0.0000000  0 10G02G05G06G07G09G10G13G20G28G30
  21979858.940   115504928.37609  21979858.820    90003835.60448
  21922791.300   115205056.14609  21922792.340    89770185.90748
  23464477.480   123306618.54908  23464487.840    96083097.57247
  21193301.600   111371546.15509  21193301.880    86783024.45448
  22844716.540   120049784.35508  22844720.760    93545301.38947
  20465683.720   107547892.89109  20465684.180    83803553.33048
  23510620.920   123549171.25108  23510624.820    96272113.05945
  22362331.300   117514829.82908  22362333.920    91570000.26747
  23363802.560   122777730.52508  23363809.400    95671039.50345
  20253024.920   106430369.37209  20253027.320    82932766.70549
 15 02 05 13 31 30.0000000  0 10G02G05G06G07G09G10G13G20G28G30
  21987577.620   115545489.52209  21987577.460    90035441.60948
  21908562.020   115130279.91609  21908562.880    89711918.77848
  23483437.660   123406252.91508  23483448.140    96160734.33747
  21204399.680   111429867.17709  21204399.920    86828469.38248
  22857187.340   120115318.05709  22857191.380    93596366.54447
  20473094.120   107586834.91609  20473094.620    83833897.73948
  23496885.600   123476992.19608  23496889.480    96215869.78546
  22379521.300   117605163.66609  22379523.980    91640390.16347
  23347193.160   122690449.20208  23347199.640    95603028.60045
  20253617.220   106433482.13909  20253619.660    82935192.24749
 15 02 05 13 32  0.0000000  0 10G02G05G06G07G09G10G13G20G28G30
  21995386.040   115586522.54709  21995385.880    90067415.31848
  21894386.180   115055784.83309  21894386.980    89653870.73148
  23502414.900   123505977.14308  23502425.460    96238441.12046
  21215563.420   111488533.39209  21215563.720    86874183.28048
  22869675.640   120180944.16508  22869679.720    93647503.69747
  20480592.780   107626240.40209  20480593.280    83864603.28548
  23483167.120   123404902.22908  23483171.080    96159695.96945
  22396763.760   117695772.96109  22396766.520    91710994.69647
  23330607.380   122603292.04808  23330613.680    95535114.42845
  20254307.940   106437112.26309  20254310.420    82938020.93149
 15 02 05 13 32 30.0000000  0 10G02G05G06G07G09G10G13G20G28G30
  22003284.540   115628029.13009  22003284.400    90099758.01648
  21880264.980   114981577.20809  21880265.760    89596046.67348
  23521409.400   123605792.06908  23521419.960    96316218.58347
  21226793.200   111547546.52609  21226793.580    86920167.52648
  22882182.240   120246666.51609  22882186.320    93698715.84947
  20488180.280   107666112.78109  20488180.820    83895672.65548
  23469466.360   123332905.68108  23469470.580    96103594.94145
  22414059.100   117786660.25209  22414061.880    91781815.84947
  23314046.400   122516265.73108  23314052.760    95467302.19945
  20255097.720   106441262.70809  20255100.220    82941255.05449
 15 02 05 13 33  0.0000000  0 10G02G05G06G07G09G10G13G20G28G30
  22011271.820   115670002.75609  22011271.700    90132464.64547
  21866197.980   114907654.96309  21866198.780    89538444.99348
  23540419.680   123705690.29308  23540430.380    96394060.93246
  21238087.900   111606900.57509  21238088.300    86966417.40048
  22894706.300   120312480.59809  22894710.440    93749999.47847
  20495855.660   107706447.33809  20495856.260    83927102.14548
  23455782.780   123260998.07009  23455786.980    96047563.18446
  22431406.200   117877819.27109  22431408.900    91852848.73447
  23297510.160   122429368.87408  23297516.220    95399590.80045
  20255985.500   106445928.16509  20255988.040    82944890.47849
 15 02 05 13 33 30.0000000  0 10G02G05G06G07G09G10G13G20G28G30
  22019348.000   115712442.94009  22019347.780    90165534.87147
  21852186.020   114834021.91809  21852186.820    89481068.66248
  23559445.480   123805670.57208  23559456.340    96471967.21547
  21249447.440   111666594.78709  21249447.780    87012932.33848
  22907248.140   120378388.11809  22907252.320    93801355.91347
  20503619.280   107747245.28109  20503619.840    83958892.73248
  23442116.440   123189180.94208  23442120.500    95991601.92945
  22448805.080   117969250.28509  22448807.760    91924093.55547
  23280999.400   122342606.46308  23281005.360    95331984.13445
  20256971.500   106451109.46709  20256974.080    82948927.85649
 15 02 05 13 34  0.0000000  0 10G02G05G06G07G09G10G13G20G28G30
  22027512.660   115755348.75209  22027512.420    90198967.89647
  21838229.740   114760681.43709  21838230.500    89423920.29348
  23578486.660   123905731.01708  23578497.660    96549935.94847
  21260871.600   111726628.30009  21260871.880    87059711.67448
  22919807.960   120444390.12309  22919812.140    93852785.96747
  20511471.260   107788507.36509  20511471.760    83991044.97948
  23428467.480   123117455.55208  23428471.480    95935712.17445
  22466255.580   118060952.75609  22466258.240    91995549.90147
  23264514.960   122255982.50008  23264520.920    95264485.35845
  20258055.700   106456806.79809  20258058.260    82953367.33249
 15 02 05 13 34 30.0000000  0 10G02G05G06G07G09G10G13G20G28G30
  22035765.540   115798717.95509  22035765.500    90232762.00047
  21824329.520   114687636.02409  21824330.360    89367001.86148
  23597542.580   124005868.42208  23597553.640    96627964.66247
  21272359.820   111786998.78009  21272360.080    87106753.57848
  22932385.680   120510486.29909  22932389.940    93904289.39447
  20519411.500   107830233.00409  20519411.960    84023558.44348
  23414836.100   123045822.02208  23414839.860    95879893.97245
  22483757.480   118152925.11808  22483760.140    92067216.55647
  23248057.560   122169499.85308  23248063.620    95197096.65746
  20259237.860   106463018.91009  20259240.400    82958207.94749
 15 02 05 13 35  0.0000000  0 10G02G05G06G07G09G10G13G20G28G30
  22044105.520   115842545.27909  22044105.660    90266913.06448
  21810485.220   114614884.72709  21810486.280    89310312.60248
  23616612.060   124106076.70308  23616623.040    96706048.57947
  21283911.080   111847700.81709  21283911.360    87154053.83848
  22944980.760   120576673.54109  22944984.960    93955863.79347
  20527439.340   107872418.91209  20527439.720    84056430.55748
  23401221.520   122974277.06308  23401225.040    95824144.80145
  22501309.740   118245162.32508  22501312.400    92139089.57447
  23231627.100   122083158.28008  23231633.200    95129817.86846
  20260517.160   106469741.78209  20260519.740    82963446.55249
 15 02 05 13 35 30.0000000  0 10G02G05G06G07G09G10G13G20G28G30
  22052533.080   115886833.08909  22052533.520    90301422.93548
  21796698.260   114542434.75909  21796699.500    89253858.14948
  23635695.300   124206357.64108  23635706.420    96784189.10347
  21295525.940   111908737.41009  21295526.280    87201614.78248
  22957594.100   120642956.51809  22957598.240    94007512.78647
  20535555.520   107915069.12709  20535555.920    84089664.46648
  23387624.460   122902825.58608  23387628.180    95768468.50946
  22518912.900   118337667.73108  22518915.680    92211171.56747
  23215224.960   121996965.58808  23215230.800    95062655.06746
  20261894.380   106476979.15309  20261896.900    82969086.06749
 15 02 05 13 36  0.0000000  0 10G02G05G06G07G09G10G13G20G28G30
  22061047.840   115931578.13709  22061048.300    90336289.12248
  21782968.720   114470286.99509  21782970.140    89197639.18848
  23654791.500   124306706.98408  23654802.760    96862382.92147
  21307203.640   111970104.58209  21307204.140    87249433.33548
  22970225.360   120709333.87209  22970229.500    94059235.31847
  20543759.720   107958181.96909  20543760.080    84123258.87048
  23374044.880   122831466.11108  23374048.920    95712863.92946
  22536566.520   118430438.55908  22536569.600    92283460.37847
  23198851.340   121910923.44708  23198857.120    94995609.57046
  20263369.080   106484728.70909  20263371.680    82975124.69249
 15 02 05 13 36 30.0000000  0 10G02G05G06G07G09G10G13G20G28G30
  22069648.720   115976775.63309  22069649.260    90371507.84648
  21769296.760   114398441.40309  21769298.260    89141655.67548
  23673899.720   124407119.35608  23673911.040    96940625.82447
  21318943.440   112031797.98609  21318944.060    87297506.08148
  22982874.080   120775803.16309  22982878.140    94111029.49947
  20552051.340   108001754.52909  20552051.640    84157211.48748
  23360482.540   122760196.66108  23360486.580    95657329.46846
  22554270.040   118523470.82409  22554273.220    92355952.90547
  23182506.360   121825032.81908  23182512.400    94928682.13045
  20264940.580   106492987.01809  20264943.160    82981559.75149
 15 02 05 13 37  0.0000000  0 10G02G05G06G07G09G10G13G20G28G30
  22078335.220   116022423.13109  22078335.740    90407077.23248
  21755682.680   114326899.90709  21755684.320    89085909.11348
  23693019.280   124507591.53308  23693030.700    97018915.34247
  21330744.940   112093815.42709  21330745.640    87345831.31248
  22995540.180   120842364.14908  22995544.200    94162895.12647
  20560430.220   108045786.01909  20560430.560    84191521.71348
  23346937.440   122689017.04208  23346941.240    95601864.96346
  22572023.060   118616762.68409  22572026.260    92428647.70347
  23166190.740   121739295.99408  23166196.780    94861874.51446
  20266608.680   106501752.79309  20266611.180    82988390.22949
 15 02 05 13 37 30.0000000  0 10G02G05G06G07G09G10G13G20G28G30
  22087107.420   116068520.88809  22087108.000    90442997.44848
  21742127.440   114255667.62609  21742129.180    89030403.50648
  23712150.120   124608123.02308  23712161.620    97097251.08946
  21342608.200   112156157.21309  21342609.000    87394409.29948
  23008224.080   120909019.24208  23008228.260    94214834.06647
  20568896.740   108090278.57109  20568897.240    84226191.20748
  23333409.720   122617929.26408  23333413.980    95546472.08446
  22589825.600   118710314.69809  22589828.820    92501545.22947
  23149905.640   121653719.02308  23149911.660    94795191.44345
  20268373.600   106511027.47109  20268376.080    82995617.26349
 15 02 05 13 38  0.0000000  0 10G02G05G06G07G09G10G13G20G28G30
  22095964.700   116115065.37809  22095965.160    90479265.79048
  21728631.200   114184745.33809  21728633.000    88975139.44648
  23731291.440   124708709.78008  23731302.980    97175629.89646
  21354532.580   112218819.95309  21354533.380    87443237.36948
  23020925.660   120975767.25508  23020929.900    94266845.40847
  20577450.660   108135230.46709  20577451.260    84261218.63248
  23319899.440   122546932.67808  23319903.520    95491150.20645
  22607677.180   118804124.16509  22607680.220    92574643.36347
  23133651.480   121568303.38008  23133657.460    94728634.08446
  20270234.920   106520808.80309  20270237.440    83003239.09849
 15 02 05 13 38 30.0000000  0 10G02G05G06G07G09G10G13G20G28G30
  22104906.520   116162054.36009  22104906.940    90515880.48548
  21715194.360   114114135.43209  21715196.320    88920118.80348
  23750442.640   124809348.44108  23750454.200    97254049.15746
  21366517.600   112281801.34309  21366518.340    87492313.76148
  23033644.860   121042607.85908  23033649.280    94318928.90847
  20586091.860   108180640.74209  20586092.460    84296603.24148
  23306406.580   122476027.17308  23306409.880    95435899.25945
  22625577.400   118898189.55808  22625580.460    92647940.91647
  23117428.460   121483051.74608  23117434.460    94662204.54246
  20272192.460   106531095.35309  20272194.900    83011254.61049
 15 02 05 13 39  0.0000000  0 10G02G05G06G07G09G10G13G20G28G30
  22113932.500   116209485.95609  22113933.000    90552840.05948
  21701817.560   114043840.54809  21701819.640    88865343.63448
  23769603.280   124910036.49508  23769614.960    97332506.87546
  21378562.900   112345099.46709  21378563.580    87541636.93348
  23046381.780   121109541.38708  23046386.440    94371084.81847
  20594820.360   108226509.38809  20594820.940    84332345.02048
  23292931.080   122405212.99808  23292934.240    95380719.49945
  22643526.080   118992509.44609  22643528.980    92721436.78247
  23101237.500   121397967.66408  23101243.100    94595905.52845
  20274246.060   106541886.41109  20274248.380    83019663.23749
 15 02 05 13 39 30.0000000  0 10G02G05G06G07G09G10G13G20G28G30
  22123041.680   116257354.92009  22123042.240    90590140.43648
  21688500.860   113973860.72809  21688502.900    88810813.96048
  23788772.380   125010768.74908  23788784.000    97410999.02446
  21390667.760   112408710.24709  21390668.340    87591203.74648
  23059136.120   121176565.52808  23059140.880    94423311.34247
  20603635.520   108272833.61609  20603636.240    84368441.79348
  23279472.480   122334487.86408  23279475.420    95325609.11045
  22661522.480   119087079.73708  22661525.220    92795127.76647
  23085078.560   121313051.91409  23085083.860    94529737.70546
  20276394.900   106553178.56309  20276397.200    83028462.33949
 15 02 05 13 40  0.0000000  0 10G02G05G06G07G09G10G13G20G28G30
  22132233.960   116305660.99809  22132234.780    90627781.40948
  21675244.940   113904199.83909  21675246.760    88756532.82348
  23807949.660   125111543.73108  23807961.220    97489524.47045
  21402831.920   112472632.52209  21402832.380    87641013.28948
  23071908.080   121243681.76908  23071912.720    94475609.62346
  20612537.520   108319614.11209  20612538.340    84404894.09748
  23266031.160   122263853.49208  23266034.020    95270569.47545
  22679566.360   119181900.21809  22679569.140    92869013.68747
  23068952.380   121228308.87509  23068957.500    94463704.48246
  20278639.100   106564972.13109  20278641.420    83037652.15349
 15 02 05 13 40 30.0000000  0 10G02G05G06G07G09G10G13G20G28G30
  22141509.100   116354402.15309  22141509.940    90665761.41748
  21662050.160   113834860.51609  21662051.780    88702502.25348
  23827134.640   125212358.90908  23827146.180    97568081.23046
  21415055.060   112536864.80809  21415055.420    87691064.39448
  23084697.640   121310890.45208  23084702.040    94527979.93547
  20621526.360   108366850.61709  20621527.200    84441701.73648
  23252607.220   122193310.47709  23252610.300    95215601.02446
  22697657.580   119276969.74009  22697660.500    92943093.67846
  23052859.780   121143742.01209  23052864.480    94397808.51046
  20280978.560   106577266.33909  20280980.860    83047232.06949
 15 02 05 13 41  0.0000000  0 10G02G05G06G07G09G10G13G20G28G30
  22150867.000   116403577.48209  22150867.740    90704079.73548
  21648917.300   113765846.74209  21648918.820    88648725.36248
  23846326.920   125313212.91608  23846338.600    97646668.22946
  21427336.980   112601406.40709  21427337.300    87741356.52948
  23097505.100   121378193.14108  23097509.440    94580423.50747
  20630602.200   108414544.29409  20630603.040    84478865.60648
  23239201.020   122122860.21509  23239204.120    95160704.85446
  22715796.240   119372288.37408  22715799.320    93017367.77347
  23036801.520   121059355.78809  23036806.020    94332053.32446
  20283413.340   106590061.57509  20283415.640    83057202.40249
 15 02 05 13 41 30.0000000  0 10G02G05G06G07G09G10G13G20G28G30
  22160306.840   116453183.16009  22160307.560    90742733.39948
  21635846.500   113697159.30809  21635848.000    88595202.76948
  23865525.740   125414101.36008  23865537.600    97725282.04646
  21439677.020   112666253.78709  21439677.380    87791886.91748
  23110330.160   121445588.32508  23110334.440    94632939.15947
  20639764.540   108462692.69509  20639765.320    84516383.80348
  23225812.160   122052501.42608  23225815.160    95105879.95246
  22733981.680   119467852.69908  22733984.780    93091833.32547
  23020777.880   120975151.95009  23020782.160    94266440.28646
  20285942.920   106603355.15709  20285945.360    83067561.04949
 15 02 05 13 42  0.0000000  0 10G02G05G06G07G09G10G13G20G28G30
  22169828.240   116503216.85709  22169828.820    90781720.57048
  21622838.220   113628800.71909  21622839.760    88541936.39548
  23884730.540   125515021.37908  23884742.640    97803920.47546
  21452074.800   112731404.80709  21452075.200    87842653.91448
  23123172.780   121513076.06008  23123177.040    94685526.91947
  20649013.320   108511295.34909  20649014.140    84554255.97048
  23212440.620   121982234.11308  23212443.500    95051126.34545
  22752213.600   119563661.25809  22752216.580    93166489.19247
  23004789.500   120891133.39808  23004793.440    94200971.60146
  20288567.200   106617145.93609  20288569.680    83078307.12549
 15 02 05 13 42 30.0000000  0 10G02G05G06G07G09G10G13G20G28G30
  22179430.520   116553675.55809  22179430.840    90821038.93248
  21609892.740   113560772.15109  21609894.300    88488927.18948
  23903940.660   125615969.06808  23903952.960    97882580.44946
  21464529.720   112796856.41609  21464530.240    87893655.12848
  23136032.760   121580655.35908  23136037.020    94738186.04747
  20658348.260   108560350.81609  20658349.160    84592480.96548
  23199086.460   121912057.54709  23199089.160    94996443.40545
  22770491.580   119659711.73208  22770494.500    93241333.57247
  22988836.560   120807302.10808  22988840.620    94135648.87446
  20291285.640   106631431.68209  20291288.200    83089438.89149
 15 02 05 13 43  0.0000000  0 10G02G05G06G07G09G10G13G20G28G30
  22189113.520   116604558.63409  22189113.680    90860687.97047
  21597010.980   113493078.63409  21597012.540    88436179.05348
  23923155.960   125716944.04608  23923168.660    97961261.67946
  21477041.840   112862609.07509  21477042.580    87944890.94248
  23148910.600   121648328.76808  23148914.940    94790918.49846
  20667769.740   108609860.98509  20667770.740    84631060.27548
  23185749.980   121841974.32308  23185752.620    94941833.22246
  22788815.580   119756004.34009  22788818.640    93316366.61346
  22972920.300   120723663.66008  22972924.440    94070476.40646
  20294098.520   106646213.70809  20294101.100    83100957.35949
 15 02 05 13 43 30.0000000  0 10G02G05G06G07G09G10G13G20G28G30
  22198876.660   116655863.61409  22198876.680    90900665.75347
  21584193.260   113425721.64409  21584194.840    88383693.15048
  23942375.820   125817942.85908  23942388.640    98039961.44546
  21489610.800   112928660.20209  21489611.720    87996359.31148
  23161806.100   121716095.67108  23161810.780    94843723.79547
  20677277.520   108659824.46209  20677278.440    84669992.80348
  23172431.000   121771983.90108  23172433.740    94887295.35346
  22807185.300   119852537.12608  22807188.360    93391586.81446
  22957041.160   120640220.22908  22957045.380    94005455.90446
  20297005.440   106661490.18309  20297008.020    83112861.09649
 15 02 05 13 44  0.0000000  0 10G02G05G06G07G09G10G13G20G28G30
  22208719.400   116707587.40909  22208719.500    90940969.90347
  21571439.960   113358703.01009  21571441.560    88331470.90648
  23961599.580   125918961.92708  23961612.460    98118676.96746
  21502236.000   112995006.35409  21502237.040    88048057.57348
  23174719.220   121783955.35508  23174724.260    94896601.37747
  20686871.380   108710239.81709  20686872.180    84709277.46048
  23159129.580   121702085.75208  23159132.520    94832829.39446
  22825600.180   119949307.43508  22825603.380    93466992.09047
  22941199.700   120556974.47108  22941203.900    93940589.42646
  20300006.100   106677259.06709  20300008.720    83125148.54049
 15 02 05 13 44 30.0000000  0 10G02G05G06G07G09G10G13G20G28G30
  22218640.540   116759723.62209  22218640.800    90981595.41147
  21558750.920   113292021.79209  21558752.500    88279511.57848
  23980825.980   126019994.99408  23980839.060    98197403.40446
  21514916.440   113061642.36409  21514917.560    88099981.68948
  23187649.440   121851904.50608  23187654.720    94949548.68747
  20696550.420   108761102.92909  20696551.160    84748911.01348
  23145845.040   121632276.47108  23145848.120    94778432.72446
  22844059.380   120046310.48208  22844062.560    93542578.73446
  22925395.820   120473925.98709  22925399.880    93875876.65846
  20303099.620   106693515.78809  20303102.280    83137816.12349
 15 02 05 13 45  0.0000000  0 10G02G05G06G07G09G10G13G20G28G30
  22228640.500   116812273.65609  22228640.900    91022543.37147
  21546127.200   113225683.60109  21546128.720    88227819.53748
  24000055.200   126121042.76808  24000068.320    98276141.29246
  21527652.400   113128569.69909  21527653.460    88152132.81548
  23200597.380   121919946.68708  23200602.860    95002568.46847
  20706315.220   108812416.69309  20706316.000    84788895.72548
  23132578.420   121562559.99409  23132581.340    94724108.31746
  22862563.160   120143547.87208  22862566.280    93618347.97146
  22909630.640   120391081.28608  22909634.660    93811322.67946
  20306286.420   106710262.60609  20306289.100    83150865.58949
 15 02 05 13 45 30.0000000  0 10G02G05G06G07G09G10G13G20G28G30
  22238718.700   116865234.97309  22238719.100    91063811.83347
  21533569.240   113159690.92109  21533570.680    88176396.72448
  24019286.640   126222102.23707  24019299.900    98354888.29346
  21540443.340   113195786.12709  21540444.400    88204509.20548
  23213563.020   121988081.78208  23213568.640    95055660.65647
  20716165.620   108864180.33409  20716166.380    84829230.99548
  23119329.420   121492936.22108  23119332.080    94669856.16346
  22881111.220   120241018.04108  22881114.400    93694298.59346
  22893904.740   120308442.90509  22893908.760    93746929.46146
  20309566.280   106727498.08109  20309568.920    83164295.82249
 15 02 05 13 46  0.0000000  0 10G02G05G06G07G09G10G13G20G28G30
  22248874.220   116918602.49409  22248874.680    91105396.82447
  21521076.880   113094043.09409  21521078.280    88125242.64148
  24038519.220   126323167.70407  24038532.540    98433639.94046
  21553288.240   113263286.49109  21553289.340    88257106.83548
  23226545.860   122056306.98808  23226551.580    95108823.06247
  20726100.900   108916390.21809  20726101.620    84869913.98748
  23106097.540   121423402.29809  23106100.200    94615674.01545
  22899702.580   120338715.94208  22899705.900    93770426.66646
  22878218.220   120226011.55109  22878222.380    93682697.55346
  20312938.300   106745217.99509  20312940.900    83178103.55149
 15 02 05 13 46 30.0000000  0 10G02G05G06G07G09G10G13G20G28G30
  22259107.300   116972377.20309  22259107.700    91147299.09947
  21508651.340   113028746.14109  21508652.520    88074361.95448
  24057753.140   126424240.03007  24057766.600    98512396.91945
  21566187.480   113331072.50409  21566188.560    88309927.02848
  23239546.600   122124625.93608  23239552.280    95162058.51147
  20736121.640   108969049.12609  20736122.280    84910946.86748
  23092883.500   121353962.15708  23092886.040    94561564.95746
  22918337.800   120436643.98009  22918341.200    93846734.06846
  22862572.320   120143793.50209  22862576.680    93618631.84346
  20316402.980   106763424.77809  20316405.580    83192290.64849
 15 02 05 13 47  0.0000000  0 10G02G05G06G07G09G10G13G20G28G30
  22269416.600   117026552.07609  22269417.020    91189513.18347
  21496292.220   112963798.18009  21496293.240    88023753.20948
  24076987.140   126525312.06108  24077000.640    98591153.64946
  21579139.880   113399137.84409  21579140.940    88362964.91648
  23252564.460   122193034.46408  23252570.040    95215363.75547
  20746226.780   109022151.82409  20746227.400    84952325.56048
  23079686.480   121284611.62208  23079688.880    94507525.72746
  22937015.680   120534796.16608  22937019.040    93923216.11546
  22846966.920   120061787.59709  22846971.280    93554731.43246
  20319959.200   106782112.73809  20319961.760    83206852.68949
 15 02 05 13 47 30.0000000  0 10G02G05G06G07G09G10G13G20G28G30
  22279802.360   117081128.59409  22279802.600    91232040.23147
  21484000.600   112899205.25809  21484001.520    87973421.12248
  24096221.260   126626384.81207  24096234.800    98669910.93746
  21592145.760   113467483.96809  21592146.800    88416221.57748
  23265600.100   122261536.48708  23265605.700    95268741.85947
  20756416.980   109075701.59209  20756417.580    84994052.61548
  23066507.220   121215354.75808  23066509.860    94453559.49946
  22955736.480   120633174.58708  22955739.820    93999874.45346
  22831403.200   119980000.48209  22831407.460    93491001.49646
  20323607.480   106801284.43909  20323610.020    83221791.67749
 15 02 05 13 48  0.0000000  0 10G02G05G06G07G09G10G13G20G28G30
  22290264.180   117136105.02809  22290264.480    91274878.90047
  21471777.080   112834970.43409  21471777.900    87923368.06848
  24115455.060   126727456.01507  24115468.820    98748667.01945
  21605204.900   113536109.65209  21605205.860    88469696.06248
  23278653.620   122330132.52508  23278659.100    95322193.21947
  20766692.200   109129698.24509  20766692.900    85036127.89748
  23053345.840   121146192.07809  23053348.660    94399666.64346
  22974500.200   120731778.03408  22974503.600    94076708.13346
  22815881.800   119898435.84409  22815885.740    93427444.90946
  20327347.660   106820939.00209  20327350.180    83237106.92149
 15 02 05 13 48 30.0000000  0 10G02G05G06G07G09G10G13G20G28G30
  22300800.060   117191471.11409  22300800.400    91318021.18547
  21459620.680   112771088.83309  21459621.520    87873590.26148
  24134686.640   126828515.61507  24134700.620    98827414.05946
  21618315.420   113605005.26209  21618316.280    88523380.90848
  23291723.780   122398815.40208  23291729.160    95375712.25847
  20777050.880   109184133.63409  20777051.740    85078545.06048
  23040201.160   121077116.52609  23040203.900    94345841.65046
  22993304.920   120830597.51508  22993308.620    94153710.14046
  22800401.960   119817089.32409  22800405.540    93364058.27346
  20331178.080   106841067.83509  20331180.600    83252791.73249
 15 02 05 13 49  0.0000000  0 10G02G05G06G07G09G10G13G20G28G30
  22311410.920   117247231.71809  22311411.480    91361470.88048
  21447533.100   112707569.66409  21447534.140    87824094.86248
  24153916.860   126929568.15307  24153931.000    98906155.56146
  21631478.300   113674176.04809  21631479.140    88577280.15448
  23304811.980   122467592.49708  23304817.100    95429304.69947
  20787494.300   109239014.44409  20787495.340    85121309.29348
  23027074.400   121008135.46708  23027076.960    94292090.29645
  23012151.880   120929638.75808  23012155.840    94230884.92846
  22784965.680   119735971.80809  22784969.100    93300850.08546
  20335099.880   106861676.86009  20335102.320    83268850.71249
 15 02 05 13 49 30.0000000  0 10G02G05G06G07G09G10G13G20G28G30
  22322096.000   117303382.49709  22322096.980    91405224.57747
  21435514.640   112644413.49109  21435515.840    87774882.32348
  24173144.860   127030608.73207  24173159.140    98984887.71245
  21644692.760   113743617.83709  21644693.660    88631390.57748
  23317917.760   122536461.75508  23317922.600    95482968.97047
  20798021.860   109294337.33209  20798022.980    85164418.00648
  23013965.280   120939247.16208  23013967.780    94238411.19646
  23031040.320   121028897.73908  23031044.380    94308229.39246
  22769572.960   119655083.75408  22769576.400    93237820.69046
  20339112.320   106882762.54509  20339114.820    83285281.12649
 15 02 05 13 50  0.0000000  0 10G02G05G06G07G09G10G13G20G28G30
  22332854.800   117359920.81708  22332856.060    91449280.27148
  21423565.860   112581622.59909  21423567.020    87725954.42148
  24192370.080   127131634.57707  24192384.580    99063608.39646
  21657958.400   113813328.59109  21657959.340    88685710.59748
  23331040.980   122605423.30708  23331045.620    95536705.15647
  20808633.460   109350101.56409  20808634.540    85207870.63248
  23000873.720   120870451.62209  23000876.420    94184804.41346
  23049969.940   121128372.78108  23049973.940    94385742.20746
  22754224.560   119574428.23209  22754228.140    93174972.48546
  20343215.160   106904323.52409  20343217.660    83302081.90649
 15 02 05 13 50 30.0000000  0 10G02G05G06G07G09G10G13G20G28G30
  22343686.640   117416842.12109  22343687.880    91493634.41547
  21411686.820   112519197.58109  21411687.860    87677311.60348
  24211591.660   127232641.01707  24211606.340    99142313.94345
  21671274.480   113883304.49909  21671275.420    88740237.22148
  23344181.300   122674475.20808  23344185.780    95590511.75547
  20819328.600   109406304.60209  20819329.680    85251665.17248
  22987799.560   120801747.17809  22987802.340    94131268.60146
  23068940.060   121228060.22008  23068943.960    94463420.52646
  22738920.460   119494006.22008  22738924.220    93112306.24746
  20347407.880   106926356.45909  20347410.340    83319250.44149
 15 02 05 13 51  0.0000000  0 10G02G05G06G07G09G10G13G20G28G30
  22354591.440   117474146.34309  22354592.580    91538286.90147
  21399878.320   112457143.12709  21399879.260    87628957.54248
  24230809.400   127333627.93506  24230823.980    99221004.26045
  21684640.980   113953545.59109  21684641.940    88794970.50148
  23357339.340   122743620.24208  23357343.800    95644390.91047
  20830107.540   109462948.10109  20830108.600    85295802.93548
  22974743.360   120733136.64409  22974746.000    94077805.94446
  23087950.760   121327961.19008  23087954.780    94541265.21746
  22723661.800   119413823.31509  22723665.780    93049826.32946
  20351690.660   106948862.55709  20351693.080    83336787.67649
 15 02 05 13 51 30.0000000  0 10G02G05G06G07G09G10G13G20G28G30
  22365568.860   117531832.57009  22365569.980    91583237.05047
  21388141.220   112395463.55609  21388142.020    87580895.59048
  24250023.160   127434594.44806  24250037.960    99299678.69944
  21698058.000   114024052.19209  21698058.940    88849910.66848
  23370515.340   122812860.36108  23370519.920    95698344.16347
  20840970.500   109520033.00209  20840971.500    85340284.64848
  22961705.340   120664622.23308  22961708.060    94024418.19946
  23107002.160   121428075.56708  23107006.100    94619276.20946
  22708449.680   119333884.49109  22708453.640    92987536.58446
  20356063.620   106971842.26209  20356065.880    83354693.95649
 15 02 05 13 52  0.0000000  0 10G02G05G06G07G09G10G13G20G28G30
  22376617.540   117589893.31009  22376618.700    91628479.04647
  21376474.820   112334155.66909  21376475.460    87533123.26448
  24269231.600   127535532.27306  24269246.440    99378330.74944
  21711524.080   114094816.62909  21711524.980    88905051.75048
  23383708.320   122882190.12008  23383713.120    95752367.26447
  20851916.240   109577553.07309  20851917.220    85385105.45748
  22948684.660   120596198.49209  22948687.200    93971101.08246
  23126092.760   121528396.08608  23126096.540    94697447.82946
  22693283.720   119254187.27409  22693287.440    92925435.10746
  20360525.360   106995288.61409  20360527.580    83372963.85849
 15 02 05 13 52 30.0000000  0 10G02G05G06G07G09G10G13G20G28G30
  22387737.640   117648329.65709  22387738.860    91674013.72047
  21364880.320   112273226.02609  21364880.840    87485645.66948
  24288434.860   127636442.79006  24288449.860    99456961.54944
  21725039.520   114165840.59309  21725040.360    88960395.07048
  23396919.100   122951613.68408  23396924.100    95806463.44847
  20862945.320   109635511.33709  20862946.340    85430267.70848
  22935681.960   120527869.88509  22935684.360    93917858.10246
  23145223.020   121628925.11709  23145226.780    94775781.92546
  22678165.080   119174738.63709  22678168.500    92863527.31146
  20365076.380   107019204.20709  20365078.560    83391599.39749
 15 02 05 13 53  0.0000000  0 10G02G05G06G07G09G10G13G20G28G30
  22398928.200   117707135.86609  22398929.500    91719836.56047
  21353357.540   112212673.63709  21353358.020    87438462.03748
  24307631.700   127737320.19305  24307647.320    99535566.56844
  21738603.320   114237118.94309  21738604.160    89015936.60148
  23410147.160   123021128.05608  23410152.380    95860630.40447
  20874057.020   109693903.77009  20874058.040    85475768.27748
  22922696.860   120459633.17109  22922699.380    93864686.73146
  23164391.980   121729657.81208  23164395.900    94854274.69546
  22663093.740   119095538.52309  22663096.880    92801813.15847
  20369715.840   107043584.51609  20369717.960    83410597.05449
 15 02 05 13 53 30.0000000  0 10G02G05G06G07G09G10G13G20G28G30
  22410188.940   117766310.54509  22410189.860    91765946.55447
  21341907.080   112152502.08109  21341907.680    87391575.15248
  24326822.020   127838163.00504  24326837.740    99614144.51744
  21752215.420   114308651.06609  21752216.300    89071675.89948
  23423392.640   123090734.62408  23423398.280    95914869.15747
  20885251.440   109752730.86509  20885252.380    85521607.53748
  22909729.620   120391490.05408  22909732.080    93811588.28646
  23183599.720   121830593.80308  23183603.820    94932925.89246
  22648070.360   119016591.15109  22648073.600    92740295.96047
  20374443.620   107068429.32509  20374445.820    83429956.65849
 15 02 05 13 54  0.0000000  0  9G02G05G07G09G10G13G20G28G30
  22421518.480   117825846.71009  22421519.280    91812338.22547
  21330528.740   112092709.55209  21330529.580    87344983.61648
  21765874.600   114380430.72309  21765875.540    89127608.07948
  23436654.960   123160429.23208  23436660.840    95969176.54447
  20896527.500   109811987.12609  20896528.420    85567781.20848
  22896779.420   120323436.59809  22896781.740    93758559.72646
  23202845.040   121931727.30208  23202849.220    95011730.97646
  22633094.760   118937895.28708  22633098.220    92678974.74747
  20379258.620   107093732.88009  20379260.880    83449673.73149
 15 02 05 13 54 30.0000000  0  9G02G05G07G09G10G13G20G28G30
  22432917.640   117885748.82509  22432918.560    91859015.02447
  21319224.240   112033305.07509  21319225.300    87298694.46148
  21779581.820   114452462.83909  21779582.740    89183736.98048
  23449935.440   123230218.81208  23449941.380    96023557.92047
  20907886.440   109871678.65909  20907887.360    85614294.05848
  22883847.600   120255479.66509  22883849.720    93705606.35146
  23222128.820   122033062.98908  23222133.020    95090693.60546
  22618168.780   118859460.70309  22618172.300    92617857.12546
  20384162.000   107119500.57409  20384164.220    83469752.45749
 15 02 05 13 55  0.0000000  0  9G02G05G07G09G10G13G20G28G30
  22444384.980   117946009.14209  22444385.720    91905970.97647
  21307993.300   111974286.12909  21307994.380    87252705.71348
  21793335.660   114524740.19509  21793336.620    89240056.97148
  23463233.200   123300098.64708  23463239.240    96078009.63347
  20919327.040   109931799.50209  20919328.060    85661141.42948
