     2.11           OBSERVATION DATA    G                   RINEX VERSION / TYPE
SPIDER V4,0,0,3554                      2015 03 19 00:10    PGM / RUN BY / DATE 
ABKD                                                        MARKER NAME         
ABKD                                                        MARKER NUMBER       
                                                            OBSERVER / AGENCY   
496503              LEICA GRX1200+GNSS  8.20/4.007          REC # / TYPE / VERS 
10301028            LEIAR25         NONE                    ANT # / TYPE        
  5126847.8297   206786.8373  3776118.0908                  APPROX POSITION XYZ 
        0.0000        0.0000        0.0000                  ANTENNA: DELTA H/E/N
     1     1                                                WAVELENGTH FACT L1/2
     4    C1    L1    P2    L2                              # / TYPES OF OBSERV 
    30.000                                                  INTERVAL            
  2015    03    03    00    00    0.0000000     GPS         TIME OF FIRST OBS   
  2015    03    03    23    59   30.0000000     GPS         TIME OF LAST OBS    
    16                                                      LEAP SECONDS        
    30                                                      # OF SATELLITES     
   G 1   822   822   822   822                              PRN / # OF OBS      
   G 2   930   930   930   930                              PRN / # OF OBS      
   G 3   827   826   826   826                              PRN / # OF OBS      
   G 4   836   836   835   835                              PRN / # OF OBS      
   G 5   665   665   665   665                              PRN / # OF OBS      
   G 6   736   736   736   736                              PRN / # OF OBS      
   G 7   700   700   700   700                              PRN / # OF OBS      
   G 9   784   784   783   783                              PRN / # OF OBS      
   G10   773   773   773   773                              PRN / # OF OBS      
   G11   787   787   787   787                              PRN / # OF OBS      
   G12   808   808   808   808                              PRN / # OF OBS      
   G13   810   810   810   810                              PRN / # OF OBS      
   G14   936   936   936   936                              PRN / # OF OBS      
   G15   724   724   724   724                              PRN / # OF OBS      
   G16   684   684   684   684                              PRN / # OF OBS      
   G17   933   933   933   933                              PRN / # OF OBS      
   G18   934   933   933   933                              PRN / # OF OBS      
   G19   773   773   773   773                              PRN / # OF OBS      
   G20   785   785   785   785                              PRN / # OF OBS      
   G21   707   707   707   707                              PRN / # OF OBS      
   G22   791   791   790   790                              PRN / # OF OBS      
   G23   717   716   716   716                              PRN / # OF OBS      
   G24   826   821   819   818                              PRN / # OF OBS      
   G25   846   846   845   845                              PRN / # OF OBS      
   G27   821   821   820   820                              PRN / # OF OBS      
   G28   910   909   909   909                              PRN / # OF OBS      
   G29   731   731   729   729                              PRN / # OF OBS      
   G30   687   687   687   687                              PRN / # OF OBS      
   G31   791   791   790   790                              PRN / # OF OBS      
   G32   735   735   733   733                              PRN / # OF OBS      
BIT 2 OF LLI FLAGS DATA COLLECTED UNDER A/S CONDITION       COMMENT             
SNR is mapped to RINEX snr flag value [2-9]                 COMMENT             
Lx:     = 25dBHz -> 1; 26-27dBHz -> 2; 28-31dBHz -> 3       COMMENT             
       32-35dBHz -> 4; 36-38dBHz -> 5; 39-41dBHz -> 6       COMMENT             
       42-44dBHz -> 7; 45-48dBHz -> 8; >=49dBHz -> 9        COMMENT             
                                                            END OF HEADER       
 15 03 03 00 00  0.0000000  0  6G16G18G21G22G27G31
  21239768.840   111615766.47409  21239765.280    86973323.18248
  22494635.740   118210306.20609  22494632.480    92111917.60647
  21551049.080   113251851.18708  21551044.800    88248361.79048
  23619370.580   124120823.25308  23619368.940    96717600.80746
  22384716.960   117632533.75609  22384716.000    91661729.63148
  23412099.740   123031431.45708  23412098.300    95868649.10646
 15 03 03 00 00 30.0000000  0  6G16G18G21G22G27G31
  21228425.620   111556158.03609  21228422.160    86926875.05748
  22484408.240   118156560.38609  22484405.020    92070037.77946
  21559945.560   113298602.53908  21559941.340    88284791.42148
  23601793.820   124028459.54808  23601792.020    96645629.64846
  22373167.480   117571840.81308  22373166.620    91614436.44748
  23430481.300   123128025.72208  23430479.900    95943917.10546
 15 03 03 00 01  0.0000000  0  6G16G18G21G22G27G31
  21217145.020   111496878.47509  21217141.620    86880683.19748
  22474244.980   118103152.23609  22474241.840    92028421.06946
  21568898.120   113345648.97908  21568893.960    88321450.98548
  23584228.240   123936154.37008  23584226.440    96573704.07446
  22361641.240   117511270.20509  22361640.560    91567238.59548
  23448882.340   123224723.39808  23448881.260    96019265.66746
 15 03 03 00 01 30.0000000  0  6G16G18G21G22G27G31
  21205927.780   111437931.52309  21205924.440    86834750.51148
  22464146.680   118050085.57109  22464143.620    91987070.43847
  21577906.640   113392989.71008  21577902.580    88358339.85648
  23566674.580   123843911.86508  23566672.980    96501827.30746
  22350138.580   117450823.46109  22350137.960    91520137.25048
  23467302.700   123321523.10608  23467301.880    96094693.72346
 15 03 03 00 02  0.0000000  0  6G16G18G21G22G27G31
  21194775.300   111379324.94509  21194772.000    86789083.05448
  22454114.940   117997368.44009  22454111.800    91945992.18347
  21586972.140   113440629.45509  21586968.060    88395461.73348
  23549134.460   123751740.43208  23549133.220    96430005.91546
  22338660.540   117390506.34209  22338659.800    91473136.93148
  23485743.060   123418427.41608  23485742.320    96170203.28846
 15 03 03 00 02 30.0000000  0  6G16G18G21G22G27G31
  21183687.200   111321056.26809  21183683.800    86743678.89248
  22444149.160   117944997.58909  22444145.840    91905183.76146
  21596093.280   113488561.32709  21596089.180    88432811.24848
  23531607.460   123659637.91608  23531606.420    96358238.19246
  22327206.260   117330314.07008  22327205.300    91426233.88048
  23504201.860   123515428.33208  23504201.180    96245788.13446
 15 03 03 00 03  0.0000000  0  6G16G18G21G22G27G31
  21172663.660   111263126.91409  21172660.160    86698539.13248
  22434249.740   117892975.39509  22434246.280    91864647.00646
  21605269.680   113536783.47409  21605265.540    88470386.94748
  23514094.020   123567606.91108  23514092.940    96286526.16646
  22315775.780   117270246.65309  22315774.740    91379428.10947
  23522678.520   123612523.15208  23522678.000    96321446.13146
 15 03 03 00 03 30.0000000  0  7G16G18G19G21G22G27G31
  21161704.580   111205536.43109  21161701.000    86653663.43748
  22424416.500   117841301.38809  22424413.060    91824381.56547
  24538261.620   128949422.99008  24538257.500   100480062.52945
  21614500.280   113585290.43609  21614496.060    88508184.59048
  23496594.340   123475647.31908  23496593.000    96214869.76346
  22304368.580   117210301.34409  22304367.600    91332717.49548
  23541172.060   123709706.24908  23541171.660    96397172.92546
 15 03 03 00 04  0.0000000  0  7G16G18G19G21G22G27G31
  21150808.940   111148279.39609  21150805.340    86609047.57048
  22414648.360   117789969.75509  22414644.960    91784382.90847
  24522874.960   128868568.29207  24522872.060   100417058.92946
  21623783.400   113634073.40609  21623779.100    88546197.29848
  23479107.500   123383754.08208  23479105.540    96143265.07846
  22292983.200   117150470.47609  22292982.340    91286096.06848
  23559680.300   123806966.61708  23559680.040    96472959.93346
 15 03 03 00 04 30.0000000  0  7G16G18G19G21G22G27G31
  21139982.200   111091384.55609  21139978.640    86564713.92448
  22404950.860   117739009.38509  22404947.380    91744673.55347
  24507507.000   128787811.08507  24507504.800   100354131.29946
  21633123.760   113683157.20608  21633119.380    88584444.40448
  23461639.060   123291956.65808  23461636.400    96071734.99246
  22281624.620   117090780.88009  22281623.800    91239584.70148
  23578207.900   123904328.17008  23578207.660    96548825.75746
 15 03 03 00 05  0.0000000  0  7G16G18G19G21G22G27G31
  21129221.200   111034835.14909  21129217.680    86520649.45548
  22395320.900   117688403.84309  22395317.360    91705240.67746
  24492154.180   128707132.34908  24492152.020   100291264.78845
  21642517.340   113732520.91708  21642512.980    88622909.63448
  23444185.800   123200238.85308  23444182.600    96000266.95546
  22270289.260   117031213.80509  22270288.420    91193168.81848
  23596750.700   124001769.11608  23596750.300    96624753.45446
 15 03 03 00 05 30.0000000  0  7G16G18G19G21G22G27G31
  21118526.400   110978633.73209  21118522.940    86476856.14548
  22385758.860   117638155.48009  22385755.420    91666086.14446
  24476816.600   128626533.06607  24476814.200   100228460.19545
  21651964.140   113782164.31009  21651959.860    88661592.79948
  23426748.200   123108603.93309  23426744.740    95928863.47646
  22258977.360   116971769.96309  22258976.540    91146848.95848
  23615308.240   124099287.28708  23615307.600    96700741.30546
 15 03 03 00 06  0.0000000  0  7G16G18G19G21G22G27G31
  21107898.220   110922782.54009  21107894.860    86433335.74648
  22376265.120   117588265.98109  22376261.780    91627211.23247
  24461494.160   128546012.75107  24461491.340   100165717.21546
  21661463.660   113832084.58008  21661459.420    88700491.70448
  23409326.640   123017054.31808  23409323.180    95857526.45746
  22247688.960   116912449.30209  22247688.180    91100625.08548
  23633879.840   124196879.54108  23633879.000    96776786.89646
 15 03 03 00 06 30.0000000  0  7G16G18G19G21G22G27G31
  21097337.340   110867284.79109  21097333.980    86390090.74748
  22366840.440   117538739.12109  22366837.200    91588618.88247
  24446187.380   128465572.65408  24446184.020   100103036.65945
  21671015.660   113882280.73609  21671011.500    88739605.58948
  23391922.020   122925594.19108  23391918.840    95786259.16246
  22236424.360   116853252.99109  22236423.440    91054498.10148
  23652465.060   124294543.93708  23652464.200    96852888.68146
 15 03 03 00 07  0.0000000  0  7G16G18G19G21G22G27G31
  21086844.260   110812143.37509  21086840.920    86347123.40848
  22357485.280   117489577.40309  22357482.060    91550311.07647
  24430895.900   128385213.50608  24430891.820   100040419.23745
  21680620.180   113932752.92209  21680616.080    88778934.55848
  23374534.960   122834226.76508  23374532.120    95715064.06447
  22225183.620   116794181.84909  22225182.620    91008468.66448
  23671063.480   124392278.32408  23671062.720    96929045.00446
 15 03 03 00 07 30.0000000  0  7G16G18G19G21G22G27G31
  21076420.060   110757363.94709  21076416.720    86304438.13748
  22348200.740   117440786.44509  22348197.460    91512292.16747
  24415620.480   128304939.59908  24415615.920    99977868.23146
  21690277.580   113983502.70709  21690273.440    88818479.84548
  23357166.840   122742958.72308  23357164.120    95643946.42046
  22213967.480   116735240.21809  22213966.500    90962540.13348
  23689675.460   124490084.10908  23689674.840    97005256.95846
 15 03 03 00 08  0.0000000  0  7G16G18G19G21G22G27G31
  21066064.960   110702947.42409  21066061.560    86262035.66648
  22338986.980   117392367.68409  22338983.720    91474563.28647
  24400360.960   128224749.68408  24400355.980    99915382.62645
  21699987.040   114034526.25008  21699982.940    88858238.45748
  23339818.040   122651791.54008  23339815.160    95572907.35846
  22202775.560   116676426.60209  22202774.700    90916711.34948
  23708300.260   124587956.74008  23708299.820    97081521.00246
 15 03 03 00 08 30.0000000  0  7G16G18G19G21G22G27G31
  21055778.980   110648893.74309  21055775.420    86219915.92148
  22329843.920   117344320.55309  22329840.680    91437123.98447
  24385116.900   128144641.26608  24385111.600    99852960.54246
  21709747.960   114085820.43908  21709743.960    88898207.94648
  23322488.540   122560725.78008  23322485.500    95501947.30046
  22191607.580   116617738.94109  22191606.760    90870980.72948
  23726936.840   124685891.02108  23726936.440    97157833.08146
 15 03 03 00 09  0.0000000  0  7G16G18G19G21G22G27G31
  21045563.080   110595208.42709  21045559.420    86178083.21548
  22320772.560   117296650.30809  22320769.360    91399978.36547
  24369888.840   128064618.16707  24369883.580    99790604.96845
  21719560.580   114137386.35708  21719556.640    88938389.18348
  23305179.420   122469767.28508  23305176.160    95431070.82346
  22180464.400   116559180.83309  22180463.500    90825351.05348
  23745585.180   124783887.67908  23745584.920    97234193.76746
 15 03 03 00 09 30.0000000  0  7G16G18G19G21G22G27G31
  21035417.240   110541891.85909  21035413.600    86136537.84248
  22311773.040   117249357.65809  22311769.880    91363126.98047
  24354676.720   127984678.95608  24354671.380    99728314.72745
  21729424.360   114189220.95508  21729420.440    88978779.77748
  23287891.000   122378917.21808  23287887.580    95360278.81646
  22169345.580   116500750.76109  22169344.640    90779821.15148
  23764244.420   124881942.01908  23764244.380    97310599.38246
 15 03 03 00 10  0.0000000  0  7G16G18G19G21G22G27G31
  21025341.600   110488944.20609  21025337.960    86095279.93248
  22302845.300   117202442.43009  22302842.140    91326569.68347
  24339479.960   127904821.41707  24339475.020    99666088.14746
  21739338.520   114241319.86509  21739334.500    89019376.33048
  23270623.440   122288176.55008  23270619.960    95289572.03646
  22158250.760   116442446.77809  22158249.720    90734389.49348
  23782913.680   124980048.98308  23782913.840    97387045.99846
 15 03 03 00 10 30.0000000  0  7G16G18G19G21G22G27G31
  21015337.700   110436373.32709  21015334.000    86054315.62548
  22293990.920   117155912.54409  22293987.660    91290312.66547
  24324299.680   127825051.36607  24324295.580    99603929.73945
  21749303.920   114293687.76009  21749299.700    89060182.48648
  23253378.400   122197553.62908  23253374.840    95218956.99046
  22147181.080   116384274.84909  22147180.000    90689060.73148
  23801593.700   125078211.69008  23801594.100    97463536.04446
 15 03 03 00 11  0.0000000  0  7G16G18G19G21G22G27G31
  21005404.920   110384175.81209  21005401.080    86013642.24348
  22285209.140   117109764.23909  22285205.880    91254352.97347
  24309135.040   127745363.40607  24309131.600    99541835.30345
  21759319.000   114346316.97209  21759314.640    89101192.25948
  23236155.260   122107045.60108  23236151.600    95148431.46546
  22136135.460   116326229.65809  22136134.460    90643830.72548
  23820282.760   125176421.81308  23820283.280    97540063.04046
 15 03 03 00 11 30.0000000  0  7G16G18G19G21G22G27G31
  20995543.380   110332352.56209  20995539.400    85973260.50048
  22276500.040   117063997.99309  22276496.800    91218690.98847
  24293986.160   127665756.68408  24293983.120    99479804.12845
  21769383.220   114399204.91508  21769378.820    89142403.64648
  23218954.180   122016654.07008  23218950.500    95077996.71846
  22125113.660   116268310.30209  22125112.820    90598698.77448
  23838980.160   125274675.38208  23838980.860    97616623.90046
 15 03 03 00 12  0.0000000  0  7G16G18G19G21G22G27G31
  20985753.120   110280904.24609  20985749.060    85933170.90948
  22267863.900   117018615.03909  22267860.700    91183327.67847
  24278852.660   127586229.76008  24278849.900    99417835.14545
  21779495.880   114452347.65908  21779491.540    89183813.56848
  23201775.440   121926380.39608  23201771.860    95007653.78646
  22114115.540   116210515.49809  22114114.800    90553663.88448
  23857685.040   125372968.23208  23857685.880    97693215.35946
 15 03 03 00 12 30.0000000  0  7G16G18G19G21G22G27G31
  20976035.020   110229835.35709  20976030.960    85893376.97648
  22259301.620   116973619.81209  22259298.380    91148266.47047
  24263735.020   127506785.18207  24263732.380    99355930.32646
  21789657.260   114505746.39508  21789653.000    89225422.96648
  23184620.200   121836229.86808  23184616.560    94937406.78946
  22103141.700   116152847.80109  22103140.920    90508728.03248
  23876397.040   125471299.55208  23876398.100    97769836.77646
 15 03 03 00 13  0.0000000  0  7G16G18G19G21G22G27G31
  20966389.920   110179149.94309  20966385.820    85853881.85648
  22250813.800   116929015.94309  22250810.640    91113510.24047
  24248633.380   127427424.82907  24248630.640    99294091.17046
  21799867.400   114559401.31608  21799863.200    89267231.99847
  23167489.320   121746207.14608  23167485.580    94867259.40046
  22092192.440   116095309.24309  22092191.640    90463892.81148
  23895116.120   125569668.48508  23895117.360    97846487.52046
 15 03 03 00 13 30.0000000  0  7G16G18G19G21G22G27G31
  20956818.240   110128850.15209  20956814.060    85814687.21648
  22242400.820   116884805.28509  22242397.620    91079060.39547
  24233547.880   127348149.15408  24233544.560    99232317.94546
  21810125.940   114613310.56808  21810121.760    89309239.20347
  23150383.400   121656315.18109  23150379.380    94797213.88746
  22081267.820   116037900.28009  22081267.000    90419158.56048
  23913842.000   125668072.59708  23913843.280    97923165.68446
 15 03 03 00 14  0.0000000  0  7G16G18G19G21G22G27G31
  20947320.160   110078937.37909  20947316.000    85775794.15648
  22234062.920   116840989.23309  22234059.660    91044918.03747
  24218478.300   127268957.28208  24218474.480    99170610.07446
  21820432.400   114667471.72708  21820428.260    89351442.70648
  23133302.720   121566555.83608  23133298.560    94727271.69846
  22070367.700   115980620.36409  22070366.940    90374524.87848
  23932573.920   125766508.32708  23932575.300    97999868.47146
 15 03 03 00 14 30.0000000  0  7G16G18G19G21G22G27G31
  20937895.560   110029411.01009  20937891.440    85737202.18748
  22225799.880   116797566.75109  22225796.560    91011082.36447
  24203424.200   127189846.88308  24203419.880    99108965.67445
  21830786.060   114721880.36209  21830781.940    89393839.04748
  23116247.160   121476929.05208  23116243.120    94657432.79147
  22059491.680   115923466.91609  22059491.060    90329989.74448
  23951310.740   125864969.78208  23951312.340    98076591.30146
 15 03 03 00 15  0.0000000  0  7G16G18G19G21G22G27G31
  20928545.800   109980277.94009  20928541.660    85698916.68148
  22217613.000   116754544.70309  22217609.640    90977558.71647
  24188386.400   127110822.98908  24188381.480    99047388.67745
  21841187.340   114776539.40508  21841183.280    89436430.51748
  23099218.300   121387442.88408  23099214.400    94587703.44646
  22048640.780   115866445.11509  22048640.200    90285557.18048
  23970052.880   125963459.21808  23970054.540    98153335.92946
 15 03 03 00 15 30.0000000  0  7G16G18G19G21G22G27G31
  20919271.120   109931539.25409  20919266.980    85660938.48348
  22209502.540   116711923.92209  22209499.120    90944347.73247
  24173364.780   127031884.82107  24173359.860    98985878.43246
  21851635.820   114831446.45108  21851631.840    89479215.21848
  23082216.420   121298098.61008  23082212.580    94518084.67546
  22037814.840   115809554.20609  22037814.180    90241226.61448
  23988799.740   126061972.77508  23988801.240    98230099.35046
 15 03 03 00 16  0.0000000  0  7G16G18G19G21G22G27G31
  20910072.380   109883199.67509  20910068.360    85623271.28248
  22201469.340   116669709.09209  22201465.860    90911453.07447
  24158359.620   126953034.75307  24158355.340    98924436.86446
  21862131.600   114886602.15609  21862127.680    89522193.68748
  23065242.660   121208902.31608  23065238.880    94448581.20846
  22027014.340   115752797.09809  22027013.640    90197000.31248
  24007551.340   126160510.47608  24007552.400    98306881.60846
 15 03 03 00 16 30.0000000  0  7G16G18G19G21G22G27G31
  20900947.860   109835250.20409  20900943.900    85585908.06248
  22193511.620   116627891.18909  22193508.140    90878867.71747
  24143369.260   126874261.87407  24143365.740    98863055.46946
  21872672.360   114941994.05809  21872668.480    89565356.21048
  23048295.420   121119845.34808  23048291.620    94379186.31046
  22016237.180   115696162.84509  22016236.460    90152869.74248
  24026304.840   126259058.54508  24026305.540    98383671.93446
 15 03 03 00 17  0.0000000  0  7G16G18G19G21G22G27G31
  20891899.480   109787700.76209  20891895.540    85548856.55348
  22185631.160   116586479.38109  22185627.700    90846598.79747
  24128395.400   126795574.33908  24128392.200    98801740.54846
  21883259.120   114997627.60508  21883255.180    89608707.02648
  23031376.740   121030938.06708  23031372.940    94309908.03447
  22005484.920   115639659.49009  22005484.120    90108841.16248
  24045061.280   126357621.71908  24045061.820    98460474.03146
 15 03 03 00 17 30.0000000  0  7G16G18G19G21G22G27G31
  20882927.080   109740550.39209  20882923.120    85512116.00548
  22177827.820   116545472.87309  22177824.420    90814645.69247
  24113437.560   126716969.35508  24113434.420    98740489.95746
  21893891.040   115053498.41109  21893887.000    89652242.71947
  23014486.680   120942180.55208  23014482.840    94240746.47146
  21994757.160   115583284.51309  21994756.260    90064912.61848
  24063819.560   126456194.58108  24063820.180    98537283.66946
 15 03 03 00 18  0.0000000  0  7G16G18G19G21G22G27G31
  20874031.380   109693802.83909  20874027.360    85475689.34948
  22170102.260   116504875.06709  22170098.940    90783011.05947
  24098495.980   126638448.58108  24098492.700    98679304.98746
  21904568.020   115109606.33308  21904563.940    89695963.17848
  22997626.100   120853577.14108  22997622.100    94171704.97547
  21984054.200   115527039.64709  21984053.260    90021085.46548
  24082579.320   126554775.84908  24082580.180    98614099.84446
 15 03 03 00 18 30.0000000  0  7G16G18G19G21G22G27G31
  20865212.460   109647458.94409  20865208.480    85439577.21748
  22162454.640   116464686.58209  22162451.320    90751695.37247
  24083570.220   126560011.02108  24083566.760    98618184.84146
  21915289.560   115165948.60308  21915285.480    89739866.24147
  22980795.140   120765129.40508  22980790.980    94102784.77447
  21973375.760   115470924.00109  21973374.880    89977358.99148
  24101339.840   126653361.48908  24101340.900    98690919.41346
 15 03 03 00 19  0.0000000  0  7G16G18G19G21G22G27G31
  20856472.060   109601527.95009  20856468.140    85403786.83248
  22154886.720   116424916.55209  22154883.360    90720705.75747
  24068661.380   126481664.01507  24068657.740    98557135.26746
  21926056.480   115222529.51208  21926052.460    89783955.25747
  22963995.660   120676847.56608  22963991.400    94033993.84547
  21962723.320   115414945.04009  21962722.480    89933739.03648
  24120101.960   126751955.90708  24120103.320    98767745.84246
 15 03 03 00 19 30.0000000  0  7G16G18G19G21G22G27G31
  20847809.540   109556006.15809  20847805.620    85368315.30448
  22147397.620   116385560.54109  22147394.260    90690038.76247
  24053768.320   126403401.82807  24053764.580    98496151.78546
  21936867.840   115279343.73208  21936863.820    89828226.07648
  22947227.080   120588728.46908  22947222.740    93965329.72047
  21952095.820   115359097.28709  21952095.000    89890221.31248
  24138864.080   126850550.58908  24138865.840    98844572.44446
 15 03 03 00 20  0.0000000  0  7G16G18G19G21G22G27G31
  20839225.280   109510895.66209  20839221.360    85333164.26648
  22139987.720   116346620.82309  22139984.320    90659696.15347
  24038891.380   126325224.84607  24038887.620    98435234.68546
  21947723.120   115336388.54009  21947719.040    89872676.58147
  22930489.960   120500774.95908  22930485.620    93896794.63647
  21941493.300   115303381.12309  21941492.340    89846806.13248
  24157625.880   126949142.81608  24157627.780    98921397.14745
 15 03 03 00 20 30.0000000  0  7G16G18G19G21G22G27G31
  20830719.860   109466199.30509  20830715.860    85298335.94148
  22132657.420   116308099.66309  22132653.960    90629679.69147
  24024030.840   126247134.30108  24024026.820    98374384.99245
  21958622.000   115393662.71408  21958617.920    89917305.81047
  22913785.120   120412990.89008  22913780.680    93828391.56647
  21930915.960   115247797.71409  21930915.000    89803494.40948
  24176386.960   127047730.68908  24176388.860    98998218.45745
 15 03 03 00 21  0.0000000  0  7G16G18G19G21G22G27G31
  20822292.900   109421915.35709  20822288.780    85263828.96348
  22125406.340   116269995.23509  22125402.900    90599987.96247
  24009186.220   126169126.34808  24009181.860    98313599.60945
  21969563.540   115451160.95308  21969559.480    89962109.62847
  22897112.360   120325375.52508  22897108.000    93760119.95347
  21920363.360   115192343.75009  21920362.420    89760283.53448
  24195145.940   127146308.11508  24195147.940    99075031.61645
 15 03 03 00 21 30.0000000  0  7G16G18G19G21G22G27G31
  20813944.820   109378045.87709  20813940.660    85229644.95548
  22118234.860   116232309.50009  22118231.580    90570622.48347
  23994357.620   126091201.02208  23994352.900    98252878.59446
  21980547.500   115508881.87608  21980543.480    90007086.97347
  22880472.160   120237931.11509  22880467.800    93691981.55647
  21909835.540   115137019.33109  21909834.580    89717173.62648
  24213902.280   127244872.25708  24213904.620    99151834.40146
 15 03 03 00 22  0.0000000  0  7G16G18G19G21G22G27G31
  20805676.520   109334595.70209  20805672.420    85195787.67948
  22111143.800   116195046.62909  22111140.700    90541586.50247
  23979545.480   126013361.49508  23979540.580    98192224.44646
  21991573.960   115566826.38508  21991569.920    90052238.53947
  22863865.620   120150663.32409  22863861.220    93623980.76447
  21899332.960   115081827.55109  21899332.020    89674167.07148
  24232656.040   127343422.95308  24232658.600    99228626.70345
 15 03 03 00 22 30.0000000  0  7G16G18G19G21G22G27G31
  20797489.020   109291569.88909  20797484.960    85162261.07648
  22104134.220   116158211.67109  22104131.180    90512883.96247
  23964750.260   125935610.84908  23964745.600    98131639.57646
  22002643.160   115624995.31909  22002639.060    90097564.97547
  22847293.800   120063578.11608  22847289.480    93556122.24447
  21888856.260   115026771.86909  21888855.280    89631266.55348
  24251407.280   127441960.60707  24251410.080    99305408.80146
 15 03 03 00 23  0.0000000  0  7G16G18G19G21G22G27G31
  20789381.560   109248964.53409  20789377.500    85129062.10248
  22097205.340   116121800.37909  22097202.280    90484511.55947
  23949970.780   125857943.62608  23949966.080    98071119.69146
  22013753.760   115683381.41709  22013749.580    90143060.63947
  22830756.080   119976672.53609  22830751.860    93488403.69147
  21878404.260   114971846.75809  21878403.320    89588467.79348
  24270154.660   127540476.64408  24270157.420    99382174.07745
 15 03 03 00 23 30.0000000  0  7G16G18G19G21G22G27G31
  20781355.240   109206785.81109  20781351.180    85096195.56348
  22090358.220   116085818.64909  22090355.080    90456473.85647
  23935207.860   125780364.01308  23935203.320    98010668.07146
  22024906.240   115741987.66109  22024902.000    90188727.84347
  22814253.900   119889953.46008  22814249.640    93420830.46247
  21867977.940   114917056.65209  21867977.080    89545774.21848
  24288898.420   127638972.49908  24288900.980    99458923.60346
 15 03 03 00 24  0.0000000  0  7G16G18G19G21G22G27G31
  20773410.120   109165034.18409  20773406.080    85063661.82948
  22083592.820   116050266.19009  22083589.520    90428770.66647
  23920461.260   125702870.74308  23920456.800    97950283.74146
  22036099.980   115800810.97509  22036095.720    90234564.19848
  22797787.500   119803422.29308  22797783.100    93353403.66147
  21857577.100   114862400.53609  21857576.480    89503185.06948
  24307637.580   127737444.27008  24307640.100    99535654.34145
 15 03 03 00 24 30.0000000  0  7G16G18G19G21G22G27G31
  20765546.700   109123712.09009  20765542.720    85031462.79348
  22076909.520   116015145.34509  22076906.160    90401403.79847
  23905731.200   125625464.17308  23905726.860    97889966.97546
  22047334.560   115859849.22308  22047330.260    90280568.02148
  22781357.400   119717081.68208  22781352.900    93286125.34747
  21847201.880   114807878.96509  21847201.480    89460700.74348
  24326371.520   127835889.13308  24326374.040    99612364.07346
 15 03 03 00 25  0.0000000  0  7G16G18G19G21G22G27G31
  20757765.540   109082822.05709  20757761.600    84999600.42248
  22070308.840   115980458.67209  22070305.460    90374375.23647
  23891017.720   125548145.19407  23891013.500    97829718.47146
  22058609.780   115919101.49008  22058605.580    90326738.61047
  22764964.340   119630935.72509  22764959.840    93218998.70147
  21836852.480   114753492.97209  21836852.120    89418322.05948
  24345100.040   127934305.53208  24345102.580    99689051.65046
 15 03 03 00 25 30.0000000  0  7G16G18G19G21G22G27G31
  20750066.920   109042365.68909  20750063.060    84968075.98748
  22063790.920   115946206.81609  22063787.460    90347685.49847
  23876320.880   125470913.83508  23876316.780    97769538.22846
  22069925.480   115978566.45208  22069921.320    90373074.94247
  22748608.700   119544986.62809  22748604.260    93152025.45247
  21826528.900   114699242.55009  21826528.480    89376049.03148
  24363822.420   128032690.36108  24363825.400    99765714.58845
 15 03 03 00 26  0.0000000  0  7G16G18G19G21G22G27G31
  20742450.580   109002341.34709  20742446.760    84936888.19048
  22057355.500   115912388.54209  22057352.000    90321333.63047
  23861640.160   125393766.81908  23861636.080    97709423.70946
  22081280.620   116038238.34608  22081276.520    90419572.51247
  22732290.420   119459234.00008  22732286.100    93085205.28247
  21816230.760   114645124.88909  21816230.160    89333879.44648
  24382537.500   128131037.66407  24382541.100    99842348.25246
 15 03 03 00 26 30.0000000  0  7G16G18G19G21G22G27G31
  20734917.260   108962753.38109  20734913.440    84906040.43048
  22051003.160   115879007.01409  22050999.640    90295322.06247
  23846976.120   125316706.51108  23846971.820    97649376.78146
  22092675.260   116098117.33908  22092671.160    90466231.47848
  22716010.420   119373682.45109  22716006.080    93018541.81147
  21805958.340   114591142.16609  21805957.540    89291815.00948
  24401245.120   128229346.23208  24401249.240    99918951.72345
 15 03 03 00 27  0.0000000  0  7G16G18G19G21G22G27G31
  20727467.260   108923603.54209  20727463.500    84875534.06348
  22044734.260   115846063.81709  22044730.720    90269652.05547
  23832328.540   125239732.46208  23832323.940    97589397.06646
  22104109.040   116158201.96509  22104104.920    90513050.66047
  22699769.200   119288334.36109  22699764.800    92952036.86947
  21795711.660   114537294.54109  21795710.760    89249855.83548
  24419945.020   128327613.81308  24419949.420    99995523.25345
 15 03 03 00 27 30.0000000  0  7G16G18G19G21G22G27G31
  20720101.260   108884895.25609  20720097.560    84845371.77048
  22038549.480   115813562.38409  22038545.940    90244326.28747
  23817697.720   125162846.91108  23817693.200    97529486.30246
  22115582.080   116218492.77609  22115577.980    90560030.50647
  22683567.700   119203194.60909  22683563.160    92885694.26947
  21785491.040   114483584.18109  21785490.100    89208003.62748
  24438637.140   128425839.46807  24438641.640   100072062.10146
 15 03 03 00 28  0.0000000  0  7G16G18G19G21G22G27G31
  20712819.280   108846628.50509  20712815.600    84815553.52348
  22032448.640   115781502.08009  22032445.100    90219344.24147
  23803083.320   125086048.01708  23803079.160    97469643.06246
  22127093.560   116278985.56809  22127089.420    90607167.75047
  22667405.980   119118263.99509  22667401.340    92819514.63347
  21775296.220   114430009.50209  21775295.140    89166257.14048
  24457320.600   128524018.42808  24457324.960   100148564.54645
 15 03 03 00 28 30.0000000  0  7G16G18G19G21G22G27G31
  20705622.300   108808808.21009  20705618.600    84786083.16448
  22026432.540   115749887.26709  22026429.040    90194709.34147
  23788486.020   125009338.94308  23788482.040    97409869.79046
  22138643.560   116339681.02309  22138639.400    90654462.90147
  22651285.040   119033548.05709  22651280.380    92753502.28347
  21765127.820   114376573.77409  21765126.620    89124618.92348
  24475995.180   128622150.95508  24475999.460   100225030.79945
 15 03 03 00 29  0.0000000  0  7G16G18G19G21G22G27G31
  20698509.860   108771431.71509  20698506.100    84756958.62348
  22020500.700   115718715.11609  22020497.140    90170419.37447
  23773905.120   124932715.44708  23773901.140    97350163.20846
  22150231.040   116400573.68308  22150226.820    90701911.71947
  22635204.600   118949045.08709  22635199.940    92687655.86747
  21754985.000   114323272.97909  21754983.820    89083085.85448
  24494659.540   128720229.96008  24494663.740   100301455.34545
 15 03 03 00 29 30.0000000  0  7G16G18G19G21G22G27G31
  20691483.000   108734504.84809  20691479.140    84728184.43748
  22014654.060   115687990.91309  22014650.460    90146478.44547
  23759341.360   124856181.69608  23759337.100    97290526.57346
  22161856.420   116461665.76208  22161852.200    90749515.93647
  22619165.920   118864761.80409  22619161.220    92621980.63847
  21744868.660   114270111.40109  21744867.400    89041661.26248
  24513313.880   128818256.29008  24513317.980   100377838.83144
 15 03 03 00 30  0.0000000  0  7G16G18G19G21G22G27G31
  20684541.260   108698025.34109  20684537.340    84699758.85348
  22008892.160   115657711.96409  22008888.580    90122884.47547
  23744793.880   124779733.72108  23744789.440    97230956.74846
  22173518.600   116522951.33608  22173514.440    90797270.91947
  22603168.880   118780697.07809  22603164.120    92556475.73147
  21734778.080   114217085.37309  21734776.760    89000342.29248
  24531957.080   128916224.15108  24531961.200   100454176.76645
 15 03 03 00 30 30.0000000  0  7G16G18G19G21G22G27G31
  20677685.840   108661999.24009  20677681.760    84671686.56348
  22003216.120   115627884.04909  22003212.540    90099641.96447
  23730263.440   124703375.70608  23730259.020    97171457.06946
  22185218.260   116584433.47708  22185214.160    90845179.07947
  22587214.800   118696857.89809  22587209.920    92491146.56747
  21724714.140   114164199.50309  21724712.780    88959132.53948
  24550589.300   129014134.67907  24550593.580   100530469.98045
 15 03 03 00 31  0.0000000  0  7G16G18G19G21G22G27G31
  20670916.480   108626425.38809  20670912.240    84643966.68848
  21997625.560   115598505.18409  21997621.840    90076749.36547
  23715749.620   124627104.75708  23715744.940    97112025.19346
  22196954.280   116646106.56008  22196950.160    90893236.02147
  22571303.400   118613243.65209  22571298.580    92425992.67447
  21714676.340   114111450.86809  21714674.960    88918029.72748
  24569209.500   129111982.01507  24569213.940   100606713.93345
 15 03 03 00 31 30.0000000  0  7G16G18G19G21G22G27G31
  20664233.480   108591305.87509  20664229.200    84616600.82648
  21992120.840   115569577.22809  21992116.960    90054208.11947
  23701252.620   124550921.62308  23701247.680    97052661.76146
  22208726.400   116707969.52408  22208722.280    90941440.92147
  22555435.280   118529857.23508  22555430.600    92361016.30147
  21704664.840   114058840.35609  21704663.600    88877034.53048
  24587817.260   129209763.91608  24587821.880   100682906.86445
 15 03 03 00 32  0.0000000  0  7G16G18G19G21G22G27G31
  20657637.680   108556645.15909  20657633.500    84589592.48048
  21986702.740   115541104.56609  21986698.820    90032021.64147
  23686772.820   124474829.29208  23686767.580    96993369.07746
  22220534.920   116770023.83608  22220530.860    90989794.92947
  22539611.720   118446704.56209  22539607.160    92296222.05647
  21694680.280   114006371.23609  21694679.120    88836149.51348
  24606412.760   129307480.86408  24606417.660   100759049.21445
 15 03 03 00 32 30.0000000  0  7G16G18G19G21G22G27G31
  20651128.500   108522439.99409  20651124.500    84562939.10948
  21981370.400   115513083.04009  21981366.460    90010186.69447
  23672309.180   124398822.48008  23672304.000    96934143.03846
  22232378.460   116832262.08208  22232374.380    91038292.25747
  22523832.220   118363783.11909  22523827.640    92231608.00347
  21684721.700   113954038.59009  21684720.500    88795370.84648
  24624994.340   129405124.59708  24624999.620   100835134.48445
 15 03 03 00 33  0.0000000  0  7G16G18G19G21G22G27G31
  20644708.040   108488700.93209  20644704.160    84536648.92648
  21976125.860   115485523.15909  21976121.980    89988711.47247
  23657863.460   124322910.34508  23657858.360    96874990.77446
  22244258.400   116894691.54408  22244254.320    91086938.58747
  22508098.880   118281104.26408  22508094.340    92167182.96747
  21674790.900   113901851.75509  21674789.600    88754705.79748
  24643563.100   129502701.45907  24643568.940   100911167.59645
 15 03 03 00 33 30.0000000  0  7G16G18G19G21G22G27G31
  20638374.800   108455420.13609  20638371.000    84510715.84448
  21970967.560   115458416.29609  21970963.700    89967589.25647
  23643434.020   124247083.48608  23643429.100    96815904.93546
  22256172.640   116957301.24008  22256168.520    91135725.36347
  22492410.460   118198661.46209  22492405.960    92102941.88447
  21664886.040   113849801.43809  21664884.780    88714147.12448
  24662116.960   129600199.30907  24662123.100   100987139.18146
 15 03 03 00 34  0.0000000  0  7G16G18G19G21G22G27G31
  20632130.160   108422604.74309  20632126.460    84485145.40548
  21965896.720   115431769.13309  21965892.900    89946825.24747
  23629022.020   124171348.05708  23629017.180    96756890.35746
  22268121.880   117020094.81208  22268117.720    91184655.41547
  22476768.500   118116462.34509  22476763.920    92038890.67047
  21655008.260   113797893.34809  21655007.100    88673699.27148
  24680656.200   129697620.91407  24680662.580   101063051.26845
 15 03 03 00 34 30.0000000  0  7G16G18G19G21G22G27G31
  20625974.340   108390256.20909  20625970.800    84459938.75048
  21960913.580   115405582.83209  21960909.840    89926420.35947
  23614627.200   124095703.13708  23614622.400    96697946.31246
  22280105.720   117083070.39008  22280101.620    91233727.28847
  22461173.540   118034509.84609  22461168.860    91975031.63847
  21645157.580   113746127.86209  21645156.500    88633362.54048
  24699180.460   129794963.63808  24699187.020   101138901.94945
 15 03 03 00 35  0.0000000  0  6G16G18G19G21G22G27
  20619905.500   108358364.52609  20619902.000    84435088.08848
  21956016.140   115379846.70509  21956012.460    89906366.25647
  23600247.400   124020137.28008  23600242.500    96639063.85846
  22292121.640   117146214.29209  22292117.520    91282930.33247
  22445623.720   117952794.47509  22445618.680    91911357.36447
  21635331.880   113694493.51309  21635330.740    88593127.99548
 15 03 03 00 35 30.0000000  0  6G16G18G19G21G22G27
  20613927.940   108326952.25409  20613924.420    84410610.99348
  21951208.640   115354583.15709  21951204.960    89886680.39647
  23585886.640   123944672.07008  23585881.660    96580259.83746
  22304173.320   117209546.02709  22304169.160    91332279.73247
  22430123.520   117871339.96709  22430118.160    91847886.36047
  21625535.180   113643011.66209  21625533.980    88553012.27948
 15 03 03 00 36  0.0000000  0  6G16G18G19G21G22G27
  20608039.680   108296009.44709  20608036.180    84386499.71148
  21946489.000   115329781.47009  21946485.340    89867354.42747
  23571542.860   123869295.99108  23571537.740    96521525.27546
  22316258.220   117273052.32908  22316254.040    91381765.15747
  22414671.160   117790137.65109  22414665.840    91784611.87747
  21615765.380   113591671.21309  21615764.160    88513006.75148
 15 03 03 00 36 30.0000000  0  6G16G18G19G21G22G27
  20602241.580   108265540.24109  20602238.080    84362757.48148
  21941857.880   115305445.18309  21941854.280    89848391.09847
  23557216.580   123794011.52208  23557211.460    96462862.10246
  22328376.380   117336733.80808  22328372.260    91431387.07847
  22399267.700   117709192.42409  22399262.580    91721537.71947
  21606023.040   113540474.90509  21606021.800    88473113.53048
 15 03 03 00 37  0.0000000  0  6G16G18G19G21G22G27
  20596533.180   108235542.56809  20596529.720    84339382.66648
  21937314.880   115281571.90909  21937311.280    89829788.56447
  23542906.980   123718814.19308  23542901.920    96404266.81147
  22340526.720   117400584.25708  22340522.660    91481140.67147
  22383912.880   117628502.90209  22383907.940    91658662.81447
  21596307.520   113489419.14809  21596306.160    88433329.84048
 15 03 03 00 37 30.0000000  0  6G16G18G19G21G22G27
  20590915.820   108206023.12309  20590912.340    84316380.50448
  21932861.220   115258167.77809  21932857.680    89811551.60347
  23528615.200   123643710.16108  23528610.340    96345744.24946
  22352710.060   117464608.11008  22352705.960    91531029.38547
  22368608.260   117548077.09109  22368603.420    91595993.39047
  21586619.820   113438509.69409  21586618.400    88393660.14548
 15 03 03 00 38  0.0000000  0  6G16G18G19G21G22G27
  20585389.160   108176980.23209  20585385.660    84293749.67748
  21928496.380   115235230.49209  21928492.920    89793678.40947
  23514340.440   123568696.22708  23514335.780    96287291.86146
  22364925.400   117528800.07609  22364921.280    91581049.09047
  22353353.780   117467914.54409  22353348.960    91533529.10847
  21576959.340   113387743.70809  21576957.980    88354102.24048
 15 03 03 00 38 30.0000000  0  6G16G18G19G21G22G27
  20579954.360   108148419.79209  20579950.800    84271494.79548
  21924221.340   115212765.53509  21924217.980    89776173.26947
  23500083.540   123493776.80808  23500079.300    96228913.12346
  22377173.280   117593163.02808  22377169.080    91631202.04047
  22338150.700   117388021.95109  22338145.880    91471275.18447
  21567327.060   113337125.93509  21567325.820    88314659.82548
 15 03 03 00 39  0.0000000  0  6G16G18G19G21G22G27
  20574610.760   108120338.75609  20574607.160    84249613.46848
  21920035.540   115190769.44709  21920032.200    89759033.47847
  23485843.820   123418947.64608  23485839.920    96170604.72746
  22389452.420   117657690.29908  22389448.140    91681483.02747
  22322998.600   117308397.36709  22322993.820    91409230.09947
  21557722.200   113286652.14409  21557721.060    88275329.60148
 15 03 03 00 39 30.0000000  0  6G16G18G19G21G22G27
  20569358.600   108092738.59209  20569355.040    84228106.85748
  21915939.200   115169243.18209  21915935.800    89742259.77847
  23471621.360   123344208.77408  23471617.380    96112366.67546
  22401762.520   117722380.41908  22401758.220    91731890.91447
  22307897.980   117229043.35409  22307893.260    91347395.83947
  21548144.820   113236322.69309  21548143.720    88236111.86448
 15 03 03 00 40  0.0000000  0  6G16G18G19G21G22G27
  20564198.500   108065622.34409  20564194.960    84206977.31348
  21911932.720   115148188.76409  21911929.240    89725853.75847
  23457416.520   123269561.55708  23457412.240    96054200.07446
  22414103.420   117787232.73008  22414099.200    91782425.18147
  22292849.600   117149963.64109  22292844.920    91285775.32847
  21538595.160   113186139.31709  21538594.100    88197007.94248
 15 03 03 00 40 30.0000000  0  6G16G18G19G21G22G27
  20559130.380   108038989.36709  20559126.860    84186224.34448
  21908015.880   115127605.43709  21908012.340    89709814.81647
  23443228.860   123195004.29908  23443224.280    95996103.55346
  22426474.640   117852244.23808  22426470.520    91833083.49647
  22277853.640   117071159.20609  22277848.900    91224369.31747
  21529072.960   113136100.49409  21529072.020    88158016.66448
 15 03 03 00 41  0.0000000  0  6G16G18G19G21G22G27
  20554155.580   108012846.49309  20554152.080    84165853.26748
  21904189.840   115107499.44009  21904186.280    89694147.81847
  23429059.280   123120542.25408  23429054.620    95938081.22946
  22438876.700   117917417.82908  22438872.700    91883868.10247
  22262911.460   116992637.63509  22262906.620    91163183.70747
  21519579.340   113086211.82009  21519578.540    88119142.37848
 15 03 03 00 41 30.0000000  0  6G16G18G19G21G22G27
  20549273.980   107987193.20409  20549270.400    84145863.69848
  21900454.480   115087869.88809  21900450.840    89678852.08247
  23414907.380   123046173.62808  23414902.900    95880131.68346
  22451309.000   117982750.12208  22451305.080    91934776.37047
  22248023.240   116914399.77409  22248018.260    91102219.18747
  21510114.100   113036471.77109  21510113.360    88080383.90548
 15 03 03 00 42  0.0000000  0  6G16G18G19G21G22G27
  20544485.520   107962029.42709  20544481.860    84126255.55648
  21896809.600   115068715.73309  21896805.880    89663926.78647
  23400772.940   122971896.94208  23400768.680    95822253.77847
  22463770.920   118048237.80908  22463767.040    91985805.73347
  22233189.140   116836446.39909  22233184.140    91041476.32848
  21500677.020   112986879.17609  21500676.200    88041740.32948
 15 03 03 00 42 30.0000000  0  6G16G18G19G21G22G27
  20539790.620   107937357.51109  20539786.940    84107030.68548
  21893255.480   115050038.99509  21893251.780    89649373.50347
  23386656.280   122897713.50808  23386652.120    95764448.53846
  22476262.320   118113880.24608  22476258.360    92036955.68247
  22218409.920   116758781.07909  22218404.920    90980957.93547
  21491268.340   112937435.54609  21491267.320    88003212.83148
 15 03 03 00 43  0.0000000  0  6G16G18G19G21G22G27
  20535189.160   107913176.61009  20535185.460    84088188.42248
  21889791.840   115031837.84109  21889788.220    89635190.79547
  23372557.040   122823621.11808  23372552.900    95706714.24346
  22488782.400   118179673.33508  22488778.320    92088223.01847
  22203685.580   116681404.16109  22203680.560    90920664.26147
  21481887.640   112888138.92309  21481886.440    87964799.89248
 15 03 03 00 43 30.0000000  0  6G16G18G19G21G22G27
  20530682.140   107889491.98909  20530678.460    84069732.87348
  21886419.780   115014117.45709  21886416.220    89621382.72047
  23358475.960   122749623.88108  23358471.400    95649054.10046
  22501331.620   118245619.36908  22501327.420    92139609.54047
  22189017.200   116604321.89709  22189012.300    90860600.20147
  21472535.660   112838993.55309  21472534.300    87926504.80348
 15 03 03 00 44  0.0000000  0  6G16G18G19G21G22G27
  20526269.180   107866301.72009  20526265.520    84051662.53148
  21883138.820   114996875.65909  21883135.240    89607947.56847
  23344412.400   122675719.01008  23344407.320    95591465.93146
  22513908.960   118311713.22209  22513904.700    92191111.23147
  22174404.760   116527533.47209  22174400.060    90800765.09147
  21463211.900   112789996.77109  21463210.460    87888325.49248
 15 03 03 00 44 30.0000000  0  6G16G18G19G21G22G27
  20521951.680   107843612.86009  20521947.940    84033982.89248
  21879949.980   114980118.35509  21879946.400    89594889.94047
  23330367.240   122601911.56108  23330361.880    95533953.67446
  22526515.240   118377959.14508  22526510.960    92242731.42847
  22159849.880   116451047.00109  22159845.220    90741165.26447
  21453917.500   112741154.44309  21453916.080    87850266.54448
 15 03 03 00 45  0.0000000  0  6G16G18G19G21G22G27
  20517728.940   107821422.04309  20517725.160    84016691.34948
  21876852.560   114963841.33409  21876848.980    89582206.56247
  23316339.740   122528197.20208  23316334.440    95476513.93746
  22539149.140   118444350.50108  22539144.860    92294464.94447
  22145351.980   116374860.24809  22145347.320    90681799.01047
  21444651.640   112692462.30709  21444650.260    87812324.63148
 15 03 03 00 45 30.0000000  0  6G16G18G19G21G22G27
  20513602.020   107799734.57009  20513598.180    83999792.01748
  21873847.440   114948049.33809  21873843.900    89569901.12847
  23302330.760   122454580.26208  23302325.800    95419150.09947
  22551811.140   118510889.92508  22551806.900    92346313.84147
  22130912.400   116298979.89809  22130907.700    90622671.48547
  21435415.200   112643924.94709  21435413.940    87774503.32048
 15 03 03 00 46  0.0000000  0  6G16G18G19G21G22G27
  20509569.680   107778544.12509  20509565.820    83983279.98248
  21870933.540   114932736.57209  21870930.000    89557969.11747
  23288338.880   122381052.75908  23288334.140    95361855.97646
  22564499.440   118577567.76808  22564495.220    92398270.59747
  22116530.200   116223400.73209  22116525.460    90563778.67247
  21426206.820   112595535.04309  21426205.720    87736796.91248
 15 03 03 00 46 30.0000000  0  6G16G18G19G21G22G27
  20505633.300   107757858.34309  20505629.480    83967161.19348
  21868112.000   114917909.14509  21868108.380    89546415.29547
  23274365.440   122307621.89408  23274360.780    95304637.16346
  22577214.940   118644388.77008  22577210.820    92450338.91347
  22102207.060   116148131.61109  22102202.240    90505127.43948
  21417027.840   112547299.40109  21417026.780    87699210.70548
 15 03 03 00 47  0.0000000  0  6G16G18G19G21G22G27
  20501793.120   107737678.22709  20501789.320    83951436.42848
  21865382.940   114903567.86409  21865379.300    89535240.28747
  23260410.320   122234287.33608  23260405.560    95247493.36647
  22589957.360   118711351.27208  22589953.280    92502517.46947
  22087943.220   116073174.54209  22087938.360    90446719.36048
  21407878.300   112499218.29109  21407877.240    87661744.91448
 15 03 03 00 47 30.0000000  0  6G16G18G19G21G22G27
  20498049.020   107718002.89809  20498045.220    83936105.00248
  21862745.960   114889710.93709  21862742.360    89524442.69047
  23246473.120   122161046.96808  23246468.400    95190422.98947
  22602725.920   118778450.97908  22602721.900    92554802.96547
  22073738.720   115998529.60909  22073733.820    90388554.51247
  21398757.800   112451289.80309  21398756.720    87624398.05048
 15 03 03 00 48  0.0000000  0  6G16G18G19G21G22G27
  20494402.660   107698841.00509  20494398.820    83921173.64448
  21860202.680   114876346.21309  21860199.140    89514028.61947
  23232555.140   122087908.43308  23232550.540    95133431.94347
  22615521.700   118845693.59808  22615517.740    92607199.79747
  22059595.560   115924207.14009  22059590.600    90330640.91447
  21389667.800   112403521.84309  21389666.720    87587176.25948
 15 03 03 00 48 30.0000000  0  6G16G18G19G21G22G27
  20490852.500   107680184.50509  20490848.640    83906636.11848
  21857751.540   114863465.29309  21857748.000    89503991.56147
  23218654.740   122014862.40208  23218650.440    95076512.97847
  22628342.760   118913068.85708  22628338.860    92659699.99447
  22045512.420   115850200.10309  22045507.420    90272973.13247
  21380606.660   112355905.66209  21380605.620    87550072.75448
 15 03 03 00 49  0.0000000  0  6G16G18G19G21G22G27
  20487399.280   107662037.59809  20487395.420    83892495.66548
  21855393.180   114851071.78309  21855389.520    89494334.29347
  23204772.660   121941912.34908  23204768.560    95019668.80547
  22641189.300   118980577.82808  22641185.500    92712304.37547
  22031490.380   115776513.95909  22031485.420    90215555.39647
  21371575.080   112308444.85109  21371574.120    87513090.31648
 15 03 03 00 49 30.0000000  0  6G16G18G19G21G22G27
  20484043.000   107644400.15709  20484039.120    83878752.19448
  21853127.400   114839164.86409  21853123.680    89485056.17647
  23190908.760   121869057.04508  23190904.580    94962898.45247
  22654060.740   119048217.47508  22654057.020    92765010.59047
  22017529.580   115703149.65109  22017524.660    90158388.41848
  21362572.880   112261138.33309  21362571.920    87476228.09648
 15 03 03 00 50  0.0000000  0  6G16G18G19G21G22G27
  20480783.820   107627273.40809  20480780.020    83865406.67348
  21850954.280   114827745.07509  21850950.620    89476157.65447
  23177063.060   121796296.54108  23177058.680    94906201.97947
  22666956.700   119115986.15808  22666953.000    92817817.34947
  22003630.500   115630109.72709  22003625.600    90101474.22448
  21353600.240   112213986.81609  21353599.240    87439486.66448
 15 03 03 00 50 30.0000000  0  6G16G18G19G21G22G27
  20477622.440   107610660.61409  20477618.720    83852461.63348
  21848874.360   114816815.21109  21848870.740    89467640.88247
  23163235.940   121723633.21308  23163231.240    94849581.23446
  22679877.280   119183884.18308  22679873.580    92870724.89747
  21989794.080   115557398.69109  21989789.160    90044816.30547
  21344657.620   112166992.77809  21344656.600    87402867.94248
 15 03 03 00 51  0.0000000  0  6G16G18G19G21G22G27
  20474559.720   107594566.02509  20474556.060    83839920.39248
  21846888.400   114806379.14709  21846884.760    89459508.89347
  23149427.980   121651070.47008  23149422.940    94793038.87646
  22692822.860   119251913.57808  22692819.080    92923734.81147
  21976021.340   115485022.09909  21976016.340    89988418.99348
  21335745.680   112120160.00709  21335744.700    87366374.88248
 15 03 03 00 51 30.0000000  0  6G16G18G19G21G22G27
  20471595.020   107578986.48909  20471591.380    83827780.49148
  21844995.620   114796432.83309  21844991.980    89451758.53347
  23135638.260   121578604.50008  23135633.000    94736571.89947
  22705792.260   119320068.13008  22705788.360    92976842.24647
  21962311.820   115412978.19609  21962306.800    89932280.91348
  21326863.680   112073484.59809  21326862.700    87330004.44148
 15 03 03 00 52  0.0000000  0  6G16G18G19G21G22G27
  20468729.420   107563927.68109  20468725.800    83816046.36048
  21843196.920   114786980.92909  21843193.320    89444393.42747
  23121867.520   121506239.25408  23121862.320    94680183.43247
  22718785.980   119388350.55508  22718782.000    93030049.33546
  21948666.760   115341273.38909  21948661.820    89876407.08148
  21318012.520   112026971.43609  21318011.480    87293760.43548
 15 03 03 00 52 30.0000000  0  6G16G18G19G21G22G27
  20465962.800   107549388.81909  20465959.160    83804717.36048
  21841492.200   114778022.55209  21841488.640    89437412.88047
  23108115.660   121433973.64808  23108110.720    94623872.58547
  22731803.480   119456757.96108  22731799.420    93083353.78947
  21935086.480   115269908.68309  21935081.480    89820798.24648
  21309192.020   111980619.48709  21309190.960    87257642.03648
 15 03 03 00 53  0.0000000  0  6G16G18G19G21G22G27
  20463295.140   107535369.56909  20463291.340    83793793.27049
  21839881.200   114769556.52509  21839877.600    89430815.98747
  23094382.520   121361806.65608  23094377.800    94567638.57747
  22744844.160   119525287.12108  22744840.000    93136753.13247
  21921571.260   115198885.16909  21921566.140    89765455.27848
  21300402.060   111934428.00909  21300400.940    87221648.69148
 15 03 03 00 53 30.0000000  0  6G16G18G19G21G22G27
  20460726.580   107521871.33209  20460722.740    83783275.16349
  21838363.940   114761583.15109  21838360.260    89424602.97747
  23080668.140   121289738.12508  23080663.620    94511481.31547
  22757907.600   119593936.46808  22757903.560    93190246.12647
  21908121.400   115128205.06209  21908116.120    89710379.89748
  21291642.780   111888397.27009  21291641.560    87185780.58448
 15 03 03 00 54  0.0000000  0  6G16G18G19G21G22G27
  20458257.720   107508897.35709  20458253.960    83773165.56548
  21836941.040   114754105.70109  21836937.320    89418776.40747
  23066972.980   121217770.75008  23066968.680    94455402.87647
  22770994.060   119662706.64808  22770990.120    93243833.26647
  21894737.720   115057873.07109  21894732.320    89655575.76248
  21282914.620   111842530.15109  21282913.440    87150039.98048
 15 03 03 00 54 30.0000000  0  6G16G18G19G21G22G27
  20455887.960   107496444.33109  20455884.260    83763461.90148
  21835611.700   114747120.13709  21835608.020    89413333.12547
  23053296.340   121145900.61208  23053292.140    94399400.18847
  22784102.480   119731591.67108  22784098.540    93297509.90547
  21881419.720   114987886.68709  21881414.300    89601040.94648
  21274216.880   111796822.99009  21274215.640    87114424.02148
 15 03 03 00 55  0.0000000  0  6G16G18G19G21G22G27
  20453618.180   107484516.54609  20453614.540    83754167.52148
  21834376.700   114740630.26609  21834373.040    89408276.09147
  23039638.980   121074131.53908  23039634.800    94343476.28047
  22797233.240   119800593.96008  22797229.320    93351277.91147
  21868168.700   114918252.52209  21868163.300    89546780.58047
  21265550.360   111751279.99909  21265549.080    87078935.98848
 15 03 03 00 55 30.0000000  0  6G16G18G19G21G22G27
  20451447.860   107473111.55009  20451444.300    83745280.50748
  21833235.400   114734632.29209  21833231.660    89403602.34747
  23026000.240   121002459.71608  23025996.040    94287628.13047
  22810385.260   119869707.66608  22810381.280    93405132.75347
  21854984.420   114848968.85209  21854979.020    89492793.33648
  21256914.400   111705897.71509  21256913.120    87043573.17448
 15 03 03 00 56  0.0000000  0  6G16G18G19G21G22G27
  20449378.020   107462234.52809  20449374.500    83736804.90648
  21832188.560   114729131.09709  21832184.740    89399315.72047
  23012381.040   120930889.79608  23012376.840    94231859.39247
  22823559.080   119938936.00008  22823555.000    93459076.90946
  21841868.060   114780042.18309  21841862.780    89439084.26447
  21248309.920   111660681.01209  21248308.680    87008339.39148
 15 03 03 00 56 30.0000000  0  6G16G18G19G21G22G27
  20447408.980   107451887.03209  20447405.420    83728741.91249
  21831236.400   114724127.69709  21831232.640    89395416.97247
  22998781.460   120859422.54808  22998777.160    94176170.65047
  22836754.440   120008277.59608  22836750.320    93513109.30847
  21828820.180   114711475.50509  21828815.000    89385655.70648
  21239737.240   111615631.16209  21239735.980    86973235.62248
 15 03 03 00 57  0.0000000  0  6G16G18G19G21G22G27
  20445540.340   107442067.02609  20445536.680    83721089.95549
  21830378.440   114719619.29909  21830374.780    89391903.94647
  22985200.840   120788055.27508  22985196.500    94120559.81547
  22849970.500   120077728.26608  22849966.340    93567226.71547
  21815840.600   114643267.85909  21815835.480    89332506.91148
  21231195.860   111570745.65709  21231194.560    86938259.91348
 15 03 03 00 57 30.0000000  0  6G16G18G19G21G22G27
  20443773.080   107432779.77309  20443769.360    83713853.13248
  21829615.560   114715610.40609  21829611.980    89388780.13747
  22971639.980   120716792.37808  22971635.520    94065030.30347
  22863207.740   120147290.76008  22863203.620    93621431.23747
  21802930.660   114575425.98409  21802925.540    89279643.14148
  21222686.660   111526029.53309  21222685.380    86903416.19048
 15 03 03 00 58  0.0000000  0  6G16G18G19G21G22G27
  20442106.700   107424022.65909  20442102.960    83707029.39648
  21828947.080   114712097.55909  21828943.420    89386042.86247
  22958098.400   120645630.83108  22958093.820    94009579.76147
  22876465.260   120216960.00208  22876461.160    93675718.95646
