     2.11           OBSERVATION DATA    G                   RINEX VERSION / TYPE
SPIDER V4,0,0,3554                      2015 03 17 00:01    PGM / RUN BY / DATE 
ABZH                                                        MARKER NAME         
ABZH                                                        MARKER NUMBER       
                                                            OBSERVER / AGENCY   
462405              LEICA GRX1200PRO    8.20/2.127          REC # / TYPE / VERS 
103261              LEIAT504                                ANT # / TYPE        
  5106694.6829   270584.9059  3799508.1083                  APPROX POSITION XYZ 
        0.0770        0.0000        0.0000                  ANTENNA: DELTA H/E/N
     1     1                                                WAVELENGTH FACT L1/2
     4    C1    L1    P2    L2                              # / TYPES OF OBSERV 
    30.000                                                  INTERVAL            
  2015    03    03    00    00    0.0000000     GPS         TIME OF FIRST OBS   
  2015    03    03    23    59   30.0000000     GPS         TIME OF LAST OBS    
    16                                                      LEAP SECONDS        
    30                                                      # OF SATELLITES     
   G 1   808   808   805   805                              PRN / # OF OBS      
   G 2   888   888   882   882                              PRN / # OF OBS      
   G 3   824   824   817   817                              PRN / # OF OBS      
   G 4   830   830   826   826                              PRN / # OF OBS      
   G 5   659   659   659   659                              PRN / # OF OBS      
   G 6   769   769   769   769                              PRN / # OF OBS      
   G 7   652   652   652   652                              PRN / # OF OBS      
   G 9   761   761   761   761                              PRN / # OF OBS      
   G10   764   764   762   762                              PRN / # OF OBS      
   G11   781   781   775   775                              PRN / # OF OBS      
   G12   794   794   790   790                              PRN / # OF OBS      
   G13   807   807   806   806                              PRN / # OF OBS      
   G14   870   870   863   863                              PRN / # OF OBS      
   G15   718   718   718   718                              PRN / # OF OBS      
   G16   676   676   671   671                              PRN / # OF OBS      
   G17   896   896   896   896                              PRN / # OF OBS      
   G18   899   899   889   889                              PRN / # OF OBS      
   G19   764   764   764   764                              PRN / # OF OBS      
   G20   780   780   778   778                              PRN / # OF OBS      
   G21   689   689   689   689                              PRN / # OF OBS      
   G22   751   751   743   743                              PRN / # OF OBS      
   G23   732   732   732   732                              PRN / # OF OBS      
   G24   784   784   784   784                              PRN / # OF OBS      
   G25   825   825   825   825                              PRN / # OF OBS      
   G27   815   815   815   815                              PRN / # OF OBS      
   G28   875   875   873   873                              PRN / # OF OBS      
   G29   737   737   736   736                              PRN / # OF OBS      
   G30   696   696   694   694                              PRN / # OF OBS      
   G31   806   806   806   806                              PRN / # OF OBS      
   G32   740   740   734   734                              PRN / # OF OBS      
BIT 2 OF LLI FLAGS DATA COLLECTED UNDER A/S CONDITION       COMMENT             
SNR is mapped to RINEX snr flag value [2-9]                 COMMENT             
Lx:     = 25dBHz -> 1; 26-27dBHz -> 2; 28-31dBHz -> 3       COMMENT             
       32-35dBHz -> 4; 36-38dBHz -> 5; 39-41dBHz -> 6       COMMENT             
       42-44dBHz -> 7; 45-48dBHz -> 8; >=49dBHz -> 9        COMMENT             
                                                            END OF HEADER       
 15 03 03 00 00  0.0000000  0  7G16G18G21G22G27G29G31
  21251926.240   111679645.35008  21251925.120    87023090.22647
  22464835.040   118053588.64907  22464834.260    91989851.05945
  21517797.200   113076801.03908  21517796.100    88111795.23147
  23627822.020   124165257.01106  23627823.860    96752247.10444
  22426916.580   117854280.09607  22426918.620    91834539.71146
  24449055.260   128480637.25404  24449056.300   100114778.85445
  23457582.980   123270386.71106  23457583.360    96054832.86544
 15 03 03 00 00 30.0000000  0  7G16G18G21G22G27G29G31
  21240523.620   111619723.86008  21240522.460    86976398.16647
  22454475.700   117999149.92907  22454474.960    91947431.28345
  21526502.820   113122548.81908  21526501.520    88147442.85547
  23610114.660   124072204.65506  23610115.900    96679739.28044
  22415145.900   117792424.09807  22415147.780    91786340.25046
  24463756.460   128557892.59704  24463757.820   100174977.79744
  23475954.840   123366928.80406  23475954.900    96130060.20245
 15 03 03 00 01  0.0000000  0  7G16G18G21G22G27G29G31
  21229184.920   111560138.65708  21229183.720    86929968.13847
  22444181.380   117945052.69607  22444180.720    91905277.62244
  21535265.180   113168594.89508  21535263.720    88183322.91347
  23592418.860   123979213.44406  23592419.680    96607279.10344
  22403398.440   117730690.23307  22403400.220    91738235.95246
  24478460.940   128635164.35404  24478462.080   100235189.49044
  23494345.800   123463572.13606  23494345.780    96205366.43045
 15 03 03 00 01 30.0000000  0  7G16G18G21G22G27G29G31
  21217910.640   111500892.32108  21217909.460    86883802.16647
  22433952.400   117891299.65107  22433951.860    91863392.15145
  21544083.880   113214937.36108  21544082.340    88219433.92947
  23574735.220   123886286.43506  23574735.920    96534868.95745
  22391674.260   117669079.00907  22391675.920    91690227.23346
  24493168.520   128712452.61804  24493169.340   100295414.04344
  23512755.260   123560314.28506  23512755.600    96280749.64744
 15 03 03 00 02  0.0000000  0  7G16G18G21G22G27G29G31
  21206702.080   111441991.05908  21206700.920    86837905.07447
  22423790.140   117837897.25807  22423789.780    91821779.92545
  21552959.580   113261579.32908  21552957.980    88255778.31447
  23557064.920   123793430.38906  23557065.480    96462514.04344
  22379974.120   117607594.57907  22379975.780    91642317.30246
  24507879.660   128789761.42304  24507880.980   100355654.63244
  23531183.640   123657156.17306  23531184.480    96356210.58644
 15 03 03 00 02 30.0000000  0  7G16G18G21G22G27G29G31
  21195556.480   111383420.58508  21195555.340    86792265.74647
  22413691.800   117784830.42207  22413691.360    91780429.16145
  21561888.800   113308502.21408  21561887.080    88292341.60047
  23539405.480   123700631.35206  23539405.900    96390203.54444
  22368294.980   117546220.38707  22368296.640    91594493.27846
  24522593.140   128867091.07005  24522593.520   100415918.23144
  23549627.200   123754078.09806  23549628.500    96431733.85445
 15 03 03 00 03  0.0000000  0  7G16G18G21G22G27G29G31
  21184478.720   111325206.62108  21184477.640    86746904.21847
  22403662.460   117732125.86907  22403661.920    91739360.68645
  21570875.680   113355728.39008  21570873.920    88329141.21247
  23521761.960   123607916.11006  23521762.220    96317958.30644
  22356641.540   117484980.74707  22356643.060    91546774.08046
  24537310.160   128944431.82004  24537310.720   100476183.69643
  23568090.240   123851101.50206  23568091.780    96507336.21545
 15 03 03 00 03 30.0000000  0  7G16G18G21G22G27G29G31
  21173466.900   111267338.83808  21173465.800    86701812.44347
  22393700.120   117679773.17207  22393699.500    91698566.41545
  21579917.400   113403242.54208  21579915.580    88366165.22047
  23504132.540   123515274.79806  23504132.840    96245770.64144
  22345011.200   117423863.09807  22345012.680    91499149.96746
  24552030.060   129021787.65004  24552030.920   100536460.90944
  23586569.900   123948210.96306  23586571.520    96583005.61144
 15 03 03 00 04  0.0000000  0  6G16G18G21G22G27G31
  21162520.580   111209815.52508  21162519.480    86656989.08647
  22383804.480   117627770.27707  22383803.640    91658044.68545
  21589012.940   113451039.59608  21589011.080    88403409.68247
  23486516.960   123422706.04006  23486517.460    96173639.51444
  22333403.360   117362863.47907  22333404.720    91451617.81246
  23605064.620   124045399.15506  23605066.360    96658736.35045
 15 03 03 00 04 30.0000000  0  6G16G18G21G22G27G31
  21151643.020   111152653.32208  21151641.880    86612447.10647
  22373978.540   117576133.91407  22373977.620    91617808.58145
  21598164.640   113499132.29308  21598162.900    88440884.50147
  23468918.500   123330227.07906  23468919.040    96101578.35745
  22321820.740   117301996.61807  22321822.080    91404189.10447
  23623576.520   124142677.87806  23623578.280    96734537.61545
 15 03 03 00 05  0.0000000  0  6G16G18G21G22G27G31
  21140831.440   111095838.56908  21140830.380    86568175.88247
  22364219.640   117524850.75607  22364218.860    91577847.70945
  21607369.180   113547502.79008  21607367.560    88478575.80447
  23451334.500   123237824.85606  23451335.120    96029576.97044
  22310260.400   117241246.91807  22310261.940    91356851.70247
  23642102.020   124240028.43806  23642103.580    96810394.86444
 15 03 03 00 05 30.0000000  0  7G16G18G19G21G22G27G31
  21130087.100   111039376.40108  21130085.960    86524179.37747
  22354528.820   117473925.72607  22354528.220    91538165.88645
  24537862.060   128947328.54804  24537862.520   100478449.66444
  21616627.040   113596153.42508  21616625.500    88516485.38147
  23433766.260   123145505.19906  23433766.980    95957639.88345
  22298723.060   117180617.63207  22298724.720    91309608.12546
  23660641.160   124337451.13606  23660642.620    96886308.31744
 15 03 03 00 06  0.0000000  0  7G16G18G19G21G22G27G31
  21119411.720   110983276.95808  21119410.600    86480465.53847
  22344907.960   117423368.41207  22344907.500    91498770.59945
  24522411.440   128866137.02305  24522412.340   100415183.58843
  21625939.240   113645089.38508  21625937.680    88554617.30247
  23416215.740   123053278.44906  23416216.260    95885775.18044
  22287210.180   117120116.72907  22287211.820    91262464.59747
  23679194.840   124434950.84606  23679196.480    96962281.77545
 15 03 03 00 06 30.0000000  0  7G16G18G19G21G22G27G31
  21108802.880   110927526.90708  21108801.800    86437023.94147
  22335354.620   117373165.97607  22335354.240    91459651.86045
  24506973.920   128785011.81204  24506974.380   100351969.21544
  21635302.340   113694293.09408  21635300.840    88592957.85247
  23398680.660   122961132.17706  23398681.060    95813973.17745
  22275718.740   117059728.76807  22275720.360    91215409.07246
  23697759.660   124532508.99305  23697761.640    97038300.77945
 15 03 03 00 07  0.0000000  0  7G16G18G19G21G22G27G31
  21098263.900   110872144.07208  21098262.800    86393868.49647
  22325872.180   117323335.93507  22325871.940    91420823.26345
  24491551.880   128703968.97204  24491552.160   100288819.02244
  21644719.240   113743779.65808  21644717.840    88631518.80947
  23381164.560   122869084.59506  23381164.840    95742248.06445
  22264251.840   116999469.61207  22264253.360    91168453.90246
  23716338.040   124630138.43906  23716340.420    97114375.28745
 15 03 03 00 07 30.0000000  0  7G16G18G19G21G22G27G31
  21087793.500   110817121.74608  21087792.280    86350993.95647
  22316459.420   117273871.46807  22316459.140    91382279.56245
  24476144.060   128623000.10904  24476144.040   100225726.51644
  21654187.940   113793538.27708  21654186.600    88670291.76447
  23363666.160   122777129.92706  23363666.160    95670595.32845
  22252807.820   116939331.18407  22252809.380    91121592.80147
  23734927.860   124727828.16706  23734930.600    97190496.80345
 15 03 03 00 08  0.0000000  0  7G16G18G19G21G22G27G31
  21077392.760   110762465.75108  21077391.580    86308404.88047
  22307117.460   117224778.94307  22307117.060    91344025.67645
  24460751.160   128542109.00304  24460750.660   100162694.51043
  21663708.600   113843570.03808  21663707.300    88709277.55747
  23346186.620   122685274.56906  23346186.420    95599019.97845
  22241387.420   116879316.91307  22241389.020    91074828.45746
  23753529.340   124825578.51606  23753532.320    97266665.52744
 15 03 03 00 08 30.0000000  0  7G16G18G19G21G22G27G31
  21067062.800   110708181.27208  21067061.580    86266105.28347
  22297847.180   117176062.99607  22297846.640    91306065.22146
  24445373.520   128461298.36105  24445373.000   100099725.24844
  21673281.660   113893877.08408  21673280.380    88748477.84247
  23328726.920   122593524.29806  23328726.660    95527526.50045
  22229991.320   116819430.07107  22229992.920    91028163.40446
  23772142.460   124923389.52705  23772145.700    97342881.51945
 15 03 03 00 09  0.0000000  0  7G16G18G19G21G22G27G31
  21056803.600   110654268.75708  21056802.360    86224095.53747
  22288648.580   117127723.82907  22288648.000    91268398.36645
  24430010.880   128380567.02205  24430010.660   100036817.78744
  21682906.400   113944455.41508  21682905.140    88787889.53647
  23311287.300   122501879.91906  23311286.980    95456115.51545
  22218619.160   116759669.15107  22218620.740    90981596.48046
  23790766.320   125021256.86405  23790769.480    97419141.39845
 15 03 03 00 09 30.0000000  0  7G16G18G19G21G22G27G31
  21046614.940   110600727.02608  21046613.740    86182374.71347
  22279521.460   117079760.57907  22279520.860    91231024.42245
  24414662.800   128299911.95704  24414662.500    99973969.74844
  21692581.860   113995300.49308  21692580.580    88827509.07247
  23293867.740   122410340.97206  23293867.480    95384786.66145
  22207270.420   116700031.15107  22207271.960    90935125.32346
  23809399.660   125119174.29505  23809402.640    97495440.29444
 15 03 03 00 10  0.0000000  0  7G16G18G19G21G22G27G31
  21036497.840   110547561.21508  21036496.640    86140946.82247
  22270466.740   117032178.00707  22270466.020    91193947.11345
  24399329.640   128219335.94905  24399329.300    99911183.30343
  21702308.220   114046412.88008  21702306.940    88867336.90947
  23276469.480   122318913.46306  23276469.180    95313544.65144
  22195945.580   116640519.13607  22195947.120    90888752.32846
  23828042.500   125217141.67706  23828045.420    97571778.11844
 15 03 03 00 10 30.0000000  0  7G16G18G19G21G22G27G31
  21026453.180   110494776.15508  21026452.020    86099815.60647
  22261485.480   116984981.05107  22261484.700    91157170.28745
  24384011.940   128138841.76504  24384011.760    99848460.64445
  21712085.720   114097794.24508  21712084.500    88907374.32747
  23259093.420   122227602.57106  23259093.020    95242393.49745
  22184645.260   116581135.97907  22184646.700    90842479.76146
  23846695.080   125315159.07406  23846697.720    97648154.89345
 15 03 03 00 11  0.0000000  0  7G16G18G19G21G22G27G31
  21016480.260   110442368.25308  21016479.220    86058978.29148
  22252576.800   116938165.70307  22252576.040    91120690.81845
  24368708.820   128058423.86505  24368708.600    99785797.37244
  21721912.920   114149436.74208  21721911.700    88947615.24147
  23241738.980   122136405.32106  23241738.500    95171330.86545
  22173368.420   116521876.27107  22173369.900    90796303.38046
  23865355.680   125413218.02306  23865358.200    97724564.04844
 15 03 03 00 11 30.0000000  0  7G16G18G19G21G22G27G31
  21006579.060   110390337.22008  21006578.040    86018434.62647
  22243740.560   116891731.26907  22243739.820    91084508.16045
  24353420.060   127978080.10305  24353419.600    99723191.93244
  21731789.060   114201336.64208  21731787.960    88988056.72147
  23224406.120   122045322.13806  23224405.640    95100357.13444
  22162114.620   116462737.91207  22162116.140    90750221.56446
  23884023.240   125511313.37006  23884025.580    97801001.54144
 15 03 03 00 12  0.0000000  0  7G16G18G19G21G22G27G31
  20996751.160   110338691.39908  20996750.200    85978191.13747
  22234978.500   116845686.67007  22234977.860    91048629.27645
  24338146.620   127897816.93305  24338145.840    99660649.24844
  21741714.920   114253497.63508  21741713.920    89028701.64047
  23207096.720   121954361.97206  23207096.200    95029479.24145
  22150885.240   116403727.37407  22150886.780    90704239.33346
  23902698.400   125609448.63506  23902700.380    97877470.16744
 15 03 03 00 12 30.0000000  0  7G16G18G19G21G22G27G31
  20986997.220   110287434.66308  20986996.360    85938250.83648
  22226291.320   116800035.69807  22226290.720    91013057.11145
  24322888.560   127817636.20104  24322887.740    99598170.80544
  21751690.640   114305920.36608  21751689.600    89069550.52847
  23189811.840   121863529.55906  23189811.160    94958700.89345
  22139680.580   116344846.57807  22139682.180    90658358.22646
  23921380.620   125707622.25205  23921382.440    97953968.67144
 15 03 03 00 13  0.0000000  0  7G16G18G19G21G22G27G31
  20977315.680   110236558.01908  20977314.860    85898606.70047
  22217677.240   116754768.91707  22217676.660    90977784.32545
  24307644.200   127737526.67904  24307643.360    99535747.85944
  21761713.760   114358591.98608  21761712.680    89110593.34047
  23172549.780   121772816.48506  23172548.840    94888015.50144
  22128498.480   116286084.50907  22128500.160    90612569.61946
  23940067.200   125805820.44805  23940069.340    98030486.28644
 15 03 03 00 13 30.0000000  0  7G16G18G19G21G22G27G31
  20967708.780   110186073.59708  20967707.940    85859268.20047
  22209138.600   116709898.22207  22209137.980    90942820.15146
  24292415.360   127657498.80804  24292414.500    99473388.54444
  21771785.820   114411520.64508  21771784.680    89151836.45647
  23155312.700   121682235.62806  23155311.780    94817433.19345
  22117341.120   116227451.72407  22117342.840    90566881.76146
  23958759.820   125904050.72205  23958762.300    98107028.96145
 15 03 03 00 14  0.0000000  0  7G16G18G19G21G22G27G31
  20958176.560   110135981.85308  20958175.720    85820235.67047
  22200675.420   116665424.00807  22200674.800    90908164.95045
  24277201.400   127577554.03504  24277201.180    99411079.59844
  21781906.200   114464702.98908  21781904.960    89193277.24547
  23138101.040   121591787.93606  23138099.980    94746954.60545
  22106208.060   116168946.70407  22106209.680    90521293.44246
  23977457.840   126002308.57306  23977460.660    98183593.11345
 15 03 03 00 14 30.0000000  0  6G16G18G21G22G27G31
  20948720.460   110086289.75408  20948719.600    85781514.56447
  22192288.920   116621352.82407  22192288.300    90873823.78445
  21792075.460   114518142.20408  21792074.100    89234918.19447
  23120916.240   121501480.96606  23120915.000    94676585.65945
  22095100.220   116110574.49607  22095101.740    90475808.60846
  23996161.620   126100595.73005  23996164.620    98260180.05344
 15 03 03 00 15  0.0000000  0  6G16G18G21G22G27G31
  20939338.440   110036986.67708  20939337.520    85743096.57647
  22183977.140   116577673.98307  22183976.500    90839788.33445
  21802290.800   114571823.65008  21802289.320    89276747.89447
  23103756.360   121411305.17506  23103755.000    94606318.94645
  22084015.400   116052322.79507  22084016.860    90430417.69147
  24014868.020   126198896.88605  24014871.200    98336777.91045
 15 03 03 00 15 30.0000000  0  7G16G18G19G21G22G27G31
  20930029.820   109988069.44908  20930028.880    85704979.26448
  22175739.380   116534384.12307  22175738.840    90806056.00846
  24231650.780   127338185.98704  24231648.540    99224548.78644
  21812550.960   114625740.77108  21812549.460    89318761.22947
  23086620.780   121321257.60706  23086619.440    94536152.13645
  22072952.560   115994186.56907  22072953.960    90385116.75246
  24033575.580   126297203.94305  24033578.980    98413380.37644
 15 03 03 00 16  0.0000000  0  7G16G18G19G21G22G27G31
  20920800.860   109939570.67208  20920799.860    85667188.00848
  22167581.800   116491515.71907  22167581.400    90772652.08446
  24216498.500   127258561.56105  24216496.460    99162503.82444
  21822861.380   114679922.00708  21822859.840    89360980.38646
  23069516.080   121231372.15606  23069514.760    94466111.64245
  22061917.460   115936196.68307  22061918.920    90339929.83646
  24052289.660   126395544.73505  24052293.120    98490009.11844
 15 03 03 00 16 30.0000000  0  7G16G18G19G21G22G27G31
  20911647.060   109891466.80508  20911645.980    85629704.47848
  22159499.880   116449045.28407  22159499.640    90739558.25746
  24201360.200   127179009.77004  24201358.060    99100515.44643
  21833216.860   114734340.47708  21833215.280    89403384.38747
  23052437.720   121141625.69606  23052436.580    94396179.46045
  22050905.300   115878327.71407  22050906.780    90294837.15247
  24071004.740   126493891.05005  24071008.280    98566642.16444
 15 03 03 00 17  0.0000000  0  7G16G18G19G21G22G27G31
  20902570.880   109843770.69508  20902569.640    85592538.67847
  22151495.980   116406984.82607  22151495.660    90706783.90145
  24186237.860   127099541.47904  24186235.780    99038592.12944
  21843619.060   114789004.51008  21843617.520    89445979.73747
  23035388.360   121052031.43806  23035387.420    94326365.86745
  22039918.240   115820590.57707  22039919.680    90249847.18547
  24089722.180   126592250.53205  24089726.060    98643285.49444
 15 03 03 00 17 30.0000000  0  7G16G18G19G21G22G27G31
  20893571.540   109796478.50508  20893570.160    85555687.61447
  22143569.500   116365330.74607  22143569.020    90674326.18645
  24171130.340   127020151.21205  24171128.560    98976729.64844
  21854066.600   114843906.88208  21854065.100    89488760.80847
  23018367.440   120962586.66706  23018366.480    94256668.73545
  22028955.240   115762979.96707  22028956.740    90204955.81347
  24108440.360   126690614.81905  24108444.760    98719932.54145
 15 03 03 00 18  0.0000000  0  7G16G18G19G21G22G27G31
  20884650.120   109749596.01608  20884648.760    85519155.80948
  22135721.340   116324088.43607  22135720.880    90642189.34845
  24156038.320   126940842.59205  24156036.640    98914930.75944
  21864559.900   114899049.51108  21864558.400    89531729.08947
  23001376.180   120873297.64406  23001375.160    94187092.99044
  22018017.080   115705499.67707  22018018.600    90160166.00547
  24127159.740   126788984.74806  24127164.220    98796584.01344
 15 03 03 00 18 30.0000000  0  7G16G18G19G21G22G27G31
  20875806.680   109703123.47808  20875805.320    85482943.43347
  22127951.540   116283257.93807  22127951.040    90610373.39845
  24140961.480   126861613.97805  24140960.040    98853194.22844
  21875098.240   114954429.01408  21875096.840    89574881.94847
  22984414.700   120784165.38206  22984413.820    94117639.39045
  22007103.440   115648148.22707  22007105.020    90115476.57447
  24145879.440   126887355.66205  24145883.920    98873236.23545
 15 03 03 00 19  0.0000000  0  7G16G18G19G21G22G27G31
  20867041.540   109657062.50808  20867040.240    85447051.77748
  22120260.420   116242840.77207  22120259.880    90578879.51545
  24125899.940   126782465.27405  24125898.420    98791519.93444
  21885681.000   115010042.12407  21885679.720    89618216.83347
  22967483.580   120695192.50306  22967482.800    94048309.96445
  21996214.240   115590925.52907  21996216.040    90070887.47747
  24164598.720   126985724.36005  24164603.140    98949886.74042
 15 03 03 00 19 30.0000000  0  7G16G18G19G21G22G27G31
  20858354.900   109611414.14108  20858353.640    85411481.61548
  22112648.000   116202837.17207  22112647.440    90547707.90945
  24110853.520   126703395.39405  24110851.840    98729907.07645
  21896308.160   115065888.24008  21896306.900    89661733.28546
  22950583.080   120606380.51406  22950582.300    93979105.91545
  21985349.400   115533830.83207  21985351.360    90026398.12947
  24183316.880   127084087.01305  24183320.960    99026532.50844
 15 03 03 00 20  0.0000000  0  7G16G18G19G21G22G27G31
  20849748.100   109566185.30908  20849746.860    85376238.37148
  22105115.680   116163254.31308  22105115.180    90516864.14646
  24095822.880   126624409.59605  24095820.960    98668359.76344
  21906980.060   115121969.50607  21906978.760    89705432.98047
  22933714.720   120517737.16206  22933713.860    93910033.27245
  21974509.960   115476869.43007  21974511.900    89982012.63347
  24202034.240   127182445.80705  24202038.080    99103175.30645
 15 03 03 00 20 30.0000000  0  7G16G18G19G21G22G27G31
  20841220.280   109521371.69608  20841219.160    85341318.68148
  22097662.460   116124087.28107  22097661.920    90486344.39446
  24080807.220   126545501.97006  24080805.480    98606873.35045
  21917695.100   115178277.55708  21917693.760    89749309.38747
  22916877.760   120429259.07906  22916876.940    93841089.41545
  21963694.760   115420035.32007  21963696.640    89937726.33447
  24220749.220   127280791.68305  24220753.080    99179807.97944
 15 03 03 00 21  0.0000000  0  7G16G18G19G21G22G27G31
  20832773.100   109476981.49208  20832772.060    85306728.90748
  22090289.800   116085344.14507  22090289.360    90456154.97346
  24065807.580   126466678.64505  24065806.080    98545452.60644
  21928454.200   115234816.98108  21928452.860    89793366.07446
  22900074.020   120340955.48106  22900073.240    93772281.49445
  21952905.020   115363335.18207  21952906.820    89893544.41347
  24239462.380   127379128.43605  24239466.400    99256433.56845
 15 03 03 00 21 30.0000000  0  7G16G18G19G21G22G27G31
  20824405.780   109433010.89208  20824404.740    85272466.10248
  22082997.100   116047021.02207  22082996.760    90426292.81746
  24050822.920   126387933.70706  24050821.500    98484092.92644
  21939256.000   115291580.62008  21939254.660    89837597.47947
  22883302.860   120252822.68406  22883301.940    93703606.65845
  21942139.580   115306763.26707  21942141.420    89849462.44247
  24258172.220   127477447.41505  24258176.660    99333045.28844
 15 03 03 00 22  0.0000000  0  7G16G18G19G21G22G27G31
  20816119.340   109389465.20908  20816118.220    85238534.40148
  22075785.240   116009122.59107  22075784.900    90396761.59346
  24035853.920   126309270.96506  24035852.380    98422797.32944
  21950100.700   115348569.87207  21950099.380    89882004.68646
  22866565.440   120164866.94606  22866564.480    93635069.80745
  21931399.300   115250323.20807  21931401.220    89805483.19447
  24276878.900   127575748.85405  24276883.540    99409643.33244
 15 03 03 00 22 30.0000000  0  7G16G18G19G21G22G27G31
  20807914.660   109346349.35808  20807913.540    85204937.63848
  22068655.020   115971653.71307  22068654.680    90367565.09146
  24020900.980   126230693.32106  24020899.440    98361568.03943
  21960988.420   115405785.41107  21960987.160    89926588.22546
  22849862.820   120077093.93607  22849861.580    93566675.33345
  21920684.800   115194018.33607  21920686.800    89761609.29447
  24295582.380   127674033.08605  24295587.440    99486227.97543
 15 03 03 00 23  0.0000000  0  7G16G18G19G21G22G27G31
  20799790.660   109303657.25608  20799789.500    85171671.05748
  22061605.480   115934608.00107  22061605.020    90338698.31546
  24005962.940   126152193.15506  24005961.200    98300399.10844
  21971917.440   115463217.83807  21971916.200    89971340.76846
  22833194.020   119989498.62206  22833192.560    93498419.32245
  21909994.580   115137841.00507  21909996.620    89717834.76547
  24314280.300   127772289.38005  24314285.800    99562790.83344
 15 03 03 00 23 30.0000000  0  7G16G18G19G21G22G27G31
  20791748.700   109261396.54208  20791747.620    85138740.64048
  22054637.860   115897992.76907  22054637.300    90310166.98845
  23991040.620   126073776.17005  23991039.140    98239294.97545
  21982888.540   115520871.63607  21982887.400    90016265.79746
  22816560.600   119902089.27807  22816558.960    93430308.22345
  21899329.800   115081797.10307  21899331.800    89674164.21547
  24332973.320   127870520.68305  24332979.260    99639334.23343
 15 03 03 00 24  0.0000000  0  7G16G18G19G21G22G27G31
  20783789.280   109219569.47608  20783788.220    85106148.11548
  22047752.340   115861809.54007  22047751.740    90281972.28945
  23976134.200   125995442.78005  23976133.000    98178256.04743
  21993901.500   115578745.50707  21993900.420    90061362.32246
  22799963.080   119814869.15007  22799961.420    93362344.55146
  21888690.540   115025887.49107  21888692.500    89630598.30747
  24351661.100   127968724.77105  24351667.360    99715856.40144
 15 03 03 00 24 30.0000000  0  7G16G18G19G21G22G27G31
  20775912.860   109178178.89808  20775911.840    85073895.73048
  22040949.560   115826061.08207  22040948.980    90254116.36146
  23961243.640   125917193.95204  23961242.660    98117282.99844
  22004955.960   115636837.77807  22004954.960    90106629.02447
  22783402.120   119727841.25407  22783400.440    93294530.67345
  21878077.000   114970113.12207  21878078.900    89587137.77447
  24370343.360   128066899.28305  24370349.420    99792355.49943
 15 03 03 00 25  0.0000000  0  7G16G18G19G21G22G27G31
  20768118.900   109137221.51708  20768117.880    85041980.87948
  22034228.920   115790744.12407  22034228.480    90226596.67546
  23946368.200   125839024.66004  23946367.240    98056371.92344
  22016050.780   115695141.68908  22016049.780    90152060.64046
  22766877.440   119641003.86907  22766875.700    93226865.24145
  21867488.300   114914469.28307  21867490.240    89543778.96147
  24389018.640   128165036.86805  24389024.340    99868825.78142
 15 03 03 00 25 30.0000000  0  7G16G18G19G21G22G27G31
  20760408.140   109096700.81408  20760407.060    85010406.30948
  22027590.920   115755861.21007  22027590.480    90199415.20146
  23931508.360   125760936.85404  23931507.540    97995524.32145
  22027186.080   115753657.87807  22027184.940    90197657.67046
  22750389.860   119554361.08807  22750388.040    93159351.44145
  21856924.940   114858957.90707  21856926.800    89500523.36547
  24407686.880   128263136.27005  24407692.380    99945266.35044
 15 03 03 00 26  0.0000000  0  7G16G18G19G21G22G27G31
  20752781.020   109056620.05408  20752779.960    84979174.55248
  22021036.320   115721415.97308  22021035.680    90172574.76945
  23916664.300   125682932.22705  23916663.580    97934741.58844
  22038361.600   115812385.46407  22038360.360    90243419.42146
  22733940.160   119467917.38407  22733938.180    93091992.78945
  21846387.140   114803581.06408  21846388.980    89457372.58847
  24426347.780   128361196.48805  24426352.960   100021676.28644
 15 03 03 00 26 30.0000000  0  7G16G18G19G21G22G27G31
  20745237.180   109016977.05708  20745236.240    84948283.90348
  22014564.260   115687405.03707  22014563.520    90146072.77045
  23901835.560   125605006.58804  23901834.800    97874020.38144
  22049576.160   115871318.12507  22049574.880    90289340.96946
  22717527.940   119381670.88207  22717525.840    93024787.78645
  21835874.060   114748334.48907  21835875.960    89414323.32147
  24444999.660   128459209.69405  24445004.440   100098049.65044
 15 03 03 00 27  0.0000000  0  7G16G18G19G21G22G27G31
  20737779.380   108977786.21308  20737778.420    84917745.58848
  22008177.540   115653842.68108  22008176.820    90119920.30145
  23887023.880   125527172.23704  23887023.740    97813370.26645
  22060831.880   115930467.03107  22060830.560    90335431.02946
  22701156.160   119295636.58207  22701154.020    92957748.12945
  21825388.300   114693231.01008  21825390.180    89371385.56147
  24463644.500   128557186.41705  24463649.340   100174394.56343
 15 03 03 00 27 30.0000000  0  7G16G18G19G21G22G27G31
  20730405.420   108939035.74208  20730404.460    84887550.41748
  22001874.020   115620717.12108  22001873.140    90094108.19145
  23872227.220   125449416.22005  23872227.600    97752781.22643
  22072125.920   115989817.58307  22072124.640    90381678.20046
  22684822.720   119209804.14107  22684820.680    92890865.77045
  21814927.240   114638257.60308  21814929.060    89328549.15547
  24482279.120   128655110.40605  24482284.380   100250698.37945
 15 03 03 00 28  0.0000000  0  7G16G18G19G21G22G27G31
  20723116.400   108900731.90408  20723115.380    84857703.27548
  21995654.660   115588034.00808  21995653.640    90068640.84946
  23857446.480   125371742.90705  23857446.800    97692256.58344
  22083458.720   116049371.87507  22083457.380    90428084.13846
  22668529.020   119124180.67607  22668527.040    92824146.24345
  21804491.820   114583419.07708  21804493.520    89285817.83847
  24500903.840   128752983.25805  24500909.440   100326962.27343
 15 03 03 00 28 30.0000000  0  7G16G18G19G21G22G27G31
  20715912.560   108862875.69308  20715911.580    84828204.93348
  21989519.540   115555793.72708  21989518.560    90043518.56845
  23842681.460   125294151.56805  23842681.420    97631795.84644
  22094829.800   116109126.67307  22094828.200    90474646.31946
  22652275.340   119038767.73407  22652273.480    92757590.75746
  21794081.920   114528714.69708  21794083.500    89243191.07747
  24519518.260   128850801.30605  24519524.100   100403183.52444
 15 03 03 00 29  0.0000000  0  7G16G18G19G21G22G27G31
  20708794.440   108825469.85408  20708793.500    84799057.53048
  21983469.220   115523998.95008  21983468.320    90018743.42946
  23827932.440   125216643.53106  23827932.180    97571399.98545
  22106239.020   116169081.96108  22106237.260    90521364.72746
  22636062.500   118953569.07907  22636060.740    92691202.26845
  21783697.920   114474145.99308  21783699.360    89200670.02747
  24538121.960   128948562.84304  24538128.300   100479360.64543
 15 03 03 00 29 30.0000000  0  7G16G18G19G21G22G27G31
  20701763.200   108788520.14108  20701762.200    84770265.53848
  21977504.620   115492654.79708  21977503.720    89994319.43446
  23813199.960   125139222.80906  23813199.520    97511072.20945
  22117686.760   116229239.87007  22117684.940    90568241.01446
  22619891.840   118868591.27207  22619889.920    92624985.84045
  21773340.480   114419717.15808  21773341.880    89158257.95247
  24556715.180   129046268.71904  24556721.900   100555494.35944
 15 03 03 00 30  0.0000000  0  7G16G18G19G21G22G27G31
  20694818.480   108752025.27808  20694817.460    84741827.99448
  21971625.440   115461759.63408  21971624.580    89970245.30246
  23798483.400   125061886.44406  23798482.720    97450810.13945
  22129172.100   116289595.49507  22129170.260    90615271.35946
  22603763.120   118783834.23707  22603761.060    92558941.44045
  21763009.180   114365425.58908  21763010.540    89115952.83147
  24575297.040   129143914.08105  24575303.880   100631581.01544
 15 03 03 00 30 30.0000000  0  7G16G18G19G21G22G27G31
  20687960.160   108715984.48008  20687959.060    84713744.24948
  21965831.480   115431312.40508  21965830.680    89946520.20146
  23783782.460   124984631.83406  23783781.560    97390611.78945
  22140694.340   116350145.15407  22140692.420    90662452.90946
  22587676.460   118699298.07907  22587674.300    92493069.17545
  21752703.540   114311269.05608  21752704.820    89073752.94247
  24593866.480   129241493.21305  24593873.460   100707615.99943
 15 03 03 00 31  0.0000000  0  7G16G18G19G21G22G27G31
  20681189.240   108680402.96808  20681188.100    84686018.39848
  21960123.520   115401317.48808  21960122.820    89923147.55046
  23769097.680   124907462.50806  23769096.720    97330479.90645
  22152253.680   116410889.56207  22152251.660    90709786.20646
  22571632.940   118614988.61207  22571630.640    92427373.53445
  21742424.280   114257251.10408  21742425.380    89031661.03947
  24612423.460   129339006.78904  24612430.560   100783599.78645
 15 03 03 00 31 30.0000000  0  7G16G18G19G21G22G27G31
  20674506.340   108645284.07108  20674505.240    84658653.02148
  21954502.240   115371778.01108  21954501.540    89900129.79046
  23754429.460   124830380.48906  23754428.420    97270416.03045
  22163850.100   116471828.94507  22163848.060    90757271.43546
  22555633.380   118530909.96607  22555630.900    92361857.75645
  21732171.840   114203373.90108  21732172.800    88989678.81747
  24630967.620   129436453.66304  24630975.160   100859531.66243
 15 03 03 00 32  0.0000000  0  7G16G18G19G21G22G27G31
  20667911.180   108610626.34208  20667910.160    84631647.00148
  21948967.420   115342692.43308  21948966.720    89877465.71846
  23739777.200   124753382.87106  23739776.480    97210417.92345
  22175482.740   116532958.91507  22175480.720    90804905.17846
  22539677.760   118447062.12807  22539675.080    92296521.82245
  21721945.640   114149634.85908  21721946.640    88947804.25047
  24649497.980   129533828.55305  24649506.100   100935407.42844
 15 03 03 00 32 30.0000000  0  7G16G18G19G21G22G27G31
  20661404.180   108576431.79408  20661403.180    84605001.89948
  21943519.140   115314061.89608  21943518.580    89855156.23546
  23725141.120   124676469.65706  23725140.360    97150485.57745
  22187151.180   116594277.31007  22187149.140    90852685.73546
  22523766.560   118363447.88207  22523763.880    92231367.91146
  21711745.700   114096034.34108  21711746.980    88906037.62447
  24668014.020   129631128.41505  24668022.820   101011224.78144
 15 03 03 00 33  0.0000000  0  7G16G18G19G21G22G27G31
  20654985.800   108542702.97508  20654984.780    84578719.70248
  21938157.980   115285888.91008  21938157.540    89833203.26746
  23710521.320   124599642.04706  23710520.500    97090619.94444
  22198855.300   116655783.45907  22198853.300    90900612.60046
  22507900.320   118280070.56707  22507897.780    92166398.63246
  21701572.400   114042573.74308  21701573.860    88864380.01847
  24686515.560   129728351.49205  24686524.880   101086982.22044
 15 03 03 00 33 30.0000000  0  6G16G18G19G21G22G27
  20648654.900   108509433.41308  20648653.780    84552795.36048
  21932882.600   115258166.19608  21932882.140    89811601.17346
  23695916.120   124522892.04605  23695915.340    97030814.80845
  22210593.320   116717467.74507  22210591.480    90948678.27446
  22492078.200   118196925.01207  22492075.720    92101609.93346
  21691424.180   113989245.16508  21691425.840    88822825.30047
 15 03 03 00 34  0.0000000  0  6G16G18G19G21G22G27
  20642416.260   108476648.93108  20642415.080    84527249.00848
  21927697.660   115230919.14708  21927697.200    89790369.72546
  23681330.380   124446244.44005  23681329.720    96971089.44345
  22222369.500   116779352.55907  22222367.860    90996900.19946
  22476305.180   118114037.53207  22476302.680    92037022.32346
  21681305.780   113936073.03208  21681307.560    88781392.48547
 15 03 03 00 34 30.0000000  0  6G16G18G19G21G22G27
  20636265.240   108444324.88008  20636263.980    84502061.43148
  21922598.540   115204122.79708  21922598.020    89769489.46846
  23666759.280   124369672.36505  23666758.540    96911422.94244
  22234178.560   116841409.89607  22234177.060    91045256.56946
  22460576.800   118031384.98107  22460574.400    91972617.79146
  21671212.280   113883031.68908  21671214.020    88740061.57747
 15 03 03 00 35  0.0000000  0  6G16G18G19G21G22G27
  20630205.020   108412478.27708  20630203.760    84477245.89948
  21917588.260   115177793.52408  21917587.620    89748973.16446
  23652205.180   124293191.34605  23652204.560    96851827.35744
  22246022.980   116903653.21107  22246021.680    91093757.84546
  22444896.520   117948984.87907  22444894.200    91908409.95946
  21661146.680   113830136.75408  21661148.420    88698844.76547
 15 03 03 00 35 30.0000000  0  6G16G18G19G21G22G27
  20624234.520   108381103.22208  20624233.260    84452797.80048
  21912665.640   115151925.27808  21912664.960    89728816.10246
  23637667.120   124216794.61205  23637666.700    96792297.48445
  22257901.140   116966073.50507  22257899.920    91142397.03546
  22429263.420   117866832.45507  22429261.140    91844395.12846
  21651107.620   113777381.15008  21651109.300    88657736.51147
 15 03 03 00 36  0.0000000  0  6G16G18G19G21G22G27
  20618353.780   108350200.02408  20618352.560    84428717.38648
  21907830.740   115126517.58108  21907830.000    89709017.92346
  23623145.000   124140480.87705  23623144.700    96732832.27944
  22269812.380   117028667.81107  22269811.240    91191171.82246
  22413677.640   117784929.38007  22413675.500    91780574.60746
  21641094.940   113724764.06208  21641096.680    88616736.20247
 15 03 03 00 36 30.0000000  0  6G16G18G19G21G22G27
  20612564.160   108319775.53108  20612562.940    84405009.98548
  21903084.740   115101576.71808  21903083.900    89689583.49245
  23608639.780   124064255.40205  23608639.400    96673435.86145
  22281757.280   117091439.48607  22281756.260    91240084.80546
  22398140.840   117703283.21507  22398138.700    91716954.26046
  21631109.720   113672291.04608  21631111.480    88575848.14847
 15 03 03 00 37  0.0000000  0  6G16G18G19G21G22G27
  20606865.880   108289830.92308  20606864.660    84381676.52448
  21898427.720   115077103.55808  21898426.740    89670513.51846
  23594151.260   123988116.99105  23594150.500    96614107.24744
  22293735.460   117154385.62507  22293734.480    91289133.75046
  22382653.320   117621895.84607  22382651.260    91653535.56746
  21621151.720   113619961.74908  21621153.580    88535072.08347
 15 03 03 00 37 30.0000000  0  6G16G18G19G21G22G27
  20601259.040   108260366.63008  20601257.800    84358717.33048
  21893859.640   115053097.97508  21893858.520    89651807.88346
  23579679.220   123912065.53705  23579678.320    96554846.45344
  22305746.580   117217504.37107  22305745.560    91338317.19146
  22367215.340   117540769.02907  22367213.360    91590319.90246
  21611221.000   113567775.75008  21611222.800    88494407.67447
 15 03 03 00 38  0.0000000  0  6G16G18G19G21G22G27
  20595743.800   108231383.80608  20595742.480    84336133.31448
  21889380.540   115029560.52708  21889379.420    89633467.03946
  23565223.780   123836100.76705  23565222.500    96495653.16745
  22317790.100   117280793.38307  22317789.020    91387633.29446
  22351827.380   117459905.15507  22351825.380    91527309.14345
  21601317.620   113515733.10508  21601319.280    88453854.97447
 15 03 03 00 38 30.0000000  0  6G16G18G19G21G22G27
  20590321.120   108202887.57708  20590319.800    84313928.46048
  21884991.380   115006495.86108  21884990.280    89615494.58646
  23550785.300   123760226.33205  23550784.040    96436530.23244
  22329866.500   117344254.67307  22329865.320    91437083.64846
  22336490.600   117379310.12107  22336488.520    91464507.83446
  21591442.320   113463837.74908  21591443.760    88413417.05147
 15 03 03 00 39  0.0000000  0  6G16G18G19G21G22G27
  20584990.620   108174875.79008  20584989.360    84292101.09548
  21880691.760   114983901.53108  21880690.720    89597888.62746
  23536363.400   123684438.90905  23536362.080    96377475.12545
  22341974.600   117407882.63707  22341973.380    91486663.87546
  22321204.760   117298982.92607  22321202.720    91401915.25846
  21581594.440   113412086.52508  21581595.860    88373091.42847
 15 03 03 00 39 30.0000000  0  6G16G18G19G21G22G27
  20579753.040   108147352.05008  20579751.820    84270654.01948
  21876482.180   114961780.55908  21876481.360    89580651.51646
  23521958.460   123608740.68506  23521957.040    96318489.55344
  22354114.520   117471677.81107  22354113.300    91536374.40546
  22305970.820   117218928.21207  22305968.740    91339535.00246
  21571774.460   113360481.84808  21571775.820    88332880.00547
 15 03 03 00 40  0.0000000  0  6G16G18G19G21G22G27
  20574608.200   108120315.82808  20574607.080    84249586.83348
  21872362.400   114940131.47308  21872361.740    89563782.11146
  23507570.100   123533129.53006  23507568.600    96259571.82145
  22366285.420   117535636.11507  22366284.240    91586212.03646
  22290788.900   117139146.24307  22290786.640    91277367.25846
  21561982.040   113309021.99408  21561983.360    88292781.42247
 15 03 03 00 40 30.0000000  0  6G16G18G19G21G22G27
  20569556.520   108093769.08908  20569555.420    84228901.06548
  21868332.880   114918956.07208  21868332.140    89547281.80846
  23493198.620   123457606.36506  23493197.140    96200722.61744
  22378487.220   117599757.16207  22378486.180    91636176.49046
  22275659.460   117059640.49607  22275657.180    91215414.77646
  21552217.340   113257708.11808  21552218.660    88252796.59647
 15 03 03 00 41  0.0000000  0  6G16G18G19G21G22G27
  20564598.900   108067716.37808  20564597.800    84208600.25148
  21864394.280   114898258.36308  21864393.460    89531153.75446
  23478844.400   123382174.22406  23478842.860    96141944.34144
  22390720.160   117664041.56907  22390719.180    91686268.22646
  22260583.540   116980416.35707  22260581.220    91153681.70946
  21542481.020   113206543.54208  21542482.420    88212928.11047
 15 03 03 00 41 30.0000000  0  6G16G18G19G21G22G27
  20559734.920   108042155.96708  20559733.860    84188683.05048
  21860546.160   114878036.26608  21860545.340    89515396.29746
  23464506.940   123306830.11906  23464505.200    96083234.65745
  22402983.320   117728484.77607  22402982.480    91736483.70946
  22245561.120   116901473.43007  22245558.760    91092167.77946
  21532772.540   113155525.57208  21532774.100    88173173.86547
 15 03 03 00 42  0.0000000  0  6G16G18G19G21G22G27
  20554964.700   108017088.47308  20554963.700    84169149.93148
  21856788.460   114858289.42508  21856787.700    89500009.16246
  23450186.180   123231573.33406  23450184.200    96024593.05145
  22415276.220   117793084.26507  22415275.420    91786820.97346
  22230592.620   116822813.21107  22230590.140    91030874.13246
  21523091.900   113104653.85408  21523093.480    88133533.56647
 15 03 03 00 42 30.0000000  0  6G16G18G19G21G22G27
  20550289.500   107992520.42508  20550288.560    84150006.00048
  21853122.300   114839024.03108  21853121.660    89484997.17946
  23435883.000   123156409.34306  23435881.080    95966023.73445
  22427599.500   117857843.49407  22427598.680    91837282.69846
  22215679.300   116744443.47207  22215676.860    90969806.85246
  21513440.200   113053934.03908  21513441.760    88094011.64047
 15 03 03 00 43  0.0000000  0  6G16G18G19G21G22G27
  20545708.740   107968448.47408  20545707.760    84131248.63648
  21849546.940   114820235.79808  21849546.380    89470357.01846
  23421596.680   123081333.50206  23421594.680    95907523.11945
  22439951.940   117922755.98607  22439950.960    91887863.85846
  22200820.820   116666362.02907  22200818.440    90908964.19246
  21503816.660   113003361.78708  21503818.080    88054604.69147
 15 03 03 00 43 30.0000000  0  6G16G18G19G21G22G27
  20541223.360   107944877.45108  20541222.380    84112881.59748
  21846063.380   114801929.45608  21846062.660    89456092.34846
  23407327.780   123006349.58706  23407325.760    95849094.12446
  22452333.940   117987823.57207  22452332.760    91938565.88046
  22186018.360   116588574.71107  22186015.980    90848350.73246
  21494221.920   112952940.91208  21494223.260    88015315.70347
 15 03 03 00 44  0.0000000  0  6G16G18G19G21G22G27
  20536833.820   107921810.12108  20536832.840    84094907.05048
  21842671.960   114784107.54408  21842671.180    89442205.15946
  23393076.560   122931459.43305  23393074.680    95790738.20946
  22464745.280   118053045.90107  22464744.020    91989388.46046
  22171272.600   116511085.44507  22171270.220    90787969.51446
  21484656.420   112902673.51508  21484657.740    87976146.30547
 15 03 03 00 44 30.0000000  0  6G16G18G19G21G22G27
  20532539.560   107899243.60408  20532538.600    84077322.75248
  21839371.960   114766766.07708  21839371.200    89428692.34246
  23378842.160   122856658.32005  23378840.460    95732451.65245
  22477185.040   118118417.28107  22477183.700    92040327.18746
  22156583.240   116433892.38207  22156580.800    90727819.11246
  21475119.300   112852555.58308  21475120.680    87937093.38547
 15 03 03 00 45  0.0000000  0  6G16G18G19G21G22G27
  20528340.760   107877178.61608  20528339.800    84060129.25848
  21836163.400   114749904.91508  21836162.700    89415553.79046
  23364624.780   122781945.96005  23364623.040    95674234.25846
  22489652.760   118183935.19207  22489651.280    92091380.10146
  22141950.540   116356997.41807  22141948.140    90667900.98046
  21465610.600   112802587.00808  21465612.040    87898156.83648
 15 03 03 00 45 30.0000000  0  6G16G18G19G21G22G27
  20524238.600   107855621.38108  20524237.580    84043331.40648
  21833047.300   114733529.70408  21833046.640    89402793.89846
  23350425.260   122707327.63505  23350423.620    95616090.15345
  22502149.080   118249603.22207  22502147.460    92142549.98446
  22127376.020   116280408.11707  22127373.620    90608221.03146
  21456131.300   112752773.29508  21456132.840    87859340.97247
 15 03 03 00 46  0.0000000  0  6G16G18G19G21G22G27
  20520232.360   107834568.27708  20520231.320    84026926.39048
  21830023.180   114717637.41508  21830022.360    89390410.29846
  23336242.740   122632798.17405  23336241.240    95558015.27845
  22514672.720   118315414.48507  22514670.940    92193831.48346
  22112859.180   116204121.99907  22112856.840    90548777.33846
  21446680.540   112703109.92008  21446682.180    87820642.25047
 15 03 03 00 46 30.0000000  0  6G16G18G19G21G22G27
  20516322.700   107814022.91908  20516321.620    84010917.01648
  21827091.340   114702230.14808  21827090.360    89378404.64146
  23322077.720   122558360.81705  23322076.080    95500012.16846
  22527223.740   118381369.72607  22527221.760    92245225.17546
  22098401.020   116128143.95007  22098398.740    90489573.69046
  21437258.980   112653599.72208  21437260.600    87782062.87347
 15 03 03 00 47  0.0000000  0  6G16G18G19G21G22G27
  20512510.200   107793988.27008  20512509.120    83995305.60348
  21824252.260   114687310.65808  21824251.220    89366779.07346
  23307930.540   122484017.14705  23307928.820    95442082.07645
  22539802.160   118447469.26407  22539800.100    92296731.31445
  22084002.220   116052477.86407  22083999.940    90430613.13046
  21427867.160   112604244.98008  21427868.660    87743604.64347
 15 03 03 00 47 30.0000000  0  6G16G18G19G21G22G27
  20508794.620   107774463.03908  20508793.620    83980091.13348
  21821505.520   114672876.78108  21821504.520    89355531.91746
  23293800.760   122409764.76205  23293799.020    95384223.09346
  22552407.140   118513708.42907  22552404.940    92348346.24345
  22069662.800   115977123.52907  22069660.500    90371895.49546
  21418504.520   112555043.42608  21418505.880    87705265.76947
 15 03 03 00 48  0.0000000  0  6G16G18G19G21G22G27
  20505176.700   107755450.85108  20505175.760    83965276.44148
  21818851.760   114658931.34908  21818850.840    89344665.35446
  23279688.880   122335606.29305  23279687.200    95326437.30845
  22565038.760   118580087.94307  22565036.580    92400070.53446
  22055383.660   115902086.18407  22055381.340    90313424.86546
  21409171.540   112505998.01208  21409172.760    87667048.56847
 15 03 03 00 48 30.0000000  0  6G16G18G19G21G22G27
  20501656.340   107736951.54208  20501655.460    83950861.39348
  21816290.940   114645473.86808  21816289.940    89334179.02046
  23265594.600   122261540.28605  23265592.980    95268723.56145
  22577696.620   118646605.46207  22577694.500    92451902.35046
  22041164.980   115827366.70807  22041162.720    90255201.92246
  21399868.040   112457107.88408  21399869.220    87628952.37047
 15 03 03 00 49  0.0000000  0  6G16G18G19G21G22G27
  20498234.460   107718969.56708  20498233.540    83936849.45948
  21813823.700   114632508.21608  21813822.600    89324075.93946
  23251518.500   122187570.59606  23251516.920    95211084.87845
  22590381.000   118713262.34207  22590378.860    92503842.77846
  22027007.880   115752970.86907  22027005.700    90197231.15846
  21390594.820   112408376.96508  21390596.000    87590980.23447
 15 03 03 00 49 30.0000000  0  6G16G18G19G21G22G27
  20494910.340   107701501.08808  20494909.320    83923237.65148
  21811449.140   114620029.85608  21811448.100    89314352.55246
  23237459.960   122113692.30706  23237458.240    95153517.40145
  22603090.540   118780051.86207  22603088.500    92555886.56045
  22012911.820   115678895.84207  22012909.700    90139510.39346
  21381351.060   112359800.53708  21381352.280    87553128.46947
 15 03 03 00 50  0.0000000  0  6G16G18G19G21G22G27
  20491684.860   107684550.93208  20491683.800    83910029.73148
  21809168.060   114608042.98308  21809167.080    89305012.15046
  23223419.460   122039909.13906  23223417.700    95096024.05244
  22615825.640   118846976.02107  22615823.740    92608035.25345
  21998878.000   115605147.85107  21998875.940    90082044.44646
  21372137.500   112311382.94408  21372138.840    87515400.49047
 15 03 03 00 50 30.0000000  0  6G16G18G19G21G22G27
  20488558.380   107668121.22708  20488557.320    83897227.36348
  21806980.800   114596549.24808  21806979.940    89296056.00746
  23209397.220   121966222.35606  23209395.340    95038605.77344
  22628586.200   118914034.02307  22628584.480    92660288.22946
  21984907.100   115531730.24207  21984905.000    90024835.94446
  21362954.420   112263125.60108  21362955.900    87477797.37447
 15 03 03 00 51  0.0000000  0  6G16G18G19G21G22G27
  20485530.080   107652207.37908  20485529.040    83884826.96448
  21804886.480   114585543.75408  21804885.660    89287480.31346
  23195392.420   121892626.58006  23195390.380    94981258.44245
  22641370.980   118981219.11307  22641369.420    92712640.23346
  21970998.480   115458639.79807  21970996.240    89967882.37446
  21353800.900   112215023.54508  21353802.500    87440315.26848
 15 03 03 00 51 30.0000000  0  6G16G18G19G21G22G27
  20482600.860   107636813.84808  20482599.720    83872831.99148
  21802885.760   114575029.99108  21802884.940    89279287.76946
  23181405.860   121819125.66806  23181403.580    94923985.03545
  22654180.320   119048532.70707  22654178.840    92765092.38445
  21957153.120   115385882.32907  21957150.960    89911188.28446
  21344677.660   112167080.47908  21344679.240    87402957.05848
 15 03 03 00 52  0.0000000  0  6G16G18G19G21G22G27
  20479771.380   107621944.65408  20479770.220    83861245.60648
  21800979.240   114565011.06908  21800978.420    89271480.83146
  23167437.580   121745721.90906  23167435.360    94866787.32745
  22667014.380   119115975.90507  22667012.940    92817645.51645
  21943372.140   115313462.65108  21943369.920    89854757.38646
  21335585.280   112119299.71608  21335586.800    87365725.29648
 15 03 03 00 52 30.0000000  0  6G16G18G19G21G22G27
  20477041.840   107607600.39908  20477040.620    83850068.25848
  21799167.020   114555487.44408  21799166.200    89264059.83146
  23153487.800   121672415.74006  23153485.680    94809665.65445
  22679872.740   119183547.24007  22679871.360    92870298.49045
  21929655.860   115241383.12907  21929653.600    89798591.55646
  21326523.800   112071681.68208  21326525.340    87328620.34147
 15 03 03 00 53  0.0000000  0  6G16G18G19G21G22G27
  20474411.400   107593777.06508  20474410.120    83839296.82348
  21797448.140   114546454.31408  21797447.260    89257021.03546
  23139555.840   121599202.43106  23139553.740    94752616.35745
  22692754.260   119251239.85407  22692752.740    92923045.98545
  21916003.700   115169641.22208  21916001.500    89742688.80446
  21317492.500   112024222.01408  21317494.040    87291638.79248
 15 03 03 00 53 30.0000000  0  6G16G18G19G21G22G27
  20471881.080   107580480.22308  20471879.780    83828935.64748
  21795823.400   114537916.13808  21795822.520    89250367.92646
  23125642.300   121526086.10106  23125640.300    94695642.61146
  22705659.320   119319056.35707  22705657.680    92975890.00345
  21902417.080   115098243.29907  21902414.880    89687054.08346
  21308492.180   111976925.13408  21308493.740    87254784.09248
 15 03 03 00 54  0.0000000  0  6G16G18G19G21G22G27
  20469450.860   107567709.38608  20469449.560    83818984.33548
  21794292.800   114529872.53308  21794291.900    89244100.19346
  23111747.040   121453065.72306  23111745.080    94638743.65846
  22718587.420   119386993.69707  22718585.720    93028828.19445
  21888896.080   115027190.37207  21888893.920    89631688.19446
  21299522.680   111929790.34908  21299524.240    87218055.68847
 15 03 03 00 54 30.0000000  0  6G16G18G19G21G22G27
  20467121.140   107555466.75108  20467119.920    83809444.61548
  21792856.500   114522324.94708  21792855.560    89238218.95746
  23097870.440   121380142.96707  23097868.240    94581920.74246
  22731538.480   119455051.51707  22731536.820    93081860.25046
  21875441.300   114956485.44308  21875439.180    89576593.48046
  21290584.360   111882819.51008  21290585.900    87181455.05047
 15 03 03 00 55  0.0000000  0  6G16G18G19G21G22G27
  20464892.300   107543754.05908  20464891.120    83800317.83748
  21791514.800   114515274.66508  21791513.880    89232725.22846
  23084012.600   121307319.14806  23084010.300    94525174.95445
  22744512.380   119523229.62707  22744510.880    93134986.03345
  21862053.600   114886132.66007  21862051.460    89521773.14846
  21281677.640   111836014.35408  21281679.140    87144983.51147
 15 03 03 00 55 30.0000000  0  6G16G18G19G21G22G27
  20462764.760   107532573.55608  20462763.520    83791605.75048
  21790267.920   114508722.59508  21790267.040    89227619.73646
  23070173.640   121234595.16406  23070171.480    94468506.95545
  22757508.960   119591526.95107  22757507.700    93188204.71945
  21848733.420   114816134.92307  21848731.280    89467229.47946
  21272802.740   111789376.14808  21272804.180    87108642.05848
 15 03 03 00 56  0.0000000  0  6G16G18G19G21G22G27
  20460738.480   107521925.18908  20460737.220    83783308.31748
  21789115.800   114502668.47908  21789115.040    89222902.23846
  23056353.480   121161970.57406  23056351.580    94411916.36246
  22770527.780   119659941.51107  22770526.740    93241514.76445
  21835481.000   114746493.55607  21835478.940    89412963.50746
  21263959.540   111742904.67408  21263960.880    87072430.51947
 15 03 03 00 56 30.0000000  0  6G16G18G19G21G22G27
  20458813.000   107511806.56308  20458811.680    83775423.67148
  21788057.920   114497109.33708  21788057.220    89218570.45246
  23042551.680   121089442.19606  23042549.900    94355400.79146
  22783567.860   119728468.03007  22783567.080    93294912.03745
  21822296.240   114677207.64008  21822294.320    89358974.50046
  21255147.500   111696597.22508  21255148.820    87036346.79947
 15 03 03 00 57  0.0000000  0  6G16G18G19G21G22G27
  20456988.880   107502220.41408  20456987.480    83767953.94348
  21787094.580   114492047.18008  21787093.860    89214625.93246
  23028768.680   121017012.17306  23028766.820    94298961.85046
  22796629.400   119797107.12507  22796628.720    93348397.04445
  21809179.920   114608280.99208  21809177.980    89305265.45246
  21246367.140   111650456.18208  21246368.540    87000392.75048
 15 03 03 00 57 30.0000000  0  6G16G18G19G21G22G27
  20455266.500   107493169.32508  20455265.120    83760901.14248
  21786226.080   114487483.86208  21786225.440    89211070.11546
  23015004.680   120944682.25105  23015002.840    94242600.89846
  22809712.380   119865858.89106  22809711.700    93401969.84445
  21796132.760   114539717.68208  21796130.700    89251839.51546
  21237618.880   111604483.92808  21237620.420    86964570.22748
 15 03 03 00 58  0.0000000  0  6G16G18G19G21G22G27
  20453646.040   107484653.87108  20453644.720    83754265.71948
  21785452.560   114483419.15808  21785451.860    89207902.80846
  23001259.640   120872452.64506  23001257.960    94186318.12945
  22822816.440   119934721.53506  22822815.640    93455629.04845
  21783155.300   114471520.22808  21783153.180    89198698.66846
