     2.11           OBSERVATION DATA    G                   RINEX VERSION / TYPE
SPIDER V4,0,0,3554                      2015 03 16 01:56    PGM / RUN BY / DATE 
ADCK                                                        MARKER NAME         
ADCK                                                        MARKER NUMBER       
                                                            OBSERVER / AGENCY   
496498              LEICA GRX1200+GNSS  8.20/4.007          REC # / TYPE / VERS 
                    LEIAR25         NONE                    ANT # / TYPE        
  5227539.7664   314968.1794  3630496.8998                  APPROX POSITION XYZ 
        0.0480        0.0000        0.0000                  ANTENNA: DELTA H/E/N
     1     1                                                WAVELENGTH FACT L1/2
     4    C1    L1    P2    L2                              # / TYPES OF OBSERV 
    30.000                                                  INTERVAL            
  2015    03    03    00    00    0.0000000     GPS         TIME OF FIRST OBS   
  2015    03    03    23    59   30.0000000     GPS         TIME OF LAST OBS    
    16                                                      LEAP SECONDS        
    30                                                      # OF SATELLITES     
   G 1   829   829   829   829                              PRN / # OF OBS      
   G 2   934   934   934   934                              PRN / # OF OBS      
   G 3   850   850   849   849                              PRN / # OF OBS      
   G 4   847   847   847   847                              PRN / # OF OBS      
   G 5   664   664   664   664                              PRN / # OF OBS      
   G 6   777   777   777   777                              PRN / # OF OBS      
   G 7   658   658   658   658                              PRN / # OF OBS      
   G 9   797   797   796   796                              PRN / # OF OBS      
   G10   776   776   776   776                              PRN / # OF OBS      
   G11   792   792   791   791                              PRN / # OF OBS      
   G12   825   825   824   824                              PRN / # OF OBS      
   G13   816   816   816   816                              PRN / # OF OBS      
   G14   937   934   931   931                              PRN / # OF OBS      
   G15   724   724   723   723                              PRN / # OF OBS      
   G16   684   684   684   684                              PRN / # OF OBS      
   G17   937   936   935   935                              PRN / # OF OBS      
   G18   928   927   927   927                              PRN / # OF OBS      
   G19   773   773   773   773                              PRN / # OF OBS      
   G20   789   789   789   789                              PRN / # OF OBS      
   G21   693   693   693   693                              PRN / # OF OBS      
   G22   732   730   726   726                              PRN / # OF OBS      
   G23   740   740   740   740                              PRN / # OF OBS      
   G24   830   816   809   805                              PRN / # OF OBS      
   G25   828   828   827   827                              PRN / # OF OBS      
   G27   825   825   825   825                              PRN / # OF OBS      
   G28   899   899   898   898                              PRN / # OF OBS      
   G29   733   732   732   732                              PRN / # OF OBS      
   G30   704   704   704   704                              PRN / # OF OBS      
   G31   792   792   792   792                              PRN / # OF OBS      
   G32   753   753   753   753                              PRN / # OF OBS      
BIT 2 OF LLI FLAGS DATA COLLECTED UNDER A/S CONDITION       COMMENT             
SNR is mapped to RINEX snr flag value [2-9]                 COMMENT             
Lx:     = 25dBHz -> 1; 26-27dBHz -> 2; 28-31dBHz -> 3       COMMENT             
       32-35dBHz -> 4; 36-38dBHz -> 5; 39-41dBHz -> 6       COMMENT             
       42-44dBHz -> 7; 45-48dBHz -> 8; >=49dBHz -> 9        COMMENT             
                                                            END OF HEADER       
 15 03 03 00 00  0.0000000  0  7G16G18G21G22G27G29G31
  21365003.520   112273874.64009  21364999.680    87486123.03548
  22342708.440   117411893.16509  22342705.360    91489818.12147
  21571159.800   113357219.90809  21571155.780    88330290.90648
  23430006.620   123125661.92808  23430007.820    95942137.27447
  22517530.140   118330472.01909  22517529.480    92205579.65348
  24457046.780   128522631.96608  24457044.600   100147490.34346
  23291030.940   122395133.88208  23291030.880    95372801.17247
 15 03 03 00 00 30.0000000  0  7G16G18G21G22G27G29G31
  21353018.460   112210892.44609  21353014.580    87437046.00348
  22333049.140   117361133.13009  22333046.040    91450264.88847
  21580389.420   113405722.13309  21580385.420    88368084.85448
  23412591.260   123034146.54208  23412592.300    95870827.31447
  22506148.960   118270663.69109  22506148.300    92158975.78148
  24471150.060   128596745.25208  24471147.820   100205240.91545
  23308960.980   122489355.42209  23308961.000    95446220.19847
 15 03 03 00 01  0.0000000  0  7G16G18G21G22G27G29G31
  21341093.680   112148226.94409  21341089.720    87388215.74348
  22323457.500   117310728.65809  22323454.360    91410988.71147
  21589672.660   113454505.89109  21589668.700    88406098.16148
  23395191.140   122942711.12608  23395191.980    95799579.65346
  22494788.300   118210963.24308  22494787.640    92112455.97048
  24485256.100   128670873.17708  24485253.940   100263002.89345
  23326913.460   122583695.01708  23326913.580    95519731.21247
 15 03 03 00 01 30.0000000  0  7G16G18G21G22G27G29G31
  21329229.240   112085878.90709  21329225.280    87339632.86348
  22313933.660   117260680.48109  22313930.460    91371990.16447
  21599008.760   113503567.32509  21599004.740    88444327.85448
  23377806.500   122851356.86708  23377807.140    95728395.21447
  22483447.820   118151369.09409  22483447.200    92066018.99348
  24499364.580   128745013.95008  24499362.540   100320774.92245
  23344887.580   122678148.23408  23344887.780    95593330.75947
 15 03 03 00 02  0.0000000  0  7G16G18G21G22G27G29G31
  21317425.400   112023849.22009  21317421.440    87291298.04448
  22304477.760   117210989.60909  22304474.540    91333270.03747
  21608397.240   113552904.16209  21608393.240    88482772.13748
  23360437.540   122760085.22008  23360438.080    95657275.12847
  22472127.360   118091880.05108  22472126.800    92019663.91148
  24513475.320   128819166.41808  24513473.280   100378556.03345
  23362882.480   122772710.69508  23362882.720    95667015.42447
 15 03 03 00 02 30.0000000  0  7G16G18G21G22G27G29G31
  21305682.840   111962141.83409  21305678.920    87243214.37848
  22295090.420   117161659.06709  22295087.200    91294830.69347
  21617838.020   113602515.84609  21617834.020    88521430.59848
  23343085.100   122668900.38608  23343085.500    95586222.69046
  22460827.200   118032497.57209  22460826.680    91973391.87248
  24527588.580   128893332.13407  24527586.580   100436347.47945
  23380897.820   122867380.76608  23380898.200    95740783.93647
 15 03 03 00 03  0.0000000  0  7G16G18G21G22G27G29G31
  21294001.940   111900758.32709  21293997.980    87195383.07148
  22285772.080   117112691.23509  22285768.920    91256673.97647
  21627330.760   113652400.53709  21627326.800    88560301.78448
  23325749.660   122577805.01008  23325749.920    95515239.93047
  22449547.360   117973221.67009  22449546.820    91927202.87248
  24541704.300   128967511.22407  24541702.420   100494149.34745
  23398933.120   122962155.69508  23398933.640    95814634.14847
 15 03 03 00 03 30.0000000  0  7G16G18G21G22G27G29G31
  21282382.780   111839699.45309  21282378.880    87147804.73448
  22276522.860   117064086.72709  22276519.800    91218800.37147
  21636874.680   113702553.89409  21636870.640    88599382.32148
  23308431.520   122486800.23008  23308431.640    95444327.74247
  22438287.480   117914050.76209  22438286.980    91881095.68548
  24555822.280   129041701.74908  24555820.540   100551960.09545
  23416987.580   123057031.06808  23416988.180    95888562.62447
 15 03 03 00 04  0.0000000  0  6G16G18G21G22G27G31
  21270825.440   111778965.68309  21270821.600    87100479.72348
  22267342.760   117015845.43009  22267339.740    91181209.78547
  21646469.140   113752972.86409  21646465.060    88638669.83948
  23291130.800   122395886.75209  23291130.740    95373486.67947
  22427047.200   117854982.84909  22427046.700    91835068.75748
  23435060.160   123152001.60008  23435060.800    95962565.24647
 15 03 03 00 04 30.0000000  0  6G16G18G21G22G27G31
  21259331.580   111718565.54909  21259327.820    87053414.69348
  22258233.420   116967975.90609  22258230.440    91143908.89547
  21656114.960   113803661.99009  21656110.840    88678167.85548
  23273849.180   122305073.75908  23273848.960    95302723.89647
  22415827.800   117796024.46209  22415827.280    91789127.16948
  23453151.580   123247070.91508  23453152.280    96036644.83447
 15 03 03 00 05  0.0000000  0  6G16G18G21G22G27G31
  21247901.220   111658499.03809  21247897.540    87006609.61748
  22249194.860   116920478.25809  22249191.920    91106897.77147
  21665811.380   113854616.93409  21665807.200    88717873.00748
  23256586.780   122214361.72608  23256586.360    95232039.76647
  22404628.820   117737173.42809  22404628.300    91743269.23248
  23471260.820   123342233.87908  23471261.580    96110797.40247
 15 03 03 00 05 30.0000000  0  6G16G18G21G22G27G31
  21236534.060   111598764.55309  21236530.440    86960063.27248
  22240226.740   116873350.60809  22240223.760    91070174.95847
  21675557.560   113905833.23009  21675553.400    88757781.81248
  23239343.440   122123749.74008  23239342.840    95161433.57947
  22393449.600   117678426.17009  22393449.080    91697492.17348
  23489386.700   123437484.03508  23489387.500    96185017.90647
 15 03 03 00 06  0.0000000  0  6G16G18G21G22G27G31
  21225231.160   111539367.57809  21225227.560    86913779.91548
  22231329.900   116826597.64609  22231326.900    91033744.10847
  21685353.540   113957311.21909  21685349.320    88797894.53948
  23222120.260   122033243.38608  23222119.480    95090909.66347
  22382290.740   117619785.80509  22382290.160    91651798.39648
  23507529.100   123532821.41908  23507529.960    96259306.36347
 15 03 03 00 06 30.0000000  0  6G16G18G21G22G27G31
  21213992.840   111480309.74509  21213989.220    86867760.82648
  22222504.780   116780221.43709  22222501.760    90997606.83647
  21695198.740   114009048.23009  21695194.580    88838209.09448
  23204917.700   121942845.21309  23204916.680    95020470.03347
  22371152.140   117561251.73509  22371151.440    91606187.44748
  23525687.420   123628242.36908  23525688.360    96333659.94947
 15 03 03 00 07  0.0000000  0  6G16G18G21G22G27G31
  21202819.840   111421594.98109  21202816.200    86822009.06048
  22213752.020   116734225.39109  22213748.960    90961765.80047
  21705093.360   114061045.29509  21705089.220    88878726.29348
  23187736.580   121852559.38609  23187735.320    94950117.94547
  22360034.080   117502825.69709  22360033.320    91560660.68448
  23543861.400   123723745.68108  23543862.460    96408077.71247
 15 03 03 00 07 30.0000000  0  7G16G18G19G21G22G27G31
  21191711.860   111363221.96009  21191708.240    86776523.59648
  22205071.300   116688607.93909  22205068.200    90926219.76247
  24534223.180   128928213.69108  24534220.080   100463534.12945
  21715036.460   114113296.91709  21715032.380    88919441.85148
  23170576.740   121762385.54708  23170575.320    94879853.09347
  22348936.040   117444504.89809  22348935.220    91515215.91848
  23562049.960   123819325.66408  23562051.180    96482555.20447
 15 03 03 00 08  0.0000000  0  7G16G18G19G21G22G27G31
  21180666.920   111305180.15709  21180663.240    86731296.21648
  22196460.700   116643358.94109  22196457.580    90890960.82747
  24519399.800   128850316.73908  24519396.640   100402835.28145
  21725025.040   114165787.70909  21725020.980    88960343.76448
  23153436.280   121672313.64308  23153434.700    94809667.65847
  22337855.520   117386276.25109  22337854.680    91469842.96548
  23580250.040   123914966.19808  23580251.380    96557079.88647
 15 03 03 00 08 30.0000000  0  7G16G18G19G21G22G27G31
  21169691.960   111247506.05809  21169688.220    86686355.36048
  22187927.040   116598514.17909  22187923.900    90856016.88347
  24504593.680   128772510.56008  24504590.440   100342207.15246
  21735065.540   114218550.95309  21735061.500    89001457.98748
  23136322.220   121582380.72608  23136320.560    94739590.52347
  22326799.040   117328174.16509  22326798.200    91424568.62648
  23598467.560   124010698.58508  23598469.060    96631676.14546
 15 03 03 00 09  0.0000000  0  7G16G18G19G21G22G27G31
  21158783.620   111190182.20309  21158779.880    86641687.42948
  22179466.880   116554055.77309  22179463.740    90821373.99847
  24489801.200   128694775.84508  24489798.000   100281634.73246
  21745153.660   114271564.67509  21745149.700    89042767.37948
  23119231.380   121492569.56609  23119229.640    94669608.22747
  22315762.880   117270179.05409  22315762.140    91379377.65448
  23616698.320   124106500.42708  23616699.920    96706326.52446
 15 03 03 00 09 30.0000000  0  7G16G18G19G21G22G27G31
  21147941.800   111133208.00409  21147938.080    86597291.95248
  22171080.120   116509983.29609  22171077.040    90787031.83947
  24475021.860   128617109.94708  24475018.620   100221115.90446
  21755288.680   114324824.75409  21755284.780    89084268.74148
  23102163.760   121402880.29409  23102161.880    94599720.90047
  22304746.600   117212288.35109  22304745.940    91334268.03848
  23634941.180   124202365.93508  23634942.900    96781026.50446
 15 03 03 00 10  0.0000000  0  7G16G18G19G21G22G27G31
  21137167.440   111076588.41309  21137163.700    86553172.79648
  22162767.680   116466301.17909  22162764.600    90752993.86047
  24460256.100   128539515.30708  24460252.720   100160652.63046
  21765470.680   114378331.48109  21765466.800    89125962.29448
  23085120.420   121313318.60409  23085118.460    94529932.97847
  22293750.660   117154504.71709  22293750.060    91289241.85448
  23653196.120   124298294.70508  23653197.980    96855775.78847
 15 03 03 00 10 30.0000000  0  7G16G18G19G21G22G27G31
  21126460.620   111020323.83109  21126456.900    86509330.26648
  22154529.560   116423009.71309  22154526.480    90719260.28147
  24445503.520   128461990.06508  24445500.140   100100243.44546
  21775699.100   114432081.92809  21775695.140    89167845.75948
  23068101.520   121223885.23909  23068099.500    94460245.03047
  22282774.780   117096826.51209  22282774.240    91244297.82248
  23671462.240   124394282.27408  23671464.200    96930570.89047
 15 03 03 00 11  0.0000000  0  7G16G18G19G21G22G27G31
  21115822.620   110964420.92909  21115818.900    86465769.56848
  22146366.920   116380115.03109  22146363.820    90685835.88347
  24430764.940   128384538.77008  24430761.580   100039891.83946
  21785974.360   114486078.45009  21785970.400    89209920.97148
  23051108.400   121134587.37508  23051106.280    94390662.66447
  22271819.880   117039258.40009  22271819.360    91199439.57648
  23689739.900   124490330.31808  23689741.900    97005413.11447
 15 03 03 00 11 30.0000000  0  7G16G18G19G21G22G27G31
  21105253.600   110908880.40909  21105249.880    86422491.24748
  22138279.820   116337617.26309  22138276.680    90652720.76747
  24416040.180   128307160.04308  24416036.880    99979596.81446
  21796295.880   114540318.14609  21796291.840    89252185.66848
  23034141.320   121045426.43609  23034139.080    94321186.96447
  22260885.700   116981799.11409  22260885.200    91154666.12748
  23708028.320   124586434.58208  23708030.340    97080299.15346
 15 03 03 00 12  0.0000000  0  7G16G18G19G21G22G27G31
  21094753.740   110853703.33809  21094749.980    86379496.12448
  22130268.560   116295517.83109  22130265.340    90619916.03747
  24401329.040   128229852.85707  24401325.680    99919357.51546
  21806663.000   114594797.33309  21806658.920    89294636.98648
  23017200.620   120956403.96209  23017198.260    94251819.13947
  22249972.060   116924447.64609  22249971.540    91109976.69048
  23726326.700   124682591.15608  23726328.720    97155225.96247
 15 03 03 00 12 30.0000000  0  7G16G18G19G21G22G27G31
  21084323.200   110798890.48009  21084319.420    86336784.80748
  22122333.220   116253817.28009  22122329.940    90587422.12247
  24386631.200   128152615.73307  24386627.860    99859172.80745
  21817075.200   114649513.39209  21817071.000    89337272.87148
  23000286.560   120867521.47208  23000284.120    94182560.38747
  22239078.740   116867202.66309  22239078.160    91065370.22448
  23744634.080   124778795.32908  23744636.160    97230189.86047
 15 03 03 00 13  0.0000000  0  7G16G18G19G21G22G27G31
  21073963.260   110744448.60709  21073959.480    86294362.57248
  22114474.960   116212521.77609  22114471.660    90555243.83047
  24371947.420   128075453.12806  24371944.160    99799046.17946
  21827533.020   114704469.13509  21827528.700    89380095.53748
  22983400.540   120778786.28609  22983398.020    94113416.39747
  22228206.540   116810068.76709  22228205.960    91020850.33148
  23762950.860   124875048.90508  23762953.040    97305192.25947
 15 03 03 00 13 30.0000000  0  7G16G18G19G21G22G27G31
  21063673.460   110690375.29609  21063669.680    86252227.52848
  22106693.200   116171628.40909  22106689.900    90523378.89647
  24357276.980   127998360.64307  24357273.820    99738974.22645
  21838035.120   114759658.01609  21838030.820    89423099.86048
  22966542.200   120690196.66709  22966539.680    94044385.83647
  22217354.680   116753041.74009  22217354.080    90976413.71548
  23781275.600   124971344.73708  23781277.940    97380227.59246
 15 03 03 00 14  0.0000000  0  7G16G18G19G21G22G27G31
  21053454.420   110636673.80209  21053450.640    86210382.21448
  22098988.540   116131140.26909  22098985.260    90491829.72447
  24342620.200   127921339.19107  24342617.000    99678957.57845
  21848581.420   114815079.37309  21848577.120    89466285.33948
  22949712.300   120601756.24309  22949709.740    93975471.50947
  22206523.380   116696122.75309  22206522.740    90932061.27948
  23799608.040   125067680.98208  23799610.500    97455294.41746
 15 03 03 00 14 30.0000000  0  7G16G18G19G21G22G27G31
  21043306.420   110583345.66309  21043302.660    86168827.82448
  22091361.160   116091058.26309  22091357.880    90460597.02347
  24327976.980   127844388.40108  24327973.660    99618995.99145
  21859171.460   114870730.82109  21859167.280    89509650.10248
  22932911.200   120513467.06009  22932908.560    93906675.02447
  22195712.540   116639311.21609  22195711.840    90887792.57348
  23817947.400   125164053.82408  23817950.060    97530389.76146
 15 03 03 00 15  0.0000000  0  7G16G18G19G21G22G27G31
  21033229.560   110530391.48009  21033225.820    86127564.83148
  22083811.160   116051382.77709  22083807.840    90429681.08847
  24313347.020   127767506.79608  24313343.360    99559088.26945
  21869804.660   114926608.87209  21869800.480    89553191.44448
  22916139.240   120425330.77709  22916136.500    93837997.66747
  22184921.880   116582605.88909  22184921.120    90843606.62048
  23836292.940   125260459.05008  23836295.720    97605510.33446
 15 03 03 00 15 30.0000000  0  7G16G18G19G21G22G27G31
  21023225.000   110477817.27209  21023221.280    86086597.92048
  22076339.560   116012119.37809  22076336.260    90399086.25447
  24298730.980   127690698.31508  24298727.200    99499237.56045
  21880481.420   114982715.94209  21880477.300    89596911.23148
  22899397.540   120337353.50309  22899394.700    93769444.20147
  22174152.160   116526010.78909  22174151.360    90799506.56348
  23854644.840   125356897.61608  23854647.740    97680656.89646
 15 03 03 00 16  0.0000000  0  7G16G18G19G21G22G27G31
  21013292.740   110425623.13809  21013289.080    86045927.17448
  22068946.360   115973267.93409  22068943.080    90368812.42647
  24284128.420   127613960.58708  24284124.360    99439441.94245
  21891200.980   115039047.95709  21891196.940    89640806.31048
  22882686.360   120249536.56908  22882683.400    93701015.67147
  22163403.060   116469524.07909  22163402.240    90755490.96148
  23873002.200   125453364.79908  23873005.200    97755825.76347
 15 03 03 00 16 30.0000000  0  7G16G18G19G21G22G27G31
  21003433.460   110373812.57409  21003429.840    86005555.31048
  22061632.200   115934831.73409  22061628.860    90338862.17247
  24269539.540   127537294.99608  24269535.360    99379702.56145
  21901963.360   115095604.84309  21901959.380    89684876.60448
  22866006.340   120161883.76509  22866003.320    93632715.02447
  22152674.880   116413147.18809  22152674.080    90711560.93748
  23891364.780   125549859.21608  23891367.840    97831015.84547
 15 03 03 00 17  0.0000000  0  7G16G18G19G21G22G27G31
  20993647.680   110322388.14809  20993644.120    85965484.33148
  22054397.320   115896812.38809  22054394.000    90309236.72647
  24254964.440   127460702.06808  24254960.220    99320019.81245
  21912768.180   115152384.59209  21912764.240    89729120.55948
  22849358.160   120074397.98409  22849355.100    93564544.50947
  22141967.700   116356880.61209  22141966.860    90667716.86248
  23909732.020   125646378.11108  23909735.120    97906224.99446
 15 03 03 00 17 30.0000000  0  7G16G18G19G21G22G27G31
  20983935.480   110271350.52109  20983932.020    85925714.75948
  22047241.880   115859210.54409  22047238.540    90279936.60647
  24240402.860   127384180.56208  24240398.580    99260392.70745
  21923614.880   115209384.34809  21923610.940    89773535.95748
  22832742.100   119987080.88509  22832738.980    93496505.44247
  22131281.320   116300723.34809  22131280.500    90623957.97948
  23928103.160   125742917.54508  23928106.320    97981450.14746
 15 03 03 00 18  0.0000000  0  7G16G18G19G21G22G27G31
  20974297.900   110220704.92709  20974294.460    85886250.66248
  22040166.760   115822030.86909  22040163.420    90250965.45147
  24225855.380   127307733.34108  24225851.260    99200823.47446
  21934503.720   115266605.32309  21934499.760    89818123.72648
  22816159.260   119899938.09309  22816156.060    93428602.17547
  22120616.280   116244678.47409  22120615.500    90580286.66148
  23946478.220   125839477.56608  23946481.440    98056691.32846
 15 03 03 00 18 30.0000000  0  7G16G18G19G21G22G27G31
  20964734.800   110170450.72309  20964731.380    85847091.54548
  22033171.780   115785272.30309  22033168.440    90222322.43347
  24211321.460   127231357.69608  24211317.560    99141310.04646
  21945433.820   115324043.11609  21945429.780    89862880.45148
  22799609.600   119812969.63109  22799606.220    93360834.74347
  22109972.160   116188743.43209  22109971.360    90536700.93348
  23964856.100   125936052.56308  23964859.440    98131944.17646
 15 03 03 00 19  0.0000000  0  7G16G18G19G21G22G27G31
  20955246.540   110120589.63309  20955243.140    85808238.75548
  22026257.240   115748936.25809  22026253.940    90194008.65647
  24196801.120   127155053.40607  24196797.400    99081852.23446
  21956404.560   115381694.44209  21956400.460    89907803.56948
  22783093.600   119726178.12009  22783090.140    93293205.19447
  22099348.840   116132918.07409  22099348.160    90493200.67448
  23983236.220   126032639.24808  23983239.640    98207206.12246
 15 03 03 00 19 30.0000000  0  7G16G18G19G21G22G27G31
  20945834.020   110071126.41209  20945830.600    85769695.98648
  22019423.860   115713026.54609  22019420.580    90166027.07947
  24182294.820   127078822.88108  24182291.240    99022451.88847
  21967416.520   115439562.31209  21967412.380    89952895.40948
  22766612.240   119639568.74809  22766608.660    93225717.54447
  22088746.940   116077205.21209  22088746.360    90449788.06948
  24001618.560   126129237.49108  24001622.040    98282477.05346
 15 03 03 00 20  0.0000000  0  7G16G18G19G21G22G27G31
  20936497.020   110022059.98009  20936493.540    85731462.40048
  22012671.420   115677542.06609  22012668.140    90138376.85747
  24167801.960   127002663.18407  24167798.480    98963106.72147
  21978468.500   115497640.71709  21978464.280    89998151.30548
  22750165.480   119553141.09709  22750161.860    93158371.50547
  22078165.960   116021601.92409  22078165.420    90406460.84748
  24020001.960   126225841.23908  24020005.620    98357752.25846
 15 03 03 00 20 30.0000000  0  7G16G18G19G21G22G27G31
  20927236.060   109973393.11809  20927232.500    85693540.17648
  22006000.240   115642484.79909  22005996.960    90111059.53547
  24153322.760   126926575.25207  24153319.340    98903817.48947
  21989560.300   115555928.23509  21989556.040    90043570.15548
  22733753.980   119466898.79709  22733750.340    93091169.88747
  22067606.040   115966109.14609  22067605.480    90363219.74648
  24038386.040   126322448.39008  24038389.860    98433030.10946
 15 03 03 00 21  0.0000000  0  7G16G18G19G21G22G27G31
  20918051.940   109925129.87909  20918048.280    85655932.46148
  21999411.080   115607858.52709  21999407.780    90084078.04347
  24138857.620   126850560.92308  24138854.260    98844585.60946
  22000691.940   115614425.27509  22000687.620    90089152.26848
  22717378.700   119380846.86109  22717375.040    93024116.59647
  22057067.580   115910729.23609  22057067.020    90320066.58248
  24056770.700   126419058.49408  24056774.660    98508310.25346
 15 03 03 00 21 30.0000000  0  7G16G18G19G21G22G27G31
  20908944.780   109877270.96509  20908940.980    85618639.80548
  21992904.000   115573663.58609  21992900.640    90057432.65647
  24124406.240   126774618.54708  24124402.880    98785409.78046
  22011862.840   115673128.97909  22011858.540    90134895.42448
  22701039.780   119294985.98209  22701036.080    92957212.17947
  22046550.360   115855460.78209  22046549.760    90277000.27548
  24075155.100   126515667.23108  24075159.100    98583589.30446
 15 03 03 00 22  0.0000000  0  7G16G18G19G21G22G27G31
  20899914.740   109829817.25409  20899910.820    85581662.88348
  21986479.040   115539900.03309  21986475.640    90031123.41547
  24109968.460   126698747.31508  24109964.940    98726289.37146
  22023072.400   115732036.19009  22023068.220    90180797.13948
  22684737.560   119209317.85309  22684733.800    92890457.94447
  22036054.140   115800302.79209  22036053.500    90234020.04248
  24093538.460   126612270.35708  24093542.520    98658863.96546
 15 03 03 00 22 30.0000000  0  7G16G18G19G21G22G27G31
  20890962.300   109782771.52509  20890958.280    85545003.88048
  21980136.660   115506570.39609  21980133.200    90005152.28847
  24095544.360   126622947.72208  24095540.640    98667224.78646
  22034320.420   115791145.33909  22034316.280    90226856.22448
  22668472.700   119123845.97309  22668468.860    92823856.62847
  22025579.140   115745256.28009  22025578.460    90191126.67448
  24111920.360   126708865.80908  24111924.480    98734132.64946
 15 03 03 00 23  0.0000000  0  7G16G18G19G21G22G27G31
  20882087.900   109736136.15709  20882083.860    85508664.63048
  21973877.180   115473676.52809  21973873.680    89979520.71447
  24081134.000   126547220.41708  24081130.060    98608216.53146
  22045606.620   115850455.35809  22045602.660    90273071.81148
  22652245.820   119038573.59709  22652241.960    92757410.75447
  22015125.500   115690321.88909  22015124.780    90148320.67148
  24130300.360   126805451.21508  24130304.520    98809393.46746
 15 03 03 00 23 30.0000000  0  7G16G18G19G21G22G27G31
  20873292.360   109689915.44309  20873288.360    85472648.49348
  21967701.280   115441222.17509  21967697.780    89954231.62547
  24066737.780   126471567.54108  24066733.680    98549266.26946
  22056931.300   115909967.22909  22056927.340    90319444.70048
  22636057.820   118953505.55609  22636053.900    92691124.10847
  22004693.660   115635502.00509  22004692.880    90105603.89148
  24148678.280   126902026.02108  24148682.580    98884646.01446
 15 03 03 00 24  0.0000000  0  7G16G18G19G21G22G27G31
  20864575.000   109644105.66709  20864571.020    85436952.56848
  21961608.140   115409202.68709  21961604.660    89929281.39947
  24052354.620   126395983.35508  24052350.400    98490369.53746
  22068292.940   115969673.59209  22068289.060    90365969.14048
  22619908.160   118868639.01709  22619904.200    92624994.47447
  21994282.560   115580791.29309  21994281.760    90062972.18748
  24167052.620   126998581.98708  24167057.000    98959883.88146
 15 03 03 00 24 30.0000000  0  7G16G18G19G21G22G27G31
  20855937.280   109598714.43909  20855933.360    85401582.78448
  21955599.100   115377625.33909  21955595.680    89904675.69048
  24037985.520   126320473.30308  24037981.260    98431530.55546
  22079692.240   116029577.36209  22079688.420    90412647.39748
  22603798.320   118783981.62709  22603794.280    92559027.80447
  21983893.320   115526195.30509  21983892.480    90020429.87648
  24185423.800   127095121.28708  24185428.240    99035108.74246
 15 03 03 00 25  0.0000000  0  7G16G18G19G21G22G27G31
  20847379.240   109553741.92909  20847375.400    85366539.27248
  21949674.200   115346490.14509  21949670.860    89880414.52447
  24023630.160   126245035.69508  24023625.820    98372748.03046
  22091128.500   116089675.16209  22091124.620    90459476.84548
  22587728.560   118699535.05209  22587724.460    92493225.40547
  21973525.640   115471712.65809  21973524.760    89977975.87548
  24203791.100   127191639.86708  24203795.640    99110317.43146
 15 03 03 00 25 30.0000000  0  7G16G18G19G21G22G27G31
  20838901.360   109509190.44809  20838897.540    85331823.83448
  21943833.660   115315798.18109  21943830.380    89856498.72047
  24009288.640   126169670.97508  24009284.320    98314022.31046
  22102601.600   116149966.25709  22102597.700    90506456.91748
  22571699.440   118615302.02509  22571695.320    92427589.39747
  21963179.560   115417343.81109  21963178.700    89935610.55548
  24222154.000   127288135.16708  24222158.740    99185507.97846
 15 03 03 00 26  0.0000000  0  7G16G18G19G21G22G27G31
  20830503.500   109465059.57709  20830499.740    85297436.15148
  21938077.480   115285549.22209  21938074.200    89832928.12948
  23994960.540   126094377.00508  23994956.320    98255351.72846
  22114110.560   116210446.01109  22114106.580    90553583.99848
  22555711.140   118531283.29709  22555706.920    92362120.37947
  21952854.820   115363087.07609  21952853.980    89893332.60348
  24240511.560   127384602.35508  24240516.420    99260676.60646
 15 03 03 00 26 30.0000000  0  7G16G18G19G21G22G27G31
  20822186.540   109421353.94609  20822182.840    85263379.81748
  21932406.200   115255746.50209  21932402.960    89809705.25147
  23980646.400   126019156.20408  23980642.220    98196738.16846
  22125655.540   116271114.76509  22125651.460    90600858.35248
  22539764.500   118447483.63709  22539760.260    92296822.05547
  21942551.880   115308944.79509  21942551.040    89851143.82748
  24258863.620   127481040.33208  24258868.640    99335822.46146
 15 03 03 00 27  0.0000000  0  7G16G18G19G21G22G27G31
  20813951.560   109378078.97109  20813947.920    85229659.06348
  21926820.820   115226395.03509  21926817.560    89786834.00547
  23966346.720   125944011.54008  23966342.720    98138183.95246
  22137236.840   116331974.57409  22137232.760    90648281.57748
  22523860.640   118363908.91409  22523856.460    92231699.00147
  21932271.380   115254920.58709  21932270.560    89809047.05448
  24277210.320   127577450.37408  24277215.560    99410946.52346
 15 03 03 00 27 30.0000000  0  7G16G18G19G21G22G27G31
  20805798.040   109335231.90009  20805794.400    85196271.73848
  21921320.720   115197491.85909  21921317.420    89764312.06647
  23952060.740   125868938.97608  23952056.880    98079685.91546
  22148853.420   116393019.74809  22148849.280    90695849.24448
  22507999.340   118280557.72709  22507995.180    92166750.12847
  21922012.560   115201010.32609  21922011.720    89767039.07348
  24295550.320   127673825.22108  24295555.680    99486043.14446
 15 03 03 00 28  0.0000000  0  7G16G18G19G21G22G27G31
  20797725.800   109292811.72709  20797722.120    85163217.06648
  21915905.560   115169035.08809  21915902.220    89742137.98547
  23937787.940   125793935.39708  23937784.240    98021241.63846
  22160504.220   116454244.97909  22160500.080    90743557.21148
  22492180.500   118197429.77409  22492176.400    92101975.21547
  21911774.880   115147211.32809  21911774.100    89725117.79448
  24313882.520   127770158.94708  24313888.000    99561107.72046
 15 03 03 00 28 30.0000000  0  7G16G18G19G21G22G27G31
  20789736.640   109250828.20009  20789732.940    85130502.63148
  21910577.020   115141033.70009  21910573.640    89720318.74247
  23923529.800   125719008.63408  23923526.140    97962857.21246
  22172190.320   116515655.64709  22172186.180    90791409.67848
  22476406.100   118114535.25709  22476401.980    92037382.17547
  21901559.860   115093531.48209  21901559.160    89683289.36548
  24332207.880   127866456.54908  24332213.420    99636144.12945
 15 03 03 00 29  0.0000000  0  7G16G18G19G21G22G27G31
  20781829.800   109209277.32309  20781826.080    85098125.32648
  21905334.320   115113483.31209  21905330.940    89698850.92847
  23909285.200   125644152.89008  23909281.600    97904528.12447
  22183910.340   116577244.86709  22183906.180    90839401.27447
  22460675.520   118031871.03509  22460671.340    91972968.59847
  21891366.560   115039965.34709  21891365.860    89641549.53048
  24350524.680   127962709.43408  24350530.380    99711145.68345
 15 03 03 00 29 30.0000000  0  7G16G18G19G21G22G27G31
  20774006.360   109168164.61909  20774002.580    85066089.45348
  21900178.320   115086388.60609  21900174.960    89677738.18747
  23895054.820   125569371.85408  23895051.240    97846257.25147
  22195664.640   116639014.41209  22195660.500    90887533.38347
  22444989.940   117949443.33409  22444985.720    91908739.30647
  21881195.620   114986516.69909  21881194.920    89599901.24848
  24368833.100   128058917.98508  24368838.980    99786112.66445
 15 03 03 00 30  0.0000000  0  7G16G18G19G21G22G27G31
  20766266.640   109127491.73709  20766262.820    85034396.30748
  21895109.200   115059750.63709  21895105.900    89656981.34847
  23880838.620   125494665.22608  23880834.980    97788044.37046
  22207452.840   116700962.15509  22207448.780    90935804.34147
  22429349.920   117867254.84209  22429345.620    91844696.42447
  21871047.080   114933185.68309  21871046.340    89558344.63048
  24387132.640   128155080.13908  24387138.660    99861043.51745
 15 03 03 00 30 30.0000000  0  7G16G18G19G21G22G27G31
  20758610.200   109087256.52709  20758606.300    85003044.19748
  21890126.520   115033566.72109  21890123.240    89636578.31347
  23866635.780   125420028.79008  23866632.080    97729886.17646
  22219273.980   116763082.90409  22219269.960    90984210.11347
  22413755.160   117785304.19009  22413750.820    91780838.85947
  21860920.220   114879968.53209  21860919.420    89516876.72948
  24405422.040   128251188.73708  24405428.080    99935932.62045
 15 03 03 00 31  0.0000000  0  7G16G18G19G21G22G27G31
  20751038.280   109047465.68709  20751034.340    84972038.35248
  21885231.340   115007842.48709  21885228.080    89616533.48648
  23852447.180   125345467.32808  23852443.380    97671786.39547
  22231128.420   116825378.74309  22231124.420    91032752.32948
  22398207.000   117703598.48109  22398202.640    91717172.16547
  21850815.940   114826870.06209  21850815.080    89475501.31348
  24423701.620   128347245.62008  24423707.780   100010781.41745
 15 03 03 00 31 30.0000000  0  7G16G18G19G21G22G27G31
  20743551.080   109008120.19409  20743547.140    84941379.52648
  21880423.760   114982578.46009  21880420.500    89596847.25247
  23838272.720   125270980.29308  23838268.860    97613744.60846
  22243015.760   116887847.42009  22243011.880    91081429.21548
  22382705.820   117622139.39809  22382701.400    91653697.62647
  21840734.180   114773889.90009  21840733.280    89434218.08948
  24441970.680   128443247.25108  24441977.020   100085587.16445
 15 03 03 00 32  0.0000000  0  7G16G18G19G21G22G27G31
  20736148.180   108969217.77609  20736144.240    84911065.95548
  21875703.300   114957772.01309  21875699.960    89577517.56947
  23824111.700   125196563.71508  23824107.780    97555757.70746
  22254935.000   116950483.55909  22254931.120    91130236.58647
  22367251.400   117540925.94109  22367246.940    91590414.48747
  21830674.220   114721024.44109  21830673.280    89393024.23948
  24460228.040   128539187.28508  24460234.560   100160344.89345
 15 03 03 00 32 30.0000000  0  7G16G18G19G21G22G27G31
  20728830.880   108930765.24709  20728826.960    84881102.94948
  21871070.960   114933428.86209  21871067.580    89558548.90147
  23809964.960   125122222.17308  23809961.000    97497829.27846
  22266886.640   117013289.67509  22266882.700    91179176.41847
  22351845.100   117459965.53809  22351840.620    91527328.53447
  21820637.060   114668278.68309  21820636.080    89351923.65848
  24478473.980   128635067.32508  24478480.740   100235055.85145
 15 03 03 00 33  0.0000000  0  7G16G18G19G21G22G27G31
  20721599.400   108892763.78309  20721595.520    84851491.41648
  21866526.900   114909549.85209  21866523.520    89539941.89647
  23795832.400   125047955.27108  23795828.340    97439959.02146
  22278870.220   117076263.58709  22278866.220    91228246.99147
  22336487.300   117379260.02509  22336482.760    91464441.19147
  21810622.620   114615652.43709  21810621.600    89310916.20748
  24496707.880   128730884.12608  24496714.860   100309717.52445
 15 03 03 00 33 30.0000000  0  7G16G18G19G21G22G27G31
  20714453.380   108855211.40809  20714449.520    84822229.82848
  21862070.580   114886131.98809  21862067.260    89521694.23647
  23781713.280   124973759.21308  23781709.260    97382143.96746
  22290884.780   117139400.04009  22290880.680    91277444.23747
  22321177.840   117298808.56709  22321173.260    91401751.81547
  21800630.240   114563142.12309  21800629.220    89269999.09548
  24514928.520   128826631.45608  24514935.720   100384325.06345
 15 03 03 00 34  0.0000000  0  7G16G18G19G21G22G27G31
  20707394.320   108818116.05409  20707390.520    84793324.36048
  21857703.360   114863182.49409  21857700.100    89503811.53847
  23767608.920   124899640.71808  23767604.800    97324389.34146
  22302931.100   117202703.39309  22302926.900    91326771.52348
  22305918.280   117218619.43209  22305913.700    91339266.84847
  21790661.120   114510754.09209  21790660.080    89229177.26948
  24533136.540   128922312.47508  24533143.960   100458880.91445
 15 03 03 00 34 30.0000000  0  7G16G18G19G21G22G27G31
  20700421.560   108781474.25809  20700417.820    84764772.31348
  21853424.520   114840697.35009  21853421.360    89486290.66647
  23753518.140   124825593.84808  23753514.040    97266690.54146
  22315007.840   117266166.71409  22315003.620    91376223.45648
  22290708.260   117138690.51609  22290703.720    91276984.64747
  21780714.360   114458483.65709  21780713.360    89188447.07048
  24551330.520   129017919.60308  24551338.220   100533379.18146
 15 03 03 00 35  0.0000000  0  7G16G18G19G21G22G27G31
  20693536.120   108745291.34209  20693532.420    84736577.83348
  21849234.900   114818680.96109  21849231.740    89469135.06247
  23739441.680   124751622.19708  23739437.680    97209050.35546
  22327115.280   117329791.57509  22327111.040    91425801.26747
  22275548.840   117059027.48109  22275544.340    91214909.63547
  21770790.700   114406334.53509  21770789.700    89147811.41148
  24569510.600   129113453.58008  24569518.580   100607820.44745
 15 03 03 00 35 30.0000000  0  7G16G18G19G21G22G27G31
  20686738.140   108709567.91309  20686734.440    84708741.39548
  21845134.540   114797133.53409  21845131.360    89452344.87847
  23725379.520   124677725.26308  23725375.540    97151468.37346
  22339252.940   117393575.41709  22339248.680    91475502.95647
  22260440.340   116979631.94009  22260435.840    91153043.04247
  21760889.960   114354306.01609  21760888.980    89107269.72048
  24587676.060   129208910.50608  24587684.200   100682201.69746
 15 03 03 00 36  0.0000000  0  7G16G18G19G21G22G27G31
  20680027.440   108674303.08309  20680023.780    84681262.30948
  21841123.080   114776053.12809  21841119.820    89435918.61047
  23711331.160   124603900.31308  23711327.140    97093942.47546
  22351420.000   117457513.88309  22351415.780    91525325.13747
  22245382.800   116900504.16209  22245378.240    91091385.10248
  21751011.760   114302395.87909  21751010.800    89066820.28448
  24605825.860   129304285.16408  24605834.140   100756518.80245
 15 03 03 00 36 30.0000000  0  7G16G18G19G21G22G27G31
  20673405.160   108639502.90109  20673401.560    84654145.28048
  21837201.480   114755444.95709  21837198.180    89419860.31148
  23697297.280   124530151.57308  23697293.200    97036475.97246
  22363616.940   117521609.40809  22363612.760    91575269.69047
  22230377.500   116821650.75709  22230372.840    91029940.94648
  21741156.920   114250608.65009  21741156.040    89026466.61348
  24623960.340   129399579.13208  24623968.660   100830773.05745
 15 03 03 00 37  0.0000000  0  7G16G18G19G21G22G27G31
  20666871.420   108605167.80509  20666867.820    84627390.66148
  21833369.760   114735308.90909  21833366.380    89404169.90147
  23683277.480   124456476.88508  23683273.360    96979067.17146
  22375843.060   117585858.22109  22375838.900    91625333.70047
  22215424.600   116743072.73209  22215419.860    90968711.38648
  21731325.280   114198943.11009  21731324.400    88986207.77348
  24642078.720   129494788.30108  24642087.080   100904961.24645
 15 03 03 00 37 30.0000000  0  7G16G18G19G21G22G27G31
  20660426.580   108571299.94509  20660422.960    84601000.12148
  21829628.140   114715646.28209  21829624.680    89388848.38847
  23669272.060   124382877.62808  23669267.820    96921717.13947
  22388098.260   117650260.06009  22388094.240    91675516.93947
  22200524.720   116664773.33709  22200519.900    90907698.93448
  21721517.000   114147400.30309  21721516.100    88946044.56148
  24660180.480   129589910.20208  24660188.880   100979081.45145
 15 03 03 00 38  0.0000000  0  7G16G18G19G21G22G27G31
  20654070.840   108537900.22209  20654067.200    84574974.36949
  21825976.600   114696457.12909  21825973.120    89373895.82348
  23655280.840   124309352.95808  23655276.500    96864425.22547
  22400382.060   117714812.12709  22400378.080    91725817.24547
  22185678.240   116586754.60809  22185673.320    90846905.18248
  21711731.980   114095979.83609  21711731.120    88905976.68748
  24678265.020   129684941.90107  24678273.620   101053131.35944
 15 03 03 00 38 30.0000000  0  6G16G18G19G21G22G27
  20647803.120   108504963.11009  20647799.480    84549309.09149
  21822413.980   114677735.18709  21822410.440    89359307.31148
  23641302.440   124235895.69908  23641298.060    96807185.83247
  22412692.840   117779505.71809  22412688.860    91776227.83147
  22170884.180   116509011.58709  22170879.240    90786326.26848
  21701968.920   114044674.84609  21701968.080    88865998.79148
 15 03 03 00 39  0.0000000  0  6G16G18G19G21G22G27
  20641626.880   108472506.54509  20641623.220    84524018.26148
  21818943.520   114659497.77609  21818939.960    89345096.35448
  23627340.000   124162522.35608  23627335.620    96750011.83547
  22425033.260   117844355.11009  22425029.240    91826759.81947
  22156146.140   116431563.20309  22156141.240    90725976.93148
  21692231.040   113993502.03009  21692230.220    88826123.89148
 15 03 03 00 39 30.0000000  0  6G16G18G19G21G22G27
  20635540.620   108440522.86709  20635536.940    84499095.91549
  21815563.640   114641736.45509  21815560.060    89331256.38248
  23613391.720   124089223.61808  23613387.280    96692895.96846
  22437401.320   117909349.52009  22437397.220    91877404.81247
  22141462.880   116354402.68409  22141458.040    90665851.90748
  21682516.580   113942452.38209  21682515.800    88786344.96548
 15 03 03 00 40  0.0000000  0  6G16G18G19G21G22G27
  20629544.940   108409014.81209  20629541.180    84474544.18149
  21812274.640   114624452.68809  21812271.080    89317788.53048
  23599457.780   124016000.36908  23599453.240    96635838.93247
  22449796.740   117974487.92909  22449792.720    91928161.99747
  22126835.020   116277533.32609  22126830.260    90605953.76548
  21672825.840   113891527.23209  21672825.040    88746663.04348
 15 03 03 00 40 30.0000000  0  6G16G18G19G21G22G27
  20623640.240   108377985.09109  20623636.440    84450365.18049
  21809076.960   114607648.76109  21809073.380    89304694.57947
  23585538.400   123942854.00608  23585533.900    96578841.79946
  22462219.700   118039770.54609  22462215.560    91979031.57347
  22112263.360   116200959.21109  22112258.640    90546285.68348
  21663159.140   113840728.24409  21663158.260    88707079.44348
 15 03 03 00 41  0.0000000  0  6G16G18G19G21G22G27
  20617826.740   108347434.78509  20617822.900    84426559.74149
  21805970.640   114591324.95809  21805967.040    89291974.74548
  23571633.460   123869783.88408  23571628.980    96521904.08046
  22474669.500   118105194.46109  22474665.280    92030011.23247
  22097748.260   116124682.09309  22097743.580    90486849.02148
  21653516.380   113790055.14809  21653515.460    88667593.92448
 15 03 03 00 41 30.0000000  0  6G16G18G19G21G22G27
  20612104.080   108317362.02709  20612100.260    84403126.42549
  21802955.180   114575478.74209  21802951.580    89279627.06547
  23557742.420   123796786.61708  23557738.060    96465023.14046
  22487145.320   118170754.77209  22487141.020    92081097.19647
  22083289.560   116048701.23009  22083284.880    90427643.20948
  21643897.040   113739504.87009  21643896.060    88628204.12048
 15 03 03 00 42  0.0000000  0  6G16G18G19G21G22G27
  20606473.640   108287773.88609  20606469.840    84380070.72948
  21800031.740   114560115.96409  21800028.160    89267656.08747
  23543866.280   123723867.69508  23543862.000    96408203.22946
  22499647.740   118236455.28109  22499643.440    92132292.39347
  22068888.720   115973024.40709  22068883.980    90368674.30748
  21634302.160   113689083.31209  21634301.160    88588914.60248
 15 03 03 00 42 30.0000000  0  6G16G18G19G21G22G27
  20600934.880   108258667.74009  20600931.140    84357390.61549
  21797199.680   114545233.38009  21797196.040    89256059.28948
  23530004.360   123651023.23208  23530000.040    96351441.34746
  22512175.680   118302290.17609  22512171.400    92183592.30547
  22054545.420   115897650.03609  22054540.620    90309941.08048
  21624731.060   113638786.80009  21624730.020    88549722.52748
 15 03 03 00 43  0.0000000  0  6G16G18G19G21G22G27
  20595488.380   108230046.52009  20595484.700    84335088.36849
  21794459.320   114530832.69709  21794455.660    89244837.99248
  23516156.940   123578254.58808  23516152.520    96294738.54646
  22524729.120   118368259.07709  22524724.880    92234996.64547
  22040260.400   115822582.06709  22040255.600    90251446.61648
  21615184.080   113588617.08909  21615183.000    88510629.26048
 15 03 03 00 43 30.0000000  0  6G16G18G19G21G22G27
  20590134.720   108201912.86009  20590131.040    84313166.03149
  21791811.100   114516916.16709  21791807.400    89233993.95947
  23502324.220   123505563.07708  23502319.700    96238095.85246
  22537307.960   118434361.56909  22537303.840    92286505.06747
  22026034.360   115747823.93209  22026029.540    90193193.57148
  21605661.500   113538575.57009  21605660.400    88471635.88348
 15 03 03 00 44  0.0000000  0  6G16G18G19G21G22G27
  20584874.060   108174267.95809  20584870.380    84291624.54349
  21789255.140   114503484.45209  21789251.420    89223527.70048
  23488506.220   123432948.72908  23488501.620    96181513.28446
  22549911.820   118500595.42109  22549907.780    92338115.85847
  22011867.700   115673377.77609  22011862.860    90135183.63148
  21596163.380   113488662.56509  21596162.220    88432742.64748
 15 03 03 00 44 30.0000000  0  6G16G18G19G21G22G27
  20579706.600   108147112.88309  20579702.920    84270464.74849
  21786791.360   114490537.24209  21786787.600    89213438.98648
  23474702.720   123360410.51908  23474697.980    96124990.03146
  22562540.320   118566958.93409  22562536.300    92389827.67847
  21997760.780   115599245.50809  21997755.940    90077418.27648
  21586689.700   113438877.87509  21586688.480    88393949.39848
 15 03 03 00 45  0.0000000  0  6G16G18G19G21G22G27
  20574632.760   108120449.88409  20574629.120    84249688.38948
  21784419.980   114478075.64609  21784416.240    89203728.66748
  23460913.920   123287949.43608  23460909.060    96068526.87946
  22575193.280   118633450.88709  22575189.300    92441639.58347
  21983714.200   115525430.39809  21983709.360    90019900.05548
  21577240.620   113389222.65909  21577239.400    88355257.03048
 15 03 03 00 45 30.0000000  0  6G16G18G19G21G22G27
  20569652.920   108094280.70609  20569649.280    84229296.81648
  21782141.140   114466100.55009  21782137.420    89194397.43147
  23447139.860   123215566.05008  23447134.980    96012124.26747
  22587870.480   118700070.26709  22587866.560    92493550.77447
  21969728.500   115451935.31609  21969723.620    89962631.20248
  21567816.320   113339697.80709  21567815.120    88316666.24248
 15 03 03 00 46  0.0000000  0  6G16G18G19G21G22G27
  20564767.580   108068608.23409  20564763.980    84209292.30049
  21779955.460   114454615.14709  21779951.800    89185447.78948
  23433380.720   123143261.43308  23433375.880    95955783.06247
  22600571.900   118766816.52209  22600567.860    92545560.84147
  21955804.400   115378764.10809  21955799.560    89905614.72348
  21558417.140   113290305.05809  21558415.980    88278178.40548
 15 03 03 00 46 30.0000000  0  6G16G18G19G21G22G27
  20559976.240   108043429.66409  20559972.620    84189672.63449
  21777862.080   114443614.80209  21777858.480    89176876.10948
  23419635.860   123071032.13508  23419631.120    95899500.53947
  22613296.420   118833683.89009  22613292.300    92597665.28347
  21941941.620   115305915.00709  21941936.780    89848849.23248
  21549042.360   113241040.65409  21549041.260    88239790.56948
 15 03 03 00 47  0.0000000  0  6G16G18G19G21G22G27
  20555280.280   108018752.24909  20555276.660    84170443.48149
  21775862.300   114433106.29709  21775858.800    89168687.67548
  23405906.360   122998883.79308  23405901.720    95843281.09947
  22626044.800   118900676.79209  22626040.640    92649867.53947
  21928141.700   115233396.03209  21928136.880    89792340.98848
  21539693.200   113191910.95909  21539692.180    88201507.70348
 15 03 03 00 47 30.0000000  0  6G16G18G19G21G22G27
  20550679.040   107994572.55409  20550675.420    84151602.15448
  21773955.240   114423084.98409  21773951.840    89160878.87448
  23392191.340   122926811.58008  23392186.780    95787120.96047
  22638815.760   118967788.29109  22638811.520    92702162.21347
  21914404.120   115161204.59409  21914399.300    89736087.95148
  21530368.800   113142911.36109  21530367.860    88163326.20448
 15 03 03 00 48  0.0000000  0  6G16G18G19G21G22G27
  20546173.180   107970894.10509  20546169.600    84133151.41648
  21772141.360   114413553.35609  21772138.080    89153451.65648
  23378491.280   122854817.82308  23378486.800    95731021.98246
  22651609.360   119035018.89209  22651605.100    92754549.68847
  21900729.820   115089345.66209  21900724.960    89680094.01848
  21521069.700   113094044.52909  21521068.820    88125248.16748
 15 03 03 00 48 30.0000000  0  6G16G18G19G21G22G27
  20541763.260   107947719.73209  20541759.660    84115093.46249
  21770421.100   114404513.56009  21770417.820    89146407.68248
  23364806.380   122782903.77108  23364802.000    95674985.10547
  22664425.640   119102369.04509  22664421.440    92807030.31947
  21887119.460   115017822.86609  21887114.560    89624362.00848
  21511796.280   113045312.38009  21511795.400    88087275.07748
 15 03 03 00 49  0.0000000  0  6G16G18G19G21G22G27
  20537449.320   107925049.81909  20537445.700    84097428.59248
  21768794.380   114395965.15409  21768791.080    89139746.60348
  23351136.500   122711068.97608  23351132.300    95619009.99447
  22677264.160   119169835.89909  22677259.940    92859601.88847
  21873573.360   114946637.71409  21873568.420    89568893.09548
  21502548.440   112996714.60309  21502547.540    88049406.68548
 15 03 03 00 49 30.0000000  0  6G16G18G19G21G22G27
  20533231.280   107902883.76709  20533227.640    84080156.35049
  21767260.860   114387906.54209  21767257.600    89133467.18548
  23337481.360   122639311.44608  23337477.240    95563095.08247
  22690124.220   119237415.89709  22690119.960    92912261.62047
  21860091.540   114875790.45909  21860086.600    89513687.48748
  21493325.880   112948249.51809  21493324.940    88011641.69848
 15 03 03 00 50  0.0000000  0  6G16G18G19G21G22G27
  20529109.680   107881224.55209  20529106.040    84063279.03049
  21765820.960   114380339.75009  21765817.680    89127570.99248
  23323841.360   122567632.88808  23323837.220    95507241.68947
  22703005.760   119305109.00409  22703001.600    92965009.48447
  21846674.820   114805285.17709  21846669.820    89458748.33548
  21484128.980   112899919.40909  21484128.060    87973981.87548
 15 03 03 00 50 30.0000000  0  6G16G18G19G21G22G27
  20525084.700   107860073.24509  20525081.040    84046797.49948
  21764474.720   114373265.05609  21764471.400    89122058.27448
  23310216.400   122496033.17208  23310212.160    95451449.73946
  22715908.420   119372913.21309  22715904.380    93017843.93447
  21833323.560   114735124.00009  21833318.580    89404077.33148
  21474957.820   112851724.42009  21474956.880    87936427.35248
 15 03 03 00 51  0.0000000  0  6G16G18G19G21G22G27
  20521156.900   107839432.52409  20521153.260    84030713.81749
  21763222.540   114366684.54309  21763219.140    89116930.61848
  23296606.780   122424513.97808  23296602.440    95395720.52647
  22728832.320   119440828.91608  22728828.320    93070765.24947
  21820038.520   114665310.73909  21820033.520    89349677.42848
  21465812.800   112803666.67109  21465811.760    87898979.76049
 15 03 03 00 51 30.0000000  0  6G16G18G19G21G22G27
  20517326.080   107819301.38409  20517322.420    84015027.21349
  21762063.960   114360595.96209  21762060.500    89112186.27948
  23283012.120   122353073.41108  23283007.700    95340052.58646
  22741776.620   119508851.90509  22741772.620    93123770.16347
  21806819.720   114595845.55209  21806814.680    89295548.74348
  21456693.480   112755744.22409  21456692.400    87861637.59948
 15 03 03 00 52  0.0000000  0  6G16G18G19G21G22G27
  20513593.020   107799683.88509  20513589.340    83999740.84849
  21760999.520   114355002.13409  21760996.000    89107827.46748
  23269432.840   122281713.60508  23269428.320    95284447.56747
  22754741.580   119576983.18808  22754737.520    93176859.47247
  21793668.020   114526733.01509  21793662.960    89241694.86248
  21447600.500   112707960.19709  21447599.400    87824403.29949
 15 03 03 00 52 30.0000000  0  6G16G18G19G21G22G27
  20509957.740   107780580.20709  20509954.040    83984854.86349
  21760029.200   114349902.82409  21760025.620    89103853.99148
  23255868.840   122210434.21708  23255864.300    95228905.22047
  22767726.800   119645220.70409  22767722.640    93230031.55947
  21780583.760   114457974.93809  21780578.680    89188117.17448
  21438533.860   112660314.41709  21438532.700    87787276.72748
 15 03 03 00 53  0.0000000  0  6G16G18G19G21G22G27
  20506420.280   107761990.50609  20506416.520    83970369.37349
  21759152.760   114345297.04509  21759149.100    89100265.08548
  23242319.960   122139234.51708  23242315.460    95173424.97347
  22780731.740   119713561.64708  22780727.500    93283284.23947
  21767567.200   114389572.67209  21767562.140    89134816.73948
  21429493.420   112612806.47609  21429492.180    87750257.55548
 15 03 03 00 53 30.0000000  0  6G16G18G19G21G22G27
  20502981.400   107743918.92509  20502977.640    83956287.61849
  21758370.760   114341187.57109  21758367.040    89097062.90748
  23228786.740   122068116.91608  23228782.200    95118008.67947
  22793756.460   119782007.06508  22793752.240    93336618.31747
  21754619.220   114321530.95009  21754614.200    89081797.24948
  21420479.740   112565439.23709  21420478.460    87713348.02348
 15 03 03 00 54  0.0000000  0  6G16G18G19G21G22G27
  20499640.820   107726364.09109  20499637.080    83942608.52649
  21757682.880   114337572.79009  21757679.220    89094246.20747
  23215268.740   121997079.24908  23215264.120    95062654.68247
  22806800.320   119850552.88609  22806796.060    93390030.64347
  21741739.880   114253849.68509  21741734.860    89029058.63248
  21411492.420   112518210.84309  21411491.220    87676546.68448
 15 03 03 00 54 30.0000000  0  6G16G18G19G21G22G27
  20496399.020   107709328.26909  20496395.280    83929333.86049
  21757089.340   114334453.91809  21757085.700    89091815.92948
  23201766.180   121926122.94408  23201761.500    95007364.09147
  22819863.200   119919198.60709  22819858.900    93443520.81147
  21728929.680   114186531.71909  21728924.660    88976603.10748
  21402531.800   112471123.05309  21402530.660    87639854.90649
 15 03 03 00 55  0.0000000  0  6G16G18G19G21G22G27
  20493256.220   107692812.76209  20493252.480    83916464.63448
  21756590.280   114331831.49809  21756586.660    89089772.49147
  23188279.200   121855248.66608  23188274.580    94952137.41447
  22832944.960   119987943.54409  22832940.720    93497088.29147
  21716189.260   114119580.48409  21716184.240    88924433.34448
  21393598.160   112424176.97309  21393597.060    87603273.55148
 15 03 03 00 55 30.0000000  0  6G16G18G19G21G22G27
  20490212.700   107676819.03809  20490208.960    83904001.98749
  21756185.660   114329705.36309  21756182.020    89088115.76547
  23174807.820   121784456.31508  23174803.280    94896974.57647
  22846045.140   120056785.66508  22846040.960    93550731.49347
  21703519.020   114052997.95009  21703513.980    88872550.88048
  21384691.620   112377372.89409  21384690.520    87566802.85048
 15 03 03 00 56  0.0000000  0  6G16G18G19G21G22G27
  20487268.760   107661348.50509  20487265.040    83891947.02549
  21755875.640   114328076.36309  21755872.000    89086846.42648
  23161352.140   121713746.55508  23161347.700    94841876.10447
  22859163.640   120125724.28909  22859159.580    93604449.89447
  21690919.440   113986786.61309  21690914.360    88820957.66348
  21375812.260   112330711.81609  21375811.260    87530443.57749
 15 03 03 00 56 30.0000000  0  6G16G18G19G21G22G27
  20484424.060   107646399.52709  20484420.340    83880298.47049
  21755659.760   114326942.01309  21755656.120    89085962.53248
  23147911.700   121643116.78408  23147907.320    94786839.95647
  22872299.700   120194754.77908  22872295.640    93658239.87847
  21678390.420   113920946.09709  21678385.300    88769653.39048
  21366959.740   112284191.65609  21366958.800    87494194.10448
 15 03 03 00 57  0.0000000  0  6G16G18G19G21G22G27
  20481679.900   107631979.03409  20481676.220    83869061.71449
  21755539.160   114326308.19609  21755535.520    89085468.65048
  23134487.600   121572573.05108  23134483.280    94731870.85047
  22885454.100   120263881.78608  22885450.040    93712105.06847
  21665933.500   113855484.18909  21665928.260    88718644.13948
  21358135.280   112237818.78009  21358134.360    87458059.39948
 15 03 03 00 57 30.0000000  0  6G16G18G19G21G22G27
  20479035.580   107618083.27809  20479031.960    83858233.85449
  21755512.880   114326170.11909  21755509.320    89085361.06648
  23121079.040   121502110.49608  23121074.620    94676965.00047
  22898625.660   120333098.94008  22898621.640    93766040.51247
