     2.11           OBSERVATION DATA    G                   RINEX VERSION / TYPE
SPIDER V4,0,0,3554                      2015 03 16 01:53    PGM / RUN BY / DATE 
AKET                                                        MARKER NAME         
AKET                                                        MARKER NUMBER       
                                                            OBSERVER / AGENCY   
496661              LEICA GRX1200+GNSS  8.20/4.007          REC # / TYPE / VERS 
10271023            LEIAR25         NONE                    ANT # / TYPE        
  5151584.4739   350346.6892  3733756.9574                  APPROX POSITION XYZ 
        0.0480        0.0000        0.0000                  ANTENNA: DELTA H/E/N
     1     1                                                WAVELENGTH FACT L1/2
     4    C1    L1    P2    L2                              # / TYPES OF OBSERV 
    30.000                                                  INTERVAL            
  2015    03    03    00    00    0.0000000     GPS         TIME OF FIRST OBS   
  2015    03    03    23    59   30.0000000     GPS         TIME OF LAST OBS    
    16                                                      LEAP SECONDS        
    30                                                      # OF SATELLITES     
   G 1   755   754   754   754                              PRN / # OF OBS      
   G 2   860   860   858   858                              PRN / # OF OBS      
   G 3   791   791   791   791                              PRN / # OF OBS      
   G 4   789   789   787   787                              PRN / # OF OBS      
   G 5   593   593   589   589                              PRN / # OF OBS      
   G 6   729   729   727   727                              PRN / # OF OBS      
   G 7   575   575   575   575                              PRN / # OF OBS      
   G 9   736   736   736   736                              PRN / # OF OBS      
   G10   688   687   687   687                              PRN / # OF OBS      
   G11   706   705   704   704                              PRN / # OF OBS      
   G12   781   781   781   781                              PRN / # OF OBS      
   G13   755   755   750   750                              PRN / # OF OBS      
   G14   866   866   864   864                              PRN / # OF OBS      
   G15   648   648   647   647                              PRN / # OF OBS      
   G16   606   606   605   605                              PRN / # OF OBS      
   G17   863   863   862   862                              PRN / # OF OBS      
   G18   850   849   849   849                              PRN / # OF OBS      
   G19   692   692   691   691                              PRN / # OF OBS      
   G20   699   699   698   698                              PRN / # OF OBS      
   G21   606   606   606   606                              PRN / # OF OBS      
   G22   647   646   646   646                              PRN / # OF OBS      
   G23   664   664   664   664                              PRN / # OF OBS      
   G24   769   769   766   766                              PRN / # OF OBS      
   G25   768   768   767   767                              PRN / # OF OBS      
   G27   746   746   745   745                              PRN / # OF OBS      
   G28   832   832   832   832                              PRN / # OF OBS      
   G29   666   666   666   666                              PRN / # OF OBS      
   G30   624   624   624   624                              PRN / # OF OBS      
   G31   729   729   729   729                              PRN / # OF OBS      
   G32   691   691   691   691                              PRN / # OF OBS      
BIT 2 OF LLI FLAGS DATA COLLECTED UNDER A/S CONDITION       COMMENT             
SNR is mapped to RINEX snr flag value [2-9]                 COMMENT             
Lx:     = 25dBHz -> 1; 26-27dBHz -> 2; 28-31dBHz -> 3       COMMENT             
       32-35dBHz -> 4; 36-38dBHz -> 5; 39-41dBHz -> 6       COMMENT             
       42-44dBHz -> 7; 45-48dBHz -> 8; >=49dBHz -> 9        COMMENT             
                                                            END OF HEADER       
 15 03 03 00 00  0.0000000  0  5G16G18G21G27G29
  21320308.720   112038996.72809  21320304.380    87303109.43048
  22374774.320   117580269.97909  22374771.220    91620990.05147
  21514857.760   113061353.36608  21514853.720    88099741.85748
  22510553.700   118293799.31009  22510553.340    92177001.40348
  24391960.940   128180604.38308  24391959.460    99880974.37046
 15 03 03 00 00 30.0000000  0  5G16G18G21G27G29
  21308551.220   111977210.45409  21308546.780    87254964.29048
  22364655.760   117527096.10209  22364652.600    91579555.87547
  21523665.360   113107637.27408  21523661.160    88135807.23448
  22498786.280   118231960.94809  22498785.920    92128815.68748
  24406364.140   128256292.76408  24406362.400    99939952.27646
 15 03 03 00 01  0.0000000  0  5G16G18G21G27G29
  21296856.600   111915754.63809  21296852.060    87207076.65148
  22354603.720   117474272.11509  22354600.620    91538394.35147
  21532528.160   113154211.40308  21532523.900    88172098.75748
  22487040.260   118170234.98109  22487039.800    92080717.53548
  24420771.120   128332001.57108  24420769.080    99998946.08245
 15 03 03 00 01 30.0000000  0  5G16G18G21G27G29
  21285224.820   111854629.39709  21285220.420    87159446.60848
  22344618.220   117421798.20209  22344615.160    91497505.62147
  21541445.340   113201071.32208  21541440.960    88208612.97548
  22475315.160   118108619.26709  22475314.620    92032705.31348
  24435181.480   128407728.29807  24435179.120   100057953.89745
 15 03 03 00 02  0.0000000  0  5G16G18G21G27G29
  21273656.800   111793839.71709  21273652.740    87112078.02448
  22334700.300   117369679.45709  22334697.200    91456893.64647
  21550417.260   113248218.88808  21550412.780    88245351.33848
  22463611.600   118047116.71809  22463610.860    91984781.25748
  24449595.720   128483475.80307  24449593.600   100116977.89446
 15 03 03 00 02 30.0000000  0  5G16G18G21G27G29
  21262152.980   111733387.34709  21262149.240    87064972.28348
  22324850.160   117317916.80609  22324847.060    91416559.13747
  21559443.420   113295651.46308  21559438.860    88282311.78248
  22451929.480   117985726.77609  22451928.600    91936944.95948
  24464013.680   128559243.53508  24464011.840   100176017.62045
 15 03 03 00 03  0.0000000  0  5G16G18G21G27G29
  21250713.280   111673271.45209  21250709.660    87018128.73448
  22315067.780   117266510.28809  22315064.680    91376502.13547
  21568523.000   113343364.84909  21568518.460    88319491.03448
  22440268.320   117924447.08509  22440267.360    91889194.56748
  24478435.140   128635029.02708  24478433.420   100235071.23946
 15 03 03 00 03 30.0000000  0  5G16G18G21G27G29
  21239338.080   111613494.40409  21239334.320    86971549.21848
  22305353.620   117215462.12209  22305350.480    91336724.38147
  21577655.500   113391356.32409  21577650.980    88356886.99748
  22428628.200   117863277.76309  22428627.240    91841530.17448
  24492860.080   128710831.97008  24492858.280   100294138.43146
 15 03 03 00 04  0.0000000  0  5G16G18G21G27G29
  21228027.980   111554059.74309  21228024.000    86925236.50648
  22295708.240   117164775.40809  22295705.040    91297228.26447
  21586840.920   113439626.04008  21586836.420    88394499.76248
  22417009.260   117802220.01309  22417008.340    91793952.73548
  24507288.720   128786654.19708  24507286.840   100353220.65146
 15 03 03 00 04 30.0000000  0  5G16G18G21G27G29
  21216783.140   111494968.28509  21216779.140    86879191.22248
  22286131.880   117114451.01809  22286128.620    91258014.48147
  21596078.640   113488170.87808  21596074.160    88432326.90948
  22405411.340   117741272.70509  22405410.540    91746461.33748
  24521720.840   128862494.05708  24521718.780   100412316.62946
 15 03 03 00 05  0.0000000  0  5G16G18G21G27G29
  21205604.880   111436227.04409  21205601.220    86833418.83348
  22276625.760   117064496.14109  22276622.580    91219088.63147
  21605369.260   113536993.57309  21605364.860    88470370.56548
  22393835.420   117680440.80308  22393834.680    91699059.86948
  24536157.140   128938356.09308  24536154.720   100471429.86545
 15 03 03 00 05 30.0000000  0  5G16G18G21G27G29
  21194492.120   111377829.96609  21194488.940    86787914.61048
  22267188.760   117014904.52109  22267185.520    91180445.83347
  21614711.120   113586085.26608  21614706.700    88508623.83248
  22382280.000   117619716.36209  22382279.140    91651742.16248
  24550596.240   129014232.70408  24550593.220   100530554.49945
 15 03 03 00 06  0.0000000  0  4G16G18G21G27
  21183446.780   111319786.74109  21183443.840    86742686.12748
  22257822.580   116965685.08909  22257819.280    91142093.04147
  21624105.060   113635450.58308  21624100.640    88547090.31748
  22370746.480   117559106.80109  22370745.560    91604513.94048
 15 03 03 00 06 30.0000000  0  4G16G18G21G27
  21172467.480   111262089.83009  21172464.480    86697727.49548
  22248525.920   116916830.84509  22248522.640    91104024.81747
  21633548.860   113685077.76909  21633544.440    88585760.85048
  22359232.960   117498602.45609  22359231.940    91557367.71648
 15 03 03 00 07  0.0000000  0  4G16G18G21G27
  21161556.980   111204753.62809  21161553.600    86653049.95148
  22239301.380   116868355.67909  22239298.180    91066251.99347
  21643044.660   113734978.36408  21643040.280    88624644.43648
  22347741.780   117438215.64309  22347740.720    91510313.06648
 15 03 03 00 07 30.0000000  0  4G16G18G21G27
  21150716.720   111147786.83909  21150712.960    86608660.26248
  22230150.660   116820268.16809  22230147.420    91028781.22647
  21652593.340   113785156.96908  21652588.980    88663744.65248
  22336274.260   117377953.65709  22336273.300    91463355.69248
 15 03 03 00 08  0.0000000  0  5G16G18G19G21G27
  21139943.700   111091174.29709  21139939.920    86564546.59348
  22221070.940   116772553.57909  22221067.600    90991601.05347
  24544339.980   128981379.81208                                
  21662191.140   113835593.61109  21662186.760    88703045.93648
  22324827.080   117317798.90409  22324826.180    91416481.86448
 15 03 03 00 08 30.0000000  0  5G16G18G19G21G27
  21129255.580   111035008.54609  21129252.040    86520781.07148
  22212079.640   116725303.80209  22212076.200    90954783.08047
  24529149.260   128901563.98407  24529146.940   100442760.29145
  21671855.120   113886377.72809  21671850.600    88742617.96948
  22313417.580   117257841.91309  22313416.660    91369762.15348
 15 03 03 00 09  0.0000000  0  5G16G18G19G21G27
  21118613.020   110979081.81309  21118609.640    86477201.80448
  22203137.160   116678310.73909  22203133.700    90918165.13847
  24513949.740   128821693.19407  24513946.900   100380523.22545
  21681544.860   113937297.09809  21681540.160    88782295.40048
  22302005.780   117197872.91409  22302004.840    91323033.07248
 15 03 03 00 09 30.0000000  0  5G16G18G19G21G27
  21108043.860   110923539.75109  21108040.380    86433922.28248
  22194271.240   116631720.25709  22194267.860    90881860.90147
  24498767.780   128741911.04906  24498765.120   100318355.42246
  21691287.420   113988493.89209  21691282.580    88822189.00048
  22290619.100   117138035.65909  22290618.080    91276406.66048
 15 03 03 00 10  0.0000000  0  5G16G18G19G21G27
  21097549.460   110868390.70009  21097545.740    86390948.99748
  22185483.400   116585540.25609  22185479.980    90845876.51547
  24483603.980   128662223.44608  24483602.180   100256261.43044
  21701083.420   114039971.85709  21701078.540    88862301.69848
  22279258.700   117078336.32009  22279257.580    91229887.71948
 15 03 03 00 10 30.0000000  0  5G16G18G19G21G27
  21087158.660   110813786.77409  21087154.800    86348400.48648
  22176802.640   116539922.81409  22176799.180    90810330.47747
  24468486.180   128582780.16606  24468488.700   100194358.38445
  21710961.120   114091879.84708  21710956.380    88902749.48248
  22267953.140   117018925.05409  22267951.840    91183593.23648
 15 03 03 00 11  0.0000000  0  5G16G18G19G21G27
  21076786.160   110759278.98709  21076782.280    86305926.89048
  22168143.400   116494418.49009  22168139.940    90774872.58947
  24453329.700   128503130.66107  24453330.620   100132293.94746
  21720834.240   114143764.63508  21720829.800    88943179.19348
  22256616.560   116959350.96909  22256615.240    91137171.90448
 15 03 03 00 11 30.0000000  0  5G16G18G19G21G27
  21066493.560   110705190.43609  21066489.580    86263779.96948
  22159567.120   116449349.87109  22159563.660    90739754.20747
  24438194.600   128423595.50208  24438190.220   100070301.41144
  21730763.800   114195945.80508  21730759.640    88983839.83348
  22245310.100   116899935.31209  22245308.840    91090874.01048
 15 03 03 00 12  0.0000000  0  5G16G18G19G21G27
  21056276.340   110651497.97309  21056272.300    86221941.69048
  22151069.480   116404694.28809  22151066.040    90704957.67347
  24423077.220   128344150.08806  24423073.160   100008395.99246
  21740744.520   114248395.50008  21740740.500    89024709.72948
  22234028.960   116840652.95009  22234027.780    91044679.98248
 15 03 03 00 12 30.0000000  0  5G16G18G19G21G27
  21046140.400   110598233.02309  21046136.440    86180436.54048
  22142656.360   116360482.97609  22142652.820    90670507.31847
  24407981.720   128264823.14708  24407977.380    99946582.89445
  21750781.780   114301141.86009  21750777.760    89065810.78648
  22222778.820   116781533.32309  22222777.660    90998612.76448
 15 03 03 00 13  0.0000000  0  5G16G18G19G21G27
  21036073.420   110545330.85409  21036069.520    86139214.06948
  22134315.360   116316650.68309  22134311.660    90636352.29747
  24392896.520   128185548.27006  24392892.440    99884810.28346
  21760862.540   114354116.23509  21760858.480    89107089.51748
  22211546.920   116722509.63109  22211545.800    90952620.29248
 15 03 03 00 13 30.0000000  0  5G16G18G19G21G27
  21026083.140   110492831.86009  21026079.300    86098305.75348
  22126054.100   116273237.42909  22126050.360    90602523.79447
  24377827.880   128106363.48008  24377824.140    99823107.99845
  21770993.640   114407354.97609  21770989.560    89148574.24848
  22200340.600   116663620.57109  22200339.600    90906732.73748
 15 03 03 00 14  0.0000000  0  5G16G18G19G21G27
  21016163.820   110440705.16909  21016159.860    86057687.56148
  22117866.660   116230212.22509  22117862.940    90568997.67447
  24362770.760   128027236.21505  24362767.160    99761450.32344
  21781168.440   114460823.37209  21781164.360    89190237.92948
  22189153.660   116604833.31509  22189152.740    90860924.50448
 15 03 03 00 14 30.0000000  0  5G16G18G19G21G27
  21006319.940   110388975.19609  21006315.900    86017378.49948
  22109757.600   116187598.96409  22109753.940    90535792.56447
  24347728.540   127948188.58108  24347724.960    99699854.91045
  21791390.860   114514541.98708  21791386.720    89232096.59648
  22177990.340   116546170.24009  22177989.600    90815213.03748
 15 03 03 00 15  0.0000000  0  5G16G18G19G21G27
  20996551.160   110337640.15209  20996547.240    85977377.16648
  22101726.600   116145395.68509  22101722.940    90502906.90647
  24332700.280   127869216.85408  24332697.240    99638318.60646
  21801659.660   114568504.98208  21801655.500    89274145.69148
  22166850.000   116487627.79109  22166849.260    90769595.58248
 15 03 03 00 15 30.0000000  0  5G16G18G19G21G27
  20986855.260   110286687.86709  20986851.440    85937674.09148
  22093771.260   116103589.93309  22093767.580    90470331.02247
  24317684.300   127790307.36006  24317681.960    99576830.76246
  21811971.920   114622696.70208  21811967.760    89316372.99348
  22155730.020   116429191.96809  22155729.220    90724061.18048
 15 03 03 00 16  0.0000000  0  5G16G18G19G21G27
  20977235.800   110236137.25309  20977232.060    85898283.99848
  22085895.080   116062200.40209  22085891.400    90438079.46147
  24302683.240   127711476.23107  24302680.760    99515403.79446
  21822330.460   114677131.94908  21822326.420    89358790.06648
  22144633.600   116370879.79509  22144632.680    90678623.15648
 15 03 03 00 16 30.0000000  0  6G16G18G19G21G22G27
  20967691.900   110185983.41809  20967688.020    85859203.09248
  22078097.140   116021222.09009  22078093.520    90406148.33247
  24287695.860   127632716.69208  24287693.980    99454032.93346
  21832733.740   114731802.31308  21832729.760    89401390.35147
  22959842.340   120654783.78405  22959836.960    94016701.73842
  22133559.380   116312684.45209  22133558.440    90633276.15648
 15 03 03 00 17  0.0000000  0  6G16G18G19G21G22G27
  20958225.100   110136235.10309  20958221.060    85820438.17948
  22070378.920   115980662.90609  22070375.380    90374543.79447
  24272723.320   127554035.57308  24272721.120    99392722.95246
  21843182.600   114786712.07908  21843178.660    89444177.18348
  22942881.520   120565654.02405  22942875.380    93947250.12443
  22122508.720   116254612.75009  22122507.700    90588025.50048
 15 03 03 00 17 30.0000000  0  6G16G18G19G21G22G27
  20948830.960   110086869.12109  20948826.920    85781971.18148
  22062736.060   115940499.69709  22062732.620    90343247.81847
  24257761.300   127475407.98307  24257758.640    99331454.73344
  21853671.940   114841834.55308  21853668.120    89487129.76048
  22925947.580   120476666.09906  22925941.600    93877909.05645
  22111476.820   116196639.88709  22111475.760    90542851.85948
 15 03 03 00 18  0.0000000  0  6G16G18G19G21G22G27
  20939514.720   110037912.23909  20939510.760    85743822.96248
  22055173.520   115900758.79909  22055170.080    90312280.90447
  24242813.980   127396858.23508  24242811.120    99270247.16345
  21864206.180   114897192.59708  21864202.360    89530265.89247
  22909045.740   120387847.32106  22909040.380    93808699.71544
  22100468.340   116138790.61209  22100467.400    90497774.52648
 15 03 03 00 18 30.0000000  0  6G16G18G19G21G22G27
  20930276.620   109989365.59309  20930272.640    85705994.41448
  22047691.560   115861441.02809  22047688.080    90281643.69947
  24227880.940   127318385.57307  24227877.920    99209099.74844
  21874784.760   114952783.66208  21874781.000    89573583.60547
  22892176.500   120299199.53106  22892171.380    93739623.63444
  22089483.300   116081064.29209  22089482.440    90452792.98848
 15 03 03 00 19  0.0000000  0  6G16G18G19G21G22G27
  20921114.200   109941216.59609  20921110.140    85668475.71948
  22040287.700   115822533.53709  22040284.300    90251326.18947
  24212960.380   127239975.76208  24212956.760    99148001.13445
  21885404.360   115008590.23908  21885400.660    89617069.23848
  22875337.600   120210710.97206  22875332.620    93670671.63945
  22078519.000   116023446.50409  22078518.140    90407896.04148
 15 03 03 00 19 30.0000000  0  6G16G18G19G21G22G27
  20912030.720   109893483.01009  20912026.700    85631280.73748
  22032965.140   115784053.28509  22032961.640    90221341.59847
  24198054.400   127161644.10908  24198050.660    99086963.61345
  21896067.940   115064628.36908  21896064.420    89660735.32348
  22858532.420   120122399.95606  22858527.440    93601857.97544
  22067578.360   115965953.25308  22067577.620    90363096.12548
 15 03 03 00 20  0.0000000  0  6G16G18G19G21G22G27
  20903025.220   109846159.57909  20903021.280    85594405.33648
  22025722.940   115745995.04109  22025719.360    90191685.84247
  24183161.740   127083383.64007  24183157.440    99025981.48745
  21906773.680   115120887.98308  21906770.360    89704573.97748
  22841760.100   120034261.90007  22841755.180    93533179.08244
  22056660.080   115908577.49009  22056659.440    90318387.76848
 15 03 03 00 20 30.0000000  0  6G16G18G19G21G22G27
  20894098.080   109799247.61709  20894094.200    85557850.56948
  22018561.100   115708359.45909  22018557.580    90162359.44347
  24168282.880   127005194.25408  24168278.400    98965054.63945
  21917521.140   115177366.27408  21917517.940    89748583.02948
  22825021.160   119946299.02507  22825016.220    93464636.68145
  22045764.140   115851318.86809  22045763.480    90273770.67848
 15 03 03 00 21  0.0000000  0  6G16G18G19G21G22G27
  20885251.020   109752755.82709  20885247.120    85521623.20048
  22011481.240   115671155.03809  22011477.820    90133369.00847
  24153418.620   126927082.12208  24153414.340    98904188.18045
  21928311.320   115234068.36408  21928308.040    89792766.46748
  22808317.400   119858521.03307  22808312.560    93396238.36045
  22034891.780   115794184.44109  22034891.120    90229250.36648
 15 03 03 00 21 30.0000000  0  6G16G18G19G21G22G27
  20876483.320   109706680.98409  20876479.420    85485720.73548
  22004482.760   115634378.34509  22004479.460    90104711.87747
  24138567.900   126849041.98908  24138563.380    98843377.71146
  21939142.940   115290987.56109  21939139.440    89837119.09948
  22791648.240   119770924.77807  22791643.380    93327981.63745
  22024042.100   115737169.04009  22024041.380    90184822.80648
 15 03 03 00 22  0.0000000  0  6G16G18G19G21G22G27
  20867794.140   109661018.89809  20867790.220    85450139.88548
  21997564.700   115598024.40109  21997561.540    90076384.15347
  24123730.000   126771068.15907  24123725.660    98782618.93445
  21950014.280   115348115.69508  21950010.580    89881634.52648
  22775013.020   119683506.84808  22775008.100    93259863.86145
  22013214.000   115680266.68609  22013213.120    90140483.32548
 15 03 03 00 22 30.0000000  0  6G16G18G19G21G22G27
  20859186.700   109615786.25409  20859182.800    85414893.66748
  21990730.360   115562109.80709  21990727.140    90048398.75747
  24108907.360   126693175.00108  24108902.880    98721922.95946
  21960927.680   115405465.18208  21960923.820    89926322.43648
  22758415.120   119596284.75508  22758410.140    93191898.68646
  22002410.300   115623492.41809  22002409.240    90096243.65848
 15 03 03 00 23  0.0000000  0  6G16G18G19G21G22G27
  20850659.340   109570974.53809  20850655.500    85379975.45148
  21983977.960   115526625.61109  21983974.680    90020748.74647
  24094098.160   126615352.56907  24094093.680    98661282.18245
  21971880.860   115463024.17408  21971876.900    89971173.59848
  22741853.120   119509250.87308  22741848.060    93124080.16946
  21991629.060   115566836.13909  21991627.800    90052095.93248
 15 03 03 00 23 30.0000000  0  6G16G18G19G21G22G27
  20842212.980   109526588.96609  20842209.320    85345389.29148
  21977308.400   115491576.56609  21977305.120    89993437.80847
  24079303.040   126537603.89408  24079298.840    98600698.79346
  21982874.220   115520794.61608  21982870.200    90016189.52547
  22725328.000   119422411.03608  22725322.940    93056412.85446
  21980870.920   115510301.19809  21980869.440    90008042.75448
 15 03 03 00 24  0.0000000  0  6G16G18G19G21G22G27
  20833849.120   109482636.26009  20833845.440    85311140.42248
  21970722.720   115456968.56809  21970719.440    89966470.54847
  24064522.540   126459933.77007  24064518.880    98540176.70146
  21993908.420   115578779.68108  21993904.360    90061372.68047
  22708841.220   119335772.88008  22708836.160    92988902.69846
  21970136.900   115453892.91709  21970135.200    89964088.26048
 15 03 03 00 24 30.0000000  0  6G16G18G19G21G22G27
  20825566.040   109439107.70509  20825562.080    85277222.08048
  21964219.260   115422792.69209  21964215.900    89939840.01747
  24049755.360   126382331.66808  24049751.440    98479707.63745
  22004980.880   115636966.01608  22004976.800    90106712.68848
  22692391.120   119249327.80608  22692386.180    92921543.00146
  21959424.920   115397600.60109  21959423.080    89920224.14448
 15 03 03 00 25  0.0000000  0  6G16G18G19G21G22G27
  20817365.600   109396013.60309  20817361.480    85243642.25848
  21957799.960   115389059.18209  21957796.640    89913554.17647
  24035002.620   126304805.94007  24034998.680    98419297.93846
  22016092.980   115695360.53008  22016088.940    90152214.90048
  22675979.980   119163087.61608  22675975.200    92854342.94147
  21948736.660   115341433.08709  21948734.740    89876457.25748
 15 03 03 00 25 30.0000000  0  6G16G18G19G21G22G27
  20809246.820   109353349.05009  20809242.700    85210397.15248
  21951463.700   115355762.00009  21951460.480    89887608.35547
  24020263.280   126227350.07608  24020259.280    98358942.80446
  22027243.220   115753955.27608  22027239.080    90197873.14047
  22659606.940   119077047.91908  22659602.320    92787299.10547
  21938070.820   115285383.80109  21938068.860    89832782.50148
 15 03 03 00 26  0.0000000  0  6G16G18G19G21G22G27
  20801211.040   109311120.79309  20801207.040    85177492.00748
  21945211.880   115322908.24909  21945208.540    89862008.03747
  24005538.100   126149969.11308  24005533.980    98298645.99446
  22038432.060   115812752.87508  22038427.820    90243689.44747
  22643273.620   118991216.66308  22643269.060    92720417.67646
  21927428.400   115229458.29509  21927426.560    89789204.18848
 15 03 03 00 26 30.0000000  0  6G16G18G19G21G22G27
  20793258.380   109269329.22509  20793254.460    85144927.15148
  21939044.240   115290496.97409  21939040.940    89836752.53147
  23990827.020   126072661.47508  23990823.180    98238406.35946
  22049658.760   115871749.58408  22049654.520    90289660.91547
  22626980.200   118905594.47808  22626975.560    92653699.16046
  21916809.180   115173654.81809  21916807.620    89745720.96848
 15 03 03 00 27  0.0000000  0  6G16G18G19G21G22G27
  20785390.380   109227982.26709  20785386.360    85112708.75048
  21932962.280   115258535.85109  21932958.900    89811847.78047
  23976130.700   125995432.65108  23976126.600    98178228.10446
  22060924.220   115930949.98908  22060919.940    90335791.09047
  22610728.280   118820189.78108  22610723.520    92587150.11147
  21906214.360   115117979.63309  21906213.140    89702337.73148
 15 03 03 00 27 30.0000000  0  6G16G18G19G21G22G27
  20777604.740   109187068.49209  20777600.600    85080827.88048
  21926963.740   115227013.33709  21926960.300    89787284.79947
  23961447.280   125918270.20907  23961443.420    98118101.56546
  22072225.720   115990339.78108  22072221.380    90382068.84547
  22594515.820   118734992.51608  22594510.920    92520762.69346
  21895641.480   115062420.02209  21895640.640    89659044.53448
 15 03 03 00 28  0.0000000  0  6G16G18G19G21G22G27
  20769904.760   109146605.22109  20769900.580    85049298.07148
  21921051.820   115195946.00409  21921048.320    89763076.50947
  23946779.180   125841189.35908  23946775.240    98058038.61046
  22083565.720   116049932.09808  22083561.340    90428504.40747
  22578346.220   118650020.82608  22578341.240    92454551.06846
  21885093.600   115006991.75709  21885093.100    89615853.69748
 15 03 03 00 28 30.0000000  0  6G16G18G19G21G22G27
  20762289.240   109106586.12409  20762285.120    85018114.35548
  21915225.220   115165326.83809  21915221.660    89739217.42948
  23932124.900   125764181.95407  23932121.200    97998032.91646
  22094942.240   116109716.33008  22094937.880    90475089.52147
  22562218.420   118565268.85108  22562213.400    92388510.64147
  21874569.260   114951686.79209  21874569.040    89572758.93348
 15 03 03 00 29  0.0000000  0  6G16G18G19G21G22G27
  20754758.160   109067010.20509  20754754.060    84987275.97848
  21909483.700   115135154.62609  21909480.040    89715706.63147
  23917484.340   125687245.47807  23917480.940    97938082.46446
  22106354.560   116169688.64208  22106350.260    90521821.18047
  22546132.420   118480736.50308  22546127.340    92322641.36047
  21864068.000   114896502.77409  21864067.880    89529758.40948
 15 03 03 00 29 30.0000000  0  6G16G18G19G21G22G27
  20747313.620   109027888.81709  20747309.600    84956791.78048
  21903829.260   115105439.97309  21903825.460    89692552.36647
  23902859.220   125610389.54708  23902855.680    97878194.74446
  22117804.100   116229856.75108  22117799.920    90568705.42947
  22530090.560   118396435.94408  22530085.400    92256952.68346
  21853591.700   114841449.49809  21853591.480    89486859.77248
 15 03 03 00 30  0.0000000  0  6G16G18G19G21G22G27
  20739954.480   108989215.85309  20739950.460    84926657.00748
  21898260.500   115076176.27809  21898256.760    89669749.51247
  23888247.820   125533606.13208  23888243.900    97818363.58146
  22129289.020   116290210.86008  22129285.040    90615734.59548
  22514091.880   118312362.18208  22514086.540    92191440.71946
  21843138.920   114786519.44309  21843138.460    89444057.14548
 15 03 03 00 30 30.0000000  0  6G16G18G19G21G22G27
  20732681.420   108950995.51709  20732677.340    84896874.92548
  21892778.260   115047367.37509  21892774.520    89647301.02847
  23873650.640   125456897.62008  23873646.620    97758590.75445
  22140809.600   116350752.20508  22140805.860    90662909.66347
  22498137.280   118228520.23008  22498131.920    92126109.40646
  21832710.220   114731715.33209  21832709.540    89401352.65048
 15 03 03 00 31  0.0000000  0  6G16G18G19G21G22G27
  20725494.740   108913229.20109  20725490.640    84867446.62948
  21887382.620   115019013.65709  21887378.940    89625207.24947
  23859067.820   125380263.62208  23859063.560    97698875.99345
  22152365.280   116411477.65308  22152361.600    90710228.18847
  22482227.100   118144911.94808  22482221.760    92060960.16546
  21822305.520   114677036.77509  21822304.620    89358746.00848
 15 03 03 00 31 30.0000000  0  6G16G18G19G21G22G27
  20718395.020   108875920.21809  20718390.980    84838374.69448
  21882074.240   114991118.17909  21882070.620    89603470.53147
  23844499.460   125303705.99508  23844494.840    97639220.74846
  22163956.100   116472387.34808  22163952.480    90757690.29448
  22466362.140   118061541.47208  22466356.840    91995996.21146
  21811925.120   114622485.88609  21811923.900    89316238.84548
 15 03 03 00 32  0.0000000  0  6G16G18G19G21G22G27
  20711382.340   108839068.48809  20711378.300    84809659.06248
  21876853.020   114963680.58309  21876849.360    89582090.59447
  23829945.160   125227223.13108  23829940.540    97579623.77346
  22175581.480   116533478.25209  22175577.780    90805293.57747
  22450542.660   117978410.05108  22450537.420    91931218.52846
  21801568.720   114568061.38609  21801567.200    89273830.14548
 15 03 03 00 32 30.0000000  0  6G16G18G19G21G22G27
  20704457.220   108802676.89209  20704453.180    84781301.97848
  21871719.340   114936702.79909  21871715.540    89561068.95147
  23815405.440   125150815.88507  23815400.780    97520085.67646
  22187241.040   116594748.97808  22187237.200    90853037.00248
  22434769.320   117895521.22308  22434764.120    91866629.87846
  21791236.460   114513764.47509  21791234.860    89231520.88148
 15 03 03 00 33  0.0000000  0  6G16G18G19G21G22G27
  20697620.620   108766750.63409  20697616.680    84753307.49848
  21866674.060   114910189.82609  21866670.220    89540409.51647
  23800880.700   125074487.90908  23800876.400    97460609.44145
  22198935.140   116656201.48909  22198931.120    90900922.07347
  22419043.300   117812880.94208  22419038.060    91802234.90546
  21780929.140   114459599.09909  21780927.600    89189314.10648
 15 03 03 00 33 30.0000000  0  6G16G18G19G21G22G27
  20690871.260   108731283.17009  20690867.480    84725670.50748
  21861715.780   114884134.18909  21861712.020    89520106.43847
  23786369.380   124998231.03808  23786365.160    97401188.53746
  22210662.000   116717826.03909  22210657.680    90948941.20547
  22403363.580   117730483.85409  22403358.400    91738029.42746
  21770645.300   114405557.24409  21770643.780    89147203.57248
 15 03 03 00 34  0.0000000  0  6G16G18G19G21G22G27
  20684211.220   108696284.95409  20684207.560    84698399.16448
  21856846.480   114858545.82609  21856842.720    89500167.46447
  23771873.260   124922054.63808  23771868.540    97341830.33846
  22222422.960   116779629.59209  22222418.280    90997099.82247
  22387732.240   117648340.86609  22387727.120    91674021.95046
  21760386.640   114351647.91909  21760385.200    89105196.31248
 15 03 03 00 34 30.0000000  0  6G16G18G19G21G22G27
  20677639.900   108661752.43709  20677636.340    84671490.70548
  21852065.340   114833420.73409  21852061.580    89480589.47747
  23757391.460   124845952.90908  23757386.940    97282530.37646
  22234216.640   116841605.24909  22234211.740    91045392.52647
  22372148.840   117566449.85908  22372143.740    91610210.81946
  21750152.280   114297866.47709  21750150.960    89063288.70948
 15 03 03 00 35  0.0000000  0  6G16G18G19G21G22G27
  20671157.340   108627685.81609  20671153.700    84644945.29448
  21847372.260   114808758.34009  21847368.500    89461372.04148
  23742924.000   124769924.48208  23742919.100    97223287.36647
  22246042.420   116903749.50909  22246037.340    91093816.62047
  22356613.460   117484811.40608  22356608.400    91546596.49247
  21739941.980   114244211.68209  21739940.680    89021479.78048
 15 03 03 00 35 30.0000000  0  6G16G18G19G21G22G27
  20664765.820   108594097.61009  20664762.020    84618772.66248
  21842769.460   114784570.86509  21842765.760    89442524.68347
  23728472.360   124693980.69608  23728466.760    97164110.42146
  22257902.000   116966071.82808  22257896.900    91142379.45647
  22341128.760   117403439.15008  22341123.780    91483189.58247
  21729757.840   114190694.81909  21729756.660    88979778.34048
 15 03 03 00 36  0.0000000  0  6G16G18G19G21G22G27
  20658464.120   108560981.72709  20658460.300    84592968.07848
  21838255.620   114760851.31709  21838252.040    89424041.94647
  23714035.140   124618113.89608  23714030.700    97104993.60646
  22269793.580   117028562.73409  22269788.560    91191073.66647
  22325693.840   117322328.23208  22325688.900    91419986.31847
  21719598.580   114137308.59309  21719597.460    88938178.70248
 15 03 03 00 36 30.0000000  0  6G16G18G19G21G22G27
  20652251.620   108528334.73809  20652247.760    84567528.86948
  21833830.160   114737595.58809  21833826.600    89405920.61447
  23699611.800   124542319.03208  23699607.000    97045932.63846
  22281715.860   117091215.31408  22281711.060    91239893.84847
  22310308.160   117241475.86409  22310303.220    91356984.50447
  21709463.320   114084048.23609  21709462.280    88896677.12748
 15 03 03 00 37  0.0000000  0  6G16G18G19G21G22G27
  20646129.640   108496163.67109  20646125.680    84542460.50148
  21829494.240   114714810.26909  21829490.680    89388165.83847
  23685203.140   124466600.59307  23685197.980    96986931.29545
  22293669.380   117154032.39508  22293664.860    91288842.22747
  22294973.140   117160889.71909  22294968.220    91294190.14647
  21699353.060   114030919.20209  21699352.260    88855277.89248
 15 03 03 00 37 30.0000000  0  6G16G18G19G21G22G27
  20640101.060   108464483.14809  20640096.920    84517774.38248
  21825250.480   114692509.26209  21825246.820    89370788.44147
  23670811.240   124390972.56108  23670806.940    96928000.47246
  22305656.540   117217026.33608  22305652.380    91337928.41347
  22279691.760   117080585.63309  22279686.940    91231615.58147
  21689270.440   113977935.17809  21689269.820    88813991.64648
 15 03 03 00 38  0.0000000  0  6G16G18G19G21G22G27
  20634162.520   108433275.48209  20634158.220    84493456.73048
  21821095.480   114670674.21409  21821091.800    89353774.12647
  23656432.980   124315415.75308  23656428.400    96869125.04546
  22317673.360   117280175.86309  22317669.500    91387135.83747
  22264460.940   117000547.10508  22264456.100    91169247.94547
  21679211.900   113925077.32809  21679211.320    88772803.70948
 15 03 03 00 38 30.0000000  0  6G16G18G19G21G22G27
  20628315.140   108402547.19509  20628310.880    84469512.61348
  21817030.240   114649310.97909  21817026.540    89337127.45948
  23642069.340   124239935.10008  23642064.960    96810309.03046
  22329720.500   117343484.33208  22329716.680    91436467.10147
  22249282.000   116920781.29208  22249277.040    91107092.81647
  21669178.460   113872350.90309  21669177.760    88731718.19548
 15 03 03 00 39  0.0000000  0  6G16G18G19G21G22G27
  20622559.320   108372300.30709  20622555.160    84445943.60748
  21813055.000   114628421.16209  21813051.420    89320849.70648
  23627720.340   124164531.39508  23627716.280    96751552.95246
  22341797.620   117406950.26808  22341793.760    91485921.07747
  22234155.560   116841291.33408  22234150.520    91045152.64247
  21659170.360   113819756.88909  21659169.300    88690735.85548
 15 03 03 00 39 30.0000000  0  6G16G18G19G21G22G27
  20616895.680   108342538.26409  20616891.740    84422752.39448
  21809170.400   114608007.52209  21809166.800    89304942.99447
  23613386.520   124089206.59208  23613382.280    96692858.29646
  22353904.760   117470574.04608  22353900.880    91535498.04147
  22219082.460   116762081.65408  22219077.400    90983430.86447
  21649187.900   113767297.47609  21649186.420    88649858.42148
 15 03 03 00 40  0.0000000  0  6G16G18G19G21G22G27
  20611324.400   108313261.62809  20611320.640    84399939.42548
  21805376.360   114588069.52609  21805372.720    89289406.90847
  23599067.640   124013959.54708  23599063.660    96634224.28046
  22366041.400   117534352.59108  22366037.460    91585195.59847
  22204062.880   116683153.44608  22204057.820    90921928.41647
  21639230.800   113714971.99209  21639229.140    88609085.32948
 15 03 03 00 40 30.0000000  0  6G16G18G19G21G22G27
  20605845.940   108284472.57609  20605842.300    84377506.39548
  21801673.240   114568609.07909  21801669.420    89274242.93747
  23584763.740   123938791.24908  23584759.660    96575651.58247
  22378207.480   117598285.67008  22378203.460    91635013.57047
  22189097.580   116604510.38209  22189092.480    90860648.15447
  21629299.380   113662781.73309  21629297.700    88568417.59948
 15 03 03 00 41  0.0000000  0  6G16G18G19G21G22G27
  20600460.960   108256174.53609  20600457.360    84355455.97448
  21798061.500   114549628.92609  21798057.620    89259453.23047
  23570475.000   123863703.54808  23570470.800    96517141.73846
  22390402.940   117662372.79309  22390398.860    91684951.58347
  22174187.380   116526156.64509  22174182.160    90799593.33047
  21619394.100   113610728.86009  21619392.560    88527856.93048
 15 03 03 00 41 30.0000000  0  6G16G18G19G21G22G27
  20595169.240   108228366.73509  20595165.680    84333787.55048
  21794540.820   114531127.76409  21794536.880    89245036.75947
  23556201.200   123788694.29908  23556197.540    96458693.05246
  22402627.040   117726610.27108  22402622.840    91735006.74847
  22159332.280   116448092.66509  22159327.060    90738764.27747
  21609514.620   113558811.55009  21609513.100    88487401.88648
 15 03 03 00 42  0.0000000  0  6G16G18G19G21G22G27
  20589971.800   108201054.26109  20589968.200    84312505.10148
  21791112.080   114513109.63809  21791108.060    89230996.67147
  23541943.180   123713767.22008  23541939.080    96400308.28347
  22414880.000   117790999.98108  22414875.880    91785180.55347
  22144533.420   116370324.33509  22144528.280    90678165.62247
  21599661.720   113507033.84609  21599660.140    88447055.64048
 15 03 03 00 42 30.0000000  0  6G16G18G19G21G22G27
  20584868.020   108174233.93209  20584864.460    84291606.14748
  21787774.560   114495570.84609  21787770.580    89217330.09647
  23527699.920   123638917.92608  23527695.620    96341984.19346
  22427160.720   117855535.68208  22427156.760    91835468.10847
  22129790.400   116292849.63109  22129785.380    90617795.76647
  21589834.640   113455391.68009  21589833.000    88406815.00348
 15 03 03 00 43  0.0000000  0  6G16G18G19G21G22G27
  20579858.960   108147911.33509  20579855.500    84271095.02748
  21784529.140   114478515.94909  21784525.120    89204040.58547
  23513472.180   123564150.67908  23513467.960    96283724.06847
  22439469.660   117920219.75808  22439465.860    91885871.27847
  22115104.540   116215675.22909  22115099.600    90557659.91147
  21580034.200   113403889.57109  21580032.500    88366683.50648
 15 03 03 00 43 30.0000000  0  6G16G18G19G21G22G27
  20574945.000   108122088.52509  20574941.680    84250973.34648
  21781376.140   114461946.76509  21781372.040    89191129.53447
  23499260.000   123489466.28108  23499255.900    96225528.46846
  22451806.660   117985051.25408  22451802.960    91936389.31547
  22100476.360   116138804.09709  22100471.480    90497760.36047
  21570260.500   113352528.51709  21570258.780    88326661.91048
 15 03 03 00 44  0.0000000  0  6G16G18G19G21G22G27
  20570125.160   108096760.05309  20570121.860    84231236.87248
  21778314.440   114445857.44909  21778310.400    89178592.42148
  23485062.440   123414858.36208  23485058.220    96167392.45946
  22464170.100   118050021.47808  22464166.340    91987015.46147
  22085905.080   116062231.84009  22085900.180    90438093.70547
  21560512.380   113301302.32109  21560510.660    88286745.40148
 15 03 03 00 44 30.0000000  0  6G16G18G19G21G22G27
  20565401.100   108071934.41109  20565397.600    84211892.20848
  21775345.400   114430255.27209  21775341.440    89166434.89347
  23470880.600   123340333.41108  23470876.500    96109321.12946
  22476561.140   118115136.14409  22476557.120    92037754.15247
  22071392.580   115985967.90109  22071387.520    90378667.27847
  21550791.340   113250218.32409  21550789.620    88246939.69548
 15 03 03 00 45  0.0000000  0  6G16G18G19G21G22G27
  20560772.480   108047610.17109  20560768.680    84192938.26148
  21772468.500   114415137.80709  21772464.660    89154655.07447
  23456714.300   123265889.00808  23456710.240    96051312.52947
  22488978.760   118180390.50008  22488974.500    92088601.70447
  22056938.640   115910011.95009  22056933.520    90319480.85547
  21541096.900   113199274.14209  21541095.200    88207242.94248
 15 03 03 00 45 30.0000000  0  6G16G18G19G21G22G27
  20556238.880   108023785.42209  20556234.860    84174373.52348
  21769683.380   114400502.45409  21769679.560    89143250.92047
  23442562.900   123191522.12308  23442558.880    95993364.33747
  22501422.100   118245780.01009  22501417.740    92139554.56047
  22042543.120   115834363.31009  22042538.020    90260533.89247
  21531428.540   113148467.18409  21531426.940    88167653.12248
 15 03 03 00 46  0.0000000  0  6G16G18G19G21G22G27
  20551802.080   108000469.40009  20551798.080    84156205.19048
  21766991.820   114386358.89409  21766988.080    89132229.96647
  23428427.760   123117240.39508  23428422.980    95935482.45447
  22513892.220   118311310.55409  22513887.900    92190617.31647
  22028208.040   115759032.30609  22028202.880    90201834.44347
  21521787.780   113097805.68609  21521786.380    88128176.64048
 15 03 03 00 46 30.0000000  0  6G16G18G19G21G22G27
  20547461.520   107977658.89609  20547457.500    84138430.77648
  21764392.920   114372702.24509  21764389.260    89121588.44547
  23414308.000   123043040.05308  23414302.940    95877664.04946
  22526388.020   118376976.02508  22526383.740    92241785.20947
  22013933.040   115684016.86109  22013927.800    90143380.87047
  21512173.980   113047285.61209  21512172.760    88088810.35248
 15 03 03 00 47  0.0000000  0  6G16G18G19G21G22G27
  20543217.240   107955354.55809  20543213.180    84121050.77048
  21761886.760   114359532.83909  21761883.140    89111326.58847
  23400203.600   122968920.40808  23400198.700    95819908.53847
  22538909.020   118442774.35808  22538904.860    92293056.63747
  21999718.420   115609318.50509  21999713.160    90085174.38547
  21502587.160   112996906.87209  21502586.020    88049554.20048
 15 03 03 00 47 30.0000000  0  6G16G18G19G21G22G27
  20539070.360   107933562.19909  20539066.220    84104069.70748
  21759474.340   114346855.46309  21759470.700    89101448.12147
  23386115.380   122894885.98108  23386110.420    95762219.38946
  22551455.700   118508707.98508  22551451.700    92344433.47747
  21985565.400   115534943.97709  21985560.180    90027220.24747
  21493028.220   112946674.22409  21493027.120    88010411.88948
 15 03 03 00 48  0.0000000  0  6G16G18G19G21G22G27
  20535020.320   107912278.78209  20535016.060    84087485.22048
  21757154.860   114334666.15109  21757151.140    89091949.95747
  23372042.480   122820932.62608  23372037.460    95704593.43547
  22564027.020   118574770.89808  22564023.120    92395911.06847
  21971473.760   115460891.81709  21971468.520    89969517.29047
  21483496.340   112896583.92809  21483495.220    87971380.49548
 15 03 03 00 48 30.0000000  0  6G16G18G19G21G22G27
  20531067.980   107891509.04009  20531063.680    84071301.00448
  21754929.080   114322969.14909  21754925.300    89082835.42348
  23357985.560   122747063.76208  23357980.640    95647033.33247
  22576623.460   118640965.60109  22576619.640    92447491.34747
  21957444.480   115387167.66609  21957439.320    89912069.92447
  21473992.180   112846639.95809  21473991.140    87932463.12448
 15 03 03 00 49  0.0000000  0  6G16G18G19G21G22G27
  20527213.220   107871252.08409  20527208.900    84055516.35948
  21752796.580   114311762.87209  21752792.860    89074103.26747
  23343944.440   122673277.84108  23343939.820    95589537.83047
  22589244.240   118707288.06909  22589240.460    92499171.18647
  21943477.720   115313771.88409  21943472.520    89854878.43447
  21464515.480   112796840.87909  21464514.620    87893658.65048
 15 03 03 00 49 30.0000000  0  6G16G18G19G21G22G27
  20523456.800   107851511.74309  20523452.600    84040134.27548
  21750758.000   114301050.32709  21750754.440    89065755.85847
  23329919.500   122599577.42608  23329914.920    95532108.96847
  22601889.600   118773739.23209  22601885.660    92550951.32047
  21929574.300   115240709.22109  21929569.120    89797946.52348
  21455066.960   112747189.56009  21455066.300    87854969.32848
 15 03 03 00 50  0.0000000  0  6G16G18G19G21G22G27
  20519797.960   107832284.28609  20519793.760    84025151.82648
  21748812.520   114290826.98409  21748809.040    89057789.62547
  23315909.940   122525957.63008  23315905.320    95474742.90347
  22614558.240   118840312.44909  22614554.020    92602826.54447
  21915733.800   115167977.18309  21915728.680    89741272.23947
  21445645.940   112697681.73109  21445645.280    87816391.81048
 15 03 03 00 50 30.0000000  0  6G16G18G19G21G22G27
  20516238.240   107813577.63709  20516234.000    84010575.21448
  21746961.460   114281100.15309  21746958.060    89050210.30547
  23301917.080   122452425.42708  23301912.660    95417445.11947
  22627251.060   118907012.71209  22627246.580    92654800.76947
  21901957.940   115095584.92909  21901952.800    89684862.72347
  21436253.740   112648324.57309  21436252.960    87777931.70048
 15 03 03 00 51  0.0000000  0  6G16G18G19G21G22G27
  20512776.600   107795386.66409  20512772.420    83996400.42248
  21745203.900   114271864.24909  21745200.480    89043013.49947
  23287939.780   122378974.78208  23287935.740    95360210.89147
  22639966.620   118973832.64009  22639961.880    92706868.24947
  21888246.020   115023528.51809  21888240.780    89628714.88747
  21426889.180   112599112.50309  21426888.320    87739584.63548
 15 03 03 00 51 30.0000000  0  6G16G18G19G21G22G27
  20509413.660   107777714.12909  20509409.480    83982629.61848
  21743540.140   114263121.02609  21743536.580    89036200.59847
  23273978.580   122305607.81808  23273974.420    95303041.84947
  22652704.740   119040771.97809  22652699.900    92759028.75847
  21874598.740   114951812.01409  21874593.440    89572831.92947
  21417552.480   112550047.51909  21417551.540    87701352.19248
 15 03 03 00 52  0.0000000  0  6G16G18G19G21G22G27
  20506150.560   107760566.25509  20506146.300    83969267.63648
  21741971.120   114254875.55509  21741967.500    89029775.55747
  23260034.240   122232328.95008  23260029.640    95245941.44747
  22665466.080   119107833.95608  22665461.320    92811284.83647
  21861017.440   114880442.26909  21861012.200    89517219.18448
  21408244.780   112501135.02309  21408243.740    87663238.56548
 15 03 03 00 52 30.0000000  0  6G16G18G19G21G22G27
  20502986.020   107743936.68709  20502981.840    83956309.52748
  21740495.500   114247121.22509  21740491.880    89023733.23847
  23246105.360   122159131.46308  23246100.520    95188904.48347
  22678248.980   119175010.07508  22678244.520    92863629.85647
  21847501.300   114809414.68109  21847496.140    89461873.03448
  21398964.880   112452368.49109  21398963.680    87625238.67848
 15 03 03 00 53  0.0000000  0  6G16G18G19G21G22G27
  20499920.980   107727830.14609  20499916.840    83943758.97348
  21739114.040   114239861.81409  21739110.420    89018076.57147
  23232192.820   122086019.38408  23232187.940    95131934.07346
  22691053.920   119242302.21808  22691049.880    92916065.28647
  21834051.460   114738735.30809  21834046.180    89406798.22248
  21389713.580   112403752.18709  21389712.240    87587355.86348
 15 03 03 00 53 30.0000000  0  6G16G18G19G21G22G27
  20496956.840   107712253.62109  20496952.640    83931621.42648
  21737827.940   114233103.10009  21737824.240    89012810.04948
  23218297.360   122012998.09208  23218292.800    95075034.41447
  22703881.660   119309714.33308  22703878.000    92968594.19647
  21820669.340   114668411.81909  21820663.980    89352000.72948
  21380491.980   112355291.98409  21380490.600    87549594.67248
 15 03 03 00 54  0.0000000  0  6G16G18G19G21G22G27
  20494092.820   107697203.21009  20494088.560    83919893.83348
  21736636.340   114226841.10709  21736632.720    89007930.59348
  23204418.120   121940063.09208  23204413.660    95018201.97147
  22716731.140   119377239.96308  22716727.740    93021211.56247
  21807354.520   114598441.75209  21807349.160    89297478.61648
  21371299.280   112306983.65709  21371297.880    87511951.82548
 15 03 03 00 54 30.0000000  0  6G16G18G19G21G22G27
  20491329.460   107682682.08609  20491325.320    83908578.66548
  21735539.740   114221078.13109  21735536.120    89003439.97048
  23190555.760   121867216.93908  23190551.460    94961438.74547
  22729602.480   119444879.60808  22729599.160    93073917.77347
  21794107.600   114528828.95409  21794102.320    89243234.89948
  21362136.080   112258829.99309  21362134.580    87474429.49848
 15 03 03 00 55  0.0000000  0  6G16G18G19G21G22G27
  20488665.560   107668683.83109  20488661.560    83897670.93648
  21734536.740   114215807.17309  21734533.180    88999332.74448
  23176708.960   121794452.67508  23176704.840    94904739.37447
  22742494.120   119512624.97608  22742490.760    93126706.36747
  21780927.820   114459569.30509  21780922.660    89189266.37748
  21353001.060   112210824.55909  21352999.500    87437022.67048
 15 03 03 00 55 30.0000000  0  6G16G18G19G21G22G27
  20486102.700   107655216.93009  20486098.940    83887177.23948
  21733628.720   114211035.20909  21733625.180    88995614.34948
  23162879.100   121721777.41608  23162875.040    94848109.32247
  22755407.000   119580481.08908  22755403.480    93179581.27547
  21767816.960   114390671.85709  21767811.920    89135580.08648
  21343895.620   112162974.78109  21343894.040    87399737.13348
 15 03 03 00 56  0.0000000  0  6G16G18G19G21G22G27
  20483640.460   107642278.54108  20483636.920    83877095.37348
  21732815.040   114206759.06809  21732811.440    88992282.29347
  23149065.540   121649187.76908  23149061.680    94791545.99247
  22768339.980   119648443.23308  22768336.300    93232538.77647
  21754774.780   114322135.09309  21754769.780    89082174.84048
  21334819.140   112115277.59009  21334817.580    87362570.50848
 15 03 03 00 56 30.0000000  0  6G16G18G19G21G22G27
  20481279.540   107629872.07309  20481276.120    83867427.99148
  21732096.260   114202981.43109  21732092.560    88989338.67848
  23135269.020   121576686.32008  23135264.920    94735051.37147
  22781293.140   119716511.85508  22781289.220    93285579.25047
  21741802.160   114253963.70709  21741797.140    89029054.30048
  21325772.240   112067736.08609  21325770.760    87325525.18248
 15 03 03 00 57  0.0000000  0  6G16G18G19G21G22G27
  20479019.800   107617996.67809  20479016.340    83858174.43248
  21731472.020   114199700.60209  21731468.220    88986782.19047
  23121489.080   121504271.57108  23121484.620    94678624.29847
  22794266.000   119784683.96708  22794261.800    93338700.37247
  21728899.120   114186157.89509  21728894.000    88976218.61248
  21316754.700   112020348.99309  21316753.340    87288600.17249
 15 03 03 00 57 30.0000000  0  6G16G18G19G21G22G27
  20476862.160   107606657.89309  20476858.600    83849339.01448
  21730943.140   114196921.22109  21730939.320    88984616.45147
  23107726.540   121431948.04208  23107721.760    94622268.33447
  22807259.080   119852962.53708  22807254.680    93391904.44947
  21716067.000   114118724.54109  21716061.800    88923673.16248
  21307767.520   111973121.58209  21307766.340    87251799.59048
 15 03 03 00 58  0.0000000  0  6G16G18G19G21G22G27
  20474806.180   107595853.54509  20474802.560    83840920.04748
  21730509.080   114194640.20809  21730505.160    88982839.04447
  23093980.900   121359713.25208  23093975.820    94565981.48447
  22820271.480   119921343.03508  22820267.000    93445187.95947
  21703305.700   114051663.34409  21703300.400    88871417.70948
  21298810.280   111926051.39909  21298809.240    87215121.52548
 15 03 03 00 58 30.0000000  0  6G16G18G19G21G22G27
  20472852.060   107585584.89608  20472848.420    83832918.49848
  21730170.000   114192858.44809  21730166.100    88981450.66647
  23080252.200   121287567.88208  23080246.940    94509764.31947
  22833302.960   119989824.35308  22833298.580    93498550.01747
  21690615.660   113984976.43409  21690610.240    88819453.89348
  21289883.220   111879139.50509  21289882.200    87178566.80748
 15 03 03 00 59  0.0000000  0  6G16G18G19G21G22G27
  20470999.960   107575852.45209  20470996.400    83825334.77848
  21729925.780   114191575.48709  21729922.020    88980450.97847
  23066540.440   121215511.66008  23066535.240    94453616.65947
  22846353.220   120058404.61208  22846349.020    93551989.17647
  21677997.200   113918665.60609  21677991.760    88767783.13748
  21280986.240   111832385.99109  21280985.180    87142135.51548
 15 03 03 00 59 30.0000000  0  6G16G18G19G21G22G27
  20469249.840   107566655.72509  20469246.400    83818168.48548
  21729776.360   114190790.72909  21729772.800    88979839.48748
  23052845.520   121143543.78408  23052840.180    94397537.81547
  22859421.780   120127081.09408  22859417.760    93605503.29847
  21665450.480   113852732.02909  21665445.100    88716406.34048
  21272119.320   111785790.49309  21272118.160    87105827.33348
 15 03 03 01 00  0.0000000  0  6G16G18G19G21G22G27
  20467603.820   107558005.21109  20467600.300    83811427.82948
  21729723.480   114190513.03909  21729719.960    88979623.11847
  23039169.040   121071673.43908  23039163.840    94341534.98947
  22872510.180   120195861.22409  22872506.160    93659098.19447
  21652977.640   113787186.80209  21652972.300    88665332.17448
  21263284.400   111739362.81909  21263283.120    87069649.92748
 15 03 03 01 00 30.0000000  0  6G16G18G19G21G22G27
  20466059.980   107549891.77009  20466056.320    83805105.66748
  21729765.220   114190732.46609  21729761.660    88979794.11447
  23025509.380   120999891.47009  23025504.140    94285601.01247
  22885616.340   120264734.28108  22885612.200    93712765.51147
  21640577.180   113722022.34209  21640571.900    88614554.70148
  21254479.780   111693093.76109  21254478.400    87033596.12848
 15 03 03 01 01  0.0000000  0  6G16G18G19G21G22G27
  20464619.240   107542320.47308  20464615.480    83799205.95348
  21729902.400   114191453.43909  21729898.780    88980355.92747
  23011867.380   120928202.43108  23011862.060    94229739.44247
  22898740.740   120333702.99808  22898736.520    93766507.36447
  21628250.360   113657245.06209  21628245.260    88564078.93948
  21245706.320   111646988.41609  21245704.860    86997669.90148
 15 03 03 01 01 30.0000000  0  6G16G18G19G21G22G27
  20463280.520   107535285.73808  20463276.740    83793724.33748
  21730133.880   114192669.59009  21730130.160    88981303.58447
  22998241.960   120856600.08408  22998236.480    94173945.43047
  22911881.760   120402759.21208  22911877.540    93820317.39147
  21615996.500   113592850.97109  21615991.480    88513901.75748
  21236962.760   111601040.99209  21236961.260    86961866.71648
 15 03 03 01 02  0.0000000  0  6G16G18G19G21G22G27
  20462045.380   107528795.40409  20462041.640    83788666.92248
  21730461.040   114194388.50209  21730457.120    88982642.99347
  22984634.460   120785091.83508  22984628.860    94118224.72247
  22925040.520   120471908.78908  22925036.340    93874200.15947
  21603817.320   113528849.30909  21603812.360    88464030.36448
  21228250.620   111555259.43809  21228249.240    86926192.77448
 15 03 03 01 02 30.0000000  0  6G16G18G19G21G22G27
  20460913.780   107522848.68809  20460910.060    83784033.11948
  21730883.460   114196608.06609  21730879.420    88984372.53047
  22971044.660   120713676.26009  22971038.780    94062576.25347
  22938216.420   120541148.55608  22938212.260    93928153.22047
  21591712.940   113465240.21809  21591707.940    88414464.87148
  21219569.800   111509642.49909  21219568.620    86890647.11148
 15 03 03 01 03  0.0000000  0  6G16G18G19G21G22G27
  20459886.000   107517447.39409  20459882.340    83779824.31049
  21731401.360   114199329.32609  21731397.240    88986493.00047
  22957472.880   120642355.29208  22957466.820    94007001.47547
  22951409.520   120610478.69308  22951405.320    93982176.70447
  21579683.940   113402027.27009  21579678.860    88365208.05148
  21210920.860   111464192.37709  21210919.860    86855231.44448
 15 03 03 01 03 30.0000000  0  6G16G18G19G21G22G27
  20458961.720   107512589.82309  20458958.060    83776039.18448
  21732014.220   114202549.68509  21732010.180    88989002.38148
  22943918.540   120571126.21608  22943912.440    93951498.31547
  22964618.960   120679894.74508  22964614.720    94036267.12646
  21567730.200   113339209.94809  21567725.080    88316259.50548
  21202303.340   111418906.95709  21202302.460    86819944.10548
 15 03 03 01 04  0.0000000  0  6G16G18G19G21G22G27
  20458141.580   107508279.87208  20458137.880    83772680.77648
  21732722.600   114206272.55409  21732718.640    88991903.34548
  22930382.320   120499992.64708  22930376.340    93896069.60547
  22977845.140   120749398.91108  22977840.860    94090426.22047
  21555852.700   113276793.10909  21555847.440    88267623.02748
  21193717.940   111373790.38309  21193717.200    86784788.33648
 15 03 03 01 04 30.0000000  0  6G16G18G19G21G22G27
  20457425.580   107504517.53909  20457421.760    83769749.07448
  21733526.500   114210497.13809  21733522.600    88995195.23948
  22916864.160   120428954.40008  22916858.120    93840715.14347
  22991087.640   120818988.95708  22991083.380    94144652.22246
  21544051.780   113214778.84309  21544046.440    88219300.23948
  21185164.680   111328842.60109  21185163.920    86749764.09248
 15 03 03 01 05  0.0000000  0  6G16G18G19G21G22G27
  20456814.180   107501304.24609  20456810.160    83767245.21548
  21734425.940   114215223.89009  21734422.060    88998878.44047
  22903364.320   120358012.69809  22903358.360    93785435.93247
  23004346.360   120888664.43208  23004342.120    94198944.79646
  21532328.020   113153169.99209  21532322.680    88171293.37148
  21176643.920   111284065.28209  21176642.940    86714872.68348
 15 03 03 01 05 30.0000000  0  7G04G16G18G19G21G22G27
  24572911.380   129131517.78107  24572911.660   100621962.25944
  20456307.500   107498640.92309  20456303.480    83765169.89348
  21735420.920   114220452.87909  21735417.120    89002952.99247
  22889882.880   120287167.97208  22889876.980    93730232.28847
  23017621.060   120958423.82708  23017616.780    94253302.76246
  21520681.780   113091968.52209  21520676.360    88123603.93048
  21168155.840   111239459.15709  21168154.480    86680114.66548
