     2.11           OBSERVATION DATA    G                   RINEX VERSION / TYPE
SPIDER V4,0,0,3554                      2015 04 17 05:18    PGM / RUN BY / DATE 
CABS                                                        MARKER NAME         
CABS                                                        MARKER NUMBER       
                                                            OBSERVER / AGENCY   
462287              LEICA GRX1200PRO    8.10/2.127          REC # / TYPE / VERS 
103298              LEIAT504                                ANT # / TYPE        
  5116912.3402   671231.6412  3737143.4301                  APPROX POSITION XYZ 
        0.0600        0.0000        0.0000                  ANTENNA: DELTA H/E/N
     1     1                                                WAVELENGTH FACT L1/2
     4    C1    L1    P2    L2                              # / TYPES OF OBSERV 
    30.000                                                  INTERVAL            
  2015    03    03    00    00    0.0000000     GPS         TIME OF FIRST OBS   
  2015    03    03    23    59   30.0000000     GPS         TIME OF LAST OBS    
    16                                                      LEAP SECONDS        
    30                                                      # OF SATELLITES     
   G 1   801   801   801   801                              PRN / # OF OBS      
   G 2   942   942   942   942                              PRN / # OF OBS      
   G 3   848   848   848   848                              PRN / # OF OBS      
   G 4   831   831   831   831                              PRN / # OF OBS      
   G 5   662   662   661   661                              PRN / # OF OBS      
   G 6   812   812   812   812                              PRN / # OF OBS      
   G 7   674   674   674   674                              PRN / # OF OBS      
   G 9   807   807   807   807                              PRN / # OF OBS      
   G10   720   720   720   720                              PRN / # OF OBS      
   G11   769   769   769   769                              PRN / # OF OBS      
   G12   812   812   812   812                              PRN / # OF OBS      
   G13   790   790   790   790                              PRN / # OF OBS      
   G14   942   942   942   942                              PRN / # OF OBS      
   G15   689   689   689   689                              PRN / # OF OBS      
   G16   664   664   664   664                              PRN / # OF OBS      
   G17   942   942   942   942                              PRN / # OF OBS      
   G18   899   899   899   899                              PRN / # OF OBS      
   G19   749   749   749   749                              PRN / # OF OBS      
   G20   731   731   731   731                              PRN / # OF OBS      
   G21   739   739   739   739                              PRN / # OF OBS      
   G22   666   666   666   666                              PRN / # OF OBS      
   G23   755   755   755   755                              PRN / # OF OBS      
   G24   816   816   816   816                              PRN / # OF OBS      
   G25   847   847   847   847                              PRN / # OF OBS      
   G27   800   800   800   800                              PRN / # OF OBS      
   G28   809   809   809   809                              PRN / # OF OBS      
   G29   763   763   763   763                              PRN / # OF OBS      
   G30   720   720   720   720                              PRN / # OF OBS      
   G31   871   871   871   871                              PRN / # OF OBS      
   G32   764   764   764   764                              PRN / # OF OBS      
BIT 2 OF LLI FLAGS DATA COLLECTED UNDER A/S CONDITION       COMMENT             
SNR is mapped to RINEX snr flag value [2-9]                 COMMENT             
Lx:     = 25dBHz -> 1; 26-27dBHz -> 2; 28-31dBHz -> 3       COMMENT             
       32-35dBHz -> 4; 36-38dBHz -> 5; 39-41dBHz -> 6       COMMENT             
       42-44dBHz -> 7; 45-48dBHz -> 8; >=49dBHz -> 9        COMMENT             
                                                            END OF HEADER       
 15 03 03 00 00  0.0000000  0  7G16G18G21G22G27G29G31
  21445206.020   112695325.01608  21445207.080    87814563.78648
  22185948.620   116588155.75508  22185949.860    90848035.46947
  21399832.060   112457289.03008  21399832.900    87629262.38048
  23485133.840   123415321.83706  23485138.440    96167850.20246
  22759969.560   119604476.49307  22759973.540    93198325.78047
  24079288.120   126538038.50106  24079290.680    98601324.24645
  23552727.660   123770424.47407  23552730.680    96444507.01246
 15 03 03 00 00 30.0000000  0  7G16G18G21G22G27G29G31
  21432929.440   112630811.19708  21432930.480    87764293.27448
  22175579.280   116533665.04208  22175580.620    90805575.19946
  21407973.660   112500073.77908  21407974.560    87662601.14348
  23467028.760   123320180.52607  23467032.860    96093714.54045
  22747401.040   119538428.05707  22747404.940    93146859.49747
  24093406.760   126612232.55205  24093409.100    98659137.75745
  23570567.140   123864170.58606  23570570.220    96517555.61546
 15 03 03 00 01  0.0000000  0  7G16G18G21G22G27G29G31
  21420718.040   112566640.02508  21420719.040    87714289.76548
  22165278.880   116479536.47408  22165280.320    90763397.11747
  21416169.320   112543142.65708  21416170.260    87696161.30448
  23448939.060   123225119.56706  23448942.700    96019641.51646
  22734850.200   119472472.53007  22734854.040    93095465.60647
  24107534.100   126686472.30906  24107536.440    98716986.84744
  23588424.060   123958008.64607  23588427.220    96590675.84546
 15 03 03 00 01 30.0000000  0  7G16G18G21G22G27G29G31
  21408571.460   112502809.64209  21408572.500    87664551.80748
  22155047.100   116425768.07008  22155048.560    90721499.67447
  21424417.860   112586489.24308  21424418.840    87729937.86448
  23430864.500   123130137.32407  23430867.600    95945629.82245
  22722316.240   119406605.85007  22722320.020    93044140.94347
  24121669.460   126760753.32307  24121671.440    98774868.18944
  23606297.080   124051931.50306  23606300.420    96663862.14646
 15 03 03 00 02  0.0000000  0  7G16G18G21G22G27G29G31
  21396490.980   112439326.17609  21396492.000    87615084.17148
  22144885.120   116372366.01608  22144886.520    90679887.70847
  21432719.860   112630116.56608  21432720.820    87763933.18348
  23412806.140   123035240.45107  23412808.880    95871684.63946
  22709799.940   119340832.08107  22709803.680    92992888.67647
  24135813.520   126835079.60106  24135814.920    98832784.77445
  23624186.500   124145939.97106  23624189.920    96737115.15146
 15 03 03 00 02 30.0000000  0  7G16G18G21G22G27G29G31
  21384476.440   112376189.15309  21384477.420    87565886.49248
  22134792.560   116319328.89608  22134793.900    90638560.10247
  21441074.360   112674019.73108  21441075.280    87798143.44548
  23394763.860   122940428.67807  23394766.460    95797805.74546
  22697300.780   119275148.47007  22697304.520    92941706.66247
  24149965.560   126909448.21906  24149966.780    98890734.30445
  23642091.160   124240027.90707  23642094.560    96810430.05945
 15 03 03 00 03  0.0000000  0  7G16G18G21G22G27G29G31
  21372528.560   112313402.44409  21372529.520    87516961.78248
  22124770.260   116266661.29108  22124771.600    90597520.43847
  21449481.480   112718199.23408  21449482.340    87832569.03248
  23376738.560   122845706.82407  23376741.100    95723996.94446
  22684819.200   119209557.38507  22684822.940    92890596.74647
  24164125.980   126983861.41406  24164127.280    98948718.51045
  23660010.940   124334194.86607  23660014.280    96883806.53246
 15 03 03 00 03 30.0000000  0  7G16G18G21G22G27G29G31
  21360647.680   112250968.12709  21360648.640    87468311.66348
  22114818.580   116214365.04308  22114820.000    90556770.14447
  21457940.620   112762652.08608  21457941.460    87867207.62048
  23358730.680   122751077.18207  23358733.340    95650259.96646
  22672355.160   119144058.62807  22672358.920    92839558.77847
  24178294.680   127058318.50306  24178296.360    99006736.96445
  23677945.140   124428437.62407  23677948.460    96957242.05246
 15 03 03 00 04  0.0000000  0  7G16G18G21G22G27G29G31
  21348834.420   112188889.11009  21348835.380    87419938.40548
  22104937.940   116162442.47608  22104939.480    90516311.02447
  21466451.680   112807377.78808  21466452.500    87902058.81648
  23340740.960   122656542.90707  23340743.740    95576597.30046
  22659908.820   119078652.85407  22659912.580    92788593.26747
  24192471.840   127132820.47606  24192473.580    99064790.45346
  23695893.200   124522753.34806  23695896.600    97030734.41446
 15 03 03 00 04 30.0000000  0  7G16G18G21G22G27G29G31
  21337088.980   112127166.47009  21337089.940    87371842.84148
  22095128.620   116110894.61908  22095130.260    90476143.88147
  21475014.080   112852373.47208  21475014.920    87937120.38448
  23322769.740   122562105.78406  23322772.600    95503010.39446
  22647479.960   119013339.17207  22647483.740    92737699.50747
  24206657.280   127207366.10406  24206659.520    99122877.87245
  23713854.360   124617138.14906  23713857.840    97104280.58946
 15 03 03 00 05  0.0000000  0  7G16G18G21G22G27G29G31
  21325411.740   112065802.23809  21325412.740    87324026.55948
  22085391.020   116059723.53508  22085392.680    90436270.33647
  21483627.440   112897636.89208  21483628.280    87972390.58448
  23304817.520   122467767.92807  23304820.300    95429500.76045
  22635068.640   118948117.61507  22635072.460    92686877.53747
  24220850.840   127281954.75606  24220853.480    99180998.91045
  23731828.060   124711588.85407  23731831.620    97177878.09846
 15 03 03 00 05 30.0000000  0  7G16G18G21G22G27G29G31
  21313803.160   112004798.64709  21313804.160    87276491.29348
  22075725.560   116008931.17408  22075727.180    90396691.89947
  21492291.620   112943167.48408  21492292.480    88007868.96548
  23286884.800   122373532.28307  23286887.500    95356070.75946
  22622674.940   118882988.54507  22622678.720    92636127.64347
  24235052.760   127356587.06906  24235055.960    99239153.83745
  23749813.840   124806102.82907  23749817.500    97251524.90546
 15 03 03 00 06  0.0000000  0  7G16G18G21G22G27G29G31
  21302263.240   111944156.05509  21302264.280    87229237.32548
  22066132.120   115958516.98908  22066133.580    90357408.14947
  21501005.760   112988960.54608  21501006.600    88043551.87148
  23268971.620   122279399.29307  23268974.280    95282720.75246
  22610298.480   118817950.05807  22610302.260    92585448.32947
  24249262.740   127431260.66906  24249265.720    99297341.10446
  23767810.680   124900674.92306  23767814.420    97325216.97745
 15 03 03 00 06 30.0000000  0  7G16G18G21G22G27G29G31
  21290792.920   111883879.36609  21290794.000    87182268.48148
  22056611.640   115908486.33408  22056612.980    90318423.24847
  21509769.960   113035016.76208  21509770.780    88079439.83348
  23251079.000   122185374.64306  23251081.660    95209455.12746
  22597939.840   118753005.01408  22597943.560    92534841.82247
  24263481.220   127505978.34506  24263484.000    99355562.58845
  23785818.520   124995304.73506  23785822.320    97398954.01846
 15 03 03 00 07  0.0000000  0  7G16G18G21G22G27G29G31
  21279392.860   111823971.99609  21279394.000    87135587.41748
  22047164.660   115858841.99308  22047165.920    90279739.37447
  21518584.360   113081336.68908  21518585.160    88115533.28348
  23233207.560   122091461.87806  23233210.400    95136276.69946
  22585599.220   118688154.71308  22585602.960    92484309.14847
  24277708.300   127580741.21706  24277710.700    99413819.34345
  23803836.940   125089990.48406  23803840.860    97472734.62446
 15 03 03 00 07 30.0000000  0  7G16G18G21G22G27G29G31
  21268063.160   111764434.34609  21268064.360    87089194.44548
  22037791.180   115809584.10208  22037792.420    90241356.61647
  21527448.220   113127916.65908  21527449.040    88151829.36348
  23215357.640   121997662.32707  23215360.640    95063186.46546
  22573276.460   118623398.24007  22573280.220    92433849.59247
  24291943.740   127655547.96106  24291945.800    99472110.26545
  23821865.120   125184728.21106  23821869.240    97546555.71546
 15 03 03 00 08  0.0000000  0  7G16G18G21G22G27G29G31
  21256804.560   111705270.25609  21256805.780    87043092.56148
  22028492.000   115760716.83608  22028493.280    90203278.24647
  21536361.340   113174755.70408  21536362.200    88188327.32148
  23197530.220   121903980.22407  23197533.240    94990187.71246
  22560971.860   118558737.02908  22560975.600    92383464.24247
  24306187.640   127730400.08406  24306189.820    99530436.42945
  23839902.820   125279516.11306  23839907.280    97620415.91046
 15 03 03 00 08 30.0000000  0  7G16G18G21G22G27G29G31
  21245616.740   111646477.70509  21245617.960    86997280.18448
  22019266.640   115712237.44708  22019267.960    90165502.11747
  21545322.800   113221848.71508  21545323.700    88225023.16948
  23179725.020   121810414.03107  23179727.860    94917279.26546
  22548684.620   118494167.08608  22548688.340    92333150.01847
  24320439.260   127805293.11006  24320441.300    99588794.63744
  23857948.760   125374346.96106  23857953.480    97694309.52946
 15 03 03 00 09  0.0000000  0  7G16G18G21G22G27G29G31
  21234501.120   111588064.64109  21234502.340    86951763.51648
  22010116.560   115664153.39408  22010117.920    90128034.04247
  21554333.260   113269199.17008  21554334.200    88261919.63048
  23161943.540   121716971.85707  23161946.100    94844467.46446
  22536415.880   118429694.37808  22536419.540    92282911.55847
  24334699.840   127880232.94506  24334701.580    99647189.40044
  23876003.640   125469223.74706  23876008.420    97768238.94946
 15 03 03 00 09 30.0000000  0  7G16G18G21G22G27G29G31
  21223458.140   111530033.21609  21223459.320    86906544.22848
  22001042.180   115616466.95808  22001043.580    90090875.79947
  21563392.460   113316805.76308  21563393.440    88299015.67848
  23144186.200   121623656.47607  23144188.440    94771754.42446
  22524165.680   118365319.21008  22524169.300    92232749.10447
  24348969.080   127955219.72706  24348971.200    99705620.51744
  23894066.780   125564143.35906  23894071.540    97842201.71645
 15 03 03 00 10  0.0000000  0  7G16G18G21G22G27G29G31
  21212486.960   111472379.24709  21212488.140    86861619.06248
  21992042.540   115569173.38708  21992043.980    90054023.68147
  21572498.800   113364659.75108  21572499.760    88336304.49848
  23126452.340   121530464.37907  23126454.280    94699137.45746
  22511932.800   118301035.27308  22511936.460    92182657.74347
  24363246.060   128030246.70105  24363248.580    99764083.09644
  23912136.340   125659096.28706  23912140.980    97916190.42546
 15 03 03 00 10 30.0000000  0  7G16G18G21G22G27G29G31
  21201589.520   111415112.66908  21201590.700    86816995.76248
  21983119.500   115522282.46908  21983120.920    90017485.32047
  21581653.500   113412767.81108  21581654.420    88373791.30248
  23108743.820   121437405.78507  23108745.520    94626624.48446
  22499718.780   118236850.58508  22499722.500    92132643.71747
  24377532.160   128105321.78506  24377535.020    99822583.13944
  23930213.180   125754087.56906  23930217.680    97990208.99845
 15 03 03 00 11  0.0000000  0  7G16G18G21G22G27G29G31
  21190764.200   111358225.08409  21190765.340    86772667.77248
  21974271.340   115475785.24508  21974272.760    89981253.73447
  21590854.160   113461117.29608  21590855.060    88411466.21948
  23091059.120   121344472.80307  23091060.680    94554209.39146
  22487521.760   118172754.91208  22487525.480    92082699.05147
  24391825.500   128180434.55304  24391828.640    99881112.49146
  23948294.720   125849103.78706  23948299.200    98064246.98946
 15 03 03 00 11 30.0000000  0  7G16G18G21G22G27G29G31
  21180013.940   111301731.92309  21180015.060    86728647.13448
  21965500.900   115429696.50308  21965502.320    89945340.44947
  21600103.040   113509720.13908  21600103.880    88449338.56648
  23073401.260   121251681.38607  23073402.820    94481904.59946
  22475344.240   118108761.82608  22475348.000    92032834.32547
  24406128.780   128255598.13506  24406131.900    99939681.53045
  23966382.940   125944155.40006  23966387.440    98138312.54246
 15 03 03 00 12  0.0000000  0  7G16G18G21G22G27G29G31
  21169337.560   111245627.21008  21169338.680    86684929.18348
  21956807.100   115384010.62508  21956808.540    89909741.08647
  21609398.080   113558565.70908  21609398.880    88487400.04648
  23055769.240   121159026.09307  23055770.860    94409705.87546
  22463184.820   118044863.44308  22463188.580    91983043.39947
  24420439.400   128330256.83305  24420444.500    99997625.02245
  23984475.720   126039231.43006  23984480.520    98212397.10945
 15 03 03 00 12 30.0000000  0  7G16G18G21G22G27G29G31
  21158734.920   111189910.20509  21158736.060    86641513.34148
  21948189.720   115338726.61308  21948191.220    89874454.86347
  21618738.520   113607649.96608  21618739.280    88525647.51848
  23038163.180   121066506.84007  23038164.700    94337613.12646
  22451042.920   117981057.09108  22451046.660    91933324.18347
  24434758.820   128405503.17406  24434762.700   100056258.53244
  24002571.880   126134325.67206  24002577.080    98286495.83046
 15 03 03 00 13  0.0000000  0  7G16G18G21G22G27G29G31
  21148207.880   111134590.31009  21148209.020    86598406.93848
  21939650.520   115293853.20508  21939652.000    89839488.59447
  21628125.400   113656978.43208  21628126.160    88564085.28648
  23020584.900   120974133.48807  23020586.260    94265634.05846
  22438919.920   117917350.17508  22438923.620    91883682.44947
  24449086.920   128480796.72805  24449090.300   100114928.78745
  24020672.340   126229442.52006  24020677.880    98360612.17845
 15 03 03 00 13 30.0000000  0  7G16G18G21G22G27G29G31
  21137755.220   111079661.11609  21137756.360    86555604.96948
  21931188.240   115249383.52908  21931189.600    89804836.91347
  21637556.800   113706540.67608  21637557.540    88602705.21948
  23003033.300   120881900.25607  23003034.500    94193764.17546
  22426814.320   117853734.57908  22426817.940    91834111.87647
  24463423.780   128556149.78305  24463426.040   100173633.05846
  24038775.080   126324570.91206  24038780.920    98434737.47445
 15 03 03 00 14  0.0000000  0  7G16G18G21G22G27G29G31
  21127382.480   111025152.02609  21127383.640    86513130.36148
  21922808.380   115205346.74208  21922809.620    89770522.56447
  21647037.580   113756362.26508  21647038.260    88641527.23448
  22985514.100   120789836.86107  22985515.160    94122026.62546
  22414731.300   117790237.83308  22414734.860    91784633.90747
  24477770.440   128631547.88606  24477773.700   100232384.62645
  24056884.640   126419735.04506  24056890.700    98508890.62246
 15 03 03 00 14 30.0000000  0  7G16G18G21G22G27G29G31
  21117082.620   110971025.80709  21117083.740    86470954.08948
  21914503.680   115161704.98608  21914504.860    89736516.03147
  21656559.880   113806402.12608  21656560.520    88680519.33148
  22968020.240   120697906.53207  22968021.220    94050392.76046
  22402663.400   117726820.73008  22402666.920    91735217.99347
  24492123.140   128706972.31505  24492126.560   100291156.96345
  24074992.980   126514892.41106  24074999.220    98583038.44446
 15 03 03 00 15  0.0000000  0  7G16G18G21G22G27G29G31
  21106860.620   110917308.95809  21106861.760    86429096.80848
  21906279.080   115118484.48208  21906280.260    89702837.73947
  21666128.000   113856682.81508  21666128.620    88719699.09348
  22950556.940   120606136.74407  22950557.960    93978883.98346
  22390615.360   117663508.10208  22390618.880    91685883.49447
  24506485.540   128782447.90906  24506488.960   100349969.03445
  24093104.220   126610064.71606  24093110.720    98657197.89846
 15 03 03 00 15 30.0000000  0  7G16G18G21G22G27G29G31
  21096715.120   110863994.29009  21096716.300    86387552.91948
  21898133.140   115075677.61708  21898134.420    89669481.76147
  21675739.840   113907193.60108  21675740.540    88759058.14748
  22933122.840   120514520.41607  22933123.980    93907494.77046
  22378585.500   117600290.91808  22378589.040    91636623.36747
  24520855.980   128857965.22005  24520859.420   100408813.70046
  24111216.020   126705239.68806  24111222.680    98731359.41946
 15 03 03 00 16  0.0000000  0  7G16G18G21G22G27G29G31
  21086647.520   110811089.02109  21086648.760    86346328.03848
  21890067.220   115033291.30208  21890068.640    89636453.48047
  21685396.080   113957937.62708  21685396.820    88798598.94848
  22915719.480   120423065.86507  22915720.820    93836231.61446
  22366574.820   117537174.60508  22366578.360    91587441.84347
  24535235.360   128933529.55006  24535238.820   100467694.89945
  24129328.920   126800419.70206  24129335.640    98805524.82746
 15 03 03 00 16 30.0000000  0  7G16G18G21G22G27G29G31
  21076657.640   110758591.92009  21076658.900    86305421.20448
  21882081.020   114991324.10808  21882082.600    89603751.78747
  21695095.820   114008910.22508  21695096.620    88838317.85248
  22898346.760   120331772.15107  22898348.280    93765093.77947
  22354582.720   117474156.08108  22354586.340    91538336.51147
  24549623.180   129009136.83806  24549626.500   100526609.63244
  24147441.680   126895598.71006  24147448.440    98879689.41746
 15 03 03 00 17  0.0000000  0  6G16G18G21G22G27G31
  21066745.020   110706500.74809  21066746.280    86264830.68248
  21874173.980   114949772.81608  21874175.660    89571374.17347
  21704837.760   114060104.64208  21704838.620    88878209.60748
  22881004.280   120240637.28707  22881005.920    93694079.73247
  22342608.460   117411231.18508  22342612.140    91489304.14048
  24165552.880   126990769.25206  24165559.640    98953847.44846
 15 03 03 00 17 30.0000000  0  6G16G18G21G22G27G31
  21056914.360   110654840.18609  21056915.600    86224575.70448
  21866350.880   114908662.05908  21866352.520    89539339.83547
  21714625.960   114111542.15008  21714626.880    88918290.78548
  22863696.960   120149686.87507  22863698.520    93623209.40046
  22330656.420   117348423.08308  22330660.160    91440362.77148
  24183666.200   127085951.35806  24183673.040    99028014.46945
 15 03 03 00 18  0.0000000  0  6G16G18G21G22G27G31
  21047161.840   110603590.28009  21047163.060    86184640.71548
  21858607.760   114867971.34708  21858609.320    89507632.80347
  21724455.860   114163198.91808  21724456.840    88958542.80848
  22846421.080   120058901.36007  22846422.400    93552467.54546
  22318722.460   117285709.86008  22318726.220    91391495.33747
  24201776.860   127181119.95806  24201783.840    99102171.00945
 15 03 03 00 18 30.0000000  0  7G16G18G19G21G22G27G31
  21037489.160   110552759.91909  21037490.380    86145032.64248
  21850946.160   114827709.12008  21850947.680    89476259.66247
  24533275.100   128923221.66205  24533275.280   100459652.11345
  21734328.480   114215080.15908  21734329.520    88998969.75148
  22829178.380   119968290.24707  22829179.360    93481861.60346
  22306807.940   117223098.69208  22306811.700    91342707.43747
  24219885.680   127276279.28906  24219892.740    99176320.44146
 15 03 03 00 19  0.0000000  0  7G16G18G19G21G22G27G31
  21027891.860   110502325.51209  21027893.020    86105733.10248
  21843361.500   114787851.45208  21843362.980    89445201.75547
  24517941.560   128842644.24805  24517941.980   100396864.59145
  21744238.360   114267157.38008  21744239.480    89039549.40148
  22811964.460   119877830.78707  22811965.100    93411373.83146
  22294908.040   117160564.24908  22294911.780    91293979.31348
  24237987.120   127371400.63906  24237994.440    99250440.39246
 15 03 03 00 19 30.0000000  0  7G16G18G19G21G22G27G31
  21018379.400   110452337.01609  21018380.480    86066781.03248
  21835863.100   114748447.34908  21835864.560    89414497.28447
  24502621.640   128762138.32905  24502622.120   100334132.75845
  21754194.800   114319478.90108  21754195.940    89080319.41648
  22794788.860   119787573.31907  22794789.260    93341043.43146
  22283031.940   117098154.77008  22283035.640    91245348.56748
  24256089.800   127466528.98506  24256097.360    99324565.80145
 15 03 03 00 20  0.0000000  0  7G16G18G19G21G22G27G31
  21008947.140   110402770.27609  21008948.180    86028157.59448
  21828446.400   114709472.63208  21828447.860    89384127.38747
  24487310.420   128681677.88705  24487311.000   100271436.37144
  21764192.260   114372015.74808  21764193.380    89121257.21648
  22777647.160   119697494.33907  22777647.440    93270852.11046
  22271174.680   117035844.41908  22271178.380    91196795.05948
  24274188.120   127561634.76706  24274195.940    99398673.43645
 15 03 03 00 20 30.0000000  0  7G16G18G19G21G22G27G31
  20999596.420   110353631.89009  20999597.420    85989867.94248
  21821112.520   114670933.09308  21821114.020    89354096.60247
  24472008.760   128601267.85705  24472009.520   100208779.26645
  21774231.180   114424770.44208  21774232.320    89162364.76848
  22760540.840   119607601.20307  22760541.140    93200805.60946
  22259337.220   116973638.16808  22259340.940    91148322.67648
  24292282.580   127656719.75206  24292290.560    99472764.68645
 15 03 03 00 21  0.0000000  0  7G16G18G19G21G22G27G31
  20990327.260   110304922.10409  20990328.280    85951912.27148
  21813861.440   114632828.69208  21813863.020    89324404.88347
  24456716.380   128520906.30905  24456717.280   100146159.93345
  21784310.980   114477739.69908  21784312.040    89203639.51448
  22743470.200   119517895.12307  22743470.660    93130904.86347
  22247519.300   116911534.69408  22247523.040    91099930.37848
  24310372.500   127751780.30906  24310380.780    99546836.95545
 15 03 03 00 21 30.0000000  0  7G16G18G19G21G22G27G31
  20981140.260   110256643.91809  20981141.320    85914292.90348
  21806693.720   114595162.06908  21806695.320    89295054.28447
  24441433.360   128440594.03906  24441434.320   100083578.99645
  21794431.480   114530923.07808  21794432.500    89245081.11248
  22726435.860   119428379.05107  22726436.340    93061152.16847
  22235721.120   116849535.14508  22235724.900    91051619.06148
  24328457.540   127846814.42806  24328466.100    99620888.76845
 15 03 03 00 22  0.0000000  0  7G16G18G19G21G22G27G31
  20972035.380   110208797.37409  20972036.460    85877009.88248
  21799609.160   114557932.42608  21799610.780    89266044.18547
  24426159.560   128360329.52006  24426160.460   100021035.28545
  21804591.960   114584316.70608  21804592.960    89286686.53648
  22709437.920   119339053.79308  22709438.380    92991548.15047
  22223942.460   116787637.87108  22223946.220    91003387.42948
  24346536.720   127941817.59906  24346545.500    99694916.82846
 15 03 03 00 22 30.0000000  0  7G16G18G19G21G22G27G31
  20963013.540   110161387.22209  20963014.620    85840066.91048
  21792608.560   114521144.30308  21792610.240    89237378.13047
  24410895.260   128280115.29506  24410896.080    99958530.75445
  21814792.560   114637921.08608  21814793.540    89328456.18048
  22692477.340   119249924.81308  22692477.760    92922097.08147
  22212183.880   116725846.03008  22212187.620    90955237.96548
  24364609.780   128036788.70006  24364618.700    99768919.66746
 15 03 03 00 23  0.0000000  0  7G16G18G19G21G22G27G31
  20954075.080   110114415.18409  20954076.100    85803465.32148
  21785692.200   114484798.88008  21785693.960    89209057.04147
  24395640.580   128199951.54206  24395641.220    99896065.54145
  21825032.980   114691734.63308  21825033.920    89370388.80548
  22675554.540   119160994.65708  22675555.020    92852800.93147
  22200445.420   116664159.82208  22200449.100    90907170.80948
  24382676.240   128131725.54306  24382685.300    99842896.01846
 15 03 03 00 23 30.0000000  0  7G16G18G19G21G22G27G31
  20945219.620   110067879.38109  20945220.620    85767203.66148
  21778859.560   114448893.70108  21778861.460    89181078.98647
  24380394.820   128119834.29306  24380395.220    99833636.58644
  21835312.280   114745752.27808  21835313.140    89412480.48348
  22658669.220   119072261.96908  22658669.840    92783658.64946
  22188726.360   116602575.65708  22188730.020    90859183.15648
  24400734.780   128226621.19406  24400744.020    99916840.40146
 15 03 03 00 24  0.0000000  0  7G16G18G19G21G22G27G31
  20936448.180   110021785.11809  20936449.180    85731286.05448
  21772111.600   114413433.19408  21772113.520    89153447.43447
  24365158.600   128039767.01206  24365158.880    99771246.56044
  21845630.700   114799975.77308  21845631.500    89454732.55348
  22641822.540   118983732.88808  22641823.320    92714675.02547
  22177027.460   116541097.42308  22177031.120    90811278.06048
  24418785.520   128321476.27906  24418794.940    99990753.13546
 15 03 03 00 24 30.0000000  0  7G16G18G19G21G22G27G31
  20927761.300   109976135.31109  20927762.340    85695714.77649
  21765448.780   114378419.92808  21765450.640    89126164.38247
  24349932.020   127959750.52906  24349932.160    99708896.10745
  21855987.960   114854403.52608  21855988.740    89497143.78248
  22625015.180   118895410.38208  22625016.040    92645852.37347
  22165348.920   116479726.19708  22165352.580    90763456.33448
  24436828.040   128416288.61706  24436837.580   100064632.67444
 15 03 03 00 25  0.0000000  0  7G16G18G19G21G22G27G31
  20919159.140   109930930.94409  20919160.220    85660490.59848
  21758871.280   114343854.70608  21758873.020    89099230.46447
  24334714.960   127879784.15806  24334715.040    99646584.69145
  21866383.620   114909033.08008  21866384.400    89539712.27048
  22608247.600   118807296.86707  22608248.420    92577192.56147
  22153690.680   116418461.58208  22153694.320    90715717.68648
  24454861.700   128511054.50806  24454871.320   100138475.90246
 15 03 03 00 25 30.0000000  0  7G16G18G19G21G22G27G31
  20910641.880   109886172.84009  20910643.020    85625614.15148
  21752379.060   114309737.19808  21752380.600    89072645.41147
  24319507.260   127799866.97106  24319507.420    99584311.62245
  21876817.280   114963862.34408  21876818.040    89582436.37048
  22591520.040   118719393.60508  22591520.760    92508696.58447
  22142052.540   116357302.83008  22142056.220    90668061.53448
  24472885.700   128605770.05605  24472895.420   100212279.87945
 15 03 03 00 26  0.0000000  0  7G16G18G19G21G22G27G31
  20902210.540   109841866.02009  20902211.680    85591089.35748
  21745973.060   114276072.60208  21745974.400    89046413.28147
  24304309.440   127720002.42606  24304309.840    99522079.54045
  21887289.140   115018892.24808  21887289.880    89625316.81048
  22574833.700   118631706.76907  22574834.240    92440369.25247
  22130435.300   116296253.85908  22130438.980    90620490.91148
  24490900.340   128700436.76606  24490910.200   100286046.00146
 15 03 03 00 26 30.0000000  0  7G16G18G19G21G22G27G31
  20893865.580   109798012.82809  20893866.680    85556918.03848
  21739653.360   114242861.85008  21739654.540    89020534.78947
  24289121.660   127640190.76606  24289122.220    99459888.66345
  21897798.820   115074120.99908  21897799.560    89668352.19348
  22558189.000   118544238.79807  22558189.400    92372212.45047
  22118839.000   116235314.93308  22118842.640    90573006.04848
  24508904.720   128795050.47405  24508914.860   100359770.94244
 15 03 03 00 27  0.0000000  0  7G16G18G19G21G22G27G31
  20885607.180   109754614.53809  20885608.260    85523101.19148
  21733420.080   114210105.85308  21733421.240    88995010.65047
  24273943.680   127560430.96506  24273944.420    99397738.20545
  21908345.960   115129546.59708  21908346.700    89711540.96648
  22541586.340   118456991.44908  22541586.580    92304227.57347
  22107263.560   116174485.77508  22107267.180    90525606.71648
  24526898.300   128889608.10605  24526908.760   100433451.78843
 15 03 03 00 27 30.0000000  0  7G16G18G19G21G22G27G31
  20877434.780   109711668.27809  20877435.860    85489636.57348
  21727272.720   114177801.56108  21727273.940    88969838.48247
  24258774.880   127480719.02606  24258775.740    99335625.03746
  21918929.480   115185163.42208  21918930.200    89754878.75448
  22525025.420   118369963.13008  22525025.560    92236413.36847
  22095708.200   116113762.31608  22095711.820    90478289.74748
  24544879.880   128984102.62406  24544890.640   100507083.46846
 15 03 03 00 28  0.0000000  0  7G16G18G19G21G22G27G31
  20869349.580   109669180.41809  20869350.680    85456529.14949
  21721212.320   114145954.48008  21721213.660    88945022.58547
  24243616.100   127401059.28906  24243617.020    99273552.56446
  21929549.800   115240973.65108  21929550.500    89798367.24348
  22508507.540   118283160.93808  22508507.680    92168775.35947
  22084173.900   116053149.49608  22084177.580    90431058.99148
  24562849.800   129078535.56705  24562860.820   100580667.12944
 15 03 03 00 28 30.0000000  0  7G16G18G19G21G22G27G31
  20861351.660   109627151.16709  20861352.780    85423779.08549
  21715238.900   114114564.06908  21715240.300    88920562.54147
  24228467.040   127321450.29906  24228467.920    99211519.61846
  21940206.160   115296973.30108  21940206.860    89842003.33148
  22492032.840   118196585.54708  22492033.000    92101314.07747
  22072660.420   115992645.88208  22072664.100    90383913.33448
  24580807.260   129172902.30406  24580818.380   100654198.94345
 15 03 03 00 29  0.0000000  0  7G16G18G19G21G22G27G31
  20853441.400   109585582.53909  20853442.560    85391387.94849
  21709352.700   114083631.99208  21709354.120    88896459.64147
  24213327.680   127241892.39906  24213328.440    99149526.47146
  21950898.400   115353161.57008  21950899.140    89885786.39448
  22475601.780   118110239.76208  22475602.040    92034031.70947
  22061167.900   115932252.26608  22061171.560    90336853.38448
  24598751.980   129267200.50506  24598763.020   100727677.40046
 15 03 03 00 29 30.0000000  0  7G16G18G19G21G22G27G31
  20845619.360   109544477.39609  20845620.520    85359357.96949
  21703554.100   114053160.27008  21703555.560    88872715.46047
  24198198.280   127162386.74206  24198198.940    99087574.07145
  21961626.400   115409537.79008  21961627.160    89929715.91648
  22459214.960   118024127.17008  22459215.420    91966931.04547
  22049696.600   115871970.00408  22049700.180    90289880.20348
  24616683.400   129361427.34306  24616694.240   100801099.82845
 15 03 03 00 30  0.0000000  0  7G16G18G19G21G22G27G31
  20837885.780   109503836.93309  20837886.900    85327690.07449
  21697843.180   114023149.54508  21697844.740    88849330.50648
  24183078.720   127082932.74506  24183079.220    99025661.91846
  21972389.700   115466099.47308  21972390.520    89973789.95348
  22442872.920   117938250.02708  22442873.580    91900013.84647
  22038246.460   115811799.01808  22038250.000    90242993.73148
  24634601.240   129455581.44506  24634611.820   100874465.72044
 15 03 03 00 30 30.0000000  0  7G16G18G19G21G22G27G31
  20830240.800   109463662.08209  20830241.860    85296384.99749
  21692220.040   113993600.23108  21692221.720    88826305.09347
  24167968.800   127003529.45106  24167969.180    98963789.27445
  21983187.900   115522844.68908  21983188.780    90018006.99648
  22426576.000   117852610.02508  22426576.780    91833281.42047
  22026817.400   115751738.84208  22026820.880    90196193.60448
  24652504.600   129549659.00306  24652514.900   100947772.28346
 15 03 03 00 31  0.0000000  0  7G16G18G19G21G22G27G31
  20822685.340   109423957.83709  20822686.380    85265446.62149
  21686685.500   113964516.28208  21686687.220    88803642.29247
  24152869.140   126924180.08906  24152869.480    98901958.64445
  21994021.160   115579773.94708  21994022.060    90062367.45648
  22410325.300   117767212.55608  22410326.020    91766737.98147
  22015410.020   115691792.81008  22015413.540    90149482.42948
  24670393.200   129643659.08906  24670403.180   101021018.12644
 15 03 03 00 31 30.0000000  0  7G16G18G19G21G22G27G31
  20815219.500   109384724.66709  20815220.560    85234875.32049
  21681239.560   113935897.78508  21681241.260    88781342.18247
  24137779.520   126844883.80506  24137779.860    98840169.38145
  22004888.940   115636884.65008  22004889.880    90106869.30348
  22394121.080   117682058.81008  22394121.660    91700384.46647
  22004024.280   115631960.34008  22004027.820    90102859.73348
  24688266.440   129737579.06406  24688276.280   101094201.90045
 15 03 03 00 32  0.0000000  0  6G16G18G19G21G22G27
  20807841.440   109345952.48509  20807842.440    85204663.22749
  21675880.240   113907734.28908  21675881.900    88759396.61447
  24122697.740   126765628.97106  24122698.160    98778412.40646
  22015788.800   115694163.75608  22015789.720    90151502.36748
  22377961.640   117597139.96208  22377962.000    91634213.99847
  21992657.980   115572230.17508  21992661.580    90056316.75748
 15 03 03 00 32 30.0000000  0  6G16G18G19G21G22G27
  20800557.180   109307673.20909  20800558.120    85174835.22049
  21670613.360   113880056.67108  21670615.060    88737829.65848
  24107629.480   126686445.45006  24107630.020    98716711.00745
  22026726.040   115751639.01708  22026726.880    90196288.28848
  22361853.200   117512488.55308  22361853.180    91568251.91547
  21981316.960   115512632.69708  21981320.580    90009877.17648
 15 03 03 00 33  0.0000000  0  6G16G18G19G21G22G27
  20793362.460   109269864.66109  20793363.380    85145374.01049
  21665434.700   113852842.46708  21665436.400    88716623.80047
  24092570.360   126607309.61606  24092570.940    98655046.76346
  22037695.760   115809285.06708  22037696.560    90241207.28248
  22345791.500   117428083.07808  22345791.180    91502481.47547
  21969996.720   115453144.59208  21970000.360    89963522.81148
 15 03 03 00 33 30.0000000  0  6G16G18G19G21G22G27
  20786258.240   109232531.87709  20786259.200    85116283.52549
  21660344.980   113826095.71508  21660346.640    88695782.18847
  24077521.060   126528224.96906  24077521.600    98593422.39246
  22048698.360   115867103.86208  22048699.060    90286260.88948
  22329777.640   117343929.71508  22329777.200    91436907.46947
  21958697.980   115393769.55408  21958701.640    89917256.56048
 15 03 03 00 34  0.0000000  0  6G16G18G19G21G22G27
  20779245.240   109195678.46909  20779246.240    85087566.58149
  21655344.800   113799819.38508  21655346.380    88675307.13547
  24062482.000   126449194.04606  24062482.560    98531839.87746
  22059733.860   115925095.54608  22059734.500    90331449.21448
  22313812.380   117260032.43808  22313812.060    91371533.00947
  21947421.200   115334509.84308  21947424.860    89871080.17448
 15 03 03 00 34 30.0000000  0  6G16G18G19G21G22G27
  20772324.220   109159308.44709  20772325.300    85059226.30849
  21650434.760   113774016.97408  21650436.280    88655201.37147
  24047453.460   126370218.55706  24047454.020    98470300.56546
  22070802.360   115983260.85108  22070802.960    90376772.82448
  22297896.800   117176396.64808  22297896.780    91306362.29747
  21936166.940   115275368.52108  21936170.580    89824996.02948
 15 03 03 00 35  0.0000000  0  6G16G18G19G21G22G27
  20765495.340   109123422.58508  20765496.460    85031263.29349
  21645614.840   113748688.35708  21645616.340    88635464.80547
  24032435.260   126291297.68306  24032435.800    98408803.82346
  22081903.380   116041596.93408  22081903.940    90422229.51048
  22282031.160   117093023.42408  22282031.520    91241396.18547
  21924935.100   115216344.97108  21924938.740    89779003.66748
 15 03 03 00 35 30.0000000  0  6G16G18G19G21G22G27
  20758758.660   109088020.97708  20758759.760    85003677.61849
  21640885.040   113723833.29508  21640886.500    88616097.23247
  24017427.340   126212430.64406  24017427.860    98347349.04546
  22093036.280   116100100.89208  22093036.880    90467817.00847
  22266215.820   117009913.94308  22266216.460    91176635.58347
  21913725.500   115157438.25708  21913729.100    89733102.33948
 15 03 03 00 36  0.0000000  0  6G16G18G19G21G22G27
  20752114.480   109053105.65209  20752115.580    84976470.87349
  21636245.580   113699452.84508  21636246.960    88597099.49547
  24002429.800   126133617.83906  24002430.260    98285936.50946
  22104200.880   116158771.49508  22104201.560    90513534.35847
  22250451.400   116927071.37208  22250452.120    91112082.96547
  21902538.320   115098649.31908  21902541.880    89687292.78348
 15 03 03 00 36 30.0000000  0  6G16G18G19G21G22G27
  20745563.300   109018678.90308  20745564.400    84949644.83149
  21631696.720   113675548.45308  21631698.020    88578472.70747
  23987442.660   126054859.92106  23987443.140    98224566.74246
  22115396.960   116217607.55008  22115397.720    90559380.62548
  22234738.420   116844498.59008  22234739.040    91047740.58147
  21891373.720   115039979.17808  21891377.280    89641575.80548
 15 03 03 00 37  0.0000000  0  6G16G18G19G21G22G27
  20739105.840   108984744.65809  20739106.920    84923202.55849
  21627239.100   113652123.58908  21627240.360    88560219.57847
  23972466.260   125976158.37706  23972466.660    98163240.90646
  22126624.540   116276608.93408  22126625.340    90605355.72547
  22219077.600   116762200.10208  22219078.040    90983611.93247
  21880232.280   114981430.36408  21880235.800    89595953.35848
 15 03 03 00 37 30.0000000  0  6G16G18G19G21G22G27
  20732742.020   108951302.62709  20732743.140    84897143.83749
  21622872.580   113629177.18208  21622873.780    88542339.27947
  23957500.400   125897512.38506  23957500.820    98101958.37246
  22137883.100   116335773.15508  22137883.940    90651457.71048
  22203469.160   116680176.82108  22203469.320    90919697.72347
  21869113.720   114923001.79208  21869117.240    89550424.61348
 15 03 03 00 38  0.0000000  0  6G16G18G19G21G22G27
  20726472.180   108918354.24509  20726473.260    84871469.76749
  21618597.220   113606709.85108  21618598.400    88524832.27847
  23942545.060   125818921.85606  23942545.520    98040719.04246
  22149172.280   116395098.09608  22149173.120    90697684.93148
  22187913.480   116598431.28408  22187913.400    90855999.94747
  21858018.060   114864693.82108  21858021.620    89504989.84548
 15 03 03 00 38 30.0000000  0  6G16G18G19G21G22G27
  20720296.960   108885902.99009  20720297.980    84846183.07349
  21614413.520   113584724.42208  21614414.760    88507700.78348
  23927600.680   125740388.80906  23927601.200    97979524.51346
  22160492.100   116454584.25208  22160492.960    90744037.76947
  22172411.320   116516967.58508  22172411.220    90792521.77747
  21846945.780   114806508.84608  21846949.460    89459650.91448
 15 03 03 00 39  0.0000000  0  6G16G18G19G21G22G27
  20714216.280   108853948.62509  20714217.260    84821283.56649
  21610321.340   113563220.07808  21610322.680    88490944.16247
  23912666.940   125661911.76206  23912667.440    97918373.60646
  22171841.860   116514227.87708  22171842.780    90790513.31547
  22156962.920   116435786.49308  22156962.940    90729263.82947
  21835896.700   114748445.67808  21835900.460    89414406.90148
 15 03 03 00 39 30.0000000  0  6G16G18G19G21G22G27
  20708230.680   108822494.01109  20708231.660    84796773.47349
  21606321.040   113542198.96708  21606322.540    88474564.08448
  23897744.080   125583492.17306  23897744.660    97857267.47246
  22183221.540   116574028.89908  22183222.520    90837111.50747
  22141569.060   116354891.81008  22141569.240    90666229.04747
  21824871.200   114690506.11408  21824874.960    89369259.20548
 15 03 03 00 40  0.0000000  0  6G16G18G19G21G22G27
  20702340.220   108791539.39309  20702341.180    84772652.99149
  21602412.560   113521660.13408  21602414.180    88458559.81248
  23882831.840   125505128.60906  23882832.480    97796205.02045
  22194630.620   116633983.97908  22194631.560    90883829.74647
  22126229.920   116274284.39508  22126230.240    90603418.10547
  21813869.060   114632689.26808  21813872.760    89324207.12948
 15 03 03 00 40 30.0000000  0  6G16G18G19G21G22G27
  20696545.080   108761085.83508  20696546.060    84748922.94549
  21598596.080   113501604.29108  21598597.700    88442931.90148
  23867930.300   125426821.04206  23867930.980    97735186.20045
  22206068.780   116694091.86808  22206069.700    90930667.05847
  22110945.960   116193966.68208  22110946.360    90540832.90148
  21802890.320   114574995.41808  21802893.940    89279250.89748
 15 03 03 00 41  0.0000000  0  6G16G18G19G21G22G27
  20690845.640   108731135.37008  20690846.660    84725584.91749
  21594871.800   113482032.71508  21594873.360    88427681.34148
  23853039.620   125348570.07505  23853040.140    97674211.45946
  22217535.700   116754350.78508  22217536.580    90977622.04547
  22095717.680   116113941.42308  22095718.120    90478475.58747
  21791935.160   114517425.53308  21791938.700    89234391.26048
 15 03 03 00 41 30.0000000  0  6G16G18G19G21G22G27
  20685242.380   108701690.38608  20685243.480    84702640.77449
  21591240.040   113462947.22808  21591241.480    88412809.55148
  23838159.880   125270376.71806  23838160.320    97613281.60646
  22229031.300   116814760.30208  22229032.160    91024694.39347
  22080545.740   116034212.20908  22080546.180    90416348.96447
  21781003.820   114459981.08208  21781007.360    89189629.36748
 15 03 03 00 42  0.0000000  0  6G16G18G19G21G22G27
  20679735.880   108672753.66708  20679737.020    84680092.68349
  21587701.080   113444349.45208  21587702.380    88398317.80548
  23823291.440   125192242.41005  23823291.720    97552397.75845
  22240555.520   116875320.06208  22240556.320    91071883.80947
  22065430.780   115954782.55808  22065431.140    90354455.76247
  21770096.740   114402663.95508  21770100.260    89144966.67948
 15 03 03 00 42 30.0000000  0  6G16G18G19G21G22G27
  20674326.340   108644326.30908  20674327.460    84657941.49149
  21584255.000   113426239.89908  21584256.180    88384206.47248
  23808434.220   125114167.16806  23808434.380    97491559.95446
  22252107.940   116936028.16308  22252108.700    91119188.81947
  22050373.220   115875654.65108  22050373.480    90292797.68647
  21759213.940   114345474.44508  21759217.420    89100403.43548
 15 03 03 00 43  0.0000000  0  6G16G18G19G21G22G27
  20669013.920   108616409.35608  20669015.040    84636188.01949
  21580901.740   113408618.51408  21580902.860    88370475.53647
  23793588.140   125036150.74806  23793588.220    97430767.98246
  22263688.200   116996882.56908  22263688.940    91166607.83347
  22035373.460   115796830.57708  22035373.620    90231376.36847
  21748355.420   114288412.72608  21748358.960    89055939.77048
 15 03 03 00 43 30.0000000  0  6G16G18G19G21G22G27
  20663798.840   108589003.92008  20663800.000    84614833.13249
  21577641.420   113391486.12908  21577642.600    88357125.63548
  23778753.280   124958193.18006  23778753.380    97370021.86046
  22275295.980   117057881.51008  22275296.680    91214139.47147
  22020431.860   115718312.35208  22020431.960    90170193.37447
  21737521.280   114231479.01508  21737524.860    89011575.85048
 15 03 03 00 44  0.0000000  0  6G16G18G19G21G22G27
  20658681.200   108562110.55408  20658682.380    84593877.26049
  21574474.140   113374842.81408  21574475.440    88344156.83748
  23763929.600   124880294.15806  23763929.700    97309321.35846
  22286930.720   117119022.37308  22286931.420    91261781.69247
  22005548.800   115640101.50408  22005548.840    90109249.88747
  21726711.440   114174673.23308  21726715.100    88967311.61848
 15 03 03 00 44 30.0000000  0  6G16G18G19G21G22G27
  20653661.520   108535731.99408  20653662.740    84573322.53249
  21571400.220   113358689.98008  21571401.660    88331570.22448
  23749117.220   124802454.35006  23749117.300    97248666.98846
  22298592.440   117180305.19108  22298593.220    91309534.52947
  21990724.980   115562201.65208  21990725.000    90048548.73047
  21715926.320   114117997.10208  21715929.940    88923148.41248
 15 03 03 00 45  0.0000000  0  6G16G18G19G21G22G27
  20648740.480   108509871.68308  20648741.700    84553171.63449
  21568420.120   113343030.05408  21568421.680    88319367.70048
  23734316.620   124724676.38306  23734316.720    97188060.81746
  22310281.220   117241730.22908  22310282.040    91357398.18447
  21975961.220   115484617.32808  21975961.280    89988093.43947
  21705166.440   114061453.32808  21705169.980    88879088.33448
 15 03 03 00 45 30.0000000  0  6G16G18G19G21G22G27
  20643917.880   108484528.58608  20643919.080    84533423.76449
  21565533.540   113327861.20208  21565535.140    88307547.83448
  23719527.320   124646958.17606  23719527.400    97127501.20446
  22321996.360   117303293.85808  22321997.220    91405369.83747
  21961257.580   115407348.67908  21961257.660    89927884.13347
  21694431.460   114005040.28808  21694434.900    88835130.12148
 15 03 03 00 46  0.0000000  0  6G16G18G19G21G22G27
  20639193.980   108459704.23808  20639195.140    84514080.11049
  21562740.880   113313185.37208  21562742.400    88296112.14148
  23704749.400   124569299.78506  23704749.500    97066988.19346
  22333737.600   117364994.39308  22333738.480    91453448.16647
  21946614.500   115330398.27208  21946614.520    89867922.79448
  21683721.440   113948758.70108  21683724.820    88791274.34548
 15 03 03 00 46 30.0000000  0  6G16G18G19G21G22G27
  20634569.180   108435400.76308  20634570.340    84495142.33349
  21560042.100   113299002.93008  21560043.560    88285060.90248
  23689983.120   124491702.87806  23689983.320    97006523.09546
  22345504.740   117426831.16508  22345505.640    91501632.65847
  21932032.560   115253769.30008  21932032.500    89808211.93347
  21673036.640   113892609.98708  21673040.060    88747522.10648
 15 03 03 00 47  0.0000000  0  6G16G18G19G21G22G27
  20630043.800   108411619.78508  20630044.980    84476611.70149
  21557437.440   113285315.11808  21557438.840    88274395.09148
  23675228.580   124414167.72006  23675228.840    96946106.11746
  22357297.600   117488803.21308  22357298.540    91549922.55247
  21917512.180   115177464.24908  21917512.060    89748753.47447
  21662377.340   113836595.20508  21662380.800    88703874.23548
 15 03 03 00 47 30.0000000  0  6G16G18G19G21G22G27
  20625618.240   108388363.38708  20625619.460    84458489.82849
  21554927.060   113272122.93808  21554928.440    88264115.48048
  23660485.960   124336695.28806  23660486.300    96885738.01346
  22369115.960   117550909.31608  22369116.900    91598316.91047
  21903053.940   115101486.13108  21903053.760    89689549.76547
  21651743.760   113780715.58608  21651747.240    88660331.68348
 15 03 03 00 48  0.0000000  0  6G16G18G19G21G22G27
  20621292.580   108365631.91408  20621293.820    84440776.99249
  21552510.880   113259425.73208  21552512.260    88254221.56348
  23645755.140   124259284.92406  23645755.600    96825418.28846
  22380959.360   117613146.94708  22380960.280    91646813.76447
  21888658.200   115025836.75108  21888658.020    89630602.22447
  21641135.880   113724970.90008  21641139.360    88616894.26748
 15 03 03 00 48 30.0000000  0  6G16G18G19G21G22G27
  20617066.960   108343425.87108  20617068.140    84423473.57849
  21550188.880   113247223.46608  21550190.300    88244713.31848
  23631036.060   124181935.88106  23631036.480    96765146.32946
  22392827.500   117675514.49408  22392828.400    91695411.83847
  21874325.340   114950517.53308  21874325.120    89571911.95647
  21630553.660   113669361.05108  21630557.180    88573561.92348
 15 03 03 00 49  0.0000000  0  6G16G18G19G21G22G27
  20612941.580   108321746.68408  20612942.700    84406580.70149
  21547961.180   113235516.82608  21547962.620    88235591.27548
  23616328.780   124104648.97106  23616329.160    96704922.78346
  22404720.080   117738010.36308  22404720.940    91744109.92247
  21860055.820   114875531.08908  21860055.620    89513480.99247
  21619997.300   113613887.08108  21620000.840    88530335.45748
 15 03 03 00 49 30.0000000  0  6G16G18G19G21G22G27
  20608916.920   108300596.90308  20608918.020    84390100.34449
  21545828.100   113224307.46508  21545829.560    88226856.71648
  23601633.660   124027425.61206  23601634.000    96644748.78446
  22416637.040   117800634.31408  22416637.880    91792907.79747
  21845850.320   114800880.86108  21845850.140    89455312.01648
  21609467.120   113558550.74808  21609470.700    88487216.24348
 15 03 03 00 50  0.0000000  0  6G16G18G19G21G22G27
  20604993.260   108279977.77908  20604994.340    84374033.48849
  21543789.740   113213595.79008  21543791.160    88218509.96148
  23586950.700   123950266.04506  23586950.940    96584624.48746
  22428578.060   117863384.82108  22428578.940    91841804.29247
  21831709.260   114726569.33908  21831709.160    89397406.96348
  21598963.300   113503352.95408  21598966.940    88444204.98148
 15 03 03 00 50 30.0000000  0  6G16G18G19G21G22G27
  20601170.520   108259889.07608  20601171.600    84358379.95349
  21541845.860   113203380.88608  21541847.320    88210550.30448
  23572279.700   123873169.14406  23572279.920    96524548.98845
  22440542.580   117926258.76908  22440543.480    91890796.97747
  21817632.860   114652597.37608  21817632.800    89339766.49748
  21588485.720   113448292.86508  21588489.380    88401301.01848
 15 03 03 00 51  0.0000000  0  6G16G18G19G21G22G27
  20597449.380   108240334.42708  20597450.460    84343142.56249
  21539997.100   113193665.88108  21539998.620    88202980.18048
  23557621.140   123796137.78606  23557621.380    96464524.57846
  22452530.920   117989257.74508  22452531.780    91939887.09047
  21803621.980   114578969.88008  21803622.000    89282394.44748
  21578035.000   113393373.84508  21578038.660    88358506.98248
 15 03 03 00 51 30.0000000  0  6G16G18G19G21G22G27
  20593829.700   108221312.87208  20593830.800    84328320.57149
  21538243.140   113184448.69908  21538244.640    88195797.97248
  23542974.700   123719170.40506  23542975.020    96404550.02046
  22464542.260   118052377.78908  22464543.120    91989071.53447
  21789676.640   114505687.07308  21789676.780    89225290.98048
  21567610.840   113338594.31808  21567614.480    88315821.64648
 15 03 03 00 52  0.0000000  0  6G16G18G19G21G22G27
  20590312.300   108202828.87308  20590313.440    84313917.45449
  21536584.540   113175732.65708  21536586.020    88189006.25848
  23528341.000   123642269.81406  23528341.340    96344627.50046
  22476576.900   118115620.54008  22476577.780    92038351.59847
  21775797.840   114432754.06508  21775798.100    89168460.08748
  21557213.940   113283958.14708  21557217.540    88273248.01148
 15 03 03 00 52 30.0000000  0  6G16G18G19G21G22G27
  20586896.560   108184879.17308  20586897.760    84299930.67449
  21535020.620   113167514.18608  21535022.100    88182602.26748
  23513719.360   123565432.47706  23513719.680    96284754.29346
  22488633.880   118178980.71108  22488634.780    92087723.15747
  21761985.380   114360169.30008  21761985.580    89111900.55248
  21546843.660   113229462.03408  21546847.240    88230783.51848
 15 03 03 00 53  0.0000000  0  6G16G18G19G21G22G27
  20583583.000   108167466.28908  20583584.220    84286362.19149
  21533551.680   113159794.80208  21533553.160    88176587.17748
  23499110.160   123488660.34807  23499110.320    96224931.87146
  22500713.200   118242458.06608  22500714.080    92137186.01947
  21748239.980   114287936.56808  21748239.980    89055615.33247
  21536500.480   113175108.25908  21536504.060    88188429.93548
 15 03 03 00 53 30.0000000  0  6G16G18G19G21G22G27
  20580372.140   108150593.08308  20580373.320    84273214.23249
  21532178.040   113152576.08108  21532179.500    88170962.21348
  23484513.600   123411954.78607  23484513.680    96165161.33946
  22512814.800   118306052.58408  22512815.680    92186740.18347
  21734562.320   114216059.44108  21734562.040    88999607.21448
  21526184.700   113120898.69308  21526188.320    88146188.72348
 15 03 03 00 54  0.0000000  0  6G16G18G19G21G22G27
  20577264.280   108134260.92908  20577265.380    84260487.87249
  21530899.880   113145859.30708  21530901.360    88165728.37848
  23469929.920   123335316.73907  23469929.960    96105443.41446
  22524938.500   118369763.21308  22524939.420    92236384.81447
  21720952.860   114144540.66008  21720952.340    88943878.32348
  21515896.620   113066834.62008  21515900.260    88104060.88048
 15 03 03 00 54 30.0000000  0  6G16G18G19G21G22G27
  20574259.420   108118470.16208  20574260.480    84248183.37449
  21529717.140   113139643.86408  21529718.540    88160885.18848
  23455358.980   123258745.95107  23455359.040    96045777.88646
  22537083.940   118433587.72008  22537084.880    92286118.19147
  21707411.740   114073381.25208  21707411.120    88888429.46748
  21505636.260   113012916.17708  21505639.920    88062046.51748
 15 03 03 00 55  0.0000000  0  6G16G18G19G21G22G27
  20571357.880   108103222.36408  20571358.940    84236301.97149
  21528629.980   113133930.72608  21528631.300    88156433.40348
  23440801.100   123182243.67807  23440801.100    95986165.74346
  22549250.940   118497525.93108  22549251.980    92335940.15947
  21693939.680   114002585.00708  21693939.060    88833263.58448
  21495403.960   112959145.06208  21495407.580    88020146.95348
 15 03 03 00 55 30.0000000  0  6G16G18G19G21G22G27
  20568559.620   108088517.49308  20568560.720    84224843.63049
  21527638.080   113128718.28808  21527639.380    88152371.77548
  23426255.940   123105808.55107  23426255.960    95926605.94346
  22561439.000   118561574.51608  22561440.060    92385848.13947
  21680536.760   113932152.47608  21680536.280    88778381.11148
  21485199.540   112905520.39408  21485203.100    87978361.49948
 15 03 03 00 56  0.0000000  0  6G16G18G19G21G22G27
  20565865.040   108074357.35008  20565866.160    84213809.74949
  21526741.700   113124007.95008  21526743.000    88148701.38848
  23411723.820   123029441.95807  23411723.880    95867099.53246
  22573648.120   118625733.40708  22573649.100    92435842.06447
  21667203.600   113862086.69108  21667203.280    88723784.41248
  21475023.300   112852043.90208  21475026.860    87936691.51248
 15 03 03 00 56 30.0000000  0  6G16G18G19G21G22G27
  20563274.380   108060743.50608  20563275.540    84203201.55849
  21525941.040   113119800.53508  21525942.340    88145422.89548
  23397204.860   122953144.79707  23397205.000    95807647.21946
  22585878.000   118690001.45108  22585878.900    92485921.05747
  21653940.820   113792390.55108  21653940.600    88669475.75148
  21464875.540   112798717.06108  21464879.120    87895138.13948
 15 03 03 00 57  0.0000000  0  6G16G18G19G21G22G27
  20560787.560   108047675.36008  20560788.760    84193018.58149
  21525235.820   113116094.55508  21525237.100    88142535.12848
  23382698.940   122876915.90107  23382699.040    95748248.11046
  22598128.140   118754376.00808  22598128.980    92536083.04347
  21640748.480   113723064.45008  21640748.320    88615455.42948
  21454756.100   112745539.04208  21454759.660    87853700.73248
 15 03 03 00 57 30.0000000  0  6G16G18G19G21G22G27
  20558405.240   108035156.31508  20558406.460    84183263.47949
  21524626.480   113112892.45708  21524627.760    88140039.99948
  23368206.460   122800757.82507  23368206.500    95688904.15746
  22610398.720   118818858.03108  22610399.520    92586328.77447
  21627627.480   113654113.10008  21627627.320    88561727.12948
  21444665.600   112692513.13608  21444669.120    87812381.85048
 15 03 03 00 58  0.0000000  0  6G16G18G19G21G22G27
  20556127.100   108023184.74008  20556128.340    84173934.97749
  21524112.560   113110191.68908  21524113.840    88137935.51148
  23353727.140   122724668.74807  23353727.120    95629614.00346
  22622689.020   118883443.68408  22622689.800    92636655.25047
  21614577.820   113585536.72408  21614577.600    88508291.01748
  21434603.720   112639637.66508  21434607.240    87771180.19348
