     2.11           OBSERVATION DATA    G                   RINEX VERSION / TYPE
SPIDER V4,0,0,3554                      2015 03 24 00:04    PGM / RUN BY / DATE 
CAEK                                                        MARKER NAME         
CAEK                                                        MARKER NUMBER       
                                                            OBSERVER / AGENCY   
496550              LEICA GRX1200+GNSS  8.10/4.007          REC # / TYPE / VERS 
                    LEIAR25         NONE                    ANT # / TYPE        
  5158918.9557   270367.4860  3728191.6758                  APPROX POSITION XYZ 
        0.0000        0.0000        0.0000                  ANTENNA: DELTA H/E/N
     1     1                                                WAVELENGTH FACT L1/2
     4    C1    L1    P2    L2                              # / TYPES OF OBSERV 
    30.000                                                  INTERVAL            
  2015    03    03    12    55   30.0000000     GPS         TIME OF FIRST OBS   
  2015    03    03    23    59   30.0000000     GPS         TIME OF LAST OBS    
    16                                                      LEAP SECONDS        
    22                                                      # OF SATELLITES     
   G 2   445   445   445   445                              PRN / # OF OBS      
   G 5   313   313   313   313                              PRN / # OF OBS      
   G 6   188   188   188   188                              PRN / # OF OBS      
   G 7    63    63    63    63                              PRN / # OF OBS      
   G10    77    77    77    77                              PRN / # OF OBS      
   G12   810   810   810   810                              PRN / # OF OBS      
   G13   538   537   537   537                              PRN / # OF OBS      
   G14   492   492   492   492                              PRN / # OF OBS      
   G15   654   654   654   654                              PRN / # OF OBS      
   G16   211   211   211   211                              PRN / # OF OBS      
   G17   423   423   423   423                              PRN / # OF OBS      
   G18   507   505   505   505                              PRN / # OF OBS      
   G20    24    24    24    24                              PRN / # OF OBS      
   G21   434   434   434   434                              PRN / # OF OBS      
   G22    66    66    61    61                              PRN / # OF OBS      
   G24   828   814   815   808                              PRN / # OF OBS      
   G25   846   846   846   846                              PRN / # OF OBS      
   G27   160   159   159   159                              PRN / # OF OBS      
   G28   372   372   372   372                              PRN / # OF OBS      
   G29   736   735   735   735                              PRN / # OF OBS      
   G30   226   226   226   226                              PRN / # OF OBS      
   G31   550   550   550   550                              PRN / # OF OBS      
BIT 2 OF LLI FLAGS DATA COLLECTED UNDER A/S CONDITION       COMMENT             
SNR is mapped to RINEX snr flag value [2-9]                 COMMENT             
Lx:     = 25dBHz -> 1; 26-27dBHz -> 2; 28-31dBHz -> 3       COMMENT             
       32-35dBHz -> 4; 36-38dBHz -> 5; 39-41dBHz -> 6       COMMENT             
       42-44dBHz -> 7; 45-48dBHz -> 8; >=49dBHz -> 9        COMMENT             
                                                            END OF HEADER       
 15 03 03 12 55 30.0000000  0  6G02G05G07G10G28G30
  23624575.900   124147975.44508  23624586.920    96738680.49146
  20631118.180   108417257.31409  20631118.780    84480983.06548
  23248967.520   122174143.15508  23248970.000    95200641.96946
  22343018.460   117413343.93509  22343022.260    91490929.06847
  21539255.840   113189559.93309  21539256.780    88199665.54447
  21177072.300   111286264.38909  21177075.020    86716580.83048
 15 03 03 12 56  0.0000000  0  6G02G05G07G10G28G30
  23639870.800   124228349.50808  23639881.400    96801308.87245
  20627989.860   108400817.88109  20627990.440    84468173.13549
  23265522.040   122261137.96008  23265524.600    95268430.05846
  22360930.820   117507473.69709  22360934.700    91564276.73747
  21531337.800   113147950.35909  21531338.720    88167242.53948
  21188680.220   111347264.35409  21188682.940    86764113.26948
 15 03 03 12 56 30.0000000  0  6G02G05G07G10G28G30
  23655182.500   124308810.90307  23655193.000    96864005.27446
  20624964.360   108384918.67709  20624964.900    84455784.16349
  23282089.080   122348198.38508  23282091.740    95336269.27846
  22378894.880   117601874.95909  22378898.840    91637835.95447
  21523511.940   113106825.13009  21523512.860    88135196.94448
  21200341.120   111408542.88409  21200343.880    86811862.76048
 15 03 03 12 57  0.0000000  0  6G02G05G07G10G28G30
  23670511.240   124389360.80407  23670521.760    96926770.64645
  20622042.700   108369565.09009  20622043.200    84443820.35248
  23298669.080   122435326.51608  23298671.660    95404161.27746
  22396911.080   117696549.77609  22396915.080    91711608.32547
  21515779.320   113066189.81909  21515780.220    88103533.10347
  21212055.420   111470101.91209  21212058.200    86859830.82848
 15 03 03 12 57 30.0000000  0  6G02G05G07G10G28G30
  23685859.080   124470037.28608  23685870.960    96989679.87645
  20619228.360   108354775.46209  20619228.820    84432295.97548
  23315264.980   122522538.19908  23315267.540    95472118.35546
  22414982.260   117791513.15908  22414986.220    91785605.56847
  21508143.460   113026063.33809  21508144.420    88072265.73947
  21223826.000   111531956.59109  21223828.780    86908029.26248
 15 03 03 12 58  0.0000000  0  6G02G05G07G10G28G30
  23701216.720   124550740.40808  23701229.000    97052564.59846
  20616512.180   108340501.74609  20616512.620    84421173.62549
  23331867.140   122609782.65808  23331869.740    95540100.97246
  22433098.620   117886714.16209  22433102.580    91859787.91447
  21500595.460   112986398.48309  21500596.480    88041358.10948
  21235643.100   111594055.94409  21235645.860    86956418.36348
 15 03 03 12 58 30.0000000  0  5G05G07G10G28G30
  20613899.660   108326772.77909  20613900.080    84410475.75749
  23348480.680   122697086.70608  23348483.240    95608130.01146
  22451265.140   117982178.93609  22451269.160    91934175.78947
  21493140.920   112947224.86009  21493141.920    88010833.25348
  21247511.720   111656425.97109  21247514.460    87005018.36948
 15 03 03 12 59  0.0000000  0  7G02G05G07G10G13G28G30
  23731977.800   124712379.34008  23731988.520    97178522.23046
  20611391.820   108313594.12509  20611392.260    84400206.68749
  23365106.120   122784453.23408  23365108.640    95676207.73546
  22469482.340   118077909.86208  22469486.440    92008771.11146
  21640500.340                                                  
  21485780.980   112908548.26909  21485781.960    87980695.67948
  21259432.320   111719069.03409  21259435.040    87053831.11948
 15 03 03 12 59 30.0000000  0  9G02G05G07G10G13G15G20G28G30
  23747376.980   124793300.83208  23747388.000    97241577.08046
  20608987.260   108300958.16309  20608987.720    84390360.51849
  23381741.440   122871872.07408  23381744.020    95744326.21246
  22487748.120   118173896.09109  22487752.220    92083565.33147
  21630005.500   113666443.81209  21630006.240    88571258.77647
  24479059.780   128638322.67508  24479065.700   100237657.42946
  23016243.980   120951177.82408  23016252.440    94247666.63646
  21478514.340   112870361.90509  21478515.300    87950940.12448
  21271402.800   111781974.31709  21271405.560    87102848.20948
 15 03 03 13 00  0.0000000  0  9G02G05G07G10G13G15G20G28G30
  23762792.320   124874306.45308  23762803.840    97304697.40346
  20606690.200   108288887.48609  20606690.760    84380954.81649
  23398390.420   122959362.94908  23398393.060    95812500.82046
  22506066.220   118270157.30009  22506070.320    92158573.81047
  21619539.300   113611443.21909  21619539.980    88528401.24447
  24463105.820   128554485.83608  24463111.700   100172330.19645
  23036046.700   121055240.08108  23036054.980    94328753.49346
  21471345.340   112832688.64509  21471346.280    87921584.38448
  21283426.960   111845161.49209  21283429.720    87152084.93848
 15 03 03 13 00 30.0000000  0  9G02G05G07G10G13G15G20G28G30
  23778218.960   124955371.05308  23778230.520    97367863.69245
  20604496.580   108277360.23209  20604497.180    84371972.56849
  23415048.660   123046902.60908  23415051.360    95880713.44846
  22524432.000   118366669.12709  22524436.160    92233777.58347
  21609097.600   113556571.38609  21609098.220    88485644.05247
  24447151.420   128470645.49008  24447157.300   100107000.18946
  23055884.280   121159484.67708  23055892.400    94409982.44846
  21464270.080   112795508.06609  21464271.040    87892612.56348
  21295500.200   111908606.37609  21295502.960    87201522.49148
 15 03 03 13 01  0.0000000  0  9G02G05G07G10G13G15G20G28G30
  23793656.660   125036494.18607  23793668.460    97431075.57445
  20602407.100   108266380.27409  20602407.740    84363416.78449
  23431716.380   123134492.17408  23431719.160    95948964.96946
  22542845.580   118463432.03409  22542849.760    92309176.99147
  21598681.000   113501831.53409  21598681.560    88442989.69847
  24431197.100   128386804.72008  24431203.180   100041669.92846
  23075756.560   121263911.62808  23075764.620    94491353.47146
  21457289.400   112758824.33709  21457290.300    87864027.89748
  21307622.540   111972309.42909  21307625.320    87251161.20948
 15 03 03 13 01 30.0000000  0  9G02G05G07G10G13G15G20G28G30
  23809106.160   125117678.40408  23809118.260    97494335.01246
  20600423.080   108255954.28909  20600423.740    84355292.65849
  23448394.480   123222135.83208  23448397.280    96017258.63446
  22561307.660   118560449.91309  22561311.880    92384775.08047
  21588290.700   113447230.04509  21588291.200    88400443.15047
  24415243.680   128302969.70208  24415249.540    99976344.08145
  23095664.220   121368524.52808  23095672.340    94572869.36246
  21450404.540   112722644.18809  21450405.360    87835835.63248
  21319794.720   112036274.46509  21319797.540    87301004.06748
 15 03 03 13 02  0.0000000  0  9G02G05G07G10G13G15G20G28G30
  23824566.280   125198918.12008  23824578.500    97557637.69846
  20598544.160   108246080.49309  20598544.780    84347598.81149
  23465082.180   123309829.63608  23465085.000    96085591.38646
  22579817.420   118657718.33309  22579821.700    92460568.37847
  21577926.320   113392765.15409  21577926.760    88358003.04147
  24399291.240   128219139.11908  24399296.680    99911021.62945
  23115606.360   121473318.83208  23115614.500    94654526.57146
  21443615.440   112686967.34209  21443616.180    87808035.55448
  21332015.860   112100496.95209  21332018.700    87351047.53848
 15 03 03 13 02 30.0000000  0  9G02G05G07G10G13G15G20G28G30
  23840036.480   125280211.18308  23840048.880    97620981.85546
  20596770.560   108236760.19309  20596771.180    84340336.25749
  23481779.100   123397571.99308  23481781.960    96153961.94046
  22598374.460   118755235.21409  22598378.800    92536555.27447
  21567588.100   113338437.70209  21567588.500    88315670.02547
  24383339.360   128135313.27107  24383345.040    99845703.04445
  23135582.620   121578292.19808  23135590.980    94736323.28346
  21436922.340   112651795.21909  21436923.100    87780628.76648
  21344285.640   112164975.05209  21344288.480    87401290.18048
 15 03 03 13 03  0.0000000  0  9G02G05G07G10G13G15G20G28G30
  23855516.080   125361552.73708  23855528.660    97684363.78046
  20595102.080   108227992.36909  20595102.740    84333504.19649
  23498484.640   123485360.15608  23498487.620    96222368.18846
  22616978.060   118852996.80409  22616982.500    92612732.84947
  21557275.880   113284246.90409  21557276.240    88273443.49247
  24367388.400   128051491.15708  24367393.940    99780387.23045
  23155592.260   121683440.80208  23155600.640    94818256.55045
  21430325.240   112617127.56309  21430326.020    87753615.08048
  21356603.380   112229705.25209  21356606.260    87451729.26648
 15 03 03 13 03 30.0000000  0  9G02G05G07G10G13G15G20G28G30
  23871004.720   125442941.88508  23871017.540    97747782.75845
  20593539.340   108219780.23309  20593540.020    84327105.13749
  23515199.180   123573195.19708  23515202.140    96290811.01046
  22635628.340   118951003.52609  22635632.840    92689101.42947
  21546990.260   113230195.83709  21546990.620    88231325.83747
  24351438.840   127967675.70308  24351444.340    99715076.65146
  23175635.320   121788765.15308  23175643.920    94900326.71046
  21423824.860   112582968.18509  21423825.680    87726997.45548
  21368969.160   112294687.92209  21368972.020    87502365.08548
 15 03 03 13 04  0.0000000  0  9G02G05G07G10G13G15G20G28G30
  23886501.240   125524371.85008  23886514.320    97811233.54845
  20592081.720   108212120.53609  20592082.420    84321136.54649
  23531921.620   123661071.66308  23531924.580    96359286.07046
  22654324.140   119049249.55409  22654328.720    92765656.47647
  21536730.640   113176281.38009  21536730.960    88189314.63847
  24335489.920   127883863.52908  24335495.540    99649768.66846
  23195710.640   121894258.73408  23195719.360    94982528.71546
  21417420.620   112549314.24709  21417421.480    87700773.68548
  21381381.880   112359917.05909  21381384.700    87553192.95748
 15 03 03 13 07  0.0000000  4  4
CAEK                                                        MARKER NAME         
  5175865.2406   441308.6117  3689278.4577                  APPROX POSITION XYZ 
        0.0000        0.0000        0.0000                  ANTENNA: DELTA H/E/N
                    LEIAR25         NONE                    ANT # / TYPE        
 15 03 03 13 07  0.0000000  0  9G02G05G07G10G13G15G20G28G30
  23979625.700   126013708.48208  23979640.780    98192527.00145
  20585563.500   108177865.70509  20585563.980    84294444.47449
  23632418.260   124189182.06508  23632421.260    96770800.09946
  22767444.500   119643691.88009  22767449.820    93228856.27247
  21475737.460   112855764.40209  21475738.260    87939561.52547
  24239826.480   127381151.28908  24239831.220    99258045.81745
  23316827.960   122530709.49608  23316837.700    95478459.07845
  21381042.420   112358148.71909  21381043.340    87551814.02648
  21456833.600   112756416.90809  21456836.420    87862153.70848
 15 03 03 13 07 30.0000000  0  9G02G05G07G10G13G15G20G28G30
  23995163.960   126095360.69008  23995179.240    98256150.62346
  20584848.980   108174110.90109  20584849.480    84291518.65949
  23649191.800   124277327.20008  23649194.780    96839484.54646
  22786451.100   119743571.36009  22786456.360    93306684.07147
  21465667.060   112802844.36909  21465667.860    87898325.19747
  24223888.320   127297395.88408  24223892.920    99192781.98846
  23337119.880   122637342.60508  23337129.820    95561548.79346
  21375322.420   112328090.24209  21375323.360    87528391.93048
  21469567.360   112823333.39709  21469570.180    87914296.40448
 15 03 03 13 08  0.0000000  0  9G02G05G07G10G13G15G20G28G30
  24010706.660   126177034.28308  24010722.180    98319790.91845
  20584241.360   108170918.04109  20584241.900    84289030.72049
  23665971.920   124365506.77908  23665974.820    96908195.80946
  22805500.860   119843677.35509  22805506.140    93384688.36047
  21455624.600   112750071.14809  21455625.420    87857203.25647
  24207952.140   127213652.28008  24207957.140    99127527.45746
  23357441.640   122744131.26308  23357451.680    95644759.73245
  21369701.360   112298551.75609  21369702.300    87505375.00848
  21482345.780   112890484.61809  21482348.660    87966622.00148
 15 03 03 13 08 30.0000000  0  9G02G05G07G10G13G15G20G28G30
  24026252.720   126258724.36108  24026268.500    98383443.97545
  20583740.400   108168285.73909  20583740.980    84286979.57549
  23682757.820   124453716.66508  23682760.660    96976930.68246
  22824592.860   119944005.28308  22824598.180    93462865.58047
  21445609.760   112697442.99209  21445610.560    87816194.36147
  24192018.060   127129919.17608  24192022.840    99062281.02544
  23377792.160   122851070.79608  23377802.440    95728088.15745
  21364179.060   112269532.24109  21364180.020    87482762.48548
  21495168.080   112957866.18609  21495170.940    88019127.08148
 15 03 03 13 09  0.0000000  0  9G02G05G07G10G13G15G20G28G30
  24041801.440   126340427.52908  24041817.400    98447107.18646
  20583346.160   108166214.04309  20583346.740    84285365.26949
  23699549.240   124541955.60208  23699552.140    97045688.19546
  22843726.700   120044552.64908  22843732.020    93541213.78147
  21435622.540   112644959.95709  21435623.300    87775298.54547
  24176085.960   127046196.47608  24176090.680    98997042.72445
  23398170.980   122958158.14508  23398181.660    95811531.72146
  21358755.680   112241032.39409  21358756.640    87460554.89048
  21508033.780   113025475.74609  21508036.640    88071809.83348
 15 03 03 13 09 30.0000000  0  8G05G07G10G13G15G20G28G30
  20583058.600   108164703.06609  20583059.200    84284187.89849
  23716346.000   124630222.64108  23716348.960    97114467.61646
  22862901.920   120145317.66509  22862907.340    93619731.57447
  21425663.240   112592623.69809  21425663.960    87734517.10747
  24160156.180   126962485.36408  24160160.960    98931813.45445
  23418577.640   123065391.55608  23418588.400    95895089.08245
  21353431.540   112213054.06509  21353432.440    87438753.68148
  21520942.540   113093311.65409  21520945.420    88124668.96348
 15 03 03 13 10  0.0000000  0  8G05G07G10G13G15G20G28G30
  20582877.960   108163754.09609  20582878.560    84283448.44749
  23733147.940   124718516.79308  23733150.860    97183268.14946
  22882118.200   120246298.43708  22882123.720    93698417.47046
  21415732.180   112540435.60709  21415732.840    87693851.11647
  24144228.840   126878786.95808  24144233.460    98866594.03445
  23439011.800   123172769.18308  23439022.800    95978758.75046
  21348206.860   112185598.54409  21348207.740    87417359.83848
  21533894.120   113161372.36609  21533896.940    88177703.26448
 15 03 03 13 10 30.0000000  0  8G05G07G10G13G15G20G28G30
  20582804.640   108163368.92509  20582805.220    84283148.31949
  23749954.920   124806837.95308  23749957.960    97252089.73046
  22901375.380   120347494.17708  22901381.000    93777270.88247
  21405829.620   112488397.28709  21405830.280    87653301.82347
  24128304.060   126795102.81008  24128308.820    98801385.82745
  23459473.280   123280290.31408  23459484.620    96062540.23346
  21343082.140   112158668.29509  21343082.960    87396375.29848
  21546888.260   113229657.02009  21546891.120    88230912.05548
 15 03 03 13 11  0.0000000  0  8G05G07G10G13G15G20G28G30
  20582838.620   108163547.70709  20582839.200    84283287.64549
  23766766.700   124895184.46708  23766769.780    97320931.04646
  22920673.080   120448902.77708  22920678.800    93856290.14147
  21395955.760   112436509.58209  21395956.360    87612869.90247
  24112382.220   126711433.37808  24112387.000    98736188.98245
  23479961.520   123387952.14608  23479973.120    96146431.31146
  21338057.560   112132264.34809  21338058.400    87375800.86548
  21559924.660   113298163.72709  21559927.520    88284293.87848
 15 03 03 13 15 30.0000000  4  4
CAEK                                                        MARKER NAME         
  5175865.2406   441308.6117  3689278.4577                  APPROX POSITION XYZ 
        0.0720        0.0000        0.0000                  ANTENNA: DELTA H/E/N
                    LEIAR25         NONE                    ANT # / TYPE        
 15 03 03 13 15 30.0000000  0  8G05G07G10G13G15G20G28G30
  20587976.520   108190546.91209  20587977.000    84304326.06949
  23918241.280   125691184.85808  23918244.680    97941190.10546
  23096096.240   121370740.21608  23096103.100    94574601.05047
  21308394.860   111976375.61009  21308395.400    87254324.37447
  23969222.800   125959133.17308  23969227.340    98149982.51345
  23665481.120   124362809.10208  23665496.220    96906047.28545
  21297363.120   111918415.53309  21297363.760    87209165.94548
  21679081.460   113924336.02609  21679084.380    88772220.12748
 15 03 03 13 16  0.0000000  0  8G05G07G10G13G15G20G28G30
  20589085.720   108196375.77909  20589086.180    84308868.04849
  23935086.280   125779706.21208  23935089.880    98010167.63746
  23115774.040   121474146.81808  23115780.860    94655177.15446
  21298814.220   111926029.20409  21298814.760    87215093.45147
  23953334.460   125875639.47208  23953339.020    98084922.65446
  23686211.060   124471742.33008  23686226.280    96990928.64946
  21293348.140   111897316.83109  21293348.760    87192725.44548
  21692518.020   113994945.53609  21692520.940    88827240.50048
 15 03 03 13 16 30.0000000  0  8G05G07G10G13G15G20G28G30
  20590302.440   108202769.66809  20590302.860    84313850.30949
  23951933.100   125868236.67708  23951936.760    98079152.31646
  23135487.400   121577739.68408  23135494.200    94735898.41146
  21289263.500   111875840.14709  21289264.020    87175985.14248
  23937449.760   125792165.51208  23937454.340    98019878.18346
  23706962.760   124580788.64608  23706978.040    97075898.17645
  21289434.700   111876751.80909  21289435.300    87176700.80248
  21705992.320   114065753.26309  21705995.160    88882415.33648
 15 03 03 13 17  0.0000000  0  8G05G07G10G13G15G20G28G30
  20591626.820   108209729.28909  20591627.240    84319273.39749
  23968781.600   125956775.47508  23968785.280    98148143.50546
  23155235.880   121681516.81308  23155242.760    94816763.23446
  21279742.960   111825809.64809  21279743.420    87137000.38047
  23921568.980   125708712.29808  23921573.600    97954849.86546
  23727735.860   124689946.11108  23727751.420    97160954.32245
  21285623.080   111856721.96309  21285623.660    87161093.17148
  21719504.020   114136757.60809  21719506.820    88937743.37548
 15 03 03 13 17 30.0000000  0  7G05G07G10G13G15G28G30
  20593059.380   108217257.50309  20593059.800    84325139.54049
  23985632.060   126045324.74908  23985635.780    98217142.82645
  23175019.620   121785479.50808  23175026.640    94897772.60546
  21270253.420   111775941.96209  21270253.840    87098142.48847
  23905692.920   125625284.04108  23905697.620    97889841.01346
  21281914.100   111837231.44409  21281914.660    87145905.79848
  21733053.380   114207959.98309  21733056.180    88993225.71848
 15 03 03 13 18  0.0000000  0  8G05G07G10G13G15G20G28G30
  20594598.920   108225348.09609  20594599.400    84331443.89749
  24002483.060   126133877.04408  24002486.800    98286144.50046
  23194836.980   121889618.86908  23194844.160    94978919.63546
  21260793.780   111726231.25809  21260794.160    87059406.91647
  23889820.540   125541874.95108  23889825.320    97824847.07946
  23769345.940   124908588.86108  23769362.400    97331322.04345
  21278306.620   111818274.06309  21278307.180    87131133.85448
  21746638.840   114279352.05509  21746641.660    89048855.87348
 15 03 03 13 18 30.0000000  0  7G05G07G10G13G15G28G30
  20596246.860   108234008.32109  20596247.420    84338192.12649
  24019335.500   126222436.94608  24019339.300    98355152.11345
  23214688.940   121993939.61008  23214696.300    95060207.97246
  21251365.480   111676685.34109  21251365.840    87020799.75747
  23873953.220   125458492.33708  23873957.980    97759873.78546
  21274802.040   111799857.32409  21274802.600    87116783.18548
  21760261.320   114350938.49709  21760264.140    89104637.49048
 15 03 03 13 19  0.0000000  0  7G05G07G10G13G15G28G30
  20598002.500   108243234.39709  20598003.100    84345381.26949
  24036188.820   126311000.99908  24036192.700    98424162.96845
  23234574.340   122098436.16408  23234581.840    95141633.30946
  21241968.140   111627301.89909  21241968.460    86982319.19247
  23858090.560   125375133.91408  23858095.220    97694919.34846
  21271399.880   111781979.09409  21271400.460    87102852.14648
  21773919.820   114422714.35709  21773922.640    89160566.70748
 15 03 03 13 19 30.0000000  0  7G05G07G10G13G15G28G30
  20599866.060   108253027.42609  20599866.640    84353012.18649
  24053042.660   126399568.33208  24053046.480    98493176.37945
  23254493.040   122203107.35308  23254500.640    95223194.72646
  21232602.040   111578082.62809  21232602.380    86943966.55148
  23842232.780   125291801.00608  23842237.360    97629984.78146
  21268100.540   111764641.04509  21268101.100    87089342.00948
  21787614.160   114494678.54109  21787616.980    89216642.66448
 15 03 03 13 20  0.0000000  0  7G05G07G10G13G15G28G30
  20601837.860   108263389.15309  20601838.400    84361086.25349
  24069897.180   126488139.31108  24069900.940    98562192.59445
  23274444.800   122307952.29908  23274452.520    95304891.53446
  21223267.580   111529029.75109  21223267.920    86905743.57647
  23826380.200   125208495.77208  23826384.780    97565071.78545
  21264904.260   111747844.48309  21264904.760    87076253.82248
  21801344.260   114566830.47809  21801347.060    89272864.92848
 15 03 03 13 20 30.0000000  0  7G05G07G10G13G15G28G30
  20603916.860   108274314.23209  20603917.360    84369599.29349
  24086751.300   126576707.89508  24086755.140    98631206.98445
  23294428.260   122412963.87508  23294436.080    95386718.17846
  21213964.060   111480139.53909  21213964.360    86867647.34047
  23810532.200   125125214.51408  23810536.660    97500177.46446
  21261810.260   111731585.48709  21261810.740    87063584.51748
  21815108.780   114639163.53409  21815111.620    89329228.31848
 15 03 03 13 21  0.0000000  0  7G05G07G10G13G15G28G30
  20606104.580   108285810.67109  20606105.040    84378557.54349
  24103606.300   126665281.07308  24103610.120    98700224.95245
  23314444.600   122518147.80608  23314452.500    95468679.12146
  21204693.080   111431420.61009  21204693.380    86829684.57047
  23794690.320   125041965.74508  23794694.780    97435308.44546
  21258820.200   111715872.70009  21258820.680    87051340.82648
  21828908.920   114711683.80209  21828911.800    89385737.58648
 15 03 03 13 21 30.0000000  0  7G05G07G10G13G15G28G30
  20608399.400   108297870.14709  20608399.880    84387954.52949
  24120460.320   126753849.21508  24120464.320    98769238.94145
  23334491.680   122623493.62108  23334499.620    95550766.19846
  21195453.340   111382865.81909  21195453.640    86791849.69548
  23778853.180   124958741.73008  23778857.600    97370458.71346
  21255932.600   111700698.37809  21255933.080    87039516.72648
  21842742.720   114784381.03209  21842745.680    89442384.75048
 15 03 03 13 22  0.0000000  0  7G05G07G10G13G15G28G30
  20610802.140   108310496.80409  20610802.640    84397793.47149
  24137313.920   126842415.35807  24137317.940    98838251.44545
  23354569.880   122729002.91708  23354577.980    95632980.64446
  21186245.780   111334480.09009  21186246.080    86754146.56048
  23763021.820   124875547.46308  23763026.120    97305632.16946
  21253148.340   111686066.96709  21253148.740    87028115.67748
  21856610.660   114857257.49609  21856613.620    89499171.58548
 15 03 03 13 22 30.0000000  0  7G05G07G10G13G15G28G30
  20613312.900   108323691.05509  20613313.420    84408074.69549
  24154167.040   126930978.73608  24154171.040    98907261.74145
  23374678.860   122834674.28908  23374687.120    95715321.38746
  21177070.680   111286264.96909  21177071.020    86716576.36748
  23747196.320   124792384.38308  23747200.520    97240829.90846
  21250467.560   111671979.50709  21250467.900    87017138.49548
  21870512.480   114930311.91409  21870515.440    89556097.07448
 15 03 03 13 23  0.0000000  0  7G05G07G10G13G15G28G30
  20615931.380   108337451.32409  20615931.960    84418796.97249
  24171019.180   127019537.00307  24171023.240    98976268.07546
  23394818.020   122940504.04808  23394826.380    95797785.52846
  21167927.960   111238220.09809  21167928.380    86679138.83248
  23731376.620   124709251.64008  23731380.840    97176051.30746
  21247890.180   111658435.60909  21247890.480    87006584.86848
  21884447.580   115003541.12209  21884450.520    89613158.76848
 15 03 03 13 23 30.0000000  0  7G05G07G10G13G15G28G30
  20618657.900   108351779.16209  20618658.460    84429961.50949
  24187870.420   127108090.52308  24187874.440    99045270.70346
  23414987.120   123046491.27108  23414995.640    95880372.33846
  21158818.080   111190347.76809  21158818.560    86641835.74448
  23715563.160   124626151.87008  23715567.260    97111298.36246
  21245416.560   111645437.01909  21245416.900    86996456.16648
  21898415.820   115076944.57209  21898418.740    89670356.22948
 15 03 03 13 24  0.0000000  0  7G05G07G10G13G15G28G30
  20621492.200   108366673.32009  20621492.700    84441567.34049
  24204720.380   127196637.33508  24204724.400    99114268.10845
  23435185.640   123152633.04808  23435194.340    95963079.58846
  21149741.080   111142648.13709  21149741.580    86604667.23148
  23699755.900   124543084.80108  23699759.980    97046570.91646
  21243046.600   111632983.25009  21243046.960    86986752.01048
  21912416.780   115150519.87909  21912419.660    89727687.60748
 15 03 03 13 24 30.0000000  0  7G05G07G10G13G15G28G30
  20624434.160   108382133.22209  20624434.640    84453614.00249
  24221568.860   127285175.96408  24221572.900    99183259.11745
  23455413.060   123258926.38508  23455421.940    96045904.89946
  21140697.060   111095121.66209  21140697.560    86567633.64547
  23683954.900   124460050.79008  23683959.040    96981869.21846
  21240780.280   111621074.21209  21240780.680    86977472.32248
  21926449.960   115224264.52509  21926452.860    89785150.93648
 15 03 03 13 25  0.0000000  0  7G05G07G10G13G15G28G30
  20627483.600   108398158.08709  20627484.120    84466100.89849
  24238415.560   127373704.98008  24238419.540    99252242.67946
  23475668.900   123365368.94708  23475677.840    96128846.46946
  21131686.160   111047769.06809  21131686.620    86530735.54448
  23668160.280   124377050.29508  23668164.460    96917193.65946
  21238617.740   111609710.15309  21238618.080    86968617.29648
  21940514.940   115298176.34709  21940517.860    89842744.53148
 15 03 03 13 25 30.0000000  0  7G05G07G10G13G15G28G30
  20630640.600   108414748.23909  20630641.140    84479028.27749
  24255260.220   127462223.70607  24255264.400    99321218.17946
  23495952.760   123471958.78308  23495961.960    96211902.74846
  21122708.620   111000591.63209  21122709.040    86493973.93548
  23652372.280   124294084.56208  23652376.460    96852545.17746
  21236559.020   111598891.69609  21236559.320    86960187.42148
  21954611.520   115372254.03609  21954614.400    89900467.37548
 15 03 03 13 26  0.0000000  0  7G05G07G10G13G15G28G30
  20633905.420   108431905.08209  20633905.980    84492397.23949
  24272103.040   127550732.59408  24272107.080    99390186.03345
  23516264.620   123578695.41708  23516273.900    96295073.39946
  21113764.960   110953592.35009  21113765.360    86457351.15648
  23636591.480   124211156.27708  23636595.560    96787925.86546
  21234604.460   111588620.85809  21234604.740    86952184.26948
  21968739.600   115446497.46309  21968742.480    89958319.37148
 15 03 03 13 26 30.0000000  0  7G05G07G10G13G15G28G30
  20637277.240   108449624.13109  20637277.820    84506204.27849
  24288942.920   127639226.58008  24288946.960    99459142.22046
  23536603.220   123685572.20208  23536612.540    96378353.24546
  21104854.460   110906767.60609  21104854.900    86420864.38248
  23620817.160   124128261.89708  23620821.120    96723332.97747
  21232753.380   111578893.81809  21232753.660    86944604.85448
  21982898.040   115520900.57309  21982900.960    90016295.78848
 15 03 03 13 27  0.0000000  0  7G05G07G10G13G15G28G30
  20640756.620   108467908.53809  20640757.240    84520451.85849
  24305780.500   127727708.05008  24305784.540    99528088.70145
  23556968.820   123792590.65508  23556978.200    96461743.45746
  21095978.140   110860122.33209  21095978.560    86384517.45648
  23605050.080   124045405.72908  23605053.980    96658769.88146
  21231006.520   111569714.48509  21231006.820    86937452.22548
  21997087.160   115595465.11509  21997090.160    90074397.99748
 15 03 03 13 27 30.0000000  0  7G05G07G10G13G15G28G30
  20644343.060   108486755.43409  20644343.700    84535137.73949
  24322615.020   127816173.05408  24322618.580    99597022.46244
  23577360.420   123899745.65008  23577369.880    96545240.03546
  21087135.480   110813654.06109  21087135.880    86348308.46547
  23589289.880   123962585.75808  23589293.700    96594234.98446
  21229363.360   111561080.01509  21229363.640    86930724.16948
  22011306.140   115670186.42209  22011309.240    90132622.36448
 15 03 03 13 28  0.0000000  0  7G05G07G10G13G15G28G30
  20648037.260   108506168.44909  20648037.840    84550264.74749
  24339447.120   127904625.13308  24339450.620    99665946.08346
  23597778.440   124007039.55608  23597788.160    96628844.80846
  21078327.620   110767368.77009  21078327.960    86312242.04348
  23573537.660   123879807.75608  23573541.400    96529732.79646
  21227824.900   111552995.64809  21227825.120    86924424.75248
  22025555.520   115745067.34809  22025558.660    90190971.10748
 15 03 03 13 28 30.0000000  0  7G05G07G10G13G15G28G30
  20651838.900   108526146.08409  20651839.440    84565831.71749
  24356276.220   127993062.25707  24356279.900    99734857.98846
  23618222.120   124114468.30108  23618231.900    96712554.66546
  21069554.460   110721265.81909  21069554.820    86276317.71448
  23557793.200   123797070.83308  23557796.920    96465262.62046
  21226390.880   111545459.92709  21226391.020    86918552.86048
  22039834.640   115820104.53609  22039837.780    90249441.61048
 15 03 03 13 29  0.0000000  0  7G05G07G10G13G15G28G30
  20655747.720   108546687.01109  20655748.240    84581837.61449
  24373101.800   128081481.71007  24373105.780    99803756.12646
  23638690.920   124222028.91908  23638700.940    96796367.24446
  21060816.100   110675345.65009  21060816.480    86240535.81848
  23542056.580   123714374.91708  23542060.140    96400824.39046
  21225061.160   111538472.17209  21225061.200    86913107.94948
  22054143.020   115895295.41709  22054146.140    90308031.88148
 15 03 03 13 29 30.0000000  0  7G05G07G10G13G15G28G30
  20659763.060   108567787.70009  20659763.580    84598279.68449
  24389923.340   128169880.19808  24389927.660    99872637.89546
  23659183.840   124329716.57708  23659194.080    96880278.76045
  21052112.160   110629606.27309  21052112.580    86204894.78448
  23526327.420   123631718.29608  23526330.900    96336416.76846
  21223835.140   111532029.62209  21223835.100    86908087.86048
  22068479.780   115970635.43109  22068482.840    90366738.35048
 15 03 03 13 30  0.0000000  0  7G05G07G10G13G15G28G30
  20663886.020   108589454.06109  20663886.560    84615162.54549
  24406742.080   128258262.61908  24406746.540    99941507.18745
  23679701.620   124437534.79708  23679712.040    96964292.02946
  21043444.020   110584054.88509  21043444.400    86169400.24348
  23510607.020   123549107.91408  23510610.580    96272045.20846
  21222714.060   111526138.70409  21222713.980    86903497.61148
  22082845.740   116046128.90009  22082848.760    90425564.40348
 15 03 03 13 30 30.0000000  0  7G05G07G10G13G15G28G30
  20668115.160   108611678.24209  20668115.680    84632480.06849
  24423556.300   128346620.78008  24423560.340   100010357.65944
  23700242.380   124545473.93808  23700253.160    97048399.46446
  21034810.500   110538685.49409  21034810.820    86134047.52248
  23494894.220   123466537.43708  23494897.780    96207704.75246
  21221696.560   111520792.05209  21221696.480    86899331.46748
  22097239.200   116121766.83809  22097242.260    90484503.01748
 15 03 03 13 31  0.0000000  0  7G05G07G10G13G15G28G30
  20672451.300   108634464.54409  20672451.820    84650235.59949
  24440366.700   128434958.63008  24440370.340   100079192.36844
  23720806.700   124653536.74008  23720817.640    97132603.25846
  21026212.640   110493503.48509  21026212.920    86098840.80948
  23479190.100   123384012.29408  23479193.540    96143399.58946
  21220783.600   111515994.95909  21220783.560    86895593.53848
  22111660.720   116197552.36409  22111663.800    90543556.63948
 15 03 03 13 31 30.0000000  0  7G05G07G10G13G15G28G30
  20676894.340   108657812.79209  20676894.880    84668429.01949
  24457172.780   128523275.44206  24457176.660   100148010.53445
  23741394.220   124761721.45908  23741405.580    97216902.01546
  21017650.760   110448510.34709  21017650.960    86063781.27248
  23463494.940   123301533.86608  23463498.240    96079130.82746
  21219975.220   111511747.50309  21219975.220    86892283.90348
  22126109.980   116273483.92209  22126113.120    90602724.05248
 15 03 03 13 32  0.0000000  0  7G05G07G10G13G15G28G30
  20681443.740   108681720.10909  20681444.300    84687058.06849
  24473974.000   128611567.73707  24473978.380   100216809.58945
  23762004.100   124870022.99708  23762015.720    97301291.76346
  21009124.580   110403704.80309  21009124.700    86028867.90848
  23447808.380   123219100.64908  23447811.640    96014897.30046
  21219271.100   111508047.83409  21219271.120    86889401.10048
  22140586.200   116349557.26509  22140589.460    90662001.92948
 15 03 03 13 32 30.0000000  0  7G05G07G10G13G15G28G30
  20686100.160   108706189.84809  20686100.700    84706125.37449
  24490771.380   128699838.62807  24490776.120   100285591.94046
  23782636.620   124978443.27308  23782648.320    97385774.01246
  21000635.060   110359091.83809  21000635.080    85994104.60448
  23432131.260   123136717.55308  23432134.520    95950702.82046
  21218671.960   111504899.65809  21218671.980    86886948.02748
  22155089.880   116425774.87009  22155093.240    90721392.22147
 15 03 03 13 33  0.0000000  0  7G05G07G10G13G15G28G30
  20690862.880   108731218.14409  20690863.460    84725627.91849
  24507564.120   128788084.08108  24507568.920   100354354.51246
  23803290.720   125086976.98608  23803302.780    97470344.62946
  20992181.720   110314669.34909  20992181.700    85959489.71648
  23416463.240   123054382.28808  23416466.620    95886545.60846
  21218177.160   111502299.75609  21218177.200    86884922.17848
  22169620.120   116502131.82309  22169623.560    90780891.09248
 15 03 03 13 33 30.0000000  0  6G05G10G13G15G28G30
  20695729.660   108756793.17009  20695730.260    84745556.47149
  23823963.900   125195610.61908  23823976.060    97554993.08145
  20983762.680   110270427.18209  20983762.640    85925015.33348
  23400802.400   122972084.51508  23400805.560    95822417.58446
  21217784.560   111500236.93409  21217784.620    86883314.82148
  22184174.500   116578615.18109  22184177.920    90840488.46048
 15 03 03 13 34  0.0000000  0  6G05G10G13G15G28G30
  20700705.220   108782939.46209  20700705.780    84765930.18549
  23844660.480   125304367.04708  23844672.640    97639737.19046
  20975382.980   110226391.89509  20975382.940    85890702.16148
  23385153.720   122889850.71408  23385156.820    95758339.44146
  21217499.020   111498736.56109  21217499.040    86882145.73448
  22198757.500   116655248.55909  22198760.780    90900202.74048
 15 03 03 13 34 30.0000000  0  6G05G10G13G15G28G30
  20705786.340   108809640.44409  20705786.840    84786736.11449
  23865376.960   125413228.08108  23865389.440    97724562.75045
  20967039.780   110182548.48809  20967039.780    85856538.50048
  23369514.340   122807665.70608  23369517.440    95694299.29646
  21217317.520   111497782.78009  21217317.440    86881402.56148
  22213365.680   116732014.37509  22213368.820    90960020.20848
 15 03 03 13 35  0.0000000  0  6G05G10G13G15G28G30
  20710973.020   108836896.45309  20710973.540    84807974.53249
  23886113.080   125522192.26608  23886125.800    97809468.64646
  20958733.440   110138898.76809  20958733.480    85822525.76048
  23353884.520   122725531.27308  23353887.700    95630298.55546
  21217240.060   111497375.81109  21217239.920    86881085.46948
  22227998.820   116808911.70009  22228001.920    91019940.14047
 15 03 03 13 35 30.0000000  0  6G05G10G13G15G28G30
  20716265.680   108864709.56409  20716266.240    84829647.06149
  23906868.980   125631260.12308  23906881.940    97894455.32946
  20950464.800   110095446.95009  20950464.860    85788667.22548
  23338265.220   122643451.78308  23338268.220    95566340.61246
  21217267.220   111497518.77709  21217267.120    86881196.90448
  22242657.160   116885941.72609  22242660.280    91079963.47948
 15 03 03 13 36  0.0000000  0  6G05G10G13G15G28G30
  20721663.820   108893077.02009  20721664.420    84851751.54049
  23927643.680   125740427.29908  23927657.040    97979519.35346
  20942233.660   110052191.98109  20942233.660    85754962.08348
  23322656.060   122561425.45608  23322659.060    95502424.12446
  21217398.600   111498209.36209  21217398.560    86881735.05148
  22257340.000   116963100.65709  22257343.160    91140087.27147
 15 03 03 13 36 30.0000000  0  6G05G10G13G15G28G30
  20727167.020   108921996.62109  20727167.680    84874286.26149
  23948436.720   125849690.75908  23948450.400    98064658.39146
  20934040.040   110009134.21209  20934040.000    85721410.60348
  23307057.120   122479452.74908  23307060.160    95438549.41746
  21217634.060   111499446.83909  21217634.020    86882699.34948
  22272046.960   117040386.06709  22272050.140    91200309.61547
 15 03 03 13 37  0.0000000  0  6G05G10G13G15G28G30
  20732776.160   108951473.00809  20732776.900    84897254.84149
  23969248.600   125959053.20508  23969262.780    98149874.52646
  20925884.940   109966279.34009  20925884.940    85688017.22348
  23291469.440   122397539.31908  23291472.500    95374720.87847
  21217974.440   111501235.67909  21217974.360    86884093.28448
  22286778.560   117117801.23209  22286781.840    91260633.06347
 15 03 03 13 37 30.0000000  0  6G05G10G13G15G28G30
  20738490.300   108981501.12709  20738491.080    84920653.34149
  23990078.100   126068507.81107  23990092.620    98235162.44945
  20917767.900   109923624.30909  20917767.940    85654779.56548
  23275892.440   122315682.23108  23275895.300    95310936.23247
  21218418.940   111503571.62409  21218418.820    86885913.52948
  22301533.740   117195340.21009  22301537.060    91321052.99547
 15 03 03 13 38  0.0000000  0  6G05G10G13G15G28G30
  20744308.780   109012077.38509  20744309.600    84944478.97649
  24010924.320   126178050.03408  24010938.940    98320518.62345
  20909688.600   109881167.59209  20909688.660    85621696.43648
  23260325.900   122233879.80008  23260328.840    95247194.20547
  21218966.960   111506451.71209  21218966.860    86888157.79248
  22316311.700   117272998.82509  22316315.060    91381566.16047
 15 03 03 13 38 30.0000000  0  6G05G10G13G15G28G30
  20750232.980   109043209.06109  20750233.800    84968737.38849
  24031788.420   126287685.60208  24031803.360    98405947.49946
  20901648.860   109838918.54409  20901648.920    85588775.11748
  23244771.440   122152140.85208  23244774.480    95183501.62846
  21219620.020   111509883.71309  21219619.900    86890832.10748
  22331113.660   117350783.42109  22331117.020    91442177.47847
 15 03 03 13 39  0.0000000  0  6G05G10G13G15G28G30
  20756261.780   109074890.39309  20756262.560    84993424.11449
  24052668.940   126397407.38508  24052684.160    98491443.52245
  20893647.900   109796873.34709  20893648.000    85556012.65248
  23229228.220   122070461.47408  23229231.020    95119855.45946
  21220377.080   111513862.38109  21220376.940    86893932.41148
  22345938.360   117428687.46409  22345941.780    91502881.87447
 15 03 03 13 39 30.0000000  0  6G05G10G13G15G28G30
  20762394.860   109107119.63609  20762395.560    85018537.77349
  24073565.300   126507212.38408  24073580.700    98577004.36245
  20885685.840   109755032.48709  20885685.940    85523409.41148
  23213696.540   121988842.23608  23213699.080    95056256.14946
  21221238.080   111518386.96409  21221237.880    86897458.09748
  22360785.340   117506708.66309  22360788.840    91563677.55647
 15 03 03 13 40  0.0000000  0  6G05G10G13G15G28G30
  20768632.340   109139897.43109  20768632.980    85044078.87548
  24094477.400   126617099.74208  24094493.160    98662629.37845
  20877763.120   109713398.56709  20877763.260    85490967.42048
  23198176.740   121907285.87208  23198179.620    94992705.87946
  21222203.160   111523458.72009  21222203.020    86901410.14348
  22375654.580   117584846.99409  22375658.120    91624564.51047
 15 03 03 13 40 30.0000000  0  5G05G13G15G28G30
  20774973.900   109173222.04409  20774974.460    85070046.06549
  20869879.840   109671971.82209  20869880.000    85458686.86648
  23182668.880   121825792.25408  23182671.660    94929204.45047
  21223272.120   111529076.27909  21223272.000    86905787.49148
  22390545.680   117663099.89009  22390549.180    91685540.74447
 15 03 03 13 41  0.0000000  0  5G05G13G15G28G30
  20781419.220   109207092.39809  20781419.820    85096438.51549
  20862036.200   109630753.53609  20862036.380    85426568.74448
  23167173.200   121744362.29708  23167175.820    94865752.62046
  21224444.860   111535239.23509  21224444.720    86910589.83548
  22405458.260   117741465.74109  22405461.720    91746605.00648
 15 03 03 13 41 30.0000000  0  5G05G13G15G28G30
  20787968.520   109241509.21209  20787969.200    85123256.77749
  20854232.820   109589746.71309  20854233.000    85394615.40648
  23151690.160   121662998.99808  23151692.960    94802352.78646
  21225721.640   111541948.84909  21225721.480    86915818.14648
  22420392.380   117819944.78209  22420395.800    91807757.46547
 15 03 03 13 42  0.0000000  0  5G05G13G15G28G30
  20794620.660   109276466.45209  20794621.380    85150496.15249
  20846468.900   109548947.18709  20846469.040    85362823.59448
  23136219.060   121581698.37808  23136221.980    94739001.76447
  21227101.480   111549200.06209  21227101.300    86921468.48148
  22435346.780   117898530.44309  22435350.200    91868993.00647
 15 03 03 13 42 30.0000000  0  5G05G13G15G28G30
  20801376.360   109311968.03909  20801377.160    85178159.68049
  20838745.620   109508361.22709  20838745.700    85331198.18748
  23120761.200   121500466.71308  23120763.800    94675704.44647
  21228585.160   111556997.16609  21228585.040    86927544.17748
  22450322.120   117977226.18309  22450325.560    91930314.31747
 15 03 03 13 43  0.0000000  0  5G05G13G15G28G30
  20808236.000   109348015.53009  20808236.820    85206248.59749
  20831063.680   109467992.51509  20831063.720    85299742.07448
  23105317.100   121419307.20908  23105319.580    94612463.39447
  21230173.100   111565342.12809  21230173.020    86934046.77848
  22465318.560   118056032.72909  22465322.040    91991721.97847
 15 03 03 13 43 30.0000000  0  5G05G13G15G28G30
  20815198.440   109384603.03709  20815199.240    85234758.30649
  20823422.420   109427837.47209  20823422.420    85268452.45548
  23089886.100   121338216.61808  23089888.540    94549276.02447
  21231864.380   111574229.91909  21231864.300    86940972.36348
  22480334.900   118134944.09109  22480338.400    92053211.30247
 15 03 03 13 44  0.0000000  0  5G05G13G15G28G30
  20822263.720   109421731.30809  20822264.520    85263689.38149
  20815822.440   109387899.25809  20815822.420    85237331.78548
  23074468.660   121257197.70808  23074471.040    94486144.49447
  21233659.180   111583661.69109  21233659.080    86948321.81648
  22495371.200   118213960.36609  22495374.700    92114782.37647
 15 03 03 13 44 30.0000000  0  5G05G13G15G28G30
  20829431.240   109459396.81609  20829432.040    85293039.09349
  20808263.380   109348176.15109  20808263.360    85206378.74148
  23059064.540   121176248.70508  23059066.800    94423067.45147
  21235556.940   111593634.58409  21235556.820    86956092.93648
  22510426.700   118293077.37909  22510430.160    92176431.94947
 15 03 03 13 45  0.0000000  0  5G05G13G15G28G30
  20836701.560   109497602.66109  20836702.400    85322809.83649
  20800746.420   109308674.16709  20800746.380    85175597.99148
  23043674.760   121095375.45608  23043677.000    94360049.43647
  21237558.440   111604152.45909  21237558.240    86964288.70748
  22525501.980   118372298.22309  22525505.380    92238162.42647
 15 03 03 13 45 30.0000000  0  5G05G13G15G28G30
  20844074.020   109536345.24509  20844074.880    85352998.81548
  20793271.360   109269392.08909  20793271.240    85144988.59648
  23028299.160   121014576.96308  23028301.580    94297089.66947
  21239663.140   111615212.67209  21239662.900    86972907.07548
  22540596.340   118451619.20508  22540599.760    92299970.93047
 15 03 03 13 46  0.0000000  0  5G05G13G15G28G30
  20851548.140   109575622.03909  20851548.980    85383604.06048
  20785838.060   109230329.38409  20785837.840    85114550.14348
  23012937.700   120933852.53208  23012940.160    94234187.60147
  21241870.480   111626812.41909  21241870.260    86981945.86648
  22555709.080   118531036.95909  22555712.540    92361854.83747
 15 03 03 13 46 30.0000000  0  5G05G13G15G28G30
  20859123.700   109615431.56009  20859124.480    85414624.42548
  20778446.700   109191487.30509  20778446.460    85084283.60648
  22997590.520   120853203.13008  22997592.940    94171344.00147
  21244180.400   111638951.40909  21244180.220    86991404.84248
  22570839.920   118610549.94409  22570843.460    92423812.94847
 15 03 03 13 47  0.0000000  0  5G05G13G15G28G30
  20866801.280   109655777.24809  20866802.060    85446062.57848
  20771098.380   109152871.71709  20771098.140    85054193.55048
  22982258.780   120772634.55508  22982261.120    94108563.37147
  21246593.760   111651633.86409  21246593.600    87001287.29348
  22585989.500   118690161.45908  22585993.100    92485847.83747
 15 03 03 13 47 30.0000000  0  5G05G13G15G28G30
  20874579.760   109696653.13109  20874580.580    85477913.86548
  20763792.520   109114479.22109  20763792.260    85024277.33248
  22966941.780   120692143.53908  22966944.160    94045843.18347
  21249109.540   111664854.29309  21249109.320    87011588.95048
  22601156.640   118769865.22809  22601160.280    92547954.60347
 15 03 03 13 48  0.0000000  0  5G05G13G15G28G30
  20882459.600   109738061.66209  20882460.440    85510180.21048
  20756530.040   109076314.70209  20756529.740    84994538.76448
  22951640.380   120611734.64108  22951642.820    93983186.99147
  21251728.240   111678615.54709  21251728.020    87022312.02648
  22616341.720   118849663.53308  22616345.460    92610135.03647
 15 03 03 13 48 30.0000000  0  5G05G13G15G28G30
  20890439.620   109779996.75609  20890440.460    85542856.86348
  20749310.280   109038374.58609  20749309.980    84964975.05248
  22936353.940   120531404.29808  22936356.400    93920591.99347
  21254448.820   111692912.15009  21254448.580    87033452.24848
  22631543.640   118929550.13008  22631547.500    92672384.26347
 15 03 03 13 49  0.0000000  0  5G05G13G15G28G30
  20898520.160   109822460.07509  20898521.040    85575945.11949
  20742134.000   109000662.90709  20742133.660    84935589.35248
  22921083.300   120451156.88508  22921085.700    93858061.62147
  21257271.740   111707746.48409  21257271.400    87045011.49448
  22646762.660   119009526.41208  22646766.520    92734703.37547
 15 03 03 13 49 30.0000000  0  5G05G13G15G28G30
  20906701.220   109865451.51509  20906702.100    85609444.89148
  20735001.620   108963182.17009  20735001.280    84906383.59848
  22905828.740   120370994.32508  22905831.100    93795597.36847
  21260196.980   111723118.79009  21260196.560    87056989.92248
  22661998.740   119089592.04108  22662002.620    92797092.09447
 15 03 03 13 50  0.0000000  0  5G05G13G15G28G30
  20914982.200   109908968.11709  20914983.060    85643353.88648
  20727913.100   108925931.98309  20727912.800    84877357.49448
  22890590.360   120290916.64208  22890592.660    93733199.26347
  21263224.200   111739027.10409  21263223.800    87069386.02748
  22677251.360   119169744.14308  22677255.120    92859548.21147
 15 03 03 13 50 30.0000000  0  5G05G13G15G28G30
  20923363.200   109953010.35409  20923364.060    85677672.46348
  20720869.000   108888915.31609  20720868.780    84848513.35848
  22875368.580   120210926.43308  22875370.940    93670869.32147
  21266353.500   111755471.84109  21266353.080    87082200.12348
  22692520.400   119249982.80409  22692523.980    92922071.76547
 15 03 03 13 51  0.0000000  0  5G05G13G15G28G30
  20931843.440   109997574.06109  20931844.320    85712397.38549
  20713869.160   108852131.33109  20713869.020    84819850.54448
  22860163.380   120131023.11509  22860165.840    93608607.11747
  21269584.400   111772450.63809  21269584.000    87095430.38048
  22707805.260   119330304.83909  22707808.780    92984660.27347
 15 03 03 13 51 30.0000000  0  5G05G13G15G28G30
  20940422.900   110042659.18909  20940423.780    85747528.61448
  20706914.060   108815582.30009  20706913.920    84791370.79148
  22844975.120   120051208.62208  22844977.540    93546414.07147
  21272916.880   111789963.16209  21272916.480    87109076.51948
  22723105.860   119410709.54109  22723109.400    93047313.22247
 15 03 03 13 52  0.0000000  0  5G05G13G15G28G30
  20949100.820   110088261.76609  20949101.700    85783063.04548
  20700003.440   108779266.79609  20700003.240    84763073.02348
  22829803.600   119971481.75108  22829805.960    93484289.32747
  21276350.340   111808006.21309  21276349.940    87123136.05648
  22738421.400   119491193.10808  22738424.900    93110027.62047
 15 03 03 13 52 30.0000000  0  5G05G13G15G28G30
  20957877.600   110134384.05109  20957878.500    85819002.45148
  20693138.300   108743190.17909  20693138.020    84734961.40848
  22814649.640   119891847.32508  22814651.960    93422236.62247
  21279885.320   111826582.58509  21279884.920    87137611.17648
  22753752.420   119571757.80708  22753755.920    93172805.24647
 15 03 03 13 53  0.0000000  0  5G05G13G15G28G30
  20966752.440   110181021.59209  20966753.360    85855343.34348
  20686318.200   108707350.51109  20686317.900    84707034.42948
  22799512.960   119812303.76608  22799515.260    93360254.72447
  21283521.100   111845688.64009  21283520.660    87152499.02348
  22769098.060   119652399.40508  22769101.700    93235642.77847
 15 03 03 13 53 30.0000000  0  5G05G13G15G28G30
  20975725.880   110228177.20909  20975726.840    85892087.93348
  20679544.220   108671753.41609  20679543.960    84679296.45748
  22784394.640   119732856.60009  22784396.900    93298347.94047
  21287258.220   111865327.37809  21287257.840    87167801.95848
  22784458.860   119733120.69708  22784462.480    93298542.42647
 15 03 03 13 54  0.0000000  0  5G05G13G15G28G30
  20984797.020   110275846.21109  20984798.040    85929232.56048
  20672815.840   108636396.18209  20672815.720    84651745.40048
  22769294.240   119653503.50408  22769296.480    93236514.44947
  21291095.940   111885494.63509  21291095.520    87183516.72348
  22799833.860   119813916.63308  22799837.460    93361500.23347
 15 03 03 13 54 30.0000000  0  5G05G13G15G28G30
  20993965.600   110324027.34609  20993966.640    85966776.25448
  20666133.700   108601281.61709  20666133.640    84624383.44548
  22754212.140   119574246.68608  22754214.460    93174755.97947
  21295034.240   111906190.60409  21295033.820    87199643.47548
  22815223.080   119894787.03108  22815226.680    93424516.04547
 15 03 03 13 55  0.0000000  0  5G05G13G15G28G30
  21003231.600   110372720.36209  21003232.660    86004718.81849
  20659498.140   108566411.93409  20659498.140    84597212.29848
  22739148.820   119495088.88908  22739151.100    93113074.67347
  21299073.120   111927415.36209  21299072.740    87216182.27948
  22830626.380   119975731.71608  22830629.940    93487589.76547
 15 03 03 13 55 30.0000000  0  5G05G13G15G28G30
  21012594.020   110421919.89409  21012595.040    86043056.06448
  20652908.780   108531784.72409  20652908.800    84570230.08948
  22724103.760   119416026.97508  22724106.120    93051468.08147
  21303211.660   111949163.86509  21303211.360    87233129.19348
  22846042.820   120056745.37708  22846046.420    93550717.24347
 15 03 03 13 56  0.0000000  0  5G05G13G15G28G30
  21022053.480   110471629.58109  21022054.540    86081790.82448
  20646366.760   108497406.09509  20646366.740    84543441.58048
  22709078.160   119337067.37108  22709080.440    92989941.19347
  21307450.720   111971440.34609  21307450.420    87250487.50748
  22861473.100   120137831.83308  22861476.740    93613901.41947
 15 03 03 13 56 30.0000000  0  5G05G13G15G28G30
  21031609.120   110521844.65809  21031610.180    86120919.42348
  20639871.760   108463274.57709  20639871.660    84516845.62548
  22694071.740   119258208.54308  22694073.940    92928492.82747
  21311789.420   111994240.56609  21311789.120    87268253.94548
  22876916.440   120218986.73308  22876920.080    93677138.94047
 15 03 03 13 57  0.0000000  0  5G05G13G15G28G30
  21041260.240   110572561.20309  21041261.220    86160438.75949
  20633423.580   108429389.09909  20633423.380    84490441.38948
  22679084.360   119179449.74208  22679086.480    92867122.41547
  21316227.200   112017561.61209  21316226.940    87286426.22148
  22892372.160   120300206.66108  22892375.880    93740427.12447
 15 03 03 13 57 30.0000000  0  6G05G13G15G24G28G30
  21051007.760   110623784.46109  21051008.740    86200352.91948
  20627023.760   108395757.79509  20627023.480    84464235.21148
  22664117.520   119100798.75308  22664119.540    92805835.99847
  24617000.300   129363206.85507  24617010.900   100802528.50744
  21320765.080   112041408.57409  21320764.860    87305008.30048
  22907841.220   120381496.90208  22907845.060    93803770.08947
 15 03 03 13 58  0.0000000  0  6G05G13G15G24G28G30
  21060852.120   110675516.67309  21060853.120    86240663.67948
  20620673.340   108362385.97309  20620673.020    84438231.22448
  22649172.260   119022261.25208  22649174.320    92744638.02947
  24601122.020   129279769.84107  24601133.120   100737513.11845
  21325403.700   112065784.82809  21325403.520    87324002.82148
  22923324.140   120462860.28308  22923327.980    93867170.05847
 15 03 03 13 58 30.0000000  0  6G05G13G15G24G28G30
  21070789.840   110727739.40009  21070790.860    86281356.66648
  20614369.320   108329257.99009  20614369.000    84412417.24548
  22634245.640   118943821.51109  22634247.740    92683516.24047
  24585268.540   129196461.51607  24585280.180   100672597.98346
  21330139.680   112090672.59009  21330139.460    87343395.91948
  22938817.600   120544278.57808  22938821.460    93930612.82547
 15 03 03 13 59  0.0000000  0  6G05G13G15G24G28G30
  21080821.940   110780458.26009  21080823.000    86322436.23248
  20608113.360   108296382.66709  20608113.000    84386800.12848
  22619339.240   118865488.22909  22619341.360    92622477.38347
  24569441.000   129113289.32107  24569452.740   100607788.92145
  21334974.120   112116077.70609  21334973.800    87363192.14048
  22954322.660   120625757.87708  22954326.500    93994103.11647
 15 03 03 13 59 30.0000000  0  6G05G13G15G24G28G30
  21090948.700   110833674.37209  21090949.760    86363903.27748
  20601906.280   108263764.24409  20601905.860    84361383.20048
  22604453.820   118787265.52008  22604456.020    92561524.69847
  24553640.120   129030256.51607  24553651.760   100543088.37945
  21339907.340   112142002.08609  21339906.960    87383392.98748
  22969839.640   120707299.90208  22969843.520    94057642.29947
 15 03 03 14 00  0.0000000  0  6G05G13G15G24G28G30
  21101169.480   110887384.55809  21101170.500    86405755.31348
  20595748.080   108231402.48809  20595747.600    84336166.26548
  22589589.460   118709153.39608  22589591.640    92500658.19247
  24537865.500   128947361.92807  24537877.060   100478495.56945
  21344938.880   112168443.13909  21344938.480    87403996.42748
  22985368.020   120788901.90108  22985371.980    94121228.19847
