     2.11           OBSERVATION DATA    G                   RINEX VERSION / TYPE
SPIDER V4,0,0,3554                      2015 03 23 00:35    PGM / RUN BY / DATE 
CBCK                                                        MARKER NAME         
CBCK                                                        MARKER NUMBER       
                                                            OBSERVER / AGENCY   
496514              LEICA GRX1200+GNSS  8.10/4.007          REC # / TYPE / VERS 
10301041            LEIAR25         NONE                    ANT # / TYPE        
  5163537.3641   764112.0288  3655122.6807                  APPROX POSITION XYZ 
        0.0720        0.0000        0.0000                  ANTENNA: DELTA H/E/N
     1     1                                                WAVELENGTH FACT L1/2
     4    C1    L1    P2    L2                              # / TYPES OF OBSERV 
    30.000                                                  INTERVAL            
  2015    03    03    00    00    0.0000000     GPS         TIME OF FIRST OBS   
  2015    03    03    23    59   30.0000000     GPS         TIME OF LAST OBS    
    16                                                      LEAP SECONDS        
    30                                                      # OF SATELLITES     
   G 1   808   807   807   807                              PRN / # OF OBS      
   G 2   917   917   917   917                              PRN / # OF OBS      
   G 3   856   856   856   856                              PRN / # OF OBS      
   G 4   837   837   837   837                              PRN / # OF OBS      
   G 5   631   631   630   630                              PRN / # OF OBS      
   G 6   812   810   810   810                              PRN / # OF OBS      
   G 7   665   665   665   665                              PRN / # OF OBS      
   G 9   817   816   816   816                              PRN / # OF OBS      
   G10   689   689   689   689                              PRN / # OF OBS      
   G11   770   770   770   770                              PRN / # OF OBS      
   G12   793   793   793   793                              PRN / # OF OBS      
   G13   779   779   779   779                              PRN / # OF OBS      
   G14   934   932   931   930                              PRN / # OF OBS      
   G15   677   676   677   676                              PRN / # OF OBS      
   G16   661   661   661   661                              PRN / # OF OBS      
   G17   942   942   942   942                              PRN / # OF OBS      
   G18   897   896   896   896                              PRN / # OF OBS      
   G19   749   749   749   749                              PRN / # OF OBS      
   G20   709   708   708   708                              PRN / # OF OBS      
   G21   737   725   719   718                              PRN / # OF OBS      
   G22   672   672   672   672                              PRN / # OF OBS      
   G23   764   763   763   763                              PRN / # OF OBS      
   G24   817   817   817   817                              PRN / # OF OBS      
   G25   848   848   847   847                              PRN / # OF OBS      
   G27   802   802   802   802                              PRN / # OF OBS      
   G28   843   842   841   841                              PRN / # OF OBS      
   G29   770   770   770   770                              PRN / # OF OBS      
   G30   718   718   718   718                              PRN / # OF OBS      
   G31   875   874   874   874                              PRN / # OF OBS      
   G32   778   778   777   777                              PRN / # OF OBS      
BIT 2 OF LLI FLAGS DATA COLLECTED UNDER A/S CONDITION       COMMENT             
SNR is mapped to RINEX snr flag value [2-9]                 COMMENT             
Lx:     = 25dBHz -> 1; 26-27dBHz -> 2; 28-31dBHz -> 3       COMMENT             
       32-35dBHz -> 4; 36-38dBHz -> 5; 39-41dBHz -> 6       COMMENT             
       42-44dBHz -> 7; 45-48dBHz -> 8; >=49dBHz -> 9        COMMENT             
                                                            END OF HEADER       
 15 03 03 00 00  0.0000000  0  7G16G18G21G22G27G29G31
  21542582.660   113207053.84609  21542579.200    88213280.06948
  22075361.940   116007074.10709  22075359.160    90395213.68547
  21411721.440   112519765.00709  21411717.960    87677912.25548
  23359245.900   122753692.38009  23359246.100    95652289.98247
  22869100.400   120177962.56309  22869100.080    93645176.29647
  24018494.400   126218546.08608  24018492.000    98352337.93746
  23487086.180   123425455.06209  23487085.820    96175675.82147
 15 03 03 00 00 30.0000000  0  7G16G18G21G22G27G29G31
  21529866.420   113140229.12009  21529862.880    88161208.85648
  22065368.040   115954555.95309  22065365.320    90354290.46847
  21420027.320   112563412.16709  21420023.740    87711923.02848
  23341234.080   122659042.18908  23341234.120    95578537.05946
  22856601.640   120112280.87809  22856601.320    93593995.77947
  24032180.040   126290465.20108  24032178.000    98408378.76346
  23504585.460   123517413.02209  23504585.080    96247330.96147
 15 03 03 00 01  0.0000000  0  7G16G18G21G22G27G29G31
  21517213.400   113073736.73309  21517209.780    88109396.61748
  22055445.020   115902409.88709  22055442.300    90313657.19847
  21428384.920   112607330.93709  21428381.200    87746145.44848
  23323239.980   122564484.77309  23323240.000    95504856.43347
  22844118.040   120046678.76009  22844117.560    93542877.27647
  24045875.080   126362433.44808  24045873.280    98464457.88246
  23522103.380   123609468.67309  23522103.000    96319062.22246
 15 03 03 00 01 30.0000000  0  7G16G18G21G22G27G29G31
  21504623.480   113007575.95509  21504619.760    88057842.76248
  22045592.680   115850634.95209  22045589.880    90273313.11447
  21436793.120   112651515.96409  21436789.320    87780575.33748
  23305263.480   122470019.76109  23305263.420    95431247.91247
  22831648.960   119981153.16109  22831648.300    93491818.38847
  24059578.860   126434447.42108  24059577.220    98520572.62146
  23539638.700   123701616.01709  23539638.340    96390864.90946
 15 03 03 00 02  0.0000000  0  7G16G18G21G22G27G29G31
  21492096.940   112941748.32509  21492093.140    88006548.50448
  22035811.220   115799232.63809  22035808.320    90233259.38147
  21445251.640   112695965.59209  21445247.760    87815211.41348
  23287304.900   122375648.55709  23287304.720    95357712.28046
  22819194.300   119915703.54109  22819193.600    93440818.69947
  24073291.240   126506506.54108  24073289.780    98576722.52946
  23557190.740   123793851.19108  23557190.500    96462736.02046
 15 03 03 00 02 30.0000000  0  7G16G18G21G22G27G29G31
  21479634.520   112876257.61609  21479630.700    87955516.78348
  22026101.220   115748205.66109  22026098.220    90193498.12247
  21453760.340   112740679.12509  21453756.480    87850053.12148
  23269365.040   122281375.78809  23269364.740    95284253.55847
  22806754.380   119850331.24409  22806753.700    93389879.27947
  24087012.480   126578612.10708  24087011.060    98632908.62146
  23574759.120   123886172.24308  23574759.160    96534674.02747
 15 03 03 00 03  0.0000000  0  7G16G18G21G22G27G29G31
  21467237.060   112811108.34509  21467233.140    87904751.12048
  22016463.600   115697559.15009  22016460.500    90154033.32847
  21462319.440   112785657.64409  21462315.600    87885101.31548
  23251444.760   122187205.69709  23251444.320    95210874.37347
  22794329.720   119785039.23309  22794328.980    93339002.39447
  24100743.160   126650767.14908  24100741.780    98689133.28846
  23592343.860   123978579.26708  23592344.060    96606679.01346
 15 03 03 00 03 30.0000000  0  7G16G18G21G22G27G29G31
  21454904.280   112746299.18309  21454900.360    87854250.48448
  22006897.980   115647291.43609  22006894.800    90114863.70747
  21470927.740   112830894.67609  21470923.900    87920350.95348
  23233544.020   122093137.72708  23233543.440    95137574.64646
  22781919.520   119719823.84609  22781918.840    93288185.24047
  24114482.520   126722967.49708  24114481.160    98745393.24546
  23609943.780   124071065.63708  23609944.200    96678745.83147
 15 03 03 00 04  0.0000000  0  7G16G18G21G22G27G29G31
  21442636.520   112681831.72709  21442632.640    87804016.10548
  21997404.560   115597403.43409  21997401.360    90075989.95847
  21479584.820   112876388.36409  21479581.040    87955800.58048
  23215663.240   121999174.27209  23215662.640    95064356.45946
  22769523.740   119654684.31609  22769523.120    93237427.18147
  24128230.500   126795213.02908  24128229.100    98801688.40146
  23627557.980   124163627.10408  23627558.600    96750871.12546
 15 03 03 00 04 30.0000000  0  7G16G18G21G22G27G29G31
  21430434.920   112617712.39609  21430431.160    87754053.00648
  21987984.640   115547901.35509  21987981.340    90037416.93347
  21488291.220   112922141.07008  21488287.500    87991452.04548
  23197803.720   121905322.39409  23197803.040    94991225.49347
  22757143.300   119589624.99008  22757142.760    93186731.63547
  24141987.840   126867507.70808  24141986.440    98858021.87247
  23645186.780   124256265.04208  23645187.460    96823056.02647
 15 03 03 00 05  0.0000000  0  7G16G18G21G22G27G29G31
  21418299.640   112553941.55009  21418296.020    87704361.44048
  21978638.240   115498785.54409  21978634.880    89999144.90447
  21497046.180   112968148.85808  21497042.480    88027302.26848
  23179965.440   121811582.39909  23179964.680    94918181.72347
  22744777.780   119524644.17808  22744777.360    93136097.25647
  24155754.080   126939849.24908  24155752.700    98914391.86047
  23662829.240   124348974.59809  23662829.980    96895296.70647
 15 03 03 00 05 30.0000000  0  7G16G18G21G22G27G29G31
  21406231.440   112490522.91209  21406227.840    87654944.32048
  21969365.960   115450059.27909  21969362.560    89961176.40647
  21505849.880   113014412.55409  21505846.160    88063351.89648
  23162149.140   121717958.34209  23162148.260    94845228.23947
  22732427.560   119459743.64408  22732427.220    93085525.42847
  24169529.620   127012239.80108  24169528.260    98970800.03847
  23680485.180   124441754.48009  23680485.980    96967592.18247
 15 03 03 00 06  0.0000000  0  7G16G18G21G22G27G29G31
  21394230.160   112427455.96009  21394226.580    87605801.25248
  21960167.460   115401721.08009  21960164.100    89923510.30347
  21514701.260   113060926.53309  21514697.420    88099596.56048
  23144354.780   121624449.71808  23144353.780    94772364.64647
  22720092.080   119394920.52708  22720091.840    93035013.94347
  24183313.900   127084676.12108  24183312.460    99027243.86747
  23698153.380   124534598.67109  23698154.180    97039937.75447
 15 03 03 00 06 30.0000000  0  7G16G18G21G22G27G29G31
  21382296.240   112364742.85509  21382292.640    87556933.90048
  21951043.160   115353773.36109  21951039.940    89886148.46947
  21523599.900   113107688.63209  21523595.940    88136034.56148
  23126583.080   121531060.17609  23126581.940    94699594.09647
  22707771.320   119330174.81408  22707771.060    92984562.76347
  24197106.920   127157158.32408  24197105.340    99083723.45847
  23715833.160   124627503.93008  23715834.080    97112330.88747
 15 03 03 00 07  0.0000000  0  7G16G18G21G22G27G29G31
  21370431.080   112302390.96409  21370427.440    87508348.01448
  21941994.440   115306222.81309  21941991.360    89849096.11647
  21532546.560   113154703.34309  21532542.600    88172669.40048
  23108835.380   121437796.96209  23108834.100    94626922.19947
  22695466.300   119265511.73608  22695466.040    92934175.98247
  24210909.620   127229691.43709  24210907.860    99140242.73446
  23733524.940   124720472.36808  23733526.000    97184773.24446
 15 03 03 00 07 30.0000000  0  7G16G18G21G22G27G29G31
  21358634.380   112240398.74209  21358630.740    87460042.39548
  21933020.980   115259067.47709  21933018.000    89812351.71947
  21541540.140   113201964.94809  21541536.240    88209496.62648
  23091111.400   121344659.03409  23091109.920    94554347.92147
  22683176.460   119200928.30708  22683176.140    92883851.25847
  24224721.340   127302272.23108  24224719.460    99196799.16246
  23751227.540   124813497.98308  23751228.740    97257260.13846
 15 03 03 00 08  0.0000000  0  7G16G18G21G22G27G29G31
  21346906.280   112178767.10309  21346902.680    87412017.74148
  21924122.980   115212308.50209  21924120.000    89775916.17147
  21550579.920   113249469.49709  21550576.040    88246513.15948
  23073411.420   121251647.30809  23073409.740    94481871.81647
  22670901.600   119136422.95409  22670901.040    92833587.36847
  24238541.800   127374899.23608  24238539.860    99253391.59146
  23768940.020   124906576.04908  23768941.460    97329787.89346
 15 03 03 00 08 30.0000000  0  7G16G18G21G22G27G29G31
  21335247.860   112117501.71909  21335244.340    87364278.48148
  21915301.340   115165950.67609  21915298.400    89739793.21247
  21559666.420   113297219.50309  21559662.520    88283720.95448
  23055736.580   121158768.04509  23055734.760    94409498.85647
  22658642.300   119071999.29309  22658641.540    92783387.13347
  24252371.660   127447575.68808  24252369.700    99310022.55845
  23786662.540   124999706.84408  23786664.180    97402356.74446
 15 03 03 00 09  0.0000000  0  7G16G18G21G22G27G29G31
  21323659.440   112056604.05809  21323655.940    87316825.76248
  21906556.200   115119994.90509  21906553.300    89703983.54748
  21568799.040   113345211.90509  21568795.180    88321117.63748
  23038087.280   121066022.80209  23038085.420    94337230.22747
  22646398.400   119007656.73609  22646397.480    92733250.09848
  24266210.840   127520301.23308  24266208.940    99366691.79145
  23804394.400   125092886.88908  23804396.300    97474963.93946
 15 03 03 00 09 30.0000000  0  7G16G18G21G22G27G29G31
  21312141.200   111996075.43009  21312137.800    87269660.61048
  21897887.920   115074442.48909  21897884.920    89668488.18947
  21577977.400   113393444.49709  21577973.580    88358701.47948
  23020463.860   120973413.57409  23020462.060    94265067.55347
  22634169.740   118943394.66809  22634168.700    92683175.77847
  24280059.160   127593074.95608  24280057.140    99423398.56145
  23822134.920   125186112.14508  23822137.060    97547606.37146
 15 03 03 00 10  0.0000000  0  7G16G18G21G22G27G29G31
  21300693.540   111935917.76209  21300690.200    87222784.51148
  21889296.680   115029294.66409  21889293.520    89633308.09047
  21587200.980   113441914.57409  21587197.220    88396470.37448
  23002866.900   120880943.09809  23002865.120    94193013.05047
  22621956.280   118879212.81009  22621955.320    92633163.96347
  24293916.540   127665896.31308  24293914.460    99480142.47644
  23839883.460   125279379.15908  23839885.780    97620281.31146
 15 03 03 00 10 30.0000000  0  7G16G18G21G22G27G29G31
  21289317.540   111876136.43909  21289314.140    87176201.66048
  21880783.400   114984556.55309  21880780.060    89598447.24047
  21596470.180   113490624.21209  21596466.420    88434425.93848
  22985297.460   120788616.85509  22985295.540    94121070.91947
  22609758.680   118815114.49909  22609757.880    92583217.24348
  24307783.520   127738768.66207  24307781.760    99536926.07945
  23857640.100   125372688.32808  23857642.580    97692989.08147
 15 03 03 00 11  0.0000000  0  7G16G18G21G22G27G29G31
  21278012.760   111816729.70009  21278009.400    87129910.70748
  21872347.520   114940225.68609  21872344.100    89563903.74247
  21605783.800   113539567.32909  21605779.980    88472563.44048
  22967755.260   120696433.82109  22967753.220    94049240.54947
  22597576.320   118751096.08809  22597575.700    92533332.79047
  24321659.520   127811688.08608  24321657.940    99593746.36145
  23875403.560   125466032.77408  23875406.120    97765724.33946
 15 03 03 00 11 30.0000000  0  7G16G18G21G22G27G29G31
  21266779.680   111757699.71609  21266776.460    87083913.32548
  21863989.400   114896303.48209  21863985.900    89529678.67147
  21615141.480   113588742.51409  21615137.740    88510881.77848
  22950240.660   120604396.07409  22950238.520    93977523.23847
  22585409.220   118687157.80409  22585408.680    92483510.77248
  24335544.620   127884654.73708  24335543.240    99650603.45046
  23893173.220   125559409.63808  23893175.820    97838484.84046
 15 03 03 00 12  0.0000000  0  7G16G18G21G22G27G29G31
  21255619.280   111699051.64209  21255616.120    87038213.53148
  21855710.060   114852795.34809  21855706.520    89495776.25048
  21624543.480   113638150.20209  21624539.700    88549381.26848
  22932754.860   120512509.40909  22932752.640    93905923.60947
  22573257.980   118623302.81709  22573257.480    92433753.66447
  24349439.440   127957671.74208  24349438.120    99707499.75646
  23910949.060   125652819.06108  23910951.740    97911270.69146
 15 03 03 00 12 30.0000000  0  7G16G18G21G22G27G29G31
  21244531.600   111640785.72909  21244528.460    86992811.52548
  21847509.500   114809701.09409  21847506.000    89462196.33147
  21633989.160   113687787.28909  21633985.300    88588059.52348
  22915298.080   120420774.69509  22915295.760    93834442.34647
  22561122.260   118559529.32509  22561121.720    92384060.05947
  24363343.440   128030736.77508  24363342.100    99764433.50146
  23928730.020   125746255.67708  23928732.800    97984077.73646
 15 03 03 00 13  0.0000000  0  7G16G18G21G22G27G29G31
  21233517.240   111582904.95809  21233514.120    86947709.63048
  21839388.080   114767022.94809  21839384.660    89428940.64848
  21643478.300   113737652.82709  21643474.400    88626915.78948
  22897870.960   120329195.37409  22897868.440    93763082.14747
  22549002.260   118495838.24009  22549001.640    92334430.65848
  24377256.740   128103850.92708  24377255.420    99821405.52347
  23946515.800   125839717.43708  23946518.660    98056904.35646
 15 03 03 00 13 30.0000000  0  7G16G18G21G22G27G29G31
  21222577.140   111525414.06309  21222574.000    86902911.53648
  21831346.620   114724765.04809  21831343.260    89396012.43748
  21653011.000   113787747.43809  21653007.080    88665950.55548
  22880474.380   120237776.70609  22880471.720    93691847.12347
  22536898.480   118432232.53109  22536897.840    92284867.78947
  24391179.860   128177016.77808  24391178.540    99878417.83946
  23964306.260   125933204.30008  23964309.300    98129750.51946
 15 03 03 00 14  0.0000000  0  7G16G18G21G22G27G29G31
  21211711.160   111468312.53809  21211707.940    86858416.84348
  21823384.920   114682926.49809  21823381.700    89363410.99548
  21662586.460   113838066.73409  21662582.460    88705160.40148
  22863108.300   120146518.50609  22863105.540    93620737.10847
  22524810.480   118368709.69909  22524809.820    92235369.49847
  24405112.220   128250231.80308  24405110.940    99935468.47947
  23982100.380   126026710.57008  23982103.580    98202611.77946
 15 03 03 00 14 30.0000000  0  7G16G18G21G22G27G29G31
  21200919.820   111411603.39809  21200916.500    86814227.90948
  21815503.500   114641509.56409  21815500.360    89331138.08448
  21672204.500   113888609.82209  21672200.440    88744544.62248
  22845773.440   120055424.12709  22845770.520    93549754.73247
  22512738.420   118305270.72208  22512737.720    92185936.54547
  24419054.120   128323496.77408  24419052.820    99992558.04546
  23999897.760   126120233.82608  23999901.080    98275486.26846
 15 03 03 00 15  0.0000000  0  7G16G18G21G22G27G29G31
  21190203.300   111355287.58209  21190199.900    86770345.45148
  21807702.480   114600514.77409  21807699.320    89299194.11148
  21681864.520   113939373.58809  21681860.420    88784100.80448
  22828470.140   119964495.44709  22828467.000    93478901.45347
  22500682.180   118241914.74208  22500681.440    92136568.26447
  24433005.300   128396810.60708  24433004.020   100049685.66446
  24017697.720   126213770.10808  24017701.300    98348370.88046
 15 03 03 00 15 30.0000000  0  7G16G18G21G22G27G29G31
  21179562.280   111299368.83909  21179558.840    86726772.40048
  21799982.320   114559945.28609  21799979.140    89267581.54748
  21691566.600   113990358.21909  21691562.540    88823829.08948
  22811199.140   119873736.22609  22811195.780    93408180.20147
  22488642.060   118178643.61608  22488641.400    92087266.10847
  24446966.100   128470175.05108  24446964.780   100106852.72246
  24035499.980   126307318.02908  24035503.640    98421264.54346
 15 03 03 00 16  0.0000000  0  7G16G18G21G22G27G29G31
  21168996.960   111243847.82609  21168993.500    86683509.27548
  21792343.160   114519801.36609  21792339.860    89236300.58748
  21701309.980   114041560.24108  21701305.980    88863726.76748
  22793960.700   119783148.18509  22793957.180    93337592.33647
  22476617.860   118115456.13708  22476617.240    92038029.13448
  24460936.180   128543588.76408  24460934.900   100164058.17846
  24053303.720   126400873.39908  24053307.480    98494164.03146
 15 03 03 00 16 30.0000000  0  7G16G18G21G22G27G29G31
  21158508.360   111188729.71409  21158504.840    86640560.10348
  21784785.960   114480087.83009  21784782.540    89205354.98348
  21711094.980   114092981.30009  21711091.120    88903795.11848
  22776755.880   119692736.73709  22776752.240    93267142.06447
  22464610.160   118052355.49408  22464609.640    91988859.82347
  24474916.100   128617054.12507  24474914.900   100221303.86345
  24071108.920   126494436.78608  24071112.880    98567069.90446
 15 03 03 00 17  0.0000000  0  7G16G18G21G22G27G29G31
  21148096.540   111134014.93109  21148092.960    86597925.20748
  21777310.520   114440803.97609  21777307.080    89174744.20348
  21720920.880   114144617.25409  21720917.080    88944030.92748
  22759584.680   119602502.45209  22759581.040    93196829.83147
  22452618.720   117989340.13109  22452618.140    91939756.95647
  24488905.600   128690569.91707  24488904.460   100278588.82345
  24088914.540   126588002.85808  24088918.760    98639977.85446
 15 03 03 00 17 30.0000000  0  7G16G18G21G22G27G29G31
  21137761.540   111079704.16309  21137758.000    86555605.12448
  21769916.920   114401950.31909  21769913.520    89144468.64148
  21730787.180   114196465.31309  21730783.440    88984432.00948
  22742447.480   119512446.87809  22742443.840    93126656.83247
  22440643.300   117926409.13409  22440642.680    91890719.83947
  24502904.500   128764135.03007  24502903.300   100335912.21644
  24106719.880   126681567.88908  24106724.340    98712885.09046
 15 03 03 00 18  0.0000000  0  7G16G18G21G22G27G29G31
  21127504.040   111025800.91009  21127500.500    86513602.59648
  21762605.660   114363529.67709  21762602.380    89114530.49748
  21740693.740   114248525.03409  21740690.060    89024998.03048
  22725345.060   119422573.87409  22725341.380    93056626.10447
  22428684.300   117863563.97309  22428683.520    91841749.60247
  24516913.120   128837750.76707  24516911.700   100393275.08144
  24124524.680   126775130.23808  24124529.400    98785790.40046
 15 03 03 00 18 30.0000000  0  7G16G18G21G22G27G29G31
  21117324.560   110972307.71009  21117321.060    86471919.58748
  21755377.160   114325543.97909  21755373.960    89084931.26648
  21750640.400   114300795.22409  21750636.740    89065728.04448
  22708278.020   119332886.50709  22708274.240    92986740.01447
  22416741.760   117800805.35709  22416740.920    91792846.79848
  24530931.520   128911417.32808  24530929.920   100450677.58044
  24142328.360   126868687.06108  24142333.200    98858691.35646
 15 03 03 00 19  0.0000000  0  7G16G18G21G22G27G29G31
  21107223.100   110919224.48409  21107219.680    86430556.03448
  21748231.340   114287992.71009  21748228.160    89055670.55548
  21760626.200   114353270.80209  21760622.480    89106618.09748
  22691246.440   119243385.44909  22691242.540    92916999.09847
  22404815.340   117738131.40809  22404814.620    91744009.96948
  24544959.300   128985132.55108  24544957.540   100508117.99544
  24160129.940   126962233.00108  24160134.860    98931583.70546
 15 03 03 00 19 30.0000000  0  7G16G18G21G22G27G29G31
  21097200.920   110866557.78509  21097197.560    86389517.05048
  21741169.220   114250881.28709  21741166.060    89026752.58648
  21770652.060   114405956.67109  21770648.240    89147672.02148
  22674251.640   119154077.56409  22674247.640    92847408.69247
  22392905.960   117675546.84709  22392905.300    91695242.78948
  24558997.200   129058901.26208  24558995.440   100565600.08745
  24177929.820   127055770.05208  24177934.900    99004469.19146
 15 03 03 00 20  0.0000000  0  6G16G18G21G22G27G31
  21087261.780   110814327.24409  21087258.380    86348817.93848
  21734194.500   114214229.20609  21734191.400    88998192.55248
  21780720.720   114458867.57109  21780716.820    89188901.30248
  22657297.420   119064983.08309  22657293.380    92777984.57247
  22381017.020   117613069.57009  22381016.300    91646559.21548
  24195730.720   127149312.68708  24195736.020    99077358.99446
 15 03 03 00 20 30.0000000  0  6G16G18G21G22G27G31
  21077398.300   110762494.07609  21077394.880    86308428.45248
  21727299.680   114177996.71709  21727296.500    88969959.45148
  21790824.020   114511960.55609  21790820.060    89230272.44848
  22640376.560   118976063.91209  22640372.500    92708697.03047
  22369140.760   117550659.03709  22369139.900    91597927.63148
  24213524.400   127242817.22508  24213529.740    99150219.13945
 15 03 03 00 21  0.0000000  0  6G16G18G21G22G27G31
  21067615.000   110711082.25109  21067611.600    86268367.30048
  21720489.180   114142207.35009  21720486.020    88942071.65448
  21800965.860   114565255.99809  21800961.860    89271801.36448
  22623493.780   118887344.86409  22623489.700    92639565.43748
  22357281.400   117488337.59009  22357280.380    91549365.48348
  24231314.620   127336303.28408  24231319.980    99223065.01745
 15 03 03 00 21 30.0000000  0  6G16G18G21G22G27G31
  21057912.140   110660093.18809  21057908.780    86228635.57148
  21713763.080   114106862.04509  21713760.040    88914529.87448
  21811145.860   114618751.82809  21811141.820    89313486.42748
  22606649.280   118798827.29709  22606645.320    92570590.83847
  22345438.820   117426104.71209  22345437.820    91500872.34748
  24249100.500   127429767.30608  24249106.080    99295893.84746
 15 03 03 00 22  0.0000000  0  7G16G18G19G21G22G27G31
  21048290.640   110609531.67509  21048287.220    86189236.98948
  21707122.220   114071964.57309  21707119.240    88887337.05547
  24535539.420   128935128.84707  24535535.640   100468916.12545
  21821364.100   114672448.82709  21821360.060    89355328.24448
  22589844.160   118710516.60709  22589840.340    92501777.43947
  22333613.620   117363963.36009  22333612.680    91452450.52548
  24266881.900   127523207.89008  24266887.560    99368704.08246
 15 03 03 00 22 30.0000000  0  7G16G18G19G21G22G27G31
  21038746.440   110559376.63709  21038742.980    86150155.14548
  21700562.560   114037493.49609  21700559.580    88860476.48948
  24520497.560   128856082.79507  24520493.600   100407321.86345
  21831615.800   114726321.65009  21831611.720    89397307.06748
  22573074.540   118622392.42109  22573070.840    92433109.36348
  22321801.500   117301890.85009  22321800.680    91404082.34648
  24284654.140   127616600.08108  24284660.000    99441476.75346
 15 03 03 00 23  0.0000000  0  7G16G18G19G21G22G27G31
  21029287.200   110509668.09509  21029283.680    86111421.22048
  21694091.540   114003488.14809  21694088.540    88833978.83448
  24505466.460   128777093.20407  24505462.580   100345771.60345
  21841907.940   114780406.93309  21841903.780    89439451.44748
  22556348.180   118534495.46309  22556344.500    92364618.34947
  22310009.800   117239925.55809  22310009.060    91355797.71948
  24302423.880   127709978.76908  24302429.860    99514238.83046
 15 03 03 00 23 30.0000000  0  7G16G18G19G21G22G27G31
  21019910.300   110460392.20309  21019906.800    86073024.41548
  21687706.420   113969933.98209  21687703.380    88807832.74348
  24490443.020   128698144.04907  24490439.020   100284252.82745
  21852237.220   114834687.57109  21852233.060    89481748.04448
  22539662.460   118446812.35609  22539658.820    92296293.96347
  22298235.600   117178051.81409  22298234.920    91307584.42248
  24320187.660   127803325.78508  24320193.860    99586976.51347
 15 03 03 00 24  0.0000000  0  7G16G18G19G21G22G27G31
  21010616.100   110411550.75509  21010612.580    86034966.14448
  21681407.280   113936831.70409  21681404.220    88782038.77748
  24475427.100   128619235.11707  24475423.060   100222765.39945
  21862603.260   114889161.75709  21862599.120    89524195.45848
  22523017.980   118359345.64609  22523014.260    92228138.19247
  22286478.960   117116269.97509  22286478.280    91259442.74648
  24337944.720   127896638.07308  24337951.060    99659687.29246
 15 03 03 00 24 30.0000000  0  7G16G18G19G21G22G27G31
  21001405.040   110363146.39709  21001401.520    85997248.46548
  21675194.560   113904183.51109  21675191.440    88756598.63948
  24460418.940   128540366.87808  24460414.980   100161309.72045
  21873005.740   114943827.52909  21873001.740    89566792.16148
  22506415.180   118272097.92909  22506411.400    92160153.06447
  22274739.980   117054580.70609  22274739.220    91211373.21148
  24355694.340   127989911.91508  24355700.800    99732367.72146
 15 03 03 00 25  0.0000000  0  7G16G18G19G21G22G27G31
  20992277.040   110315178.75909  20992273.560    85959871.08948
  21669068.120   113871988.69209  21669065.020    88731511.78548
  24445418.080   128461537.12808  24445414.160   100099883.98245
  21883443.940   114998681.03409  21883440.080    89609535.15748
  22489854.280   118185070.19609  22489850.420    92092339.34647
  22263018.320   116992982.18709  22263017.360    91163374.37748
  24373435.900   128083143.08708  24373442.440    99805014.79146
 15 03 03 00 25 30.0000000  0  7G16G18G19G21G22G27G31
  20983232.960   110267652.07409  20983229.540    85922837.30448
  21663028.540   113840250.14309  21663025.380    88706780.46348
  24430424.980   128382748.30308  24430421.100   100038490.16645
  21893918.020   115053723.54209  21893914.340    89652425.41448
  22473336.180   118098267.03909  22473332.180    92024700.61347
  22251314.320   116931476.98409  22251313.320    91115448.26548
  24391169.280   128176330.77808  24391175.920    99877627.75145
 15 03 03 00 26  0.0000000  0  7G16G18G19G21G22G27G31
  20974272.540   110220564.83609  20974269.160    85886145.94748
  21657075.460   113808966.36809  21657072.280    88682403.52248
  24415439.060   128303997.11408  24415435.200    99977125.61145
  21904426.980   115108949.36408  21904423.440    89695458.50848
  22456860.740   118011687.95709  22456856.600    91957236.48547
  22239627.480   116870062.38809  22239626.540    91067592.75248
  24408893.540   128269470.31708  24408900.340    99950203.62546
 15 03 03 00 26 30.0000000  0  7G16G18G19G21G22G27G31
  20965397.260   110173924.91109  20965393.840    85849803.15348
  21651210.120   113778143.70609  21651206.900    88658385.87948
  24400461.380   128225289.24208  24400457.480    99915794.86145
  21914971.580   115164362.18409  21914968.160    89738637.32348
  22440429.400   117925340.89309  22440425.200    91889953.15147
  22227958.840   116808744.11709  22227958.060    91019812.29948
  24426608.900   128362562.80508  24426615.680   100022742.83146
 15 03 03 00 27  0.0000000  0  7G16G18G19G21G22G27G31
  20956606.140   110127727.16409  20956602.700    85813804.90948
  21645431.520   113747776.52209  21645428.200    88634723.13748
  24385490.520   128146617.16808  24385486.660    99854491.98546
  21925550.280   115219953.54609  21925546.840    89781955.26748
  22424041.260   117839221.09309  22424037.100    91822846.90547
  22216307.220   116747515.41809  22216306.600    90972101.63948
  24444313.580   128455599.39608  24444320.440   100095238.61946
 15 03 03 00 27 30.0000000  0  7G16G18G19G21G22G27G31
  20947900.520   110081978.80609  20947897.080    85778156.84048
  21639740.860   113717871.61009  21639737.480    88611420.63048
  24370527.580   128067986.76808  24370523.740    99793221.60946
  21936163.760   115275727.80509  21936160.240    89825415.72648
  22407697.960   117753336.96909  22407693.820    91755924.30147
  22204673.820   116686382.19009  22204673.240    90924465.37248
  24462007.920   128548582.13008  24462014.880   100167692.27645
 15 03 03 00 28  0.0000000  0  7G16G18G19G21G22G27G31
  20939280.900   110036682.33509  20939277.480    85742860.87948
  21634138.400   113688430.48709  21634134.980    88588479.51048
  24355572.680   127989398.48308  24355568.820    99731984.04146
  21946811.740   115331683.21809  21946808.160    89869017.33448
  22391400.080   117667691.61709  22391396.000    91689187.74548
  22193058.760   116625345.40509  22193058.260    90876904.24948
  24479691.540   128641508.80108  24479698.520   100240102.23145
 15 03 03 00 28 30.0000000  0  7G16G18G19G21G22G27G31
  20930747.120   109991836.73209  20930743.660    85707916.25448
  21628623.820   113659451.22309  21628620.380    88565898.28248
  24340625.160   127910849.39208  24340621.300    99670777.02146
  21957493.280   115387814.51409  21957489.560    89912756.00948
  22375147.520   117582284.42409  22375143.480    91622636.76548
  22181461.500   116564402.33009  22181461.080    90829416.15948
  24497363.420   128734373.42308  24497370.320   100312463.67445
 15 03 03 00 29  0.0000000  0  7G16G18G19G21G22G27G31
  20922299.420   109947443.73409  20922295.900    85673324.32048
  21623197.400   113630935.03109  21623193.880    88543677.89648
  24325685.120   127832339.52708  24325681.320    99609600.56746
  21968208.140   115444120.58409  21968204.200    89956630.87148
  22358940.760   117497117.82709  22358936.720    91556273.27648
  22169882.260   116503553.38409  22169881.800    90782001.42048
  24515022.980   128827172.77208  24515029.940   100384774.01844
 15 03 03 00 29 30.0000000  0  7G16G18G19G21G22G27G31
  20913938.540   109903506.81609  20913934.980    85639087.76348
  21617859.560   113602884.39509  21617855.980    88521820.27348
  24310752.960   127753870.49708  24310749.220    99548455.94546
  21978956.220   115500601.25609  21978952.060    90000641.78248
  22342780.540   117412195.90709  22342776.500    91490100.42748
  22158321.420   116442800.45209  22158320.800    90734661.47848
  24532670.040   128919905.88408  24532676.980   100457032.76146
 15 03 03 00 30  0.0000000  0  7G16G18G19G21G22G27G31
  20905664.880   109860028.09009  20905661.280    85605208.24248
  21612610.580   113575300.69009  21612607.020    88500326.49748
  24295828.680   127675442.55308  24295824.840    99487343.31746
  21989737.180   115557254.94209  21989732.900    90044787.51448
  22326667.480   117327521.72309  22326663.420    91424120.62548
  22146779.040   116382144.26609  22146778.320    90687396.93348
  24550304.200   129012571.01408  24550311.300   100529238.50445
 15 03 03 00 30 30.0000000  0  7G16G18G19G21G22G27G31
  20897479.080   109817010.77409  20897475.400    85571688.25848
  21607450.860   113548186.47309  21607447.340    88479198.55248
  24280912.340   127597056.83008  24280908.420    99426263.57646
  22000551.060   115614081.90509  22000546.740    90089068.26048
  22310602.260   117243099.17109  22310598.220    91358336.89848
  22135255.440   116321586.59309  22135254.700    90640209.15148
  24567925.100   129105167.02508  24567932.520   100601390.73046
 15 03 03 00 31  0.0000000  0  7G16G18G19G21G22G27G31
  20889381.520   109774457.60209  20889377.820    85538529.93548
  21602380.720   113521543.26409  21602377.280    88458437.61648
  24266004.140   127518714.21808  24266000.100    99365217.45246
  22011397.460   115671080.34809  22011393.220    90133482.62748
  22294585.580   117158931.31709  22294581.480    91292751.64048
  22123750.660   116261128.38209  22123749.980    90593098.87348
  24585532.260   129197691.41008  24585540.080   100673487.21145
 15 03 03 00 31 30.0000000  0  7G16G18G19G21G22G27G31
  20881371.780   109732366.42309  20881368.100    85505731.61048
  21597399.700   113495368.34509  21597396.360    88438041.59248
  24251103.460   127440411.04708  24251099.420    99304202.05645
  22022275.500   115728244.97109  22022271.360    90178026.48948
  22278617.140   117075016.60709  22278612.960    91227363.62547
  22112264.140   116200766.32509  22112263.500    90546063.52048
  24603124.440   129290136.84808  24603132.500   100745522.02245
 15 03 03 00 32  0.0000000  0  7G16G18G19G21G22G27G31
  20873450.820   109690741.75209  20873447.120    85473296.80248
  21592508.620   113469665.72809  21592505.260    88418013.59248
  24236210.860   127362150.24208  24236206.860    99243219.66245
  22033185.420   115785577.27409  22033181.420    90222700.99647
  22262698.020   116991360.73809  22262693.660    91162177.30348
  22100796.560   116140503.74309  22100795.920    90499105.67748
  24620701.660   129382502.98808  24620709.920   100817494.42146
 15 03 03 00 32 30.0000000  0  7G16G18G19G21G22G27G31
  20865619.000   109649585.22109  20865615.280    85441226.77348
  21587707.560   113444435.83209  21587704.120    88398353.95448
  24221326.220   127283931.22208  24221322.140    99182269.81145
  22044126.740   115843074.70009  22044122.780    90267504.18647
  22246828.540   116907965.85309  22246824.040    91097194.34648
  22089347.900   116080340.60309  22089347.260    90452225.31748
  24638263.500   129474787.64408  24638272.040   100889403.50245
 15 03 03 00 33  0.0000000  0  7G16G18G19G21G22G27G31
  20857876.320   109608896.87409  20857872.520    85409521.56148
  21582996.400   113419678.23009  21582992.860    88379062.33148
  24206449.300   127205752.48308  24206445.080    99121351.36445
  22055098.920   115900733.99009  22055095.040    90312433.49248
  22231008.820   116824832.56309  22231004.260    91032415.21848
  22077917.980   116020275.72609  22077917.240    90405421.53248
  24655809.100   129566986.67908  24655817.880   100961246.12647
 15 03 03 00 33 30.0000000  0  7G16G18G19G21G22G27G31
  20850223.540   109568681.12509  20850219.740    85378184.61248
  21578375.660   113395396.17509  21578372.160    88360141.26348
  24191580.580   127127616.72708  24191576.300    99060466.40646
  22066102.120   115958556.45609  22066098.240    90357489.95548
  22215239.900   116741966.33209  22215235.280    90967844.18448
  22066507.420   115960312.09809  22066506.500    90358696.63548
  24673338.460   129659100.04908  24673347.260   101033022.10045
 15 03 03 00 34  0.0000000  0  7G16G18G19G21G22G27G31
  20842660.700   109528938.18809  20842656.960    85347216.09048
  21573845.260   113371589.06409  21573841.880    88341590.28248
  24176719.900   127049522.98708  24176715.700    98999614.20945
  22077135.760   116016538.76008  22077132.000    90402670.97148
  22199521.880   116659367.64509  22199517.180    90903481.62048
  22055115.900   115900448.52909  22055114.880    90312049.70848
  24690850.540   129751122.63508  24690859.400   101104727.20145
 15 03 03 00 34 30.0000000  0  6G16G18G19G21G22G27
  20835187.300   109489665.20309  20835183.580    85316613.76248
  21569404.520   113348253.34309  21569401.220    88323406.61448
  24161866.160   126971465.95408  24161861.920    98938790.60045
  22088198.620   116074674.71308  22088194.920    90447971.71048
  22183854.420   116577034.89709  22183849.740    90839326.28948
  22043742.580   115840681.05809  22043741.520    90265477.65748
 15 03 03 00 35  0.0000000  0  6G16G18G19G21G22G27
  20827805.940   109450876.08909  20827802.300    85286388.48448
  21565055.940   113325401.87909  21565052.680    88305600.29248
  24147021.680   126893457.89808  24147017.360    98878005.16845
  22099292.700   116132974.53909  22099289.040    90493400.13948
  22168240.260   116494982.22409  22168235.640    90775389.20748
  22032389.820   115781022.17709  22032388.780    90218990.23248
 15 03 03 00 35 30.0000000  0  6G16G18G19G21G22G27
  20820515.560   109412565.21709  20820512.000    85256535.85748
  21560798.360   113303028.52109  21560795.140    88288166.51948
  24132185.260   126815492.14008  24132180.860    98817252.66246
  22110416.380   116191429.55409  22110412.580    90538949.50248
  22152678.540   116413204.97009  22152673.880    90711666.72148
  22021056.380   115721465.11309  22021055.480    90172582.14448
 15 03 03 00 36  0.0000000  0  6G16G18G19G21G22G27
  20813316.200   109374732.89809  20813312.760    85227056.12648
  21556631.580   113281132.42509  21556628.460    88271104.63648
  24117356.560   126737567.20508  24117352.140    98756531.98246
  22121568.980   116250036.73609  22121565.220    90584617.42648
  22137169.460   116331704.47809  22137164.840    90648159.89148
  22009742.120   115662008.99009  22009741.400    90126252.70648
 15 03 03 00 36 30.0000000  0  6G16G18G19G21G22G27
  20806208.960   109337384.75109  20806205.640    85197953.67048
  21552556.580   113259718.21909  21552553.440    88254418.25848
  24102536.360   126659686.95708  24102532.000    98695846.12046
  22132750.920   116308798.17509  22132747.100    90630405.56047
  22121714.140   116250486.84309  22121709.680    90584873.48248
  21998447.880   115602658.09209  21998447.280    90080005.26548
 15 03 03 00 37  0.0000000  0  6G16G18G19G21G22G27
  20799194.780   109300525.07909  20799191.480    85169231.84148
  21548574.000   113238789.58009  21548570.820    88238110.24948
  24087724.980   126581853.19708  24087720.800    98635196.47846
  22143962.240   116367714.07009  22143958.480    90676314.04548
  22106313.500   116169556.88209  22106309.200    90521811.23848
  21987174.200   115543415.25009  21987173.740    90033842.02848
 15 03 03 00 37 30.0000000  0  6G16G18G19G21G22G27
  20792273.180   109264151.14509  20792269.780    85140888.51348
  21544683.080   113218342.75809  21544679.920    88222177.67448
  24072921.820   126504062.45508  24072917.740    98574580.35046
  22155201.960   116426779.38609  22155198.180    90722338.96347
  22090967.300   116088912.86109  22090963.040    90458971.79048
  21975920.340   115484276.77009  21975920.020    89987760.11248
 15 03 03 00 38  0.0000000  0  6G16G18G19G21G22G27
  20785444.880   109228267.30309  20785441.340    85112927.08548
  21540884.460   113198381.14809  21540881.440    88206623.19548
  24058127.380   126426317.45608  24058123.320    98513999.86646
  22166470.200   116485994.92309  22166466.560    90768480.93447
  22075676.580   116008560.16309  22075672.360    90396359.35348
  21964687.100   115425245.91109  21964686.800    89941762.05048
 15 03 03 00 38 30.0000000  0  6G16G18G19G21G22G27
  20778709.220   109192870.86109  20778705.640    85085345.44148
  21537177.600   113178901.21509  21537174.580    88191444.04548
  24043340.800   126348613.88708  24043336.940    98453451.67946
  22177765.920   116545354.87609  22177762.380    90814735.43247
  22060440.920   115928496.61309  22060436.700    90333972.22348
  21953473.720   115366318.82509  21953473.320    89895844.84948
 15 03 03 00 39  0.0000000  0  6G16G18G19G21G22G27
  20772067.220   109157966.97809  20772063.620    85058147.60948
  21533563.240   113159907.37809  21533560.140    88176643.66548
  24028562.760   126270955.57208  24028558.960    98392938.76446
  22189089.460   116604860.87509  22189085.920    90861103.74347
  22045261.500   115848728.25409  22045257.220    90271815.10748
  21942280.960   115307499.57609  21942280.380    89850011.68248
 15 03 03 00 39 30.0000000  0  6G16G18G19G21G22G27
  20765518.480   109123553.28309  20765514.840    85031331.74048
  21530040.760   113141396.34209  21530037.560    88162219.48748
  24013792.720   126193338.60608  24013788.960    98332458.07346
  22200439.840   116664507.51109  22200436.300    90907581.63547
  22030138.020   115769253.55709  22030133.620    90209886.81348
  21931108.060   115248784.67309  21931107.260    89804259.81148
 15 03 03 00 40  0.0000000  0  6G16G18G19G21G22G27
  20759064.500   109089637.32309  20759060.840    85004903.71848
  21526611.260   113123374.29809  21526608.020    88148176.35448
  23999031.660   126115768.75108  23999027.760    98272014.05346
  22211817.740   116724298.75808  22211814.160    90954172.20947
  22015072.000   115690080.53309  22015067.400    90148193.58848
  21919956.100   115190180.42609  21919955.220    89758594.17648
 15 03 03 00 40 30.0000000  0  6G16G18G19G21G22G27
  20752705.140   109056218.75609  20752701.520    84978863.28148
  21523274.640   113105840.34909  21523271.400    88134513.55848
  23984279.320   126038244.41308  23984275.140    98211605.52546
  22223222.680   116784231.85209  22223219.040    91000873.31147
  22000063.540   115611210.13109  22000058.760    90086736.17148
  21908824.920   115131685.62709  21908823.960    89713013.82248
 15 03 03 00 41  0.0000000  0  6G16G18G19G21G22G27
  20746440.220   109023296.40809  20746436.600    84953209.50448
  21520030.500   113088792.41209  21520027.280    88121229.46148
  23969535.100   125960762.85708  23969530.880    98151230.33146
  22234653.700   116844301.74209  22234649.920    91047681.01547
  21985112.500   115532641.77509  21985107.660    90025514.12248
  21897714.040   115073297.96409  21897713.120    89667516.95048
 15 03 03 00 41 30.0000000  0  6G16G18G19G21G22G27
  20740271.120   108990877.29009  20740267.460    84927947.85148
  21516880.000   113072236.72809  21516876.880    88108328.93648
  23954800.060   125883329.57008  23954795.840    98090892.74646
  22246111.520   116904512.56108  22246107.680    91094598.52747
  21970220.440   115454383.52209  21970215.580    89964533.70648
  21886624.720   115015023.42209  21886623.800    89622108.22448
 15 03 03 00 42  0.0000000  0  6G16G18G19G21G22G27
  20734197.320   108958959.12109  20734193.640    84903076.54548
  21513822.500   113056169.66209  21513819.400    88095809.15948
  23940073.480   125805940.84108  23940069.240    98030589.88346
  22257595.080   116964858.82708  22257591.080    91141621.58947
  21955387.020   115376433.72509  21955382.180    89903793.64248
  21875556.220   114956858.72209  21875555.420    89576785.08948
 15 03 03 00 42 30.0000000  0  6G16G18G19G21G22G27
  20728219.480   108927545.68609  20728215.880    84878598.54248
  21510858.600   113040594.26009  21510855.420    88083672.49448
  23925355.780   125728599.25208  23925351.580    97970323.75546
  22269104.520   117025341.29509  22269100.600    91188750.77247
  21940613.160   115298797.12709  21940608.400    89843297.63248
  21864509.220   114898806.82009  21864508.540    89531549.85448
 15 03 03 00 43  0.0000000  0  6G16G18G19G21G22G27
  20722337.260   108896635.05509  20722333.800    84854512.32748
  21507987.720   113025507.31609  21507984.380    88071916.44048
  23910646.520   125651301.46708  23910642.220    97910091.73546
  22280638.960   117085954.86609  22280634.980    91235982.11847
  21925898.720   115221472.75309  21925894.080    89783044.90648
  21853483.220   114840864.78609  21853482.580    89486400.21948
 15 03 03 00 43 30.0000000  0  6G16G18G19G21G22G27
  20716551.260   108866229.98509  20716547.960    84830820.06548
  21505210.200   113010911.07609  21505206.780    88060542.76748
  23895945.960   125574048.99508  23895941.600    97849895.03546
  22292198.320   117146699.35309  22292194.300    91283315.48048
  21911244.440   115144464.11609  21911239.820    89723038.20948
  21842478.500   114783034.38209  21842477.900    89441337.57448
 15 03 03 00 44  0.0000000  0  6G16G18G19G21G22G27
  20710862.560   108836335.76709  20710859.280    84807525.85948
  21502526.860   112996810.17709  21502523.460    88049555.07248
  23881254.800   125496846.07408  23881250.340    97789736.93746
  22303782.960   117207576.79409  22303778.900    91330752.44847
  21896651.440   115067777.34909  21896646.840    89663282.32748
  21831495.900   114725320.20609  21831495.300    89396365.50148
 15 03 03 00 44 30.0000000  0  6G16G18G19G21G22G27
  20705271.180   108806952.75109  20705267.880    84784630.00248
  21499937.560   112983203.48909  21499934.140    88038952.48348
  23866572.700   125419691.04708  23866568.200    97729616.17146
  22315392.440   117268584.84009  22315388.380    91378291.18247
  21882119.940   114991413.60109  21882115.280    89603778.15848
  21820535.240   114667721.51209  21820534.600    89351483.42348
 15 03 03 00 45  0.0000000  0  6G16G18G19G21G22G27
  20699777.140   108778080.95309  20699773.760    84762132.49148
  21497442.080   112970089.79509  21497438.580    88028734.03848
  23851899.480   125342582.81008  23851894.860    97669531.85546
  22327026.140   117329720.20109  22327022.140    91425929.12647
  21867650.100   114915373.83709  21867645.340    89544526.42448
  21809596.380   114610237.47309  21809595.740    89306690.67548
 15 03 03 00 45 30.0000000  0  6G16G18G19G21G22G27
  20694381.120   108749724.33509  20694377.680    84740036.42749
  21495041.020   112957472.08709  21495037.420    88018902.07048
  23837235.700   125265524.24708  23837230.820    97609486.24245
  22338684.260   117390984.25909  22338680.360    91473667.33947
  21853242.800   114839663.04409  21853238.040    89485531.04148
  21798679.940   114552871.39809  21798679.340    89261989.84848
 15 03 03 00 46  0.0000000  0  6G16G18G19G21G22G27
  20689082.860   108721881.64109  20689079.380    84718340.81749
  21492734.180   112945349.31409  21492730.520    88009455.77048
  23822580.740   125188512.38808  23822575.820    97549477.02446
  22350366.060   117452372.39808  22350362.160    91521502.24447
  21838898.020   114764280.89509  21838893.260    89426791.74148
  21787785.540   114495621.10009  21787784.920    89217379.23648
 15 03 03 00 46 30.0000000  0  6G16G18G19G21G22G27
  20683882.660   108694554.57909  20683879.240    84697047.00748
  21490521.480   112933721.29009  21490517.860    88000394.98848
  23807934.900   125111548.45008  23807930.020    97489505.15146
  22362071.260   117513883.54209  22362067.280    91569433.00247
  21824616.240   114689230.04409  21824611.520    89368310.59048
  21776913.340   114438487.52209  21776912.760    89172859.57348
 15 03 03 00 47  0.0000000  0  6G16G18G19G21G22G27
  20678780.720   108667744.16009  20678777.380    84676155.77249
  21488402.980   112922588.37909  21488399.380    87991720.00548
  23793298.080   125034631.93808  23793293.340    97429570.24546
  22373799.520   117575515.98809  22373795.560    91617458.27647
  21810397.860   114614512.21009  21810393.120    89310088.93048
  21766063.440   114381471.02309  21766062.880    89128431.13848
 15 03 03 00 47 30.0000000  0  6G16G18G19G21G22G27
  20673778.060   108641455.58809  20673774.840    84655671.17648
  21486379.420   112911954.54909  21486375.820    87983433.91848
  23778671.000   124957766.81008  23778666.540    97369675.38446
  22385551.180   117637271.62508  22385547.320    91665579.54847
  21796244.060   114540133.40009  21796239.300    89252131.44448
  21755236.620   114324575.84909  21755236.080    89084097.25848
 15 03 03 00 48  0.0000000  0  6G16G18G19G21G22G27
  20668874.860   108615689.38209  20668871.740    84635593.61148
  21484450.680   112901819.15709  21484447.140    87975536.21848
  23764053.520   124880952.44108  23764049.400    97309820.07446
  22397325.780   117699148.04108  22397322.000    91713794.92947
  21782155.160   114466095.51809  21782150.320    89194439.61248
  21744432.840   114267801.87009  21744432.380    89039857.80248
 15 03 03 00 48 30.0000000  0  6G16G18G19G21G22G27
  20664070.900   108590444.71409  20664067.800    84615922.44348
  21482616.480   112892180.62309  21482613.020    87968025.68548
  23749445.340   124804186.66708  23749441.380    97250002.63547
  22409122.780   117761142.22308  22409119.100    91762102.07547
  21768131.040   114392398.46409  21768126.180    89137013.36548
  21733651.860   114211147.57509  21733651.480    88995711.61848
 15 03 03 00 49  0.0000000  0  6G16G18G19G21G22G27
  20659366.600   108565723.50609  20659363.440    84596659.15448
  21480877.020   112883039.91709  21480873.600    87960903.07748
  23734846.720   124727470.61408  23734842.820    97190223.93346
  22420941.980   117823252.99808  22420938.400    91810500.07147
  21754172.280   114319045.22709  21754167.460    89079855.03348
  21722894.020   114154614.41809  21722893.520    88951659.80548
 15 03 03 00 49 30.0000000  0  6G16G18G19G21G22G27
  20654762.040   108541526.14409  20654758.800    84577804.06448
  21479232.180   112874396.35109  21479228.740    87954167.83948
  23720257.480   124650803.45608  23720253.560    97130483.33246
  22432782.940   117885477.90208  22432779.420    91858987.00947
  21740279.200   114246036.94509  21740274.380    89022965.49448
  21712159.160   114098201.90909  21712158.420    88907702.01848
 15 03 03 00 50  0.0000000  0  6G16G18G19G21G22G27
  20650257.820   108517855.83209  20650254.500    84559359.66648
  21477682.460   112866252.10209  21477678.880    87947821.68348
  23705677.960   124574187.21508  23705673.860    97070782.40946
  22444645.680   117947817.32308  22444642.260    91907563.16847
  21726452.560   114173377.92909  21726447.780    88966348.10848
  21701447.820   114041912.83309  21701446.900    88863840.40148
 15 03 03 00 50 30.0000000  0  6G16G18G19G21G22G27
  20645854.340   108494714.89509  20645850.920    84541327.76248
  21476228.060   112858608.60609  21476224.320    87941865.73348
  23691108.400   124497623.21908  23691104.180    97011122.19246
  22456530.180   118010270.65609  22456526.780    91956228.10447
  21712693.080   114101071.48409  21712688.280    88910005.45648
  21690760.260   113985748.79309  21690759.260    88820076.22048
 15 03 03 00 51  0.0000000  0  6G16G18G19G21G22G27
  20641551.180   108472101.32109  20641547.660    84523706.79648
  21474868.320   112851463.15509  21474864.640    87936297.86848
  23676548.220   124421108.57608  23676543.920    96951500.42547
  22468435.560   118072833.73908  22468432.180    92004978.54947
  21699000.480   114029116.66709  21698995.700    88853936.80648
  21680096.060   113929707.45309  21680094.940    88776407.64148
 15 03 03 00 51 30.0000000  0  6G16G18G19G21G22G27
  20637348.740   108450017.37109  20637345.260    84506498.51949
  21473603.500   112844816.71809  21473599.920    87931118.84448
  23661997.720   124344644.79108  23661993.360    96891918.29146
  22480361.720   118135505.83109  22480358.300    92053813.93747
  21685375.380   113957516.84809  21685370.660    88798144.77048
  21669455.380   113873790.37309  21669454.380    88732835.89848
 15 03 03 00 52  0.0000000  0  6G16G18G19G21G22G27
  20633247.440   108428465.25109  20633244.080    84489704.65948
  21472433.820   112838670.15209  21472430.260    87926329.32548
  23647456.940   124268232.30008  23647452.460    96832376.12546
  22492308.460   118198286.20008  22492304.920    92102733.70747
  21671818.420   113886274.71109  21671813.720    88742631.44948
  21658838.540   113817999.05909  21658837.660    88689362.16048
 15 03 03 00 52 30.0000000  0  6G16G18G19G21G22G27
  20629248.280   108407449.67009  20629244.960    84473328.88048
  21471360.040   112833027.66309  21471356.500    87921932.59248
  23632926.700   124191875.44408  23632922.280    96772877.30447
  22504276.320   118261177.49508  22504272.780    92151739.89247
  21658330.760   113815396.55309  21658326.040    88687401.74048
  21648246.540   113762338.12309  21648245.720    88645990.01048
 15 03 03 00 53  0.0000000  0  6G16G18G19G21G22G27
  20625350.600   108386967.16609  20625347.280    84457368.48548
  21470381.300   112827884.61009  21470377.780    87917925.03448
  23618406.180   124115570.02808  23618401.920    96713418.56046
  22516264.140   118324173.47009  22516260.500    92200827.66547
  21644911.940   113744880.05709  21644907.160    88632453.84848
  21637678.680   113706803.76709  21637677.920    88602716.48848
 15 03 03 00 53 30.0000000  0  6G16G18G19G21G22G27
  20621554.880   108367020.45409  20621551.580    84441825.59148
  21469497.840   112823242.19909  21469494.340    87914307.57748
  23603895.700   124039317.16608  23603891.380    96654000.77746
  22528271.800   118387273.85309  22528268.100    92249996.78447
  21631562.580   113674728.46509  21631557.760    88577790.29748
  21627135.320   113651397.65309  21627134.500    88559542.89248
 15 03 03 00 54  0.0000000  0  6G16G18G19G21G22G27
  20617861.660   108347612.14009  20617858.340    84426702.22948
  21468710.120   112819102.75709  21468706.580    87911082.05148
  23589395.580   123963118.86808  23589391.060    96594625.51046
  22540299.380   118450478.77309  22540295.560    92299247.36747
  21618283.420   113604945.63309  21618278.480    88523414.09448
  21616616.680   113596122.17909  21616615.820    88516471.10248
 15 03 03 00 54 30.0000000  0  6G16G18G19G21G22G27
  20614270.980   108328742.35009  20614267.520    84411998.49548
  21468017.940   112815465.28209  21468014.400    87908247.66348
  23574905.680   123886974.55808  23574901.200    96535292.31046
  22552346.400   118513785.74909  22552342.360    92348577.46647
  21605074.580   113535532.22409  21605069.500    88469325.75248
  21606122.780   113540977.20009  21606122.060    88473501.00448
 15 03 03 00 55  0.0000000  0  6G16G18G19G21G22G27
  20610782.800   108310411.36809  20610779.220    84397714.61648
  21467421.120   112812329.22409  21467417.640    87905803.98948
  23560426.020   123810884.06208  23560421.620    96476001.04146
  22564412.560   118577193.22309  22564408.320    92397985.88347
  21591936.480   113466490.59009  21591931.260    88415527.10648
  21595653.740   113485963.04009  21595653.240    88430632.84648
 15 03 03 00 55 30.0000000  0  6G16G18G19G21G22G27
  20607397.580   108292621.86209  20607393.940    84383852.65348
  21466919.900   112809695.52109  21466916.540    87903751.76848
  23545956.840   123734848.58008  23545952.500    96416752.64246
  22576497.700   118640700.55209  22576493.380    92447472.11047
  21578869.700   113397823.85709  21578864.400    88362020.58448
  21585210.080   113431081.47009  21585209.560    88387867.98248
 15 03 03 00 56  0.0000000  0  6G16G18G19G21G22G27
  20604115.440   108275373.90209  20604111.700    84370412.68348
  21466514.200   112807563.65809  21466510.880    87902090.58448
  23531498.060   123658867.73808  23531493.700    96357546.81846
  22588601.480   118704305.90709  22588597.080    92497034.72647
  21565874.460   113329533.17009  21565869.140    88308807.08948
  21574791.660   113376332.39609  21574791.200    88345206.38048
 15 03 03 00 56 30.0000000  0  6G16G18G19G21G22G27
  20600936.780   108258669.59809  20600932.980    84357396.34448
  21466204.200   112805934.78409  21466200.900    87900821.34648
  23517049.960   123582942.74908  23517045.660    96298384.51446
  22600723.760   118768008.56109  22600719.400    92546673.15747
  21552951.380   113261621.81909  21552946.020    88255889.17748
  21564398.920   113321717.75009  21564398.260    88302649.52348
 15 03 03 00 57  0.0000000  0  6G16G18G19G21G22G27
  20597861.620   108242509.23609  20597857.780    84344803.85249
  21465989.820   112804808.08609  21465986.480    87899943.41148
  23502612.480   123507073.19308  23502608.180    96239265.41246
  22612864.160   118831806.66509  22612859.760    92596385.95747
  21540100.700   113194090.93509  21540095.340    88203267.73648
  21554031.720   113267237.49409  21554030.900    88260197.38448
 15 03 03 00 57 30.0000000  0  6G16G18G19G21G22G27
  20594890.320   108226895.05709  20594886.520    84332636.95348
  21465871.200   112804184.67909  21465867.840    87899457.65248
  23488185.860   123431260.41208  23488181.500    96180190.54047
  22625022.540   118895700.02408  22625018.400    92646172.97447
  21527322.980   113126943.93309  21527317.700    88150945.42048
  21543690.560   113212893.70109  21543689.560    88217851.57748
 15 03 03 00 58  0.0000000  0  6G16G18G19G21G22G27
  20592022.820   108211826.85309  20592019.160    84320895.48949
  21465848.060   112804063.20609  21465844.680    87899363.00648
