     2.11           OBSERVATION DATA    G                   RINEX VERSION / TYPE
SPIDER V4,0,0,3554                      2015 03 24 00:26    PGM / RUN BY / DATE 
CBEJ                                                        MARKER NAME         
CBEJ                                                        MARKER NUMBER       
                                                            OBSERVER / AGENCY   
496519              LEICA GRX1200+GNSS  8.10/4.007          REC # / TYPE / VERS 
                    LEIAR25         NONE                    ANT # / TYPE        
  5095766.4657   453329.2088  3797108.6657                  APPROX POSITION XYZ 
        0.0730        0.0000        0.0000                  ANTENNA: DELTA H/E/N
     1     1                                                WAVELENGTH FACT L1/2
     4    C1    L1    P2    L2                              # / TYPES OF OBSERV 
    30.000                                                  INTERVAL            
  2015    03    03    00    00    0.0000000     GPS         TIME OF FIRST OBS   
  2015    03    03    23    59   30.0000000     GPS         TIME OF LAST OBS    
    16                                                      LEAP SECONDS        
    30                                                      # OF SATELLITES     
   G 1   775   775   775   775                              PRN / # OF OBS      
   G 2   813   813   812   812                              PRN / # OF OBS      
   G 3   780   780   780   780                              PRN / # OF OBS      
   G 4   806   806   806   806                              PRN / # OF OBS      
   G 5   564   564   564   564                              PRN / # OF OBS      
   G 6   578   578   578   578                              PRN / # OF OBS      
   G 7   588   588   588   588                              PRN / # OF OBS      
   G 9   737   737   737   737                              PRN / # OF OBS      
   G10   658   658   657   657                              PRN / # OF OBS      
   G11   751   751   750   750                              PRN / # OF OBS      
   G12   777   777   776   776                              PRN / # OF OBS      
   G13   753   753   753   753                              PRN / # OF OBS      
   G14   807   805   805   805                              PRN / # OF OBS      
   G15   617   617   617   617                              PRN / # OF OBS      
   G16   650   650   650   650                              PRN / # OF OBS      
   G17   802   802   800   800                              PRN / # OF OBS      
   G18   792   792   793   793                              PRN / # OF OBS      
   G19   641   640   640   640                              PRN / # OF OBS      
   G20   663   663   663   663                              PRN / # OF OBS      
   G21   599   599   594   594                              PRN / # OF OBS      
   G22   660   658   657   657                              PRN / # OF OBS      
   G23   640   637   633   633                              PRN / # OF OBS      
   G24   760   760   760   760                              PRN / # OF OBS      
   G25   811   811   810   810                              PRN / # OF OBS      
   G27   792   792   792   792                              PRN / # OF OBS      
   G28   766   766   766   766                              PRN / # OF OBS      
   G29   709   708   708   708                              PRN / # OF OBS      
   G30   571   571   565   565                              PRN / # OF OBS      
   G31   661   660   658   658                              PRN / # OF OBS      
   G32   693   693   692   692                              PRN / # OF OBS      
BIT 2 OF LLI FLAGS DATA COLLECTED UNDER A/S CONDITION       COMMENT             
SNR is mapped to RINEX snr flag value [2-9]                 COMMENT             
Lx:     = 25dBHz -> 1; 26-27dBHz -> 2; 28-31dBHz -> 3       COMMENT             
       32-35dBHz -> 4; 36-38dBHz -> 5; 39-41dBHz -> 6       COMMENT             
       42-44dBHz -> 7; 45-48dBHz -> 8; >=49dBHz -> 9        COMMENT             
                                                            END OF HEADER       
 15 03 03 00 00  0.0000000  0  7G16G18G21G22G27G29G31
 -23766449.260  -124893532.41509 -23766453.400   -97319643.95048
 -22749883.760  -119551189.10109 -22749886.120   -93156704.61147
 -23640730.200  -124232865.42807 -23640733.620   -96804839.63446
 -21514918.820  -113061599.10408 -21514920.420   -88099934.82246
 -22522432.960  -118356146.85608 -22522431.980   -92225557.15347
 -20820164.560  -109410718.00108 -20820165.380   -85255113.13246
 -21576916.180  -113387508.20908 -21576918.060   -88353921.57446
 15 03 03 00 00 30.0000000  0  7G16G18G21G22G27G29G31
 -24008465.400  -126165336.08509 -24008469.380   -98310659.78948
 -22990580.820  -120816059.13608 -22990583.020   -94142317.60747
 -23862591.000  -125398753.58707 -23862594.840   -97713323.89046
 -21763106.560  -114365832.08408 -21763108.220   -89116219.71246
 -22764882.080  -119630224.58008 -22764881.280   -93218344.93447
 -21035919.200  -110544516.61808 -21035920.300   -86138592.56746
 -21788993.200  -114501981.29309 -21788994.520   -89222342.44246
 15 03 03 00 01  0.0000000  0  7G16G18G21G22G27G29G31
 -24250416.920  -127436799.70509 -24250420.640   -99301410.65348
 -23231211.620  -122080580.76709 -23231213.780   -95127659.11346
 -24084396.280  -126564349.59607 -24084400.240   -98621580.52246
 -22011281.400  -115669998.38108 -22011282.900   -90132452.68446
 -23007310.420  -120904193.88208 -23007309.560   -94211048.26247
 -21251668.340  -111678286.42708 -21251669.680   -87022049.59646
 -22001052.540  -115616360.68908 -22001053.320   -90090690.28746
 15 03 03 00 01 30.0000000  0  7G16G18G21G22G27G29G31
 -24492301.380  -128707910.85109 -24492304.980  -100291886.85948
 -23471773.500  -123344741.59509 -23471775.520   -96112719.45147
 -24306144.540  -127729645.58407 -24306148.600   -99529603.38846
 -22259441.100  -116974085.18208 -22259442.100   -91148623.75546
 -23249716.200  -122178044.54908 -23249714.900   -95203659.16948
 -21467409.940  -112812017.61608 -21467411.580   -87905476.56946
 -22213092.700  -116730639.08708 -22213093.160   -90958959.45546
 15 03 03 00 02  0.0000000  0  7G16G18G21G22G27G29G31
 -24734119.520  -129978673.73009 -24734123.120  -101282091.68948
 -23712267.400  -124608545.65409 -23712269.180   -97097501.82447
 -24527837.180  -128894648.80407 -24527841.220  -100437398.09146
 -22507586.660  -118278096.16308 -22507587.240   -92164735.79246
 -23492100.480  -123451782.83908 -23492099.120   -96196182.49048
 -21683145.440  -113945716.53508 -21683147.140   -88788878.35446
 -22425115.420  -117844825.95608 -22425115.980   -91827157.31546
 15 03 03 00 02 30.0000000  0  7G16G18G21G22G27G29G31
 -24975870.400  -131249082.76609 -24975873.940  -102272020.80648
 -23952692.480  -125871988.21009 -23952694.060   -98082002.54748
 -24749474.060  -130059358.06207 -24749477.800  -101344963.78345
 -22755716.640  -119582025.50008 -22755717.500   -93180784.22446
 -23734462.560  -124725405.45908 -23734461.740   -97188615.65548
 -21898874.260  -115079380.07908 -21898876.100   -89672252.57346
 -22637120.680  -118958921.33808 -22637121.740   -92695283.90347
 15 03 03 00 03  0.0000000  0  7G16G18G21G22G27G29G31
 -25217553.560  -132519135.53009 -25217556.940  -103261672.30848
 -24193047.860  -127135065.97109 -24193049.840   -99066218.95247
 -24971055.160  -131223774.27107 -24971058.940  -102252301.06646
 -23003830.220  -120885869.64908 -23003831.220   -94196766.29647
 -23976802.420  -125998911.34508 -23976801.780   -98180957.88048
 -22114596.140  -116213007.28908 -22114598.080   -90555598.49846
 -22849108.700  -120072927.02608 -22849110.240   -93563340.59746
 15 03 03 00 03 30.0000000  0  7G16G18G21G22G27G29G31
 -25459168.500  -133788830.42309 -25459171.920  -104251044.95248
 -24433333.480  -128397777.41809 -24433336.140  -100050149.91347
 -25192581.080  -132387900.80607 -25192584.820  -103159412.66045
 -23251926.800  -122189626.77809 -23251928.160   -95212680.55946
 -24219120.260  -127272301.15408 -24219119.500   -99173209.67048
 -22330311.560  -117346599.39108 -22330313.360   -91438917.03146
 -23061080.280  -121186846.62408 -23061081.720   -94431330.22646
 15 03 03 00 04  0.0000000  0  7G16G18G21G22G27G29G31
 -25700715.520  -135058167.52409 -25700718.860  -105240138.78948
 -24673549.780  -129660123.13809 -24673552.780  -101033795.90147
 -25414052.300  -133551741.22607 -25414056.200  -104066301.25444
 -23500006.760  -123493296.65809 -23500008.460   -96228526.86447
 -24461416.660  -128545577.23008 -24461416.200  -100165372.82448
 -22546020.760  -118480158.27008 -22546022.160   -92322209.66747
 -23273036.520  -122300685.90708 -23273037.360   -95299257.28846
 15 03 03 00 04 30.0000000  0  7G16G18G21G22G27G29G31
 -25942194.640  -136327147.33509 -25942197.820  -106228954.24348
 -24913696.940  -130922103.58709 -24913699.960  -102017157.28746
 -25635469.820  -134715299.85506 -25635474.060  -104972970.27245
 -23748070.420  -124796879.10908 -23748072.480   -97244305.07246
 -24703692.120  -129818741.96508 -24703692.020  -101157449.23447
 -22761724.060  -119613686.83908 -22761725.160   -93205478.72646
 -23484978.460  -123414450.25508 -23484978.900   -96167125.96845
 15 03 03 00 05  0.0000000  0  7G16G18G21G22G27G29G31
 -26183604.300  -137595764.26009 -26183607.660  -107217486.89748
 -25153773.460  -132183712.94509 -25153776.740  -103000229.47146
 -25856833.760  -135878575.30006 -25856838.280  -105879418.67544
 -23996116.540  -126100368.06908 -23996119.140   -98260010.45646
 -24945945.540  -131091791.73808 -24945945.320  -102149436.05848
 -22977421.040  -120747182.04008 -22977422.100   -94088721.76946
 -23696906.040  -124528139.14208 -23696906.300   -97034935.86046
 15 03 03 00 05 30.0000000  0  7G16G18G21G22G27G29G31
 -26424944.880  -138864019.03909 -26424948.520  -108205737.36448
 -25393779.380  -133444952.20209 -25393782.720  -103983013.26547
 -26078145.140  -137041571.07005 -26078149.140  -106785649.16645
 -24244144.780  -127403763.63308 -24244148.120   -99275643.06446
 -25188177.500  -132364729.11408 -25188177.260  -103141335.31848
 -23193112.300  -121880646.22108 -23193113.360   -94971940.64445
 -23908820.380  -125641758.15708 -23908820.260   -97902691.31647
 15 03 03 00 06  0.0000000  0  7G16G18G21G22G27G29G31
 -26666217.480  -140131914.88409 -26666220.980  -109193708.16148
 -25633715.360  -134705825.29109 -25633718.720  -104965511.74146
 -26299404.960  -138204295.45205 -26299408.440  -107691668.17945
 -24492155.660  -128707068.94408 -24492159.320  -100291205.34346
 -25430388.900  -133637559.59209 -25430389.060  -104133151.24047
 -23408798.660  -123014085.37808 -23408799.680   -95855140.03645
 -24120723.140  -126755315.92508 -24120722.120   -98770399.03646
 15 03 03 00 06 30.0000000  0  7G16G18G21G22G27G29G31
 -26907422.360  -141399454.82609 -26907425.720  -110181401.64048
 -25873582.120  -135966334.70309 -25873585.440  -105947726.83847
 -26520614.000  -139366755.70206 -26520617.140  -108597481.40445
 -24740150.180  -130010286.04708 -24740153.240  -101306698.94846
 -25672580.860  -134910288.18508 -25672581.300  -105124887.77048
 -23624481.020  -124147504.46008 -23624482.260   -96738323.82945
 -24332615.920  -127868820.72908 -24332614.260   -99638065.50447
 15 03 03 00 07  0.0000000  0  7G16G18G21G22G27G29G31
 -27148558.620  -142666635.19209 -27148562.020  -111168814.89848
 -26113379.240  -137226477.23609 -26113382.480  -106929656.05047
 -26741772.220  -140528950.90906 -26741775.400  -109503088.05346
 -24988127.140  -131313411.01608 -24988129.620  -102322120.78347
 -25914753.260  -136182913.23308 -25914753.840  -106116543.62748
 -23840159.280  -125280902.08608 -23840160.840   -97621490.84146
 -24544498.940  -128982273.93208 -24544497.540  -100505691.77646
 15 03 03 00 07 30.0000000  0  7G16G18G21G22G27G29G31
 -27389625.160  -143933448.07409 -27389628.740  -112155941.80548
 -26353105.440  -138486245.06308 -26353108.380  -107911293.32047
 -26962879.000  -141690877.21606 -26962882.540  -110408485.15946
 -25236084.320  -132616435.11309 -25236087.000  -103337463.98746
 -26156904.940  -137455428.13808 -26156905.380  -107108113.67348
 -24055832.420  -126414272.10208 -24055833.960   -98504636.31646
 -24756371.480  -130095672.01508 -24756370.960  -101373275.11846
 15 03 03 00 08  0.0000000  0  7G16G18G21G22G27G29G31
 -27630621.780  -145199891.45009 -27630625.180  -113142780.79348
 -26592759.940  -139745635.80808 -26592762.500  -108892636.75847
 -27183935.160  -142852537.37207 -27183939.380  -111313674.90446
 -25484021.680  -133919355.77608 -25484024.980  -104352726.60047
 -26399035.460  -138727833.34709 -26399036.060  -108099598.22948
 -24271500.200  -127547614.85809 -24271501.940   -99387760.60446
 -24968234.140  -131209018.48408 -24968234.420  -102240818.24646
 15 03 03 00 08 30.0000000  0  7G16G18G21G22G27G29G31
 -27871547.820  -146465963.97609 -27871550.720  -114129330.81248
 -26832342.420  -141004648.74308 -26832344.680  -109873685.78847
 -27404941.320  -144013933.03607 -27404946.080  -112218658.55546
 -25731939.360  -135222171.05608 -25731943.060  -105367907.10646
 -26641145.200  -140000129.39909 -26641145.820  -109090997.72248
 -24487162.960  -128680931.38609 -24487165.080  -100270864.47046
 -25180087.500  -132322317.13908 -25180088.500  -103108324.14646
 15 03 03 00 09  0.0000000  0  7G16G18G21G22G27G29G31
 -28112402.620  -147731664.53509 -28112405.340  -115115590.98748
 -27071852.620  -142263283.05609 -27071854.840  -110854439.78147
 -27625897.840  -145175067.63807 -27625902.980  -113123438.73046
 -25979837.040  -136524879.59208 -25979840.780  -106383004.45646
 -26883234.460  -141272317.11208 -26883235.120  -110082312.78348
 -24702821.020  -129814222.41908 -24702823.320  -101153948.44146
 -25391932.240  -133435571.69608 -25391934.040  -103975795.70746
 15 03 03 00 09 30.0000000  0  7G16G18G21G22G27G29G31
 -28353184.360  -148996981.99409 -28353187.260  -116101552.61748
 -27311288.360  -143521527.39409 -27311290.840  -111834889.86647
 -27846803.320  -146335933.29707 -27846808.340  -114028009.40446
 -26227712.000  -137827469.54908 -26227715.540  -107398009.41546
 -27125301.540  -142544387.13108 -27125301.820  -111073536.15648
 -24918472.520  -130947478.95508 -24918475.060  -102037005.51346
 -25603767.240  -134548776.21008 -25603769.480  -104843228.28345
 15 03 03 00 10  0.0000000  0  6G16G18G21G22G27G31
 -28593896.340  -150261931.20908 -28593899.360  -117087227.34448
 -27550652.740  -144779397.06509 -27550655.640  -112815048.01047
 -28067661.640  -147496549.58707 -28067666.060  -114932385.76746
 -26475566.840  -139129955.07808 -26475570.280  -108412933.00646
 -27367349.420  -143816356.55108 -27367348.800  -112064681.15848
 -25815596.500  -135661950.87208 -25815598.380  -105710637.61846
 15 03 03 00 10 30.0000000  0  6G16G18G21G22G27G31
 -28834539.060  -151526516.43609 -28834542.120  -118072618.43948
 -27789946.760  -146036896.30309 -27789949.800  -113794917.53847
 -28288473.720  -148656923.90607 -28288477.680  -115836573.55247
 -26723402.680  -140432340.06708 -26723405.720  -109427778.29147
 -27609379.640  -145088231.35808 -27609378.200  -113055752.45348
 -26027422.040  -136775104.72008 -26027422.920  -106578030.72846
 15 03 03 00 11  0.0000000  0  7G16G18G19G21G22G27G31
 -29075109.860  -152790725.22209 -29075113.020  -119057716.18848
 -28029168.000  -147294013.08409 -28029171.140  -114774489.05247
 -25612672.380                                                  
 -28509237.860  -149817047.99608 -28509241.880  -116740566.35146
 -26971216.700  -141734611.47409 -26971219.460  -110442535.07847
 -27851390.020  -146360000.96608 -27851388.960  -114046741.74547
 -26239242.620  -137888230.20608 -26239242.380  -107445401.74046
 15 03 03 00 11 30.0000000  0  7G16G18G19G21G22G27G31
 -29315607.000  -154054546.67209 -29315610.160  -120042512.13548
 -28268314.440  -148550737.07309 -28268317.620  -115753754.47747
 -25858366.580  -135886642.05606 -25858367.820  -105885701.01745
 -28729952.780  -150976914.50008 -28729957.000  -117644358.43346
 -27219006.880  -143036757.78708 -27219010.140  -111457194.37146
 -28093378.120  -147631656.38908 -28093377.740  -115037642.02847
 -26451057.060  -139001321.38708 -26451055.620  -108312746.01746
 15 03 03 00 12  0.0000000  0  7G16G18G19G21G22G27G31
 -29556030.560  -155317980.13209 -29556033.640  -121027005.76148
 -28507385.940  -149807067.15509 -28507389.060  -116732712.96647
 -26104049.740  -137177717.14206 -26104051.880  -106891733.47844
 -28950619.440  -152136527.34608 -28950624.100  -118547952.82946
 -27466773.240  -144338777.78309 -27466777.680  -112471755.22646
 -28335344.320  -148903198.80009 -28335344.340  -116028454.28047
 -26662865.740  -140114382.48308 -26662863.140  -109180066.88646
 15 03 03 00 12 30.0000000  0  7G16G18G19G21G22G27G31
 -29796379.520  -156581022.93909 -29796382.640  -122011194.96148
 -28746381.960  -151063000.71209 -28746384.980  -117711362.47548
 -26349720.440  -138468728.27106 -26349724.260  -107897716.15244
 -29171238.120  -153295887.11207 -29171243.100  -119451350.04246
 -27714514.840  -145640668.02109 -27714519.620  -113486214.97647
 -28577288.700  -150174627.45509 -28577289.300  -117019177.87048
 -26874669.020  -141227416.22408 -26874665.580  -110047366.45646
 15 03 03 00 13  0.0000000  0  7G16G18G19G21G22G27G31
 -30036653.400  -157843672.04809 -30036656.600  -122995077.36148
 -28985302.160  -152318535.24009 -28985305.120  -118689701.06848
 -26595378.520  -139759674.65407 -26595384.800  -108903648.27945
 -29391809.100  -154454994.61607 -29391813.920  -120354550.70047
 -27962230.940  -146942424.90709 -27962235.340  -114500570.85647
 -28819211.460  -151445941.21708 -28819211.960  -118009811.96048
 -27086467.240  -142340424.47207 -27086463.480  -110914646.18846
 15 03 03 00 13 30.0000000  0  7G16G18G19G21G22G27G31
 -30276852.020  -159105925.44809 -30276855.120  -123978651.42948
 -29224146.220  -153573669.10709 -29224149.300  -119667727.46647
 -26841024.480  -141050556.00307 -26841032.840  -109909529.73944
 -29612332.580  -155613851.87707 -29612337.000  -121257556.35646
 -28209921.160  -148244045.75409 -28209925.120  -115514820.72347
 -29061112.320  -152717139.79809 -29061112.700  -119000356.27948
 -27298260.840  -143453409.95108 -27298257.420  -111781908.16146
 15 03 03 00 14  0.0000000  0  7G16G18G19G21G22G27G31
 -30516974.800  -160367780.00909 -30516978.000  -124961914.74248
 -29462913.440  -154828399.32209 -29462916.860  -120645439.27347
 -27086658.680  -142341371.42407 -27086668.000  -110915359.88744
 -29832808.780  -156772459.54007 -29832812.520  -122160367.53646
 -28457584.980  -149545526.98709 -28457588.760  -116528961.80547
 -29302991.080  -153988221.96009 -29302991.340  -119990809.89148
 -27510050.400  -144566374.46508 -27510047.740  -112649153.84345
 15 03 03 00 14 30.0000000  0  7G16G18G19G21G22G27G31
 -30757022.780  -161629241.42009 -30757026.200  -125944871.67748
 -29701605.020  -156082732.04409 -29701608.900  -121622841.32447
 -27332282.340  -143632128.34207 -27332290.240  -111921144.43644
 -30053239.180  -157930827.12907 -30053242.300  -123062991.62746
 -28705223.100  -150846873.80009 -28705227.240  -117542998.13547
 -29544849.340  -155259195.26408 -29544849.360  -120981178.70148
 -27721838.060  -145679328.97508 -27721836.200  -113516391.73646
 15 03 03 00 15  0.0000000  0  7G16G18G19G21G22G27G31
 -30996994.760  -162890302.23009 -30996998.020  -126927516.44348
 -29940219.680  -157336659.92309 -29940223.480  -122599927.95047
 -27577893.960  -144922821.22707 -27577899.120  -112926879.18244
 -30273622.960  -159088951.17407 -30273625.580  -123965425.91946
 -28952834.040  -152148077.68809 -28952838.280  -118556923.10747
 -29786685.760  -156530053.98708 -29786686.020  -121971458.21748
 -27933623.320  -146792270.82908 -27933622.380  -114383619.77945
 15 03 03 00 15 30.0000000  0  7G16G18G19G21G22G27G31
 -31236890.080  -164150959.54409 -31236893.040  -127909846.82248
 -30178757.080  -158590180.36808 -30178760.380  -123576697.15947
 -27823492.920  -146213449.18807 -27823495.840  -113932563.30044
 -30493960.500  -160246832.18307 -30493962.880  -124867670.88646
 -29200417.300  -153449135.56308 -29200421.240  -119570734.32447
 -30028500.060  -157800797.07009 -30028500.700  -122961647.59448
 -28145406.460  -147905202.07108 -28145406.300  -115250839.56145
 15 03 03 00 16  0.0000000  0  7G16G18G19G21G22G27G31
 -31476708.900  -165411215.68109 -31476711.680  -128891864.58548
 -30417217.300  -159843295.90809 -30417220.360  -124553150.81047
 -28069080.220  -147504016.80306 -28069082.280  -114938200.35645
 -30714253.200  -161404476.52507 -30714255.580  -125769731.42246
 -29447973.020  -154750048.57209 -29447976.560  -120584432.64747
 -30270293.160  -159071428.48409 -30270293.920  -123951750.00348
 -28357188.840  -149018129.72808 -28357188.920  -116118056.56645
 15 03 03 00 16 30.0000000  0  7G16G18G19G21G22G27G31
 -31716450.280  -166671065.69309 -31716453.220  -129873565.89348
 -30655599.220  -161096001.71209 -30655602.620  -125529285.13647
 -28314655.600  -148794520.93205 -28314657.260  -115943788.01545
 -30934500.480  -162561882.76607 -30934503.220  -126671606.43045
 -29695499.980  -156050811.38209 -29695503.360  -121598013.93747
 -30512064.320  -160341945.25909 -30512065.520  -124941763.03748
 -28568970.400  -150131053.67808 -28568970.300  -116985270.67745
 15 03 03 00 17  0.0000000  0  7G16G18G19G21G22G27G31
 -31956113.640  -167930505.96809 -31956116.840  -130854947.91948
 -30893902.600  -162348294.91309 -30893905.980  -126505098.00547
 -28560218.380  -150084959.94406 -28560219.800  -116949324.84445
 -31154702.240  -163719051.71808 -31154705.580  -127573296.51045
 -29942997.680  -157351420.03209 -29943001.700  -122611475.10246
 -30753813.180  -161612345.60409 -30753815.080  -125931685.34948
 -28780751.420  -151243975.53408 -28780751.180  -117852483.18645
 15 03 03 00 17 30.0000000  0  7G16G18G19G21G22G27G31
 -32195698.620  -169189534.23409 -32195702.000  -131836008.90048
 -31132127.060  -163600173.19909 -31132130.420  -127480587.57847
 -28805768.400  -151375333.31707 -28805770.880  -117954810.55144
 -31374858.920  -164875984.53808 -31374862.700  -128474802.57546
 -30190465.600  -158651871.25308 -30190470.100  -123624813.58647
 -30995539.820  -162882628.74309 -30995541.840  -126921516.35048
 -28992532.420  -152356897.55008 -28992531.960  -118719695.80246
 15 03 03 00 18  0.0000000  0  7G16G18G19G21G22G27G31
 -32435205.680  -170448153.18409 -32435209.180  -132816750.93048
 -31370273.340  -164851639.64009 -31370276.420  -128455756.25047
 -29051306.640  -152665645.84207 -29051310.360  -118960248.79244
 -31594971.900  -166032687.77608 -31594975.640  -129376129.78845
 -30437903.960  -159952167.26309 -30437908.020  -124638031.18546
 -31237245.120  -164152799.31909 -31237247.200  -127911259.63347
 -29204314.860  -153469827.49408 -29204314.040  -119586914.59945
 15 03 03 00 18 30.0000000  0  7G16G18G19G21G22G27G31
 -32674633.960  -171706357.29509 -32674637.380  -133797169.70248
 -31608340.180  -166102689.09209 -31608343.040  -129430599.95248
 -29296832.620  -153955893.91707 -29296836.560  -119965636.83945
 -31815040.760  -167189159.52708 -31815044.700  -130277276.60146
 -30685311.280  -161252301.83309 -30685315.280  -125651122.95647
 -31478928.400  -165422853.53809 -31478930.460  -128900912.23148
 -29416098.640  -154582764.68909 -29416097.440  -120454139.04946
 15 03 03 00 19  0.0000000  0  7G16G18G19G21G22G27G31
 -32913982.960  -172964144.05209 -32913986.360  -134777263.27048
 -31846327.140  -167353319.25009 -31846330.100  -130405116.92547
 -29542346.160  -155246076.86107 -29542350.100  -120970974.14745
 -32035065.920  -168345402.19308 -32035070.300  -131178244.89346
 -30932686.960  -162552271.57909 -30932691.400  -126664086.27346
 -31720589.760  -166692790.57708 -31720591.460  -129890473.54648
 -29627884.340  -155695711.56208 -29627882.880  -121321371.05445
 15 03 03 00 19 30.0000000  0  7G16G18G19G21G22G27G31
 -33153251.840  -174221510.67309 -33153255.440  -135757029.47748
 -32084234.080  -168603528.07409 -32084237.040  -131379305.60847
 -29787846.920  -156536194.01807 -29787851.040  -121976260.22445
 -32255047.440  -169501414.58308 -32255052.300  -132079033.77546
 -31180030.960  -163852073.18209 -31180035.540  -127676918.60547
 -31962228.560  -167962609.40309 -31962229.680  -130879942.74648
 -29839672.440  -156808670.13708 -29839670.800  -122188612.18246
 15 03 03 00 20  0.0000000  0  7G16G18G19G21G22G27G31
 -33392440.560  -175478456.53209 -33392444.260  -136736467.81548
 -32322060.780  -169853314.85409 -32322063.500  -132353165.42847
 -30033335.140  -157826246.44507 -30033338.960  -122981495.84345
 -32474986.280  -170657200.84107 -32474991.380  -132979646.42746
 -31427342.960  -165151705.31909 -31427347.620  -128689618.87146
 -32203844.840  -169232311.01408 -32203845.460  -131869320.61548
 -30051463.820  -157921644.62508 -30051462.080  -123055865.71746
 15 03 03 00 20 30.0000000  0  7G16G18G19G21G22G27G31
 -33631549.100  -176734981.07409 -33631552.800  -137715577.85448
 -32559807.140  -171102679.71409 -32559809.780  -133326696.44347
 -30278811.120  -159116235.21307 -30278814.520  -123986681.90646
 -32694883.260  -171812764.53806 -32694887.820  -133880085.67946
 -31674622.640  -166451166.54308 -31674627.000  -129702185.97947
 -32445438.920  -170501896.45508 -32445439.460  -132858607.95348
 -30263259.380  -159034639.26008 -30263257.380  -123923134.94446
 15 03 03 00 21  0.0000000  0  7G16G18G19G21G22G27G31
 -33870576.840  -177991080.81209 -33870580.540  -138694356.88248
 -32797472.560  -172351619.31909 -32797475.080  -134299896.11247
 -30524274.500  -160406159.01008 -30524278.280  -124991817.25445
 -32914738.400  -172968105.63605 -32914741.480  -134780351.50545
 -31921868.760  -167750452.37209 -31921872.920  -130714616.41947
 -32687010.400  -171771363.84208 -32687011.200  -133847803.29548
 -30475059.280  -160147655.03408 -30475056.620  -124790420.61646
 15 03 03 00 21 30.0000000  0  7G16G18G19G21G22G27G31
 -34109523.640  -179246754.78109 -34109527.300  -139672804.13348
 -33035056.860  -173600132.90409 -33035059.320  -135272763.84547
 -30769725.840  -161696018.90608 -30769731.080  -125996902.78345
 -33134551.300  -174123226.55906 -33134553.400  -135680445.79646
 -32169081.120  -169049561.80909 -32169084.820  -131726909.40347
 -32928559.940  -173040714.03808 -32928560.340  -134836907.33248
 -30686864.040  -161260695.77208 -30686860.580  -125657725.78345
 15 03 03 00 22  0.0000000  0  7G16G18G19G21G22G27G31
 -34348388.740  -180501999.19409 -34348392.400  -140650916.64849
 -33272559.400  -174848217.39609 -33272562.000  -136245297.20747
 -31015165.500  -162985812.54707 -31015172.100  -127001936.71744
 -33354321.700  -175278127.54907 -33354323.720  -136580368.66846
 -32416258.980  -170348490.17509 -32416262.080  -132739061.31547
 -33170086.960  -174309944.87208 -33170086.740  -135825918.37948
 -30898673.680  -162373762.74608 -30898669.620  -126525051.38246
 15 03 03 00 22 30.0000000  0  7G16G18G19G21G22G27G31
 -34587172.620  -181756816.93409 -34587176.340  -141628696.70649
 -33509980.800  -176095875.78109 -33509983.740  -137217498.52847
 -31260594.140  -164275545.02907 -31260601.820  -128006922.97545
 -33574051.240  -176432815.72807 -33574053.500  -137480125.68047
 -32663402.920  -171647239.57809 -32663406.220  -133751073.76547
 -33411592.100  -175579060.88908 -33411591.400  -136814839.95348
 -31110489.700  -163486863.59108 -31110485.440  -127392403.35946
 15 03 03 00 23  0.0000000  0  7G16G18G19G21G22G27G31
 -34825873.600  -183011198.60109 -34825877.240  -142606136.97048
 -33747319.380  -177343099.07009 -33747322.500  -138189360.81047
 -31506009.740  -165565208.41307 -31506017.200  -129011855.41645
 -33793739.020  -177587284.88207 -33793741.680  -138379712.02647
 -32910510.720  -172945799.69009 -32910514.960  -134762938.70147
 -33653073.520  -176848054.21109 -33653072.520  -137803665.91048
 -31322311.100  -164599993.53808 -31322306.940  -128259778.01046
 15 03 03 00 23 30.0000000  0  7G16G18G19G21G22G27G31
 -35064491.080  -184265140.93909 -35064494.440  -143583234.88748
 -33984574.740  -178589884.37109 -33984577.980  -139160881.79347
 -31751411.660  -166854801.51907 -31751418.140  -130016733.09145
 -34013385.020  -178741534.97807 -34013388.220  -139279127.66647
 -33157581.580  -174244166.67409 -33157586.420  -135774653.13447
 -33894531.020  -178116923.26209 -33894530.280  -138792395.02048
 -31534138.160  -165713154.07808 -31534134.080  -129127176.49446
 15 03 03 00 24  0.0000000  0  7G16G18G19G21G22G27G31
 -35303025.720  -185518648.55709 -35303029.020  -144559994.06648
 -34221747.840  -179836237.10509 -34221751.040  -140132065.71547
 -31996800.920  -168144330.72808 -31996806.300  -131021560.98345
 -34232990.920  -179895574.11207 -34232994.640  -140178378.91646
 -33404616.420  -175542344.18209 -33404621.340  -136786219.94647
 -34135965.880  -179385674.02409 -34135966.200  -139781031.93748
 -31745972.540  -166826354.18308 -31745968.580  -129994605.83746
 15 03 03 00 24 30.0000000  0  7G16G18G19G21G22G27G31
 -35541476.420  -186771716.00509 -35541479.880  -145536410.25148
 -34458837.720  -181082152.01709 -34458840.640  -141102908.50647
 -32242177.340  -169433792.50507 -32242181.660  -132026336.38846
 -34452556.520  -181049401.43207 -34452560.500  -141077465.12145
 -33651614.320  -176840326.67109 -33651618.700  -137797634.81347
 -34377377.720  -180654302.88909 -34377378.820  -140769573.88048
 -31957814.300  -167939593.77908 -31957810.460  -130862065.92645
 15 03 03 00 25  0.0000000  0  7G16G18G19G21G22G27G31
 -35779842.840  -188024341.22909 -35779846.540  -146512481.86048
 -34695843.860  -182327627.09209 -34695846.580  -142073408.56247
 -32487541.680  -170723186.43707 -32487544.680  -133031058.94946
 -34672082.180  -182203018.22507 -34672086.420  -141976387.29145
 -33898574.620  -178138110.51408 -33898578.480  -138808894.91147
 -34618766.380  -181922809.21909 -34618767.480  -141758020.37148
 -32169664.000  -169052874.90908 -32169660.140  -131729558.36246
 15 03 03 00 25 30.0000000  0  7G16G18G19G21G22G27G31
 -36018123.780  -189276516.75309 -36018127.580  -147488203.03648
 -34932764.880  -183572655.91809 -34932767.700  -143043560.87847
 -32732891.880  -172012506.82207 -32732894.200  -134035724.13345
 -34891567.140  -183356419.97707 -34891571.420  -142875141.88445
 -34145495.580  -179435687.76809 -34145499.440  -139819993.98347
 -34860130.740  -183191187.07108 -34860131.780  -142746366.73348
 -32381521.180  -170166194.80508 -32381517.280  -132597080.96945
 15 03 03 00 26  0.0000000  0  7G16G18G19G21G22G27G31
 -36256320.100  -190528246.70609 -36256323.780  -148463577.03148
 -35169601.500  -184817242.27509 -35169604.580  -144013368.39847
 -32978228.820  -173301759.23107 -32978231.760  -135040336.30145
 -35111012.960  -184509614.86907 -35111017.120  -143773735.29244
 -34392377.800  -180733061.31908 -34392381.520  -140830934.35547
 -35101471.780  -184459441.70608 -35101472.780  -143734617.09448
 -32593387.340  -171279561.86508 -32593383.560  -133464640.32545
 15 03 03 00 26 30.0000000  0  7G16G18G19G21G22G27G31
 -36494431.440  -191779529.88809 -36494435.020  -149438602.87948
 -35406353.840  -186061386.24009 -35406357.260  -144982831.17947
 -33223552.700  -174590944.45407 -33223556.000  -136044896.16845
 -35330419.940  -185662605.77407 -35330423.880  -144672169.76744
 -34639220.940  -182030229.72909 -34639224.260  -141841714.88347
 -35342789.320  -185727573.94809 -35342790.100  -144722772.09648
 -32805263.240  -172392980.54708 -32805259.760  -134332239.90145
 15 03 03 00 27  0.0000000  0  7G16G18G19G21G22G27G31
 -36732457.180  -193030363.12409 -36732460.760  -150413278.12248
 -35643021.640  -187305084.80309 -35643025.140  -145951946.93448
 -33468863.220  -175880061.65908 -33468866.300  -137049403.01146
 -35549788.160  -186815392.88807 -35549792.800  -145570445.42743
 -34886024.020  -183327189.32509 -34886027.560  -142852332.69447
 -35584082.840  -186995582.28509 -35584083.620  -145710830.51248
 -33017149.040  -173506451.63108 -33017145.740  -135199880.29645
 15 03 03 00 27 30.0000000  0  7G16G18G19G21G22G27G31
 -36970397.320  -194280746.53409 -36970400.960  -151387602.85549
 -35879604.960  -188548338.18909 -35879608.420  -146920715.81848
 -33714160.880  -177169111.92708 -33714164.540  -138053857.72546
 -35769117.980  -187967979.06406 -35769122.680  -146468564.52643
 -35132787.000  -184623938.79309 -35132791.460  -143862786.75048
 -35825353.220  -188263467.88709 -35825353.960  -146698793.31349
 -33229045.700  -174619979.74408 -33229042.420  -136067565.13246
 15 03 03 00 28  0.0000000  0  7G16G18G19G21G22G27G31
 -37208251.780  -195530679.85009 -37208255.360  -152361576.87448
 -36116103.680  -189791146.84909 -36116107.120  -147889138.16348
 -33959446.360  -178458096.93808 -33959450.780  -139058261.60545
 -35988410.380  -189120368.10706 -35988415.320  -147366530.06842
 -35379510.020  -185920477.08308 -35379515.280  -144873076.26047
 -36066600.880  -189531231.99609 -36066601.600  -147686661.46048
 -33440954.160  -175733569.26008 -33440950.760  -136935297.79145
 15 03 03 00 28 30.0000000  0  7G16G18G19G21G22G27G31
 -37446019.440  -196780157.23209 -37446022.920  -153335195.60648
 -36352516.700  -191033505.52609 -36352520.320  -148857209.82047
 -34204718.780  -179747012.51208 -34204723.580  -140062611.36445
 -36207664.980  -190272558.49906 -36207669.320  -148264340.76744
 -35626191.940  -187216797.79008 -35626197.040  -145883196.23547
 -36307824.360  -190798870.39609 -36307825.660  -148674431.61748
 -33652874.120  -176847219.04608 -33652870.540  -137803077.41145
 15 03 03 00 29  0.0000000  0  7G16G18G19G21G22G27G31
 -37683699.880  -198029176.91309 -37683703.400  -154308457.69548
 -36588843.840  -192275412.73209 -36588847.380  -149824929.68647
 -34449978.260  -181035858.53907 -34449982.680  -141066906.92445
 -36426882.180  -191424551.13106 -36426885.760  -149161997.41343
 -35872831.960  -188512898.23209 -35872836.500  -146893144.61147
 -36549024.040  -192066382.55209 -36549025.600  -149662103.41348
 -33864806.120  -177960931.90108 -33864802.580  -138670906.20945
 15 03 03 00 29 30.0000000  0  7G16G18G19G21G22G27G31
 -37921293.260  -199277739.68209 -37921297.060  -155281363.75748
 -36825085.480  -193516869.86209 -36825088.700  -150792298.86547
 -34695225.380  -182324637.34507 -34695229.260  -142071150.08046
 -36646062.720  -192576350.38006 -36646065.380  -150059503.38344
 -36119429.760  -189808778.49409 -36119433.900  -147902921.38147
 -36790200.260  -193333770.74508 -36790201.720  -150649678.60148
 -34076751.280  -179074713.48008 -34076747.720  -139538788.47745
 15 03 03 00 30  0.0000000  0  7G16G18G19G21G22G27G31
 -38158799.740  -200525845.61709 -38158803.760  -156253913.83748
 -37061241.720  -194757877.45909 -37061244.460  -151759317.78347
 -34940459.780  -183613350.79208 -34940462.940  -143075342.34145
 -36865206.760  -193727960.09706 -36865209.060  -150956861.59944
 -36365985.360  -191104437.45009 -36365989.300  -148912525.70547
 -37031353.120  -194601036.33208 -37031354.780  -151637158.27348
 -34288710.300  -180188567.54008 -34288706.340  -140406727.31445
 15 03 03 00 30 30.0000000  0  7G16G18G19G21G22G27G31
 -38396217.940  -201773486.88409 -38396221.960  -157226101.82749
 -37297310.900  -195998428.03509 -37297313.120  -152725980.57648
 -35185680.240  -184901992.84908 -35185683.140  -144079478.98546
 -37084313.700  -194879375.22907 -37084316.260  -151854068.14345
 -36612497.380  -192399866.36509 -36612501.180  -149921950.79648
 -37272481.480  -195868172.87408 -37272483.020  -152624537.38048
 -34500682.560  -181302490.99508 -34500677.920  -141274720.17146
 15 03 03 00 31  0.0000000  0  7G16G18G19G21G22G27G31
 -38633546.740  -203020658.10109 -38633550.700  -158197923.55248
 -37533292.040  -197238517.20909 -37533294.180  -153692283.80647
 -35430886.020  -186190559.90708 -35430889.820  -145083557.17945
 -37303383.560  -196030594.82407 -37303386.380  -152751122.39345
 -36858964.240  -193695059.44709 -36858968.360  -150931192.09147
 -37513584.580  -197135176.70809 -37513585.220  -153611813.08148
 -34712667.980  -182416483.55708 -34712662.580  -142142767.00945
 15 03 03 00 31 30.0000000  0  7G16G18G19G21G22G27G31
 -38870786.000  -204267358.30709 -38870789.840  -159169378.26249
 -37769185.260  -198478144.17609 -37769187.600  -154658226.87347
 -35676077.460  -187479052.25808 -35676082.700  -146087577.11545
 -37522416.820  -197181621.02907 -37522419.880  -153648025.94244
 -37105385.840  -194990014.88009 -37105390.460  -151940248.20347
 -37754662.000  -198402047.94709 -37754662.320  -154598985.44048
 -34924667.300  -183530548.34108 -34924661.100  -143010870.12845
 15 03 03 00 32  0.0000000  0  7G16G18G19G21G22G27G31
 -39107936.880  -205513593.84909 -39107940.660  -160140470.90748
 -38004991.700  -199717315.55309 -38004994.160  -155623814.92647
 -35921256.740  -188767477.72407 -35921262.140  -147091544.95146
 -37741414.920  -198332463.18707 -37741418.260  -154544786.05044
 -37351763.320  -196284737.66709 -37351768.100  -152949123.05847
 -37995715.640  -199668793.99709 -37995715.900  -155586060.29348
 -35136682.440  -184644695.81807 -35136675.560  -143879037.81245
 15 03 03 00 32 30.0000000  0  6G16G18G19G21G22G27
 -39344998.560  -206759360.67909 -39345002.200  -161111198.31549
 -38240710.760  -200956028.13109 -38240713.340  -156589045.49048
 -36166423.300  -190055834.18607 -36166428.280  -148095459.05946
 -37960377.760  -199483121.40507 -37960381.180  -155441402.85044
 -37598095.860  -197579223.02709 -37598100.260  -153957812.91847
 -38236744.800  -200935412.41109 -38236745.300  -156573035.67049
 15 03 03 00 33  0.0000000  0  6G16G18G19G21G22G27
 -39581970.300  -208004655.07609 -39581973.840  -162081557.57548
 -38476341.820  -202194278.38409 -38476344.580  -157553915.80048
 -36411576.260  -191344119.32408 -36411581.180  -149099317.57346
 -38179305.420  -200633595.06706 -38179309.420  -156337875.79844
 -37844382.460  -198873466.51109 -37844386.560  -154966314.28648
 -38477749.120  -202201900.62909 -38477749.940  -157559909.61048
 15 03 03 00 33 30.0000000  0  6G16G18G19G21G22G27
 -39818852.760  -209249480.25609 -39818856.300  -163051551.22148
 -38711885.700  -203432070.38709 -38711888.600  -158518429.02947
 -36656716.320  -192632337.97208 -36656721.400  -150103124.25345
 -38398199.380  -201783890.53306 -38398203.580  -157234209.91145
 -38090623.400  -200167470.08608 -38090627.540  -155974628.70448
 -38718729.620  -203468263.24609 -38718731.020  -158546685.64448
 15 03 03 00 34  0.0000000  0  5G16G18G19G22G27
 -40055645.080  -210493831.14809 -40055648.460  -164021175.29948
 -38947341.600  -204669399.56409 -38947344.760  -159482581.59647
 -36901842.640  -193920486.01408 -36901847.360  -151106875.94546
 -38336817.540  -201461228.23309 -38336821.740  -156982751.89247
 -38959685.700  -204734496.47409 -38959687.540  -159533360.86648
 15 03 03 00 34 30.0000000  0  5G16G18G19G22G27
 -40292347.320  -211737708.12009 -40292350.400  -164990430.08548
 -39182709.780  -205906266.60309 -39182712.960  -160446374.07347
 -37146955.940  -195208566.05908 -37146960.140  -152110574.63446
 -38582964.820  -202754739.85409 -38582968.760  -157990683.00447
 -39200617.540  -206000601.69109 -39200619.140  -160519936.36148
 15 03 03 00 35  0.0000000  0  5G16G18G19G22G27
 -40528959.740  -212981113.45209 -40528962.620  -165959317.35348
 -39417990.500  -207142674.59509 -39417993.560  -161409808.85847
 -37392057.060  -196496581.78408 -37392061.040  -153114223.24146
 -38829065.480  -204048006.77309 -38829069.240  -158998423.42447
 -39441525.680  -207266582.54109 -39441527.040  -161506414.92848
 15 03 03 00 35 30.0000000  0  5G16G18G19G22G27
 -40765482.660  -214224049.08409 -40765485.340  -166927838.62548
 -39653184.140  -208378625.69109 -39653187.180  -162372887.62047
 -37637146.440  -197784536.10708 -37637150.080  -154117824.00046
 -39075119.480  -205341029.86109 -39075123.440  -160005973.82747
 -39682410.840  -208532442.04809 -39682412.420  -162492798.93348
 15 03 03 00 36  0.0000000  0  5G16G18G19G22G27
 -41001915.520  -215466512.23609 -41001918.040  -167895991.72649
 -39888290.380  -209614117.94409 -39888293.420  -163335608.84148
 -37882223.740  -199072427.85308 -37882227.060  -155121375.98146
 -39321126.220  -206633804.98809 -39321130.420  -161013331.03248
 -39923272.480  -209798178.55209 -39923274.140  -163479087.09148
 15 03 03 00 36 30.0000000  0  5G16G18G19G22G27
 -41238257.180  -216708497.00709 -41238259.720  -168863772.07049
 -40123308.340  -210849146.11209 -40123311.500  -164297968.43447
 -38127288.420  -200360252.71008 -38127292.340  -156124875.80045
 -39567084.440  -207926325.67209 -39567088.960  -162020489.94947
 -40164109.980  -211063787.33909 -40164111.220  -164465275.78148
 15 03 03 00 37  0.0000000  0  5G16G18G19G22G27
 -41474507.460  -217950001.95009 -41474510.000  -169831178.51449
 -40358237.800  -212083709.10109 -40358241.280  -165259965.54047
 -38372340.840  -201648011.50908 -38372345.860  -157128324.16146
 -39812994.020  -209218589.72009 -39812998.400  -163027448.90048
 -40404923.260  -212329268.45308 -40404924.360  -165451364.94548
 15 03 03 00 37 30.0000000  0  5G16G18G19G22G27
 -41710665.920  -219191024.65509 -41710668.580  -170798209.20349
 -40593078.540  -213317805.12809 -40593082.000  -166221598.79547
 -38617380.580  -202935702.38108 -38617386.440  -158131719.63045
 -40058854.300  -210510593.50009 -40058858.280  -164034205.07848
 -40645712.180  -213594620.30608 -40645713.000  -166437353.40448
 15 03 03 00 38  0.0000000  0  5G16G18G19G22G27
 -41946732.520  -220431564.89709 -41946735.560  -171764863.94649
 -40827830.600  -214551434.66509 -40827833.820  -167182868.56247
 -38862407.500  -204223326.65108 -38862413.400  -159135063.17445
 -40304664.780  -211802335.57809 -40304668.780  -165040757.31648
 -40886476.480  -214859843.75509 -40886476.620  -167423241.80748
 15 03 03 00 38 30.0000000  0  5G16G18G19G22G27
 -42182706.820  -221671619.72709 -42182710.260  -172731140.44448
 -41062493.380  -215784595.28709 -41062496.360  -168143772.93748
 -39107421.280  -205510882.74508 -39107426.540  -160138353.58746
 -40550424.620  -213093812.29609 -40550429.040  -166047102.76447
 -41127215.640  -216124936.91309 -41127215.360  -168409028.68648
 15 03 03 00 39  0.0000000  0  5G16G18G19G22G27
 -42418588.660  -222911187.80909 -42418592.320  -173697037.64549
 -41297066.760  -217017286.02309 -41297069.600  -169104311.16248
 -39352422.400  -206798370.47307 -39352426.420  -161141590.75446
 -40796133.220  -214385021.18609 -40796138.180  -167053239.50248
 -41367929.800  -217389899.44409 -41367929.900  -169394713.75048
 15 03 03 00 39 30.0000000  0  5G16G18G19G22G27
 -42654377.540  -224150266.71509 -42654381.300  -174662553.67049
 -41531550.300  -218249505.10309 -41531553.040  -170064481.86048
 -39597410.180  -208085788.81608 -39597413.560  -162144773.88646
 -41041790.300  -215675958.82709 -41041795.520  -168059164.89748
 -41608618.840  -218654730.02109 -41608619.500  -170380295.98648
 15 03 03 00 40  0.0000000  0  5G16G18G19G22G27
 -42890072.000  -225388848.86109 -42890075.820  -175627682.61249
 -41765942.880  -219481245.93609 -41765945.540  -171024279.91447
 -39842383.260  -209373131.85808 -39842386.660  -163147898.29746
 -41287394.600  -216966616.90209 -41287399.640  -169064872.47448
 -41849281.520  -219919422.20709 -41849282.120  -171365770.40848
 15 03 03 00 40 30.0000000  0  4G18G19G22G27
 -42000244.080  -220712507.19109 -42000246.820  -171983704.25647
 -40087341.800  -210660398.99808 -40087345.340  -164150963.55046
 -41532944.960  -218256992.34609 -41532950.000  -170070359.81747
 -42089917.700  -221183975.17109 -42089918.620  -172351136.33848
 15 03 03 00 41  0.0000000  0  4G18G19G22G27
 -42234454.700  -221943293.12909 -42234457.600  -172942758.20947
 -40332286.940  -211947595.32408 -40332291.200  -165153973.64846
 -41778441.840  -219547088.06509 -41778447.140  -171075629.15648
 -42330528.720  -222448393.70408 -42330529.940  -173336397.50748
 15 03 03 00 41 30.0000000  0  4G18G19G22G27
 -42468574.140  -223173600.10409 -42468577.240  -173901438.93047
 -40577217.980  -213234718.06108 -40577223.300  -166156926.37546
 -42023884.520  -220836898.64509 -42023890.080  -172080676.31047
 -42571113.740  -223712674.59609 -42571114.500  -174321551.45648
 15 03 03 00 42  0.0000000  0  4G18G19G22G27
 -42702602.560  -224403428.30409 -42702605.760  -174859746.57747
 -40822134.960  -214521767.74308 -40822141.180  -167159822.18246
 -42269272.780  -222126422.38909 -42269278.220  -173085499.98748
 -42811672.540  -224976818.03809 -42811672.860  -175306598.30648
 15 03 03 00 42 30.0000000  0  3G18G19G22
 -42936540.960  -225632782.79609 -42936544.220  -175817685.10047
 -41067039.380  -215808749.94508 -41067045.380  -168162665.44846
 -42514607.200  -223415662.83209 -42514612.420  -174090102.90547
 15 03 03 00 43  0.0000000  0  4G16G18G22G27
 -42949672.960  -225702054.76809 -42949590.240  -175871392.26448
                                 -42949531.440  -175870851.17547
 -42759885.940  -224704611.15009 -42759891.180  -175094478.16947
 -42949672.960  -225702832.62709 -42949632.300  -175872157.44148
 15 03 03 00 43 30.0000000  0  1G16
 -42949672.960  -225702054.76809 -42949673.640  -175871733.77349
 15 03 03 00 44  0.0000000  0  2G16G19
 -42949672.960  -225702054.76809 -42949661.400  -175871683.65249
 -41801670.940  -219669257.89108 -41801674.540  -171170853.38846
 15 03 03 00 44 30.0000000  0  3G16G22G27
 -42949672.960  -225702054.76809 -42949552.400  -175871237.31549
 -42949672.960  -225701573.63309 -42949803.600  -175871866.93548
 -42949672.960  -225702530.87509 -42949771.220  -175872491.11849
 15 03 03 00 45  0.0000000  0  1G16
 -42949672.960  -225702054.76809 -42949673.980  -175871735.16548
 15 03 03 00 45 30.0000000  0  3G16G18G27
 -42949672.960  -225702054.76809 -42949698.640  -175871836.14449
 -42949672.960  -225702054.76809 -42949542.640  -175871197.35048
 -42949672.960  -225702054.76809 -42949511.120  -175871068.28148
 15 03 03 00 46  0.0000000  0  3G16G18G27
 -42949672.960  -225702054.76809 -42949624.460  -175871532.38949
 -42949672.960  -225702054.76809 -42949528.160  -175871138.05747
 -42949672.960  -225702054.76809 -42949667.580  -175871708.95848
 15 03 03 00 46 30.0000000  0  4G16G18G22G27
 -42949672.960  -225702054.76809 -42949779.780  -175872168.39849
 -42949672.960  -225702054.76809 -42949748.540  -175872040.47647
 -42949672.960  -225702054.76809 -42949566.620  -175871295.54448
 -42949672.960  -225702054.76809 -42949794.900  -175872230.31248
 15 03 03 00 47  0.0000000  0  4G16G18G22G27
 -42949672.960  -225702054.76809 -42949509.380  -175871061.15649
 -42949672.960  -225702054.76809 -42949547.820  -175871218.56147
 -42949672.960  -225702054.76809 -42949604.640  -175871451.22948
 -42949672.960  -225702054.76808 -42949566.540  -175871295.21648
 15 03 03 00 47 30.0000000  0  4G16G18G22G27
 -42949672.960  -225702054.76809 -42949796.320  -175872236.12749
 -42949672.960  -225702054.76809 -42949581.880  -175871358.03148
 -42949672.960  -225702054.76809 -42949582.740  -175871361.55248
 -42949672.960  -225702054.76809 -42949638.800  -175871591.10949
 15 03 03 00 48  0.0000000  0  4G16G18G22G27
 -42949672.960  -225702054.76809 -42949657.060  -175871665.88048
 -42949672.960  -225702054.76809 -42949522.660  -175871115.53547
 -42949672.960  -225702054.76809 -42949826.920  -175872361.42947
 -42949672.960  -225702054.76809 -42949683.060  -175871772.34648
 15 03 03 00 48 30.0000000  0  4G16G18G22G27
 -42949672.960  -225702054.76809 -42949746.500  -175872032.12248
 -42949672.960  -225702054.76809 -42949698.160  -175871834.17847
 -42949672.960  -225702054.76809 -42949682.820  -175871771.36348
 -42949672.960  -225702054.76809 -42949699.180  -175871838.35549
 15 03 03 00 49  0.0000000  0  4G16G18G22G27
 -42949672.960  -225702054.76809 -42949736.960  -175871993.05848
 -42949672.960  -225702054.76809 -42949780.920  -175872173.06647
 -42949672.960  -225702054.76809 -42949805.740  -175872274.70048
 -42949672.960  -225702054.76809 -42949687.640  -175871791.10049
 15 03 03 00 49 30.0000000  0  4G16G18G22G27
 -42949672.960  -225702054.76809 -42949627.720  -175871545.73848
 -42949672.960  -225702054.76809 -42949768.820  -175872123.51947
 -42949672.960  -225702054.76809 -42949537.940  -175871178.10448
 -42949672.960  -225702054.76809 -42949647.920  -175871628.45448
 15 03 03 00 50  0.0000000  0  4G16G18G22G27
 -42949672.960  -225702054.76808 -42949746.060  -175872030.32148
 -42949672.960  -225702054.76809 -42949662.820  -175871689.46746
 -42949672.960  -225702054.76809 -42949534.580  -175871164.34547
 -42949672.960  -225702054.76809 -42949578.920  -175871345.91048
 15 03 03 00 50 30.0000000  0  5G16G18G21G22G27
 -42949672.960  -225702054.76809 -42949764.220  -175872104.68348
 -42949672.960  -225702054.76809 -42949790.220  -175872211.14847
 -42949672.960  -225702054.76805                                
 -42949672.960  -225702054.76809 -42949795.600  -175872233.17947
 -42949672.960  -225702054.76809 -42949808.200  -175872284.77348
 15 03 03 00 51  0.0000000  0  5G16G18G21G22G27
 -42949672.960  -225702054.76809 -42949682.320  -175871769.31649
 -42949672.960  -225702054.76809 -42949823.440  -175872347.17947
 -42949672.960  -225702054.76806 -42949744.860  -175872025.40743
 -42949672.960  -225702054.76809 -42949665.540  -175871700.60548
 -42949672.960  -225702054.76808 -42949681.800  -175871767.18748
 15 03 03 00 51 30.0000000  0  5G16G18G21G22G27
 -42949672.960  -225702054.76809 -42949827.020  -175872361.83849
 -42949672.960  -225702054.76809 -42949761.880  -175872095.10148
 -42949672.960  -225702054.76805 -42949696.500  -175871827.38142
 -42949672.960  -225702054.76809 -42949798.340  -175872244.39848
 -42949672.960  -225702054.76808 -42949525.300  -175871126.34548
 15 03 03 00 52  0.0000000  0  3G16G19G22
 -42949672.960  -225702054.76809 -42949542.840  -175871198.16949
 -42949672.960  -225702054.76808 -42949539.660  -175871185.14747
 -42949672.960  -225702054.76809 -42949538.200  -175871179.16948
 15 03 03 00 52 30.0000000  0  5G16G18G21G22G27
 -42949672.960  -225702054.76809 -42949812.780  -175872303.52849
 -42949672.960  -225702054.76809 -42949682.820  -175871771.36348
 -42949672.960  -225702054.76806 -42949527.380  -175871134.86344
 -42949672.960  -225702054.76809 -42949540.700  -175871189.40648
 -42949672.960  -225702054.76809 -42949778.820  -175872164.46748
 15 03 03 00 53  0.0000000  0  5G16G18G21G22G27
 -42949672.960  -225702054.76809 -42949654.580  -175871655.72549
 -42949672.960  -225702054.76809 -42949665.820  -175871701.75148
 -42949672.960  -225702054.76807 -42949736.180  -175871989.86443
 -42949672.960  -225702054.76809 -42949806.100  -175872276.17448
 -42949672.960  -225702054.76809 -42949534.280  -175871163.11748
 15 03 03 00 53 30.0000000  0  5G16G18G21G22G27
 -42949672.960  -225702054.76809 -42949723.360  -175871937.36849
 -42949672.960  -225702054.76809 -42949554.520  -175871245.99648
 -42949672.960  -225702054.76807 -42949593.860  -175871407.08743
 -42949672.960  -225702054.76809 -42949677.200  -175871748.35048
 -42949672.960  -225702054.76809 -42949587.560  -175871381.29049
 15 03 03 00 54  0.0000000  0  5G16G18G21G22G27
 -42949672.960  -225702054.76809 -42949691.160  -175871805.51448
 -42949672.960  -225702054.76809 -42949676.820  -175871746.79448
 -42949672.960  -225702054.76807 -42949758.040  -175872079.37743
 -42949672.960  -225702054.76809 -42949810.420  -175872293.86448
 -42949672.960  -225702054.76809 -42949612.540  -175871483.57849
 15 03 03 00 54 30.0000000  0  5G16G18G21G22G27
 -42949672.960  -225702054.76809 -42949558.240  -175871261.22949
 -42949672.960  -225702054.76809 -42949705.740  -175871865.21748
 -42949672.960  -225702054.76808 -42949574.060  -175871326.00941
 -42949672.960  -225702054.76809 -42949550.920  -175871231.25548
 -42949672.960  -225702054.76809 -42949608.580  -175871467.36349
 15 03 03 00 55  0.0000000  0  5G16G18G21G22G27
 -42949672.960  -225702054.76809 -42949651.240  -175871642.04948
 -42949672.960  -225702054.76809 -42949640.060  -175871596.26847
 -42949672.960  -225702054.76807 -42949693.040  -175871813.21341
 -42949672.960  -225702054.76809 -42949551.860  -175871235.10448
 -42949672.960  -225702054.76809 -42949574.740  -175871328.79448
 15 03 03 00 55 30.0000000  0  5G16G18G21G22G27
 -42949672.960  -225702054.76808 -42949643.440  -175871610.10948
 -42949672.960  -225702054.76809 -42949808.760  -175872287.06747
 -42949672.960  -225702054.76807 -42949791.840  -175872217.78241
 -42949672.960  -225702054.76809 -42949813.920  -175872308.19648
 -42949672.960  -225702054.76809 -42949512.780  -175871075.07848
 15 03 03 00 56  0.0000000  0  5G16G18G21G22G27
 -42949672.960  -225702054.76808 -42949533.960  -175871161.80748
 -42949672.960  -225702054.76809 -42949555.800  -175871251.23848
 -42949672.960  -225702054.76806 -42949541.860  -175871194.15643
 -42949672.960  -225702054.76809 -42949680.820  -175871763.17448
 -42949672.960  -225702054.76809 -42949748.440  -175872040.06648
 15 03 03 00 56 30.0000000  0  5G16G18G21G22G27
 -42949672.960  -225702054.76809 -42949649.880  -175871636.48048
 -42949672.960  -225702054.76809 -42949535.500  -175871168.11348
 -42949672.960  -225702054.76806 -42949596.880  -175871419.45342
 -42949672.960  -225702054.76809 -42949807.220  -175872280.76147
 -42949672.960  -225702054.76809 -42949626.300  -175871539.92348
 15 03 03 00 57  0.0000000  0  5G16G18G21G22G27
 -42949672.960  -225702054.76809 -42949663.040  -175871690.36849
 -42949672.960  -225702054.76809 -42949747.860  -175872037.69148
 -42949672.960  -225702054.76807 -42949629.320  -175871552.29042
 -42949672.960  -225702054.76809 -42949537.660  -175871176.95748
 -42949672.960  -225702054.76809 -42949801.560  -175872257.58448
 15 03 03 00 57 30.0000000  0  5G16G18G21G22G27
 -42949672.960  -225702054.76809 -42949574.460  -175871327.64748
 -42949672.960  -225702054.76809 -42949538.460  -175871180.23348
 -42949672.960  -225702054.76806 -42949643.620  -175871610.84653
 -42949672.960  -225702054.76809 -42949526.080  -175871129.53948
 -42949672.960  -225702054.76809 -42949618.900  -175871509.62248
 15 03 03 00 58  0.0000000  0  5G16G18G21G22G27
 -42949672.960  -225702054.76809 -42949711.020  -175871886.83848
 -42949672.960  -225702054.76809 -42949561.940  -175871276.38048
 -42949672.960  -225702054.76806                                
 -42949672.960  -225702054.76809 -42949771.600  -175872134.90348
 -42949672.960  -225702054.76809 -42949733.500  -175871978.88948
 15 03 03 00 58 30.0000000  0  5G16G18G21G22G27
 -42949672.960  -225702054.76809 -42949745.100  -175872026.39048
 -42949672.960  -225702054.76809 -42949819.340  -175872330.39047
 -42949672.960  -225702054.76806                                
 -42949672.960  -225702054.76809 -42949621.020  -175871518.30348
 -42949672.960  -225702054.76809 -42949818.560  -175872327.19648
 15 03 03 00 59  0.0000000  0  5G16G18G21G22G27
 -42949672.960  -225702054.76809 -42949675.840  -175871742.78148
 -42949672.960  -225702054.76808 -42949654.340  -175871654.74347
 -42949672.960  -225702054.76805                                
 -42949672.960  -225702054.76809 -42949728.840  -175871959.80848
 -42949672.960  -225702054.76809 -42949544.900  -175871206.60448
 15 03 03 00 59 30.0000000  0  5G16G18G21G22G27
 -42949672.960  -225702054.76809 -42949829.820  -175872373.30449
 -42949672.960  -225702054.76808 -42949720.620  -175871926.14847
 -42949672.960  -225702054.76805                                
 -42949672.960  -225702054.76809 -42949763.760  -175872102.79948
 -42949672.960  -225702054.76809 -42949566.660  -175871295.70848
 15 03 03 01 00  0.0000000  0  5G16G18G21G22G27
 -42949672.960  -225702054.76809 -42949552.800  -175871238.95348
 -42949672.960  -225702054.76809 -42949691.860  -175871808.38147
 -42949672.960  -225702054.76806 -42949752.420  -175872056.36443
 -42949672.960  -225702054.76809 -42949726.660  -175871950.88148
 -42949672.960  -225702054.76809 -42949557.380  -175871257.70848
 15 03 03 01 00 30.0000000  0  5G16G18G21G22G27
 -42949672.960  -225702054.76809 -42949828.480  -175872367.81748
 -42949672.960  -225702054.76809 -42949568.800  -175871304.47147
 -42949672.960  -225702054.76806 -42949648.020  -175871628.86343
 -42949672.960  -225702054.76809 -42949619.160  -175871510.68648
 -42949672.960  -225702054.76809 -42949517.420  -175871094.07848
 15 03 03 01 01  0.0000000  0  5G16G18G21G22G27
 -42949672.960  -225702054.76809 -42949672.900  -175871730.74348
 -42949672.960  -225702054.76809 -42949678.360  -175871753.10048
 -42949672.960  -225702054.76806 -42949526.240  -175871130.19443
 -42949672.960  -225702054.76809 -42949767.360  -175872117.54148
 -42949672.960  -225702054.76808 -42949773.760  -175872143.74748
 15 03 03 01 01 30.0000000  0  5G16G18G21G22G27
 -42949672.960  -225702054.76809 -42949739.520  -175872003.54048
 -42949672.960  -225702054.76809 -42949691.600  -175871807.31647
 -42949672.960  -225702054.76807 -42949712.440  -175871892.65244
 -42949672.960  -225702054.76809 -42949513.700  -175871078.84547
 -42949672.960  -225702054.76809 -42949669.260  -175871715.83748
 15 03 03 01 02  0.0000000  0  5G16G18G21G22G27
 -42949672.960  -225702054.76809 -42949701.960  -175871849.73849
 -42949672.960  -225702054.76809 -42949609.880  -175871472.68648
 -42949672.960  -225702054.76807 -42949552.720  -175871238.62644
 -42949672.960  -225702054.76809 -42949513.880  -175871079.58248
 -42949672.960  -225702054.76809 -42949533.380  -175871159.43248
 15 03 03 01 02 30.0000000  0  5G16G18G21G22G27
 -42949672.960  -225702054.76809 -42949559.880  -175871267.94548
 -42949672.960  -225702054.76809 -42949760.140  -175872087.97648
 -42949672.960  -225702054.76807 -42949702.720  -175871852.85144
 -42949672.960  -225702054.76809 -42949767.820  -175872119.42448
 -42949672.960  -225702054.76809 -42949692.920  -175871812.72148
 15 03 03 01 03  0.0000000  0  5G16G18G21G22G27
 -42949672.960  -225702054.76809 -42949641.000  -175871600.11748
 -42949672.960  -225702054.76809 -42949815.200  -175872313.43748
 -42949672.960  -225702054.76807 -42949834.320  -175872391.73144
 -42949672.960  -225702054.76809 -42949620.940  -175871517.97548
 -42949672.960  -225702054.76809 -42949819.340  -175872330.39048
 15 03 03 01 03 30.0000000  0  5G16G18G21G22G27
 -42949672.960  -225702054.76809 -42949615.840  -175871497.09148
 -42949672.960  -225702054.76809 -42949773.680  -175872143.42048
 -42949672.960  -225702054.76807 -42949618.880  -175871509.54044
 -42949672.960  -225702054.76809 -42949725.900  -175871947.76948
 -42949672.960  -225702054.76809 -42949584.220  -175871367.61349
 15 03 03 01 04  0.0000000  0  5G16G18G21G22G27
 -42949672.960  -225702054.76809 -42949812.620  -175872302.87348
 -42949672.960  -225702054.76808 -42949635.880  -175871579.15247
 -42949672.960  -225702054.76807 -42949712.680  -175871893.63544
 -42949672.960  -225702054.76809 -42949754.000  -175872062.83448
 -42949672.960  -225702054.76809 -42949643.340  -175871609.69949
 15 03 03 01 04 30.0000000  0  5G16G18G21G22G27
 -42949672.960  -225702054.76809 -42949575.180  -175871330.59649
 -42949672.960  -225702054.76809 -42949729.220  -175871961.36448
 -42949672.960  -225702054.76807 -42949787.560  -175872200.25645
 -42949672.960  -225702054.76809 -42949705.660  -175871864.88948
 -42949672.960  -225702054.76809 -42949668.520  -175871712.80749
 15 03 03 01 05  0.0000000  0  5G16G18G21G22G27
 -42949672.960  -225702054.76809 -42949560.400  -175871270.07448
 -42949672.960  -225702054.76809 -42949727.320  -175871953.58348
 -42949672.960  -225702054.76806 -42949518.060  -175871096.69946
 -42949672.960  -225702054.76809 -42949582.180  -175871359.25948
 -42949672.960  -225702054.76809 -42949660.960  -175871681.85048
 15 03 03 01 05 30.0000000  0  6G16G18G19G21G22G27
  20336741.400   106870297.13809  20336736.580    83275536.24149
  21519794.740   113087284.02309  21519791.260    88119947.74648
  22800343.840   119816617.88708  22800339.980    93363578.60848
  22766586.820   119639223.05006  22766582.620    93225349.08045
