     2.11           OBSERVATION DATA    G                   RINEX VERSION / TYPE
SPIDER V4,0,0,3554                      2015 03 24 01:56    PGM / RUN BY / DATE 
CFKZ                                                        MARKER NAME         
CFKZ                                                        MARKER NUMBER       
                                                            OBSERVER / AGENCY   
496632              LEICA GRX1200+GNSS  8.10/4.007          REC # / TYPE / VERS 
10301036            LEIAR25         NONE                    ANT # / TYPE        
  5212138.8290   540257.5452  3624418.8863                  APPROX POSITION XYZ 
        0.0720        0.0000        0.0000                  ANTENNA: DELTA H/E/N
     1     1                                                WAVELENGTH FACT L1/2
     4    C1    L1    P2    L2                              # / TYPES OF OBSERV 
    30.000                                                  INTERVAL            
  2015    03    03    00    00    0.0000000     GPS         TIME OF FIRST OBS   
  2015    03    03    23    59   30.0000000     GPS         TIME OF LAST OBS    
    16                                                      LEAP SECONDS        
    30                                                      # OF SATELLITES     
   G 1   805   805   804   804                              PRN / # OF OBS      
   G 2   919   919   919   919                              PRN / # OF OBS      
   G 3   855   855   855   855                              PRN / # OF OBS      
   G 4   844   844   844   844                              PRN / # OF OBS      
   G 5   602   602   601   601                              PRN / # OF OBS      
   G 6   779   779   779   779                              PRN / # OF OBS      
   G 7   669   669   669   669                              PRN / # OF OBS      
   G 9   808   808   808   808                              PRN / # OF OBS      
   G10   715   715   715   715                              PRN / # OF OBS      
   G11   783   783   783   783                              PRN / # OF OBS      
   G12   783   783   783   783                              PRN / # OF OBS      
   G13   793   793   793   793                              PRN / # OF OBS      
   G14   912   911   911   911                              PRN / # OF OBS      
   G15   687   687   687   687                              PRN / # OF OBS      
   G16   673   673   673   673                              PRN / # OF OBS      
   G17   930   930   930   930                              PRN / # OF OBS      
   G18   913   913   913   913                              PRN / # OF OBS      
   G19   761   761   761   761                              PRN / # OF OBS      
   G20   731   731   731   731                              PRN / # OF OBS      
   G21   711   710   710   710                              PRN / # OF OBS      
   G22   655   653   648   648                              PRN / # OF OBS      
   G23   752   752   752   752                              PRN / # OF OBS      
   G24   830   827   826   825                              PRN / # OF OBS      
   G25   841   841   841   841                              PRN / # OF OBS      
   G27   815   815   815   815                              PRN / # OF OBS      
   G28   837   837   836   836                              PRN / # OF OBS      
   G29   754   754   754   754                              PRN / # OF OBS      
   G30   716   716   716   716                              PRN / # OF OBS      
   G31   850   849   849   849                              PRN / # OF OBS      
   G32   767   766   766   766                              PRN / # OF OBS      
BIT 2 OF LLI FLAGS DATA COLLECTED UNDER A/S CONDITION       COMMENT             
SNR is mapped to RINEX snr flag value [2-9]                 COMMENT             
Lx:     = 25dBHz -> 1; 26-27dBHz -> 2; 28-31dBHz -> 3       COMMENT             
       32-35dBHz -> 4; 36-38dBHz -> 5; 39-41dBHz -> 6       COMMENT             
       42-44dBHz -> 7; 45-48dBHz -> 8; >=49dBHz -> 9        COMMENT             
                                                            END OF HEADER       
 15 03 03 00 00  0.0000000  0  7G16G18G21G22G27G29G31
  21462241.560   112784862.19409  21462237.860    87884302.69448
  22195419.500   116637927.60009  22195416.140    90886620.84347
  21496213.760   112963706.08909  21496209.740    88023824.91348
  23370506.940   122812857.11908  23370508.560    95698342.57546
  22698529.100   119281615.43509  22698528.720    92946727.42547
  24242725.140   127396865.74708  24242723.040    99270498.58845
  23366071.640   122789520.12908  23366071.360    95680138.18447
 15 03 03 00 00 30.0000000  0  7G16G18G21G22G27G29G31
  21449823.440   112719604.37809  21449819.740    87833452.45448
  22185673.340   116586711.46909  22185670.060    90846712.21547
  21505057.680   113010181.78508  21505053.740    88060039.74848
  23352824.840   122719940.85008  23352826.360    95625941.27046
  22686635.360   119219113.00509  22686634.880    92898024.25748
  24256561.380   127469576.47208  24256559.280    99327156.28246
  23383746.620   122882401.13109  23383746.420    95752512.56747
 15 03 03 00 01  0.0000000  0  7G16G18G21G22G27G29G31
  21437467.300   112654672.20609  21437463.600    87782855.96848
  22175997.320   116535864.12509  22175994.180    90807090.92047
  21513954.560   113056935.80909  21513950.740    88096471.44548
  23335160.140   122627116.30308  23335161.620    95553611.41246
  22674759.840   119156706.29509  22674759.280    92849395.66047
  24270404.000   127542321.66608  24270402.320    99383840.80546
  23401443.120   122975395.51008  23401442.980    95824975.26847
 15 03 03 00 01 30.0000000  0  7G16G18G21G22G27G29G31
  21425171.100   112590055.02109  21425167.400    87732504.92348
  22166389.440   116485374.77609  22166386.420    90767748.59947
  21522901.520   113103952.85609  21522897.800    88133108.11148
  23317510.900   122534373.18008  23317512.220    95481344.96146
  22662900.040   119094382.27609  22662899.260    92800831.53048
  24284251.080   127615088.08408  24284249.560    99440541.84346
  23419158.160   123068487.32908  23419158.060    95897513.91346
 15 03 03 00 02  0.0000000  0  7G16G18G21G22G27G29G31
  21412937.480   112525766.86709  21412933.800    87682410.25948
  22156852.360   116435257.44009  22156849.420    90728696.16647
  21531900.700   113151243.73709  21531896.980    88169958.14648
  23299879.940   122441725.95908  23299881.240    95409153.22046
  22651058.200   119032152.89809  22651057.380    92752341.12047
  24298104.540   127687887.70408  24298102.880    99497268.81746
  23436893.420   123161685.26209  23436893.380    95970135.23046
 15 03 03 00 02 30.0000000  0  7G16G18G21G22G27G29G31
  21400766.040   112461805.74909  21400762.380    87632570.42948
  22147385.540   116385509.14109  22147382.520    90689931.29147
  21540950.740   113198802.02109  21540946.960    88207016.54948
  23282266.940   122349172.93708  23282268.180    95337034.83447
  22639233.440   118970013.68808  22639232.660    92703920.99548
  24311963.480   127760716.03708  24311961.840    99554018.14546
  23454647.500   123254981.70108  23454647.600    96042833.28546
 15 03 03 00 03  0.0000000  0  7G16G18G21G22G27G29G31
  21388656.760   112398171.21309  21388653.080    87582985.08548
  22137989.000   116336130.15309  22137985.900    90651454.18647
  21550050.920   113246623.75808  21550047.160    88244280.23048
  23264671.960   122256714.58208  23264673.000    95264990.20447
  22627425.460   118907962.65209  22627424.740    92655569.55947
  24325827.460   127833571.24208  24325825.940    99610788.38546
  23472419.400   123348371.77908  23472419.620    96115604.29646
 15 03 03 00 03 30.0000000  0  7G16G18G21G22G27G29G31
  21376611.200   112334871.32609  21376607.500    87533660.50248
  22128664.260   116287128.27209  22128661.060    90613270.93247
  21559201.820   113294711.91308  21559198.000    88281751.52348
  23247096.680   122164359.30908  23247097.580    95193025.84247
  22615635.340   118846005.48209  22615634.680    92607291.27747
  24339697.500   127906458.67608  24339695.620    99667583.74346
  23490209.780   123441858.33709  23490210.000    96188450.46746
 15 03 03 00 04  0.0000000  0  7G16G18G21G22G27G29G31
  21364628.380   112271901.08209  21364624.640    87484592.77748
  22119410.220   116238497.81109  22119406.860    90575377.09147
  21568401.700   113343057.93908  21568397.880    88319423.75648
  23229540.120   122072102.21708  23229540.760    95121137.96947
  22603861.660   118784134.71209  22603861.000    92559080.30447
  24353572.500   127979371.43608  24353570.580    99724398.84546
  23508016.440   123535430.50209  23508016.700    96261363.34146
 15 03 03 00 04 30.0000000  0  7G16G18G21G22G27G29G31
  21352709.300   112209265.73909  21352705.540    87435786.01648
  22110227.780   116190243.95709  22110224.400    90537776.72747
  21577650.880   113391663.09708  21577647.180    88357297.89748
  23212003.320   121979949.22408  23212003.740    95049331.16847
  22592105.100   118722353.56409  22592104.440    92510939.18147
  24367452.940   128052312.52408  24367450.860    99781236.00145
  23525839.460   123629088.59509  23525839.800    96334343.16547
 15 03 03 00 05  0.0000000  0  7G16G18G21G22G27G29G31
  21340855.360   112146972.70609  21340851.540    87387245.99948
  22101118.420   116142374.16809  22101115.040    90500475.61947
  21586950.000   113440530.45809  21586946.280    88395376.35748
  23194487.840   121887908.12308  23194488.000    94977611.51446
  22580366.620   118660667.36709  22580365.900    92462872.02348
  24381339.640   128125286.82908  24381337.020    99838099.10045
  23543679.240   123722834.84909  23543679.620    96407391.65847
 15 03 03 00 05 30.0000000  0  7G16G18G21G22G27G29G31
  21329065.900   112085018.67609  21329062.080    87338970.13348
  22092081.480   116094884.70709  22092078.140    90463470.87947
  21596297.880   113489653.78308  21596294.080    88433654.27948
  23176993.140   121795976.15408  23176993.160    94905976.89247
  22568645.180   118599070.73409  22568644.440    92414874.67348
  24395231.680   128198289.40608  24395229.100    99894984.16746
  23561534.180   123816660.96209  23561534.680    96480502.37847
 15 03 03 00 06  0.0000000  0  7G16G18G21G22G27G29G31
  21317342.160   112023410.25909  21317338.380    87290963.58048
  22083117.980   116047781.33809  22083114.760    90426766.96647
  21605694.760   113539034.60008  21605690.940    88472132.82648
  23159520.580   121704160.09608  23159520.420    94834432.53647
  22556941.580   118537567.97508  22556940.880    92366950.45348
  24409129.620   128271324.22508  24409127.620    99951894.35246
  23579404.480   123910568.09909  23579405.280    96553676.21147
 15 03 03 00 06 30.0000000  0  7G16G18G21G22G27G29G31
  21305684.080   111962147.06309  21305680.320    87243226.03848
  22074227.900   116001063.99409  22074224.760    90390363.87947
  21615139.740   113588668.13909  21615135.820    88510808.31348
  23142070.200   121612460.31808  23142069.840    94762978.76147
  22545255.300   118476156.46609  22545254.740    92319097.37748
  24423033.200   128344388.83007  24423031.460   100008827.78846
  23597289.080   124004550.51708  23597290.140    96626908.69547
 15 03 03 00 07  0.0000000  0  7G16G18G21G22G27G29G31
  21294092.580   111901233.91109  21294088.880    87195761.24848
  22065412.100   115954736.88109  22065408.980    90354264.85947
  21624633.300   113638556.36709  21624629.260    88549682.25048
  23124642.940   121520881.86308  23124642.380    94691619.49347
  22533586.880   118414838.86809  22533586.460    92271317.44648
  24436942.660   128417485.86607  24436941.360   100065786.47546
  23615187.880   124098607.80808  23615189.300    96700199.50447
 15 03 03 00 07 30.0000000  0  7G16G18G21G22G27G29G31
  21282566.640   111840665.00809  21282562.920    87148564.70048
  22056669.420   115908793.83809  22056666.240    90318465.10547
  21634173.460   113688689.23409  21634169.180    88588746.82448
  23107237.840   121429419.74508  23107237.220    94620350.85347
  22521935.000   118353607.87009  22521934.520    92223604.95847
  24450857.320   128490607.78208  24450856.280   100122764.50145
  23633098.960   124192729.72408  23633100.780    96773540.65046
 15 03 03 00 08  0.0000000  0  7G16G18G21G22G27G29G31
  21271107.560   111780447.43309  21271103.840    87101641.92248
  22048001.260   115863242.25009  22047998.000    90282970.39847
  21643760.560   113739068.99909  21643756.200    88628003.78648
  23089856.320   121338081.53408  23089855.660    94549178.75847
  22510300.480   118292468.01309  22510299.960    92175963.54148
  24464777.920   128563759.41608  24464776.680   100179765.76646
  23651022.620   124286917.77908  23651024.800    96846933.33247
 15 03 03 00 08 30.0000000  0  7G16G18G21G22G27G29G31
  21259716.360   111720586.35109  21259712.600    87054996.92248
  22039408.380   115818086.48709  22039405.140    90247784.11447
  21653394.980   113789697.62909  21653390.520    88667454.66348
  23072499.480   121246872.87709  23072498.780    94478107.57447
  22498683.900   118231422.36809  22498683.300    92128395.54548
  24478704.540   128636943.52808  24478703.080   100236792.30446
  23668958.940   124381171.79308  23668961.280    96920377.37946
 15 03 03 00 09  0.0000000  0  7G16G18G21G22G27G29G31
  21248392.020   111661076.43309  21248388.220    87008625.55148
  22030889.680   115773320.65809  22030886.500    90212901.68247
  21663074.820   113840565.20909  21663070.260    88707091.73848
  23055166.360   121155788.58409  23055165.580    94407133.28246
  22487083.820   118170463.52509  22487083.180    92080895.17548
  24492636.140   128710152.90408  24492634.560   100293838.47645
  23686905.940   124475481.46908  23686908.380    96993864.80546
 15 03 03 00 09 30.0000000  0  7G16G18G21G22G27G29G31
  21237136.500   111601928.19409  21237132.720    86962536.02048
  22022447.220   115728955.42009  22022444.060    90178331.37847
  21672801.380   113891678.76009  21672796.840    88746920.47748
  23037859.060   121064839.85408  23037858.040    94336264.56947
  22475501.880   118109600.05709  22475501.160    92033469.09547
  24506574.040   128783395.97707  24506572.040   100350910.98145
  23704864.640   124569852.06608  23704867.040    97067399.68446
 15 03 03 00 10  0.0000000  0  7G16G18G21G22G27G29G31
  21225949.800   111543141.58109  21225946.040    86916728.28248
  22014080.880   115684990.00409  22014077.640    90144072.65547
  21682573.840   113943033.54509  21682569.380    88786937.18848
  23020577.760   120974027.27309  23020576.400    94265501.94147
  22463937.640   118048829.62009  22463936.840    91986115.49448
  24520517.680   128856670.28407  24520514.820   100408007.84845
  23722833.920   124664278.13508  23722836.300    97140977.79146
 15 03 03 00 10 30.0000000  0  7G16G18G21G22G27G29G31
  21214832.760   111484721.20209  21214829.020    86871205.92348
  22005791.500   115641428.89209  22005788.180    90110128.94847
  21692392.420   113994630.84909  21692388.000    88827142.88048
  23003323.400   120883355.76109  23003321.660    94194849.21647
  22452391.520   117988154.68908  22452390.780    91938836.37448
  24534467.540   128929978.40807  24534464.880   100465131.00745
  23740813.700   124758759.35508  23740816.120    97214598.83146
 15 03 03 00 11  0.0000000  0  7G16G18G21G22G27G29G31
  21203785.460   111426667.27809  21203781.740    86825969.09348
  21997578.920   115598271.59809  21997575.620    90076499.92047
  21702256.380   114046466.50509  21702251.960    88867534.30248
  22986096.060   120792825.91209  22986093.920    94124306.85147
  22440863.280   117927573.59509  22440862.560    91891630.35947
  24548423.280   129003318.47607  24548421.240   100522279.05345
  23758803.100   124853290.82208  23758805.480    97288259.02246
 15 03 03 00 11 30.0000000  0  6G16G18G21G22G27G31
  21192813.820   111369010.82609  21192810.060    86781041.99048
  21989448.960   115555548.52209  21989445.740    90043209.23847
  21712170.920   114098567.98009  21712166.520    88908132.84848
  22968901.680   120702469.44209  22968899.180    94053899.56847
  22429358.460   117867115.41009  22429357.740    91844520.06947
  23776806.980   124947898.60508  23776809.420    97361978.62746
 15 03 03 00 12  0.0000000  0  6G16G18G21G22G27G31
  21181904.480   111311681.85709  21181900.760    86736370.07048
  21981388.340   115513189.89909  21981385.140    90010202.53547
  21722121.840   114150860.49909  21722117.460    88948880.27648
  22951726.960   120612216.78009  22951724.280    93983573.15547
  22417863.280   117806707.98608  22417862.540    91797449.37048
  23794811.040   125042507.70708  23794813.640    97435699.28946
 15 03 03 00 12 30.0000000  0  6G16G18G21G22G27G31
  21171067.520   111254733.12209  21171063.860    86691994.43648
  21973407.060   115471248.19409  21973403.860    89977520.70647
  21732118.500   114203393.47609  21732114.180    88989815.05848
  22934582.060   120522121.36009  22934579.300    93913369.27347
  22406387.420   117746402.04309  22406386.680    91750457.79548
  23812824.340   125137165.44708  23812827.140    97509457.91046
 15 03 03 00 13  0.0000000  0  6G16G18G21G22G27G31
  21160302.200   111198160.80009  21160298.560    86647912.11348
  21965504.220   115429718.84209  21965501.080    89945160.20247
  21742159.480   114256159.06609  21742155.200    89030931.10148
  22917466.420   120432179.82209  22917463.580    93843285.26747
  22394929.760   117686191.69609  22394928.960    91703540.62447
  23830845.100   125231862.78108  23830848.080    97583247.33846
 15 03 03 00 13 30.0000000  0  6G16G18G21G22G27G31
  21149608.280   111141963.61109  21149604.660    86604122.09448
  21957679.500   115388600.02309  21957676.380    89913119.58947
  21752243.700   114309151.89209  21752239.460    89072224.20648
  22900379.980   120342391.51909  22900377.040    93773320.65047
  22383489.660   117626073.74109  22383488.880    91656695.50348
  23848872.200   125326593.75808  23848875.500    97657062.96046
 15 03 03 00 14  0.0000000  0  6G16G18G21G22G27G31
  21138986.020   111086143.02909  21138982.400    86560625.53548
  21949933.140   115347892.92109  21949930.040    89881399.78347
  21762370.700   114362369.49709  21762366.460    89113692.46748
  22883323.040   120252758.26309  22883320.020    93703476.83147
  22372067.040   117566047.67009  22372066.360    91609921.95748
  23866905.040   125421354.78008  23866908.580    97730902.08446
 15 03 03 00 14 30.0000000  0  6G16G18G21G22G27G31
  21128436.880   111030706.63309  21128433.160    86517428.35148
  21942266.420   115307604.36909  21942263.420    89850006.13747
  21772541.180   114415815.54109  21772536.900    89155338.74148
  22866297.140   120163288.03108  22866294.060    93633760.02747
  22360662.960   117506118.93809  22360662.240    91563224.25448
  23884944.020   125516148.09508  23884947.740    97804766.40246
 15 03 03 00 15  0.0000000  0  7G16G18G19G21G22G27G31
  21117960.120   110975650.71109  21117956.300    86474527.63348
  21934678.540   115267730.37109  21934675.640    89818935.51447
  24532865.520   128921103.38607  24532866.800   100457983.51746
  21782753.560   114469482.23309  21782749.360    89197156.93148
  22849301.780   120073978.09409  22849298.700    93564168.13047
  22349276.340   117446281.99109  22349275.600    91516598.08648
  23902987.540   125610965.06808  23902991.460    97878649.24246
 15 03 03 00 15 30.0000000  0  7G16G18G19G21G22G27G31
  21107563.120   110921014.11309  21107559.280    86431953.66048
  21927176.920   115228309.22909  21927173.920    89788217.76147
  24518054.560   128843265.84008  24518054.760   100397331.01345
  21793014.600   114523404.80409  21793010.540    89239174.51948
  22832344.300   119984867.35909  22832341.340    93494731.45047
  22337914.220   117386573.69409  22337913.460    91470072.15148
  23921042.060   125705839.89908  23921046.080    97952577.46246
 15 03 03 00 16  0.0000000  0  7G16G18G19G21G22G27G31
  21097227.000   110866697.34309  21097223.180    86389628.90948
  21919742.580   115189241.08009  21919739.420    89757775.07547
  24503241.120   128765414.42107  24503238.460   100336667.48844
  21803304.600   114577479.60009  21803300.640    89281310.71748
  22815406.120   119895857.46309  22815403.160    93425373.32947
  22326557.260   117326892.65109  22326556.560    91423567.48148
  23939087.600   125800667.78308  23939091.560    98026469.09346
 15 03 03 00 16 30.0000000  0  7G16G18G19G21G22G27G31
  21086971.420   110812803.76709  21086967.580    86347633.91548
  21912395.040   115150629.00009  21912391.780    89727687.75247
  24488443.280   128687650.14607  24488440.300   100276072.03546
  21813642.600   114631806.38009  21813638.720    89323643.25848
  22798506.880   119807052.01509  22798503.840    93356174.49347
  22315224.740   117267340.20009  22315224.080    91377162.99048
  23957142.840   125895547.26808  23957146.860    98100401.13046
 15 03 03 00 17  0.0000000  0  7G16G18G19G21G22G27G31
  21076789.960   110759299.44809  21076786.060    86305942.24748
  21905127.620   115112438.00409  21905124.340    89697928.56547
  24473655.520   128609937.35208  24473652.260   100215516.66046
  21824021.240   114686346.68809  21824017.420    89366142.19648
  22781640.200   119718417.33109  22781637.040    93287108.72547
  22303909.880   117207880.33008  22303909.200    91330830.65548
  23975200.240   125990438.73308  23975204.220    98174342.41345
 15 03 03 00 17 30.0000000  0  7G16G18G19G21G22G27G31
  21066684.840   110706196.51309  21066680.880    86264563.34348
  21897942.600   115074680.08509  21897939.240    89668506.84347
  24458878.780   128532285.78107  24458874.420   100155008.96845
  21834442.260   114741109.05509  21834438.400    89408814.17848
  22764808.500   119629966.42909  22764805.100    93218186.15547
  22292614.600   117148523.54409  22292613.980    91284578.63648
  23993261.240   126085349.46608  23993265.240    98248298.60946
 15 03 03 00 18  0.0000000  0  7G16G18G19G21G22G27G31
  21056653.820   110653482.99709  21056649.780    86223487.88348
  21890837.580   115037342.64609  21890834.080    89639412.75047
  24444111.380   128454681.52208  24444106.980   100094538.10246
  21844902.420   114796077.59309  21844898.620    89451646.79148
  22748009.520   119541687.73209  22748005.920    93149397.75747
  22281336.260   117089255.72708  22281335.700    91238395.93848
  24011322.600   126180262.02608  24011326.600    98322255.93445
 15 03 03 00 18 30.0000000  0  7G16G18G19G21G22G27G31
  21046700.000   110601175.16509  21046695.900    86182728.53348
  21883815.440   115000441.41309  21883811.980    89610658.57047
  24429355.280   128377138.40807  24429351.720   100034115.04645
  21855404.120   114851264.77709  21855400.380    89494649.78648
  22731246.500   119453598.10809  22731242.680    93080756.67247
  22270077.620   117030091.29309  22270077.080    91192293.81048
  24029386.620   126275187.84908  24029390.740    98396223.40145
 15 03 03 00 19  0.0000000  0  7G16G18G19G21G22G27G31
  21036822.240   110549267.08409  21036818.100    86142280.68348
  21876875.100   114963970.04609  21876871.660    89582239.32947
  24414609.620   128299648.64608  24414605.340    99973733.36344
  21865945.300   114906659.65909  21865941.640    89537814.61848
  22714518.500   119365692.39009  22714514.500    93012258.89247
  22258837.180   116971022.40809  22258836.660    91146266.12448
  24047451.340   126370116.07808  24047455.460    98470192.69746
 15 03 03 00 19 30.0000000  0  7G16G18G19G21G22G27G31
  21027020.000   110497756.14109  21027015.860    86102142.28448
  21870015.880   114927924.88809  21870012.460    89554152.21547
  24399873.280   128222207.32707  24399869.020    99913389.50346
  21876525.240   114962257.88209  21876521.600    89581137.90548
  22697825.080   119277968.37509  22697820.980    92943902.69447
  22247614.060   116912044.56709  22247613.540    91100309.39748
  24065515.320   126465039.72808  24065519.640    98544158.58845
 15 03 03 00 20  0.0000000  0  7G16G18G19G21G22G27G31
  21017296.960   110446661.44709  21017292.880    86062328.23548
  21863241.360   114892324.92909  21863237.940    89526412.00347
  24385149.040   128144831.42208  24385145.380    99853096.72845
  21887146.660   115018073.63909  21887142.960    89624630.69748
  22681169.980   119190445.77209  22681165.880    92875703.42647
  22236411.560   116853175.09509  22236411.020    91054437.09848
  24083581.100   126559973.34708  24083585.620    98618132.64046
 15 03 03 00 20 30.0000000  0  7G16G18G19G21G22G27G31
  21007649.200   110395962.63509  21007645.240    86022822.67248
  21856547.500   114857148.91909  21856544.160    89499002.16347
  24370433.340   128067499.03007  24370429.160    99792837.64145
  21897804.860   115074082.38509  21897801.060    89668273.87548
  22664549.460   119103104.95709  22664545.400    92807645.82147
  22225225.480   116794391.75909  22225224.900    91008631.93248
  24101643.580   126654890.32908  24101648.100    98692093.41246
 15 03 03 00 21  0.0000000  0  7G16G18G19G21G22G27G31
  20998081.160   110345682.78409  20998077.300    85983643.57148
  21849938.640   114822419.57209  21849935.380    89471940.34647
  24355729.360   127990230.65408  24355725.440    99732628.64446
  21908503.460   115130303.55809  21908499.480    89712082.57948
  22647968.020   119015969.95009  22647964.040    92739748.57347
  22214059.860   116735716.01409  22214059.220    90962910.58448
  24119706.460   126749810.12108  24119711.480    98766056.59247
 15 03 03 00 21 30.0000000  0  7G16G18G19G21G22G27G31
  20988590.120   110295807.48509  20988586.380    85944779.70148
  21843411.960   114788121.98409  21843408.740    89445214.99047
  24341034.740   127913009.80508  24341031.040    99672456.59945
  21919239.120   115186719.19709  21919235.080    89756042.81748
  22631423.020   118929026.26309  22631419.000    92672000.39747
  22202911.620   116677131.35209  22202910.900    90917260.22548
  24137766.060   126844712.69408  24137771.160    98840006.26444
 15 03 03 00 22  0.0000000  0  7G16G18G19G21G22G27G31
  20979178.760   110246350.94509  20979175.120    85906242.13848
  21836970.020   114754269.46609  21836966.660    89418836.41147
  24326351.140   127835848.68508  24326347.060    99612331.11446
  21930013.720   115243339.47109  21930009.560    89800162.50348
  22614917.320   118842288.81609  22614913.260    92604412.91147
  22191783.080   116618650.15609  22191782.240    90871690.45448
  24155824.160   126939607.55908  24155829.640    98914084.10746
 15 03 03 00 22 30.0000000  0  7G16G18G19G21G22G27G31
  20969845.860   110197306.62709  20969842.320    85868025.79448
  21830611.520   114720855.12609  21830608.060    89392799.28947
  24311677.580   127758738.71408  24311673.660    99552245.46946
  21940825.080   115300153.51508  21940820.900    89844433.19548
  22598449.740   118755751.75009  22598445.720    92536981.59147
  22180672.600   116560264.12709  22180671.720    90826194.88548
  24173878.600   127034483.51208  24173884.160    98988013.54645
 15 03 03 00 23  0.0000000  0  7G16G18G19G21G22G27G31
  20960593.580   110148685.77509  20960590.140    85830139.41048
  21824338.480   114687889.59209  21824334.940    89367111.86447
  24297015.360   127681689.14208  24297011.240    99492206.92245
  21951674.700   115357169.13908  21951670.580    89888860.93948
  22582022.580   118669427.08009  22582018.560    92469715.74347
  22169581.960   116501982.80609  22169581.120    90780780.87848
  24191930.580   127129346.65804  24191936.040    99061933.03243
 15 03 03 00 23 30.0000000  0  7G16G18G19G21G22G27G31
  20951419.360   110100475.08609  20951415.960    85792572.64848
  21818148.220   114655358.91009  21818144.640    89341763.31147
  24282362.020   127604684.68508  24282357.900    99432203.47346
  21962559.520   115414369.72408  21962555.560    89933432.83048
  22565633.400   118583302.05709  22565629.360    92402605.47947
  22158508.380   116443791.06609  22158507.580    90735436.67948
  24209976.480   127224178.17108  24209982.760    99135820.59746
 15 03 03 00 24  0.0000000  0  7G16G18G19G21G22G27G31
  20942327.600   110052697.68609  20942324.240    85755343.50248
  21812044.820   114623285.17209  21812041.320    89316770.81247
  24267720.940   127527746.27308  24267717.240    99372251.59146
  21973483.260   115471774.78308  21973479.320    89978164.04948
  22549286.760   118497400.57209  22549282.700    92335669.39047
  22147455.940   116385710.43309  22147455.220    90690179.05948
  24228019.860   127318996.27909  24228024.780    99209718.28646
 15 03 03 00 24 30.0000000  0  7G16G18G19G21G22G27G31
  20933315.800   110005340.28109  20933312.440    85718441.63048
  21806025.660   114591654.62209  21806022.220    89292123.65347
  24253089.700   127450858.53308  24253086.200    99312339.11345
  21984442.400   115529366.31909  21984438.640    90023040.55148
  22532980.120   118411709.28109  22532976.000    92268897.06647
  22136421.760   116327725.56009  22136421.060    90644996.06548
  24246057.400   127413783.16708  24246062.340    99283577.76345
 15 03 03 00 25  0.0000000  0  7G16G18G19G21G22G27G31
  20924385.360   109958410.40209  20924381.980    85681872.90648
  21800092.220   114560474.61809  21800088.860    89267827.56347
  24238469.020   127374027.04808  24238465.420    99252470.51146
  21995437.860   115587148.36708  21995434.280    90068065.53148
  22516715.140   118326237.19609  22516711.100    92202295.56647
  22125406.960   116269842.49709  22125406.320    90599892.39348
  24264089.820   127508542.61808  24264094.740    99357416.24346
 15 03 03 00 25 30.0000000  0  7G16G18G19G21G22G27G31
  20915536.240   109911907.64009  20915532.820    85645636.98348
  21794244.120   114529743.33809  21794240.900    89243881.13847
  24223858.780   127297249.60008  24223855.440    99192644.01745
  22006468.940   115645117.47008  22006465.500    90113236.25848
  22500491.800   118240984.20409  22500487.880    92135864.76847
  22114411.100   116212059.02109  22114410.500    90554866.32648
  24282115.800   127603268.25907  24282120.600    99431228.04744
 15 03 03 00 26  0.0000000  0  7G16G18G19G21G22G27G31
  20906768.720   109865833.55909  20906765.220    85609735.10448
  21788481.720   114499462.49209  21788478.700    89220285.69147
  24209258.680   127220525.92408  24209255.040    99132859.39246
  22017535.120   115703270.98808  22017531.780    90158550.68648
  22484310.620   118155952.99809  22484306.880    92069606.81847
  22103434.240   116154375.47409  22103433.700    90509918.10748
  24300135.160   127698064.28508  24300140.520    99504994.21346
 15 03 03 00 26 30.0000000  0  7G16G18G19G21G22G27G31
  20898084.060   109820194.87409  20898080.460    85574172.49048
  21782806.100   114469637.24409  21782803.100    89197045.25348
  24194669.700   127143860.52208  24194666.080    99073120.20546
  22028636.880   115761611.38508  22028633.560    90204010.73648
  22468173.040   118071150.41209  22468169.320    92003526.98847
  22092477.280   116096796.29209  22092476.720    90465051.23348
  24318146.060   127792723.28608  24318153.880    99578766.33045
 15 03 03 00 27  0.0000000  0  7G16G18G19G21G22G27G31
  20889481.640   109774988.65209  20889477.980    85538946.86948
  21777216.600   114440264.24109  21777213.540    89174157.20947
  24180090.880   127067248.04808  24180086.940    99013422.23546
  22039773.080   115820132.35108  22039769.560    90249611.49647
  22452078.580   117986573.89309  22452074.840    91937623.30147
  22081539.340   116039316.82209  22081538.680    90420262.05648
  24336150.720   127887334.90009  24336156.520    99652490.56247
 15 03 03 00 27 30.0000000  0  7G16G18G19G21G22G27G31
  20880962.680   109730221.34409  20880958.980    85504063.25248
  21771714.380   114411349.58609  21771711.220    89151626.31747
  24165523.080   126990693.59808  24165518.960    98953769.48546
  22050944.380   115878837.46109  22050940.760    90295355.73847
  22436028.700   117902231.12809  22436024.880    91871901.78047
  22070621.360   115981942.18909  22070620.640    90375554.55848
  24354147.240   127981905.20408  24354152.800    99726181.01446
 15 03 03 00 28  0.0000000  0  7G16G18G19G21G22G27G31
  20872526.040   109685886.33109  20872522.280    85469516.48548
  21766297.960   114382885.67609  21766294.720    89129446.67147
  24150964.720   126914188.47208  24150960.680    98894155.17446
  22062148.660   115937715.74309  22062145.000    90341234.91747
  22420022.200   117818116.16109  22420018.240    91806357.75347
  22059721.760   115924664.08209  22059721.000    90330922.28348
  24372134.020   128076423.56708  24372139.600    99799831.10346
 15 03 03 00 28 30.0000000  0  7G16G18G19G21G22G27G31
  20864174.160   109641996.68709  20864170.340    85435316.76848
  21760969.660   114354884.76609  21760966.340    89107627.79148
  24136417.600   126837743.72008  24136413.300    98834587.88446
  22073387.600   115996775.98009  22073383.800    90387255.88548
  22404061.640   117734242.49009  22404057.420    91741001.74547
  22048842.660   115867493.83309  22048841.900    90286374.06248
  24390113.680   128170908.75808  24390118.900    99873456.50945
 15 03 03 00 29  0.0000000  0  7G16G18G19G21G22G27G31
  20855907.360   109598553.97609  20855903.460    85401465.30348
  21755729.580   114327347.86509  21755726.200    89086170.49447
  24121882.040   126761359.23108  24121878.020    98775067.57546
  22084660.840   116056016.83808  22084656.980    90433417.59547
  22388147.440   117650612.42309  22388142.960    91675835.55247
  22037984.100   115810431.55309  22037983.300    90241909.94548
  24408082.480   128265335.97007  24408088.580    99947035.32844
 15 03 03 00 29 30.0000000  0  7G16G18G19G21G22G27G31
  20847724.880   109555554.15709  20847720.840    85367958.94348
  21750576.800   114300270.05209  21750573.400    89065070.90547
  24107356.680   126685028.98408  24107352.880    98715589.53246
  22095966.900   116115430.56108  22095963.020    90479713.99847
  22372278.920   117567222.56209  22372274.260    91610856.52947
  22027144.940   115753471.54809  22027144.160    90197525.55048
  24426040.940   128359706.65908  24426047.280   100020569.85046
 15 03 03 00 30  0.0000000  0  7G16G18G19G21G22G27G31
  20839626.900   109512998.54309  20839622.800    85334798.73048
  21745511.400   114273651.94709  21745508.160    89044329.54747
  24092841.560   126608752.44108  24092837.960    98656153.31246
  22107305.380   116175014.72308  22107301.500    90526143.21347
  22356456.560   117484075.21809  22356451.780    91546066.48547
  22016325.220   115696613.62709  22016324.460    90153220.69848
  24443988.380   128454018.74108  24443995.020   100094058.65046
 15 03 03 00 30 30.0000000  0  7G16G18G19G21G22G27G31
  20831614.180   109470891.51609  20831610.120    85301988.05748
  21740534.220   114247497.28309  21740531.140    89023949.31047
  24078337.200   126532531.89408  24078333.500    98596760.72046
  22118676.480   116234770.68508  22118672.820    90572706.29447
  22340681.220   117401175.47509  22340676.480    91481469.37148
  22005525.500   115639860.66609  22005524.720    90108997.61348
  24461924.740   128548271.27908  24461931.480   100167500.88645
 15 03 03 00 31  0.0000000  0  7G16G18G19G21G22G27G31
  20823687.500   109429236.84909  20823683.540    85269529.87148
  21735645.760   114221808.63609  21735642.800    89003932.20348
  24063843.760   126456369.12508  24063840.020    98537413.18845
  22130080.100   116294697.59908  22130076.540    90619402.58447
  22324953.740   117318527.42809  22324949.060    91417068.39747
  21994746.120   115583214.52909  21994745.320    90064857.79048
  24479849.860   128642464.01108  24479856.940   100240896.72546
 15 03 03 00 31 30.0000000  0  7G16G18G19G21G22G27G31
  20815846.000   109388029.79009  20815842.160    85237420.47548
  21730845.040   114196580.80309  21730842.180    88984274.16848
  24049360.420   126380257.97408  24049356.360    98478105.81446
  22141514.720   116354787.52908  22141511.240    90666225.89447
  22309273.320   117236127.02109  22309268.660    91352860.36647
  21983985.900   115526669.23809  21983985.100    90020796.54748
  24497761.780   128736586.83308  24497769.060   100314237.91844
 15 03 03 00 32  0.0000000  0  7G16G18G19G21G22G27G31
  20808091.540   109347280.11209  20808087.800    85205667.47948
  21726133.760   114171823.02209  21726130.880    88964982.40548
  24034888.220   126304206.34108  24034884.200    98418844.89646
  22152981.660   116415047.14608  22152978.180    90713181.44547
  22293642.160   117153985.21209  22293637.460    91288853.84048
  21973246.360   115470233.24709  21973245.620    89976820.45148
  24515661.580   128830645.84608  24515668.920   100387529.43745
 15 03 03 00 32 30.0000000  0  7G16G18G19G21G22G27G31
  20800423.220   109306983.08609  20800419.540    85174267.19948
  21721510.780   114147529.42409  21721507.940    88946052.34148
  24020426.240   126228207.43508  24020421.980    98359624.99346
  22164479.260   116475467.51608  22164475.740    90760262.24847
  22278059.460   117072097.81309  22278054.680    91225045.55247
  21962526.380   115413900.05809  21962525.700    89932924.48648
  24533547.280   128924630.94908  24533554.760   100460763.29145
 15 03 03 00 33  0.0000000  0  7G16G18G19G21G22G27G31
  20792842.800   109267147.98909  20792839.160    85143226.86648
  21716977.820   114123708.81409  21716975.060    88927490.85747
  24005975.740   126152268.85608  24005971.200    98300452.08946
  22176008.600   116536054.49608  22176005.060    90807472.89247
  22262527.020   116990474.68609  22262522.200    91161443.19847
  21951827.480   115357677.63409  21951826.820    89889114.82548
  24551419.960   129018547.32508  24551427.800   100533943.80746
 15 03 03 00 33 30.0000000  0  7G16G18G19G21G22G27G31
  20785349.840   109227772.54109  20785346.240    85112544.69748
  21712534.220   114100357.82409  21712531.400    88909295.29747
  23991535.800   126076386.49408  23991531.420    98241323.07246
  22187568.540   116596802.63308  22187565.100    90854809.10047
  22247044.600   116909114.65309  22247039.820    91098045.85047
  21941149.060   115301562.18209  21941148.360    89845388.51948
  24569278.200   129112388.01208  24569286.120   100607065.28845
 15 03 03 00 34  0.0000000  0  7G16G18G19G21G22G27G31
  20777944.740   109188858.95709  20777941.200    85082222.42748
  21708180.300   114077477.88609  21708177.400    88891466.78247
  23977106.900   126000561.48408  23977102.300    98182238.66346
  22199158.860   116657710.56408  22199155.500    90902269.82647
  22231612.700   116828020.19709  22231608.000    91034855.43848
  21930491.160   115245554.38209  21930490.380    89801746.09048
  24587121.460   129206150.50608  24587129.680   100680125.77945
 15 03 03 00 34 30.0000000  0  7G16G18G19G21G22G27G31
  20770628.140   109150410.25609  20770624.600    85052262.40648
  21703916.440   114055071.35509  21703913.580    88874007.16847
  23962688.800   125924794.18108  23962684.240    98123199.27646
  22210779.560   116718777.89708  22210776.180    90949854.76547
  22216232.200   116747195.64109  22216227.620    90971875.34047
  21919854.080   115189656.07609  21919853.220    89758188.96848
  24604949.700   129299833.87308  24604958.100   100753124.79545
 15 03 03 00 35  0.0000000  0  7G16G18G19G21G22G27G31
  20763399.880   109112425.70809  20763396.340    85022664.06448
  21699742.420   114033136.49309  21699739.500    88856915.08048
  23948281.260   125849082.28108  23948276.800    98064203.05646
  22222429.820   116780000.14208  22222426.420    90997560.40747
  22200903.060   116666640.53309  22200898.440    90909105.19348
  21909237.400   115133864.99809  21909236.440    89714715.41848
  24622761.840   129393432.81608  24622770.320   100826058.00645
 15 03 03 00 35 30.0000000  0  7G16G18G19G21G22G27G31
  20756260.440   109074907.65909  20756256.840    84993429.22448
  21695658.580   114011675.14609  21695655.540    88840191.97148
  23933884.520   125773426.96208  23933880.060    98005250.88646
  22234109.420   116841376.52908  22234106.000    91045386.16247
  22185625.800   116586358.17609  22185621.140    90846547.58247
  21898641.320   115078182.24309  21898640.300    89671326.26648
  24640557.460   129486945.06308  24640566.100   100898923.76745
 15 03 03 00 36  0.0000000  0  7G16G18G19G21G22G27G31
  20749211.380   109037864.17509  20749207.720    84964564.17448
  21691666.180   113990694.23609  21691663.040    88823843.23348
  23919499.580   125697834.41208  23919495.280    97946347.66346
  22245819.240   116902911.69108  22245815.720    91093335.62947
  22170402.140   116506357.71809  22170397.460    90784209.63548
  21888067.200   115022614.57809  21888066.100    89628026.78948
  24658337.200   129580374.37308  24658346.200   100971724.89945
 15 03 03 00 36 30.0000000  0  7G16G18G19G21G22G27G31
  20742251.040   109001286.94809  20742247.280    84936062.44248
  21687763.420   113970184.56309  21687760.160    88807861.67547
  23905124.740   125622294.59608  23905120.560    97887485.51246
  22257557.000   116964593.75508  22257553.420    91141399.57947
  22155230.600   116426631.34909  22155225.940    90722085.25748
  21877513.120   114967152.25609  21877512.000    89584809.42248
  24676098.760   129673707.81808  24676107.840   101044451.42645
 15 03 03 00 37  0.0000000  0  7G16G18G19G21G22G27G31
  20735381.320   108965186.12009  20735377.460    84907931.92848
  21683952.020   113950155.57109  21683948.740    88792254.68547
  23890761.320   125546814.99508  23890757.260    97828670.27147
  22269323.880   117026428.65409  22269320.280    91189582.59747
  22140113.260   116347189.74309  22140108.640    90660182.77948
  21866980.680   114911803.82409  21866979.580    89541680.78748
  24693843.060   129766951.12308  24693852.480   101117107.73045
 15 03 03 00 37 30.0000000  0  6G16G18G19G21G22G27
  20728601.520   108929557.93109  20728597.620    84880169.70248
  21680231.140   113930602.59009  21680227.960    88777018.61047
  23876408.440   125471391.10208  23876404.580    97769898.48946
  22281118.700   117088410.23608  22281114.940    91237879.94447
  22125049.600   116268030.14909  22125045.060    90598500.04548
  21856469.000   114856564.45909  21856467.880    89498637.14348
 15 03 03 00 38  0.0000000  0  6G16G18G19G21G22G27
  20721912.540   108894407.07009  20721908.680    84852779.42548
  21676601.540   113911529.38909  21676598.400    88762156.38848
  23862066.960   125396025.95908  23862062.840    97711172.37647
  22292941.660   117150539.61409  22292937.760    91286292.44247
  22110040.760   116189158.36409  22110036.240    90537041.56148
  21845978.680   114801437.66909  21845977.640    89455681.21748
 15 03 03 00 38 30.0000000  0  6G16G18G19G21G22G27
  20715315.360   108859738.72109  20715311.600    84825765.12148
  21673064.120   113892940.30509  21673060.960    88747671.40248
  23847737.100   125320722.93208  23847733.000    97652494.79646
  22304793.060   117212818.73709  22304789.160    91334821.61847
  22095087.820   116110580.04509  22095083.220    90475811.75948
  21835510.540   114746427.35309  21835509.580    89412816.03448
 15 03 03 00 39  0.0000000  0  6G16G18G19G21G22G27
  20708808.840   108825546.53809  20708805.120    84799121.85948
  21669617.560   113874828.29009  21669614.360    88733558.16548
  23833417.680   125245474.37908  23833413.680    97593859.59747
  22316671.080   117275237.67009  22316667.160    91383459.75247
  22080189.740   116032289.80109  22080184.960    90414806.44448
  21825063.180   114691525.92409  21825062.240    89370035.72048
 15 03 03 00 39 30.0000000  0  6G16G18G19G21G22G27
  20702394.080   108791836.63109  20702390.360    84772854.39548
  21666262.820   113857198.59709  21666259.540    88719820.74248
  23819109.700   125170284.80408  23819105.660    97535270.33546
  22328576.160   117337799.44808  22328572.180    91432209.19147
  22065347.700   115954294.54909  22065342.820    90354030.98748
  21814637.520   114636738.29409  21814636.540    89327344.06848
 15 03 03 00 40  0.0000000  0  6G16G18G19G21G22G27
  20696072.340   108758615.69509  20696068.620    84746967.95348
  21663000.780   113840056.52909  21662997.420    88706463.29547
  23804813.500   125095158.91408  23804809.600    97476730.76146
  22340508.960   117400507.05308  22340504.960    91481072.25447
  22050563.100   115876601.51909  22050558.240    90293491.03347
  21804234.440   114582069.78409  21804233.440    89284745.24248
 15 03 03 00 40 30.0000000  0  6G16G18G19G21G22G27
  20689841.780   108725873.81509  20689838.020    84721454.80548
  21659829.500   113823391.66109  21659826.120    88693477.70447
  23790527.620   125020085.68508  23790523.660    97418232.16345
  22352467.160   117463348.10708  22352463.200    91530039.30747
  22035834.320   115799202.10709  22035829.540    90233179.86047
  21793851.940   114527509.52009  21793850.920    89242230.76748
 15 03 03 00 41  0.0000000  0  6G16G18G19G21G22G27
  20683704.560   108693622.46709  20683700.780    84696323.87248
  21656751.040   113807214.59609  21656747.580    88680872.20647
  23776253.580   124945074.75708  23776249.400    97359782.11246
  22364452.260   117526330.10408  22364448.220    91579116.19047
  22021163.760   115722108.37909  22021159.080    90173106.87548
  21783491.980   114473067.69109  21783490.960    89199808.56148
 15 03 03 00 41 30.0000000  0  6G16G18G19G21G22G27
  20677660.500   108661860.88509  20677656.760    84671574.59048
  21653765.080   113791523.80409  21653761.660    88668645.63548
  23761990.760   124870123.83308  23761986.460    97301378.85246
  22376463.440   117589449.33608  22376459.440    91628300.00147
  22006551.520   115645320.65009  22006546.840    90113272.33248
  21773154.200   114418742.40109  21773153.160    89157477.17448
 15 03 03 00 42  0.0000000  0  6G16G18G19G21G22G27
  20671709.780   108630590.13509  20671706.160    84647207.77548
  21650871.680   113776319.05009  21650868.300    88656797.79548
  23747739.360   124795232.53608  23747735.260    97243022.05046
  22388500.300   117652703.59608  22388496.440    91677589.02747
  21991997.800   115568840.65909  21991993.120    90053677.59948
  21762838.600   114364533.60209  21762837.500    89115236.56948
 15 03 03 00 42 30.0000000  0  6G16G18G19G21G22G27
  20665852.280   108599809.21109  20665848.760    84623222.63648
  21648070.500   113761598.61609  21648067.080    88645327.34547
  23733498.900   124720398.50808  23733494.580    97184709.84846
  22400562.100   117716088.74409  22400558.220    91726980.04747
  21977502.660   115492668.34909  21977497.960    89994322.60148
  21752544.780   114310439.35209  21752543.700    89073085.21248
 15 03 03 00 43  0.0000000  0  6G16G18G19G21G22G27
  20660089.160   108569523.89509  20660085.640    84599623.68448
  21645362.320   113747366.99209  21645358.920    88634237.78048
  23719270.180   124645626.04808  23719266.060    97126445.62046
  22412649.280   117779607.32409  22412645.460    91776475.04947
  21963067.380   115416810.49109  21963062.700    89935212.63148
  21742273.660   114256464.27809  21742272.600    89031026.72148
 15 03 03 00 43 30.0000000  0  6G16G18G19G21G22G27
  20654419.880   108539731.75409  20654416.380    84576409.03048
  21642746.600   113733621.29309  21642743.200    88623526.85447
  23705052.600   124570911.41208  23705048.260    97068226.45646
  22424760.840   117843253.85208  22424757.100    91826069.74447
  21948691.580   115341265.37309  21948686.900    89876346.35448
  21732024.520   114202604.85009  21732023.540    88989058.33948
 15 03 03 00 44  0.0000000  0  6G16G18G19G21G22G27
  20648845.680   108510439.50809  20648842.220    84553583.91048
  21640224.520   113720367.58109  21640221.140    88613199.30748
  23690846.920   124496260.17008  23690842.520    97010056.71246
  22436897.420   117907031.77108  22436893.700    91875766.80747
  21934376.680   115266040.63609  21934372.060    89817729.71948
  21721798.560   114148866.95209  21721797.600    88947184.66148
 15 03 03 00 44 30.0000000  0  6G16G18G19G21G22G27
  20643365.720   108481642.56009  20643362.320    84531144.73648
  21637794.900   113707599.82909  21637791.520    88603250.43048
  23676652.180   124421665.67208  23676647.700    96951931.15246
  22449057.620   117970933.65209  22449053.880    91925560.48047
  21920122.060   115191132.45709  21920117.440    89759359.76548
  21711594.620   114095244.80109  21711593.680    88905401.17948
 15 03 03 00 45  0.0000000  0  6G16G18G19G21G22G27
  20637981.740   108453349.92809  20637978.400    84509098.52348
  21635459.200   113695325.78709  21635455.880    88593686.25147
  23662469.700   124347135.70908  23662464.980    96893855.87846
  22461242.440   118034965.08409  22461238.640    91975455.09147
  21905929.620   115116550.78909  21905924.920    89701244.21448
  21701414.200   114041746.37209  21701413.260    88863714.09248
 15 03 03 00 45 30.0000000  0  6G16G18G19G21G22G27
  20632693.720   108425561.19509  20632690.380    84487444.96548
  21633217.280   113683544.13909  21633213.920    88584505.75948
  23648298.920   124272668.63008  23648294.540    96835829.65646
  22473451.340   118099123.01109  22473447.480    92025448.27447
  21891799.500   115042296.32109  21891794.740    89643383.62448
  21691257.100   113988370.50909  21691256.160    88822122.52248
 15 03 03 00 46  0.0000000  0  6G16G18G19G21G22G27
  20627501.280   108398274.66509  20627497.920    84466182.73648
  21631068.860   113672253.39109  21631065.360    88575707.78548
  23634139.520   124198261.08507  23634134.940    96777849.77246
  22485683.300   118163402.30808  22485679.400    92075536.04047
  21877731.480   114968368.24809  21877726.640    89585777.38748
  21681122.800   113935114.47409  21681121.860    88780624.31948
 15 03 03 00 46 30.0000000  0  6G16G18G19G21G22G27
  20622404.700   108371491.77809  20622401.280    84445312.95348
  21629013.640   113661453.06309  21629010.120    88567291.96248
  23619991.700   124123913.81308  23619987.240    96719916.84246
  22497938.020   118227801.50609  22497934.060    92125717.22147
  21863726.040   114894768.98309  21863721.120    89528427.35548
  21671011.380   113881978.77409  21671010.480    88739219.89648
 15 03 03 00 47  0.0000000  0  6G16G18G19G21G22G27
  20617405.540   108345220.67809  20617402.000    84424841.95848
  21627053.080   113651150.74509  21627049.620    88559264.19248
  23605856.340   124049633.38208  23605851.960    96662036.04746
  22510216.640   118292325.98709  22510212.620    92175996.03647
  21849784.920   114821507.40309  21849779.820    89471340.44348
  21660924.280   113828970.79509  21660923.400    88697914.98848
 15 03 03 00 47 30.0000000  0  6G16G18G19G21G22G27
  20612501.600   108319450.01309  20612497.960    84404760.92548
  21625184.880   113641333.83709  21625181.440    88551614.67148
  23591731.500   123975407.11508  23591727.100    96604197.43046
  22522516.400   118356960.95009  22522512.280    92226360.94447
  21835906.020   114748572.95509  21835900.760    89414508.43848
  21650859.100   113776078.09309  21650858.240    88656699.90048
 15 03 03 00 48  0.0000000  0  6G16G18G19G21G22G27
  20607695.400   108294193.04409  20607691.700    84385080.16549
  21623411.360   113632014.40209  21623407.980    88544352.79548
  23577619.320   123901247.06108  23577614.960    96546410.41046
  22534839.120   118421716.64809  22534834.920    92276819.93347
  21822092.180   114675980.25509  21822086.720    89357942.73348
  21640818.200   113723313.10709  21640817.440    88615584.33048
 15 03 03 00 48 30.0000000  0  6G16G18G19G21G22G27
  20602986.380   108269446.96309  20602982.740    84365797.49749
  21621731.840   113623188.95109  21621728.520    88537475.83448
  23563519.000   123827148.96708  23563514.740    96488671.66847
  22547183.640   118486588.03008  22547179.580    92327369.03547
  21808342.960   114603727.27509  21808337.340    89301641.73648
  21630800.920   113670672.26409  21630800.240    88574565.49748
 15 03 03 00 49  0.0000000  0  6G16G18G19G21G22G27
  20598375.080   108245214.40509  20598371.480    84346914.97648
  21620146.700   113614859.18909  21620143.420    88530985.12148
  23549430.740   123753114.52108  23549426.160    96430982.51846
  22559550.100   118551574.49108  22559546.180    92378007.82447
  21794659.000   114531817.71909  21794653.360    89245608.34648
  21620807.700   113618157.58509  21620807.020    88533644.97348
 15 03 03 00 49 30.0000000  0  6G16G18G19G21G22G27
  20593861.660   108221496.33909  20593858.080    84328433.36649
  21618655.940   113607024.98709  21618652.700    88524880.56048
  23535354.440   123679143.49908  23535350.100    96373342.80246
  22571938.060   118616674.08608  22571934.120    92428734.77947
  21781040.660   114460253.30809  21781035.080    89189843.90848
  21610838.500   113565769.02009  21610837.760    88492822.72248
 15 03 03 00 50  0.0000000  0  6G16G18G19G21G22G27
  20589446.640   108198295.32509  20589443.140    84310354.65848
  21617259.800   113599687.89109  21617256.460    88519163.36348
  23521290.360   123605237.06108  23521286.100    96315753.40047
  22584347.460   118681886.44608  22584343.480    92479549.58547
  21767488.600   114389037.73809  21767483.200    89134351.30248
  21600893.700   113513508.55209  21600892.880    88452100.29548
 15 03 03 00 50 30.0000000  0  6G16G18G19G21G22G27
  20585130.260   108175612.49809  20585126.800    84292679.72448
  21615958.260   113592848.17109  21615954.940    88513833.71948
  23507238.500   123531395.27308  23507234.420    96258214.41047
  22596777.980   118747209.66708  22596774.000    92530450.79347
  21754003.300   114318173.08809  21753998.120    89079132.14048
  21590973.320   113461376.45609  21590972.420    88411477.88948
 15 03 03 00 51  0.0000000  0  6G16G18G19G21G22G27
  20580911.920   108153444.85109  20580908.480    84275406.22648
  21614750.640   113586502.12109  21614747.360    88508888.76448
  23493198.300   123457614.23708  23493194.220    96200722.69747
  22609228.660   118812638.52609  22609224.660    92581434.30647
  21740584.480   114247657.45909  21740579.440    89024184.92748
  21581076.680   113409369.28809  21581075.720    88370952.83148
 15 03 03 00 51 30.0000000  0  6G16G18G19G21G22G27
  20576792.280   108131795.93409  20576788.860    84258536.93648
  21613637.400   113580652.01909  21613634.040    88504330.25548
  23479170.280   123383896.55208  23479165.800    96143280.35447
  22621699.600   118878173.43008  22621695.520    92632500.46347
  21727233.080   114177495.50509  21727228.080    88969513.30948
  21571204.280   113357489.72809  21571203.320    88330527.20648
 15 03 03 00 52  0.0000000  0  6G16G18G19G21G22G27
  20572772.140   108110669.92409  20572768.720    84242075.10248
  21612619.040   113575300.69009  21612615.760    88500160.40248
  23465154.760   123310244.54708  23465150.700    96085889.25746
  22634190.920   118943815.56808  22634186.760    92683650.17647
  21713949.940   114107691.87309  21713944.880    88915120.89948
  21561356.820   113305741.11809  21561355.820    88290203.61748
 15 03 03 00 52 30.0000000  0  6G16G18G19G21G22G27
  20568851.320   108090065.56009  20568847.860    84226019.75048
  21611695.240   113570446.38009  21611692.080    88496377.83548
  23451151.460   123236656.48008  23451147.180    96028547.93147
  22646702.000   119009561.48208  22646697.820    92734880.75347
  21700735.040   114038246.87609  21700729.900    88861007.93948
  21551534.000   113254121.94509  21551533.000    88249980.89748
 15 03 03 00 53  0.0000000  0  6G16G18G19G21G22G27
  20565029.160   108069979.87209  20565025.700    84210368.56849
  21610865.260   113566084.91909  21610862.160    88492979.32748
  23437159.760   123163128.58108  23437155.240    95971253.49447
  22659231.740   119075405.30809  22659227.540    92786187.63847
  21687587.980   113969158.71709  21687582.860    88807173.04148
  21541735.160   113202628.78009  21541734.160    88209856.36748
 15 03 03 00 53 30.0000000  0  6G16G18G19G21G22G27
  20561308.100   108050425.78509  20561304.660    84195131.60948
  21610131.260   113562227.77809  21610128.160    88489973.76548
  23423181.460   123089671.97708  23423176.840    95914014.62947
  22671781.960   119141356.91709  22671777.660    92837578.49347
  21674511.360   113900440.82009  21674506.260    88753626.64848
  21531962.520   113151273.32909  21531961.580    88169839.13248
 15 03 03 00 54  0.0000000  0  6G16G18G19G21G22G27
  20557687.460   108031399.06209  20557683.980    84180305.59548
  21609492.340   113558870.41709  21609489.200    88487357.66047
  23409215.720   123016281.80908  23409211.280    95856827.55146
  22684351.140   119207409.51008  22684347.000    92889048.04647
  21661504.660   113832090.20509  21661499.540    88700366.46648
  21522215.240   113100051.00009  21522214.340    88129925.64848
 15 03 03 00 54 30.0000000  0  6G16G18G19G21G22G27
  20554166.800   108012897.81609  20554163.280    84165889.04048
  21608947.940   113556009.84909  21608944.780    88485128.64048
  23395262.240   122942955.35408  23395257.500    95799690.06247
  22696938.740   119273558.41809  22696934.800    92940592.65347
  21648567.560   113764105.54409  21648562.440    88647391.44048
  21512492.860   113048959.52009  21512491.980    88090114.11748
 15 03 03 00 55  0.0000000  0  6G16G18G19G21G22G27
  20550746.460   107994924.13909  20550742.960    84151883.57948
  21608498.360   113553647.28509  21608495.080    88483287.70147
  23381321.180   122869694.13708  23381316.260    95742603.41647
  22709544.820   119339803.84409  22709540.940    92992212.45547
  21635700.900   113696490.97509  21635695.760    88594704.79048
  21502795.800   112998000.84709  21502794.900    88050406.07048
 15 03 03 00 55 30.0000000  0  6G16G18G19G21G22G27
  20547427.820   107977484.87309  20547424.300    84138294.53348
  21608144.560   113551787.86409  21608141.120    88481838.83547
  23367393.340   122796503.38509  23367388.800    95685571.74147
  22722169.880   119406149.16608  22722166.140    93043910.11147
  21622906.060   113629253.78209  21622900.920    88542312.20448
  21493125.080   112947180.74109  21493124.160    88010805.99248
 15 03 03 00 56  0.0000000  0  6G16G18G19G21G22G27
  20544210.040   107960575.53209  20544206.560    84125118.42348
  21607885.580   113550426.52609  21607882.040    88480778.06248
  23353477.940   122723378.06908  23353473.080    95628590.99147
  22734812.640   119472587.94408  22734809.040    93095680.56647
  21610182.400   113562390.57409  21610177.300    88490211.03848
  21483479.840   112896494.46109  21483478.880    87971310.19948
 15 03 03 00 56 30.0000000  0  6G16G18G19G21G22G27
  20541093.620   107944198.67409  20541090.140    84112357.23148
  21607721.680   113549564.86309  21607718.060    88480106.64947
  23339575.380   122650319.74108  23339570.680    95571662.46347
  22747473.260   119539119.68309  22747469.560    93147523.49647
  21597530.620   113495905.07609  21597525.600    88438404.19148
  21473860.500   112845944.17809  21473859.440    87931920.38148
 15 03 03 00 57  0.0000000  0  6G16G18G19G21G22G27
  20538078.860   107928356.06409  20538075.380    84100012.33449
  21607653.000   113549203.52409  21607649.260    88479825.11347
  23325685.800   122577329.35408  23325681.060    95514786.87947
  22760151.460   119605744.05808  22760147.780    93199438.58747
  21584951.220   113429799.90109  21584946.240    88386893.69048
  21464267.320   112795531.21409  21464266.140    87892637.55848
 15 03 03 00 57 30.0000000  0  6G16G18G19G21G22G27
  20535166.180   107913049.98509  20535162.720    84088085.51948
  21607679.740   113549343.72109  21607675.880    88479934.35447
  23311809.340   122504408.16908  23311804.560    95457965.21046
  22772847.080   119672460.74008  22772843.580    93251425.59447
  21572444.800   113364078.48909  21572439.880    88335682.23248
  21454700.640   112745257.52709  21454699.300    87853463.27148
