     2.11           OBSERVATION DATA    G                   RINEX VERSION / TYPE
SPIDER V4,0,0,3554                      2015 03 15 01:06    PGM / RUN BY / DATE 
CKHR                                                        MARKER NAME         
CKHR                                                        MARKER NUMBER       
                                                            OBSERVER / AGENCY   
496547              LEICA GRX1200+GNSS  8.10/4.007          REC # / TYPE / VERS 
10301042            LEIAR25         NONE                    ANT # / TYPE        
  5141838.0877   498328.5776  3730203.3049                  APPROX POSITION XYZ 
        0.0720        0.0000        0.0000                  ANTENNA: DELTA H/E/N
     1     1                                                WAVELENGTH FACT L1/2
     4    C1    L1    P2    L2                              # / TYPES OF OBSERV 
    30.000                                                  INTERVAL            
  2015    03    03    06    51   30.0000000     GPS         TIME OF FIRST OBS   
  2015    03    03    23    59   30.0000000     GPS         TIME OF LAST OBS    
    16                                                      LEAP SECONDS        
    29                                                      # OF SATELLITES     
   G 1   284   284   284   284                              PRN / # OF OBS      
   G 2   932   932   932   932                              PRN / # OF OBS      
   G 3   435   435   435   435                              PRN / # OF OBS      
   G 4   151   151   151   151                              PRN / # OF OBS      
   G 5   632   632   632   632                              PRN / # OF OBS      
   G 6   787   787   787   787                              PRN / # OF OBS      
   G 7   666   666   665   665                              PRN / # OF OBS      
   G 9   720   720   720   720                              PRN / # OF OBS      
   G10   720   719   719   719                              PRN / # OF OBS      
   G11   186   186   186   186                              PRN / # OF OBS      
   G12   815   814   814   814                              PRN / # OF OBS      
   G13   780   780   780   780                              PRN / # OF OBS      
   G14   490   489   489   489                              PRN / # OF OBS      
   G15   672   672   672   672                              PRN / # OF OBS      
   G16   210   210   210   210                              PRN / # OF OBS      
   G17   745   745   745   745                              PRN / # OF OBS      
   G18   497   497   496   496                              PRN / # OF OBS      
   G20   730   730   730   730                              PRN / # OF OBS      
   G21   436   436   436   436                              PRN / # OF OBS      
   G22    65    64    64    64                              PRN / # OF OBS      
   G23   533   533   533   533                              PRN / # OF OBS      
   G24   826   825   820   820                              PRN / # OF OBS      
   G25   849   849   848   848                              PRN / # OF OBS      
   G27   155   155   155   155                              PRN / # OF OBS      
   G28   548   547   547   547                              PRN / # OF OBS      
   G29   735   735   734   734                              PRN / # OF OBS      
   G30   711   711   711   711                              PRN / # OF OBS      
   G31   671   671   671   671                              PRN / # OF OBS      
   G32   171   171   171   171                              PRN / # OF OBS      
BIT 2 OF LLI FLAGS DATA COLLECTED UNDER A/S CONDITION       COMMENT             
SNR is mapped to RINEX snr flag value [2-9]                 COMMENT             
Lx:     = 25dBHz -> 1; 26-27dBHz -> 2; 28-31dBHz -> 3       COMMENT             
       32-35dBHz -> 4; 36-38dBHz -> 5; 39-41dBHz -> 6       COMMENT             
       42-44dBHz -> 7; 45-48dBHz -> 8; >=49dBHz -> 9        COMMENT             
                                                            END OF HEADER       
 15 03 03 06 51 30.0000000  0  9G01G03G04G09G11G17G23G31G32
  20598354.160   108245081.19019  20598355.660    84346822.54559
  20528641.840   107878740.63919  20528641.980    84061356.67159
  22237413.500   116858396.58219  22237413.320    91058489.30257
  23052492.440   121141664.85118  23052493.980    94396109.19157
  21552459.400   113258938.09119  21552456.980    88253707.61858
  22286632.800   117117045.36919  22286630.580    91260026.52058
  21179716.840   111300162.30219  21179712.980    86727383.34758
  23894794.440   125567991.38518  23894793.860    97845185.46956
  22549073.900   118496182.96019  22549072.900    92334683.43657
 15 03 03 06 52  0.0000000  0  9G01G03G04G09G11G17G23G31G32
  20603787.960   108273635.84109  20603789.380    84369072.83749
  20529947.020   107885599.34309  20529947.180    84066701.03449
  22252321.560   116936738.27309  22252321.120    91119534.63847
  23033175.380   121040152.15708  23033176.900    94317008.33347
  21567782.860   113339463.39009  21567780.440    88316454.49248
  22278923.400   117076532.05609  22278921.120    91228457.62948
  21168574.520   111241608.48209  21168570.560    86681756.93748
  23895139.340   125569803.82808  23895138.460    97846597.68546
  22563241.140   118570632.54508  22563240.060    92392695.98847
 15 03 03 06 52 30.0000000  0  9G01G03G04G09G11G17G23G31G32
  20609329.140   108302754.92009  20609330.580    84391762.94749
  20531327.280   107892852.90509  20531327.520    84072353.07949
  22267313.720   117015521.88509  22267313.140    91180924.32447
  23013934.300   120939038.69508  23013935.700    94238218.57947
  21583205.560   113420510.45209  21583203.180    88379607.93848
  22271347.560   117036720.64609  22271345.240    91197435.66748
  21157544.720   111183645.68509  21157540.520    86636591.05148
  23895617.180   125572314.65008  23895616.340    97848554.07346
  22577451.660   118645308.90109  22577450.460    92450885.22947
 15 03 03 06 53  0.0000000  0  9G01G03G04G09G11G17G23G31G32
  20614945.800   108332270.46809  20614947.220    84414761.98549
  20532750.500   107900332.36609  20532750.880    84078181.15649
  22282357.800   117094578.43909  22282357.060    91242526.73447
  22994737.500   120838158.20508  22994738.700    94159610.34847
  21598695.180   113501909.34609  21598692.880    88443035.54848
  22263873.600   116997444.50609  22263871.260    91166830.80448
  21146595.480   111126106.96909  21146591.240    86591755.63348
  23896196.100   125575355.88308  23896195.300    97850923.77546
  22591673.080   118720042.75408  22591671.940    92509119.29047
 15 03 03 06 53 30.0000000  0  9G01G03G04G09G11G17G23G31G32
  20620637.980   108362182.70809  20620639.320    84438070.14249
  20534216.600   107908037.06209  20534217.060    84084184.74849
  22297453.520   117173906.95709  22297452.780    91304341.03447
  22975585.320   120737512.74908  22975586.360    94081185.28847
  21614251.400   113583658.34809  21614249.120    88506735.95148
  22256501.740   116958704.87609  22256499.360    91136644.00448
  21135727.040   111068993.24209  21135722.880    86547251.38148
  23896876.120   125578928.29808  23896875.120    97853707.38646
  22605905.260   118794833.18608  22605904.220    92567397.42047
 15 03 03 06 54  0.0000000  0  9G01G03G04G09G11G17G23G31G32
  20626406.540   108392496.13909  20626407.760    84461690.92549
  20535726.260   107915970.48709  20535726.760    84090366.57849
  22312601.560   117253510.60009  22312600.940    91366369.72347
  22956478.900   120637108.51208  22956480.000    94002948.19447
  21629874.700   113665759.95609  21629872.460    88570711.13548
  22249232.940   116920507.13409  22249230.540    91106879.46748
  21124940.460   111012309.76809  21124936.400    86503082.39748
  23897657.980   125583036.66908  23897656.820    97856908.64046
  22620148.640   118869683.35808  22620147.920    92625722.11447
 15 03 03 06 54 30.0000000  0  9G01G03G04G09G11G17G23G31G32
  20632250.860   108423207.56409  20632251.960    84485621.83249
  20537278.740   107924128.54809  20537279.220    84096723.43649
  22327801.180   117333385.11609  22327800.640    91428609.47947
  22937418.100   120536944.12308  22937419.320    93924897.98247
  21645564.180   113748208.92509  21645562.000    88634956.98248
  22242066.900   116882849.25609  22242064.500    91077535.60448
  21114235.260   110956053.79609  21114231.260    86459246.54648
  23898541.140   125587677.81209  23898539.920    97860525.05146
  22634402.720   118944588.87508  22634402.240    92684089.93547
 15 03 03 06 55  0.0000000  0  9G01G03G04G09G11G17G23G31G32
  20638171.180   108454318.12309  20638172.080    84509863.75549
  20538874.080   107932511.47509  20538874.420    84103255.52949
  22343052.360   117413530.39209  22343051.840    91491060.22947
  22918403.520   120437022.45008  22918404.880    93847036.91447
  21661319.760   113831004.63609  21661317.580    88699473.02548
  22235003.980   116845733.21309  22235001.580    91048613.94148
  21103612.060   110900227.97009  21103608.020    86415745.87148
  23899526.020   125592853.34908  23899524.800    97864557.87446
  22648667.300   119019549.63609  22648666.960    92742500.80747
 15 03 03 06 55 30.0000000  0  9G01G03G04G09G11G17G23G31G32
  20644167.100   108485825.84409  20644167.820    84534415.15849
  20540511.620   107941116.40409  20540511.900    84109960.61149
  22358354.580   117493943.37809  22358354.000    91553719.58847
  22899435.180   120337343.31908  22899436.460    93769364.82947
  21677140.640   113914143.10409  21677138.460    88764256.17748
  22228043.980   116809158.16409  22228041.600    91020113.83548
  21093070.540   110844830.77309  21093066.380    86372579.19248
  23900612.220   125598561.17108  23900611.080    97869005.47846
  22662941.860   119094562.49209  22662941.540    92800952.27747
 15 03 03 06 56  0.0000000  0  9G01G03G04G09G11G17G23G31G32
  20650239.460   108517735.27609  20650239.940    84559279.59549
  20542192.080   107949947.01309  20542192.340    84116841.55649
  22373708.340   117574627.46109  22373707.740    91616590.20647
  22880514.240   120237913.00108  22880515.420    93691886.64047
  21693027.220   113997626.74709  21693025.000    88829308.28648
  22221187.940   116773129.34109  22221185.600    90992039.38248
  21082611.680   110789867.67909  21082607.300    86329750.77448
  23901800.660   125604806.44208  23901799.580    97873871.85746
  22677227.000   119169630.91109  22677226.480    92859447.05847
 15 03 03 06 56 30.0000000  0  9G01G03G04G09G11G17G23G31G32
  20656387.720   108550043.99409  20656388.020    84584455.14449
  20543914.840   107958999.96209  20543915.080    84123895.73949
  22389112.960   117655579.22809  22389112.260    91679669.41147
  22861640.620   120138730.94008  22861641.760    93614601.89747
  21708978.540   114081451.05509  21708976.320    88894625.82548
  22214435.600   116737645.67309  22214433.380    90964389.70548
  21072235.080   110735336.73009  21072230.420    86287259.09148
  23903090.820   125611586.55208  23903089.880    97879154.98446
  22691522.040   119244751.24809  22691521.380    92917982.27147
 15 03 03 06 57  0.0000000  0  9G01G03G04G09G11G17G23G31G32
  20662612.520   108582755.22309  20662612.760    84609944.35449
  20545680.400   107968277.67809  20545680.580    84131125.07648
  22404568.780   117736800.58309  22404568.140    91742958.67047
  22842815.180   120039802.08908  22842816.360    93537514.47447
  21724994.920   114165617.64509  21724992.760    88960210.08448
  22207787.740   116702710.90409  22207785.620    90937167.76248
  21061941.400   110681242.36809  21061936.540    86245107.61748
  23904483.500   125618905.16408  23904482.500    97884857.73346
  22705827.380   119319925.65009  22705826.660    92976559.61547
 15 03 03 06 57 30.0000000  0  9G01G03G04G09G11G17G23G31G32
  20668912.540   108615862.04109  20668912.880    84635741.80949
  20547487.200   107977772.39209  20547487.360    84138523.50348
  22420074.360   117818283.40809  22420073.920    91806451.67647
  22824036.980   119941121.34908  22824038.020    93460620.36947
  21741074.620   114250117.57209  21741072.640    89026054.07747
  22201243.320   116668319.45309  22201241.140    90910369.17648
  21051729.380   110627578.16109  21051724.480    86203291.32348
  23905977.300   125626755.42508  23905976.480    97890974.75246
  22720141.380   119395145.99108  22720140.620    93035172.75347
 15 03 03 06 58  0.0000000  0  9G01G03G04G09G11G17G23G31G32
  20675289.040   108649371.16409  20675289.520    84661852.74649
  20549336.380   107987490.01109  20549336.580    84146095.61749
  22435630.880   117900033.32009  22435630.540    91870152.79947
  22805307.600   119842697.24908  22805308.480    93383926.24647
  21757218.760   114334955.61109  21757216.840    89092161.55048
  22194803.820   116634478.93009  22194801.440    90883999.88448
  21041600.560   110574351.78509  21041595.760    86161816.20148
  23907573.660   125635144.14808  23907572.760    97897511.35646
  22734465.260   119470418.02609  22734464.460    93093826.18247
 15 03 03 06 58 30.0000000  0  9G01G03G04G09G11G17G23G31G32
  20681741.800   108683281.29309  20681742.440    84688276.16049
  20551227.560   107997428.36609  20551227.820    84153839.74449
  22451237.860   117982047.85709  22451237.480    91934060.11447
  22786627.000   119744530.22708  22786627.840    93307432.43947
  21773426.740   114420128.36209  21773424.760    89158529.84148
  22188469.040   116601188.85809  22188466.520    90858059.52548
  21031554.880   110521562.83309  21031550.320    86120681.93048
  23909272.280   125644070.23608  23909271.400    97904466.69846
  22748798.500   119545739.33309  22748797.560    93152518.01347
 15 03 03 06 59  0.0000000  0  9G01G03G04G09G11G17G23G31G32
  20688271.840   108717597.62309  20688272.620    84715016.09049
  20553161.540   108007591.92209  20553161.980    84161759.34849
  22466895.980   118064331.07109  22466895.620    91998176.79847
  22767996.600   119646627.33808  22767997.440    93231144.45247
  21789699.100   114505639.05609  21789696.880    89225161.47448
  22182240.100   116568455.35809  22182237.560    90832552.84448
  21021593.600   110469217.20209  21021589.260    86079893.10248
  23911074.100   125653538.92408  23911073.260    97911844.83746
  22763141.900   119621114.05909  22763141.120    93211251.44947
 15 03 03 06 59 30.0000000  0  9G01G03G04G09G11G17G23G31G32
  20694877.260   108752309.94609  20694878.160    84742064.59049
  20555136.320   108017969.69009  20555136.880    84169845.86749
  22482603.000   118146871.56109  22482602.660    92062493.96347
  22749414.880   119548980.21808  22749415.700    93155055.76747
  21806033.440   114591475.76709  21806031.040    89292047.13548
  22176115.200   116536268.79609  22176112.700    90807472.35848
  21011714.960   110417305.35809  21011710.740    86039442.28648
  23912977.360   125663540.25308  23912976.520    97919638.02746
  22777493.280   119696530.99408  22777492.440    93270017.79447
 15 03 03 07 00  0.0000000  0  9G01G03G04G09G11G17G23G31G32
  20701559.340   108787425.34909  20701560.440    84769427.18849
  20557153.120   108028567.98509  20557153.740    84178104.23949
  22498360.140   118229675.55209  22498359.820    92127016.46347
  22730883.600   119451597.74208  22730884.360    93079173.31947
  21822430.680   114677643.52909  21822428.300    89359190.77048
  22170095.960   116504637.64209  22170093.580    90782824.66048
  21001920.440   110365835.02809  21001916.260    85999335.51348
  23914983.400   125674081.32308  23914982.560    97927851.79746
  22791853.880   119771996.17209  22791853.160    93328821.73347
 15 03 03 07 00 30.0000000  0  9G01G03G04G09G11G17G23G31G32
  20708318.500   108822945.66109  20708319.820    84797105.28949
  20559212.100   108039387.92209  20559212.740    84186535.31449
  22514167.560   118312743.59209  22514167.240    92191744.70147
  22712403.520   119354483.57509  22712404.200    93003499.92347
  21838890.800   114764142.13309  21838888.560    89426592.18648
  22164182.980   116473564.56209  22164180.660    90758611.81948
  20992210.620   110314809.14909  20992206.400    85959575.05748
  23917092.380   125685163.94008  23917091.600    97936487.51546
  22806223.860   119847510.59308  22806223.040    93387664.02247
 15 03 03 07 01  0.0000000  0  9G01G03G04G09G11G17G23G31G32
  20715154.540   108858869.04409  20715155.920    84825097.47049
  20561312.760   108050426.93009  20561313.460    84195137.10049
  22530024.640   118396072.88909  22530024.400    92256676.50047
  22693974.520   119257637.69409  22693975.020    92928035.58847
  21855413.140   114850967.88909  21855411.020    89494248.53947
  22158375.940   116443048.29309  22158373.660    90734832.85948
  20982585.260   110264226.66309  20982580.980    85920160.11448
  23919303.820   125696786.35308  23919303.440    97945543.86046
  22820602.660   119923071.21608  22820601.880    93446542.32347
 15 03 03 07 01 30.0000000  0  9G01G03G04G09G11G17G23G31G32
  20722068.000   108895198.82809  20722069.320    84853406.33648
  20563455.640   108061687.62309  20563456.260    84203911.63549
  22545931.880   118479665.47909  22545931.760    92321813.45947
  22675597.540   119161065.32409  22675597.920    92852784.39047
  21871998.000   114938122.09009  21871995.980    89562160.82047
  22152675.580   116413092.88809  22152673.360    90711490.95248
  20973045.020   110214091.41209  20973040.700    85881093.66948
  23921618.660   125708952.19608  23921618.560    97955023.67646
  22834990.580   119998680.63208  22834990.160    93505458.63747
 15 03 03 07 02  0.0000000  0  9G01G03G04G09G11G17G23G31G32
  20729056.640   108931923.87209  20729057.920    84882023.20849
  20565638.480   108073158.17209  20565639.000    84212849.67848
  22561886.820   118563509.17409  22561886.820    92387146.09947
  22657270.780   119064757.09509  22657271.120    92777739.00747
  21888643.000   115025591.84009  21888641.000    89630318.97447
  22147080.060   116383688.47409  22147077.860    90688578.37048
  20963587.820   110164393.17609  20963583.500    85842367.75248
  23924034.980   125721650.17508  23924034.880    97964918.12946
  22849385.600   120074326.68709  22849385.200    93564403.51447
 15 03 03 07 02 30.0000000  0  9G01G03G04G09G11G17G23G31G32
  20736122.620   108969055.60809  20736123.920    84910956.96949
  20567863.320   108084849.32509  20567863.760    84221959.62349
  22577891.560   118647614.16909  22577891.500    92452682.35747
  22638996.800   118968726.34109  22638997.140    92702909.84247
  21905349.860   115113386.46109  21905347.880    89698730.27647
  22141591.740   116354847.43309  22141589.600    90666104.79848
  20954216.040   110115144.10009  20954211.680    85803991.83448
  23926554.660   125734891.74508  23926554.620    97975236.16846
  22863789.620   120150019.94209  22863789.300    93623385.16847
 15 03 03 07 03  0.0000000  0  9G01G03G04G09G11G17G23G31G32
  20743265.140   109006589.45709  20743266.400    84940204.07149
  20570129.120   108096755.84909  20570129.560    84231237.39849
  22593945.000   118731974.99009  22593944.740    92518417.98647
  22620775.100   118872970.31409  22620775.420    92628294.75847
  21922117.360   115201499.57009  21922115.340    89767389.75647
  22136209.940   116326565.61309  22136207.800    90644066.97248
  20944928.880   110066340.33609  20944924.560    85765962.91948
  23929176.800   125748672.66008  23929177.220    97985974.46046
  22878201.600   120225755.02909  22878201.360    93682399.40447
 15 03 03 07 03 30.0000000  0  9G01G03G04G09G11G17G23G31G32
  20750484.420   109044526.65109  20750485.620    84969765.45948
  20572435.960   108108878.31709  20572436.440    84240683.43049
  22610047.180   118816591.77409  22610046.720    92584353.01747
  22602606.300   118777492.09209  22602606.520    92553896.14247
  21938945.260   115289930.58709  21938943.280    89836296.94847
  22130935.020   116298845.19809  22130932.860    90622466.61048
  20935726.760   110017983.80209  20935722.540    85728282.48448
  23931901.740   125762993.86907  23931902.700    97997133.72546
  22892621.580   120301532.12809  22892621.180    93741446.38547
 15 03 03 07 04  0.0000000  0  9G01G03G04G09G11G17G23G31G32
  20757780.100   109082865.36709  20757781.240    84999639.73649
  20574783.440   108121214.30009  20574783.920    84250295.85049
  22626197.440   118901461.37209  22626196.900    92650485.07947
  22584490.360   118682291.68309  22584490.400    92479714.01147
  21955832.880   115378675.63109  21955830.960    89905448.86447
  22125766.720   116271685.27009  22125764.580    90601303.00148
  20926609.600   109970073.47509  20926605.440    85690949.74248
  23934729.460   125777853.30408  23934730.380    98008712.43646
  22907049.120   120377348.72709  22907048.480    93800524.18347
 15 03 03 07 04 30.0000000  0  9G01G03G04G09G11G17G23G31G32
  20765152.420   109121606.88309  20765153.480    85029827.88249
  20577171.700   108133764.44909  20577172.120    84260075.13349
  22642395.820   118986584.12609  22642395.300    92716814.37147
  22566427.900   118587372.27909  22566427.740    92405750.83347
  21972780.160   115467734.15709  21972778.240    89974845.01547
  22120705.440   116245087.91709  22120703.320    90580577.74448
  20917577.880   109922611.55009  20917573.680    85653966.39148
  23937660.040   125793252.51308  23937660.460    98020711.73846
  22921484.240   120453205.30108  22921483.640    93859633.07247
 15 03 03 07 05  0.0000000  0  9G01G03G04G09G11G17G23G31G32
  20772602.220   109160755.44709  20772603.200    85060333.20548
  20579601.400   108146532.39809  20579601.780    84270024.14848
  22658643.000   119071963.31009  22658642.620    92783343.51147
  22548420.000   118492739.96809  22548419.680    92332011.36847
  21989787.640   115557108.53509  21989785.640    90044487.29747
  22115752.120   116219057.97109  22115749.940    90560294.62448
  20908632.640   109875602.90109  20908628.200    85617336.24848
  23940694.040   125809195.75508  23940694.240    98033134.97546
  22935927.560   120529105.11809  22935926.820    93918775.69546
 15 03 03 07 05 30.0000000  0  9G01G03G04G09G11G17G23G31G32
  20780128.180   109200304.24509  20780129.140    85091150.39748
  20582071.080   108159510.77809  20582071.500    84280137.13049
  22674937.420   119157590.73609  22674937.300    92850066.06647
  22530465.740   118398389.83409  22530465.440    92258491.78147
  22006853.600   115646790.11109  22006851.640    90114368.96947
  22110905.640   116193589.58909  22110903.460    90540449.09348
  20899772.540   109829041.39809  20899767.860    85581054.54148
  23943830.400   125825676.36608  23943830.340    98045976.94245
  22950377.760   120605040.81908  22950377.060    93977946.26547
 15 03 03 07 06  0.0000000  0  9G01G03G04G09G11G17G23G31G32
  20787731.200   109240258.18309  20787732.200    85122283.28448
  20584581.620   108172703.95209  20584582.120    84290417.47449
  22691279.860   119243470.46209  22691279.800    92916985.22347
  22512566.420   118304328.67209  22512566.240    92185197.37147
  22023978.600   115736781.93609  22023976.720    90184492.38947
  22106167.000   116168688.17809  22106164.900    90521045.35948
  20890998.500   109782932.67609  20890993.680    85545125.64248
  23947070.020   125842698.93908  23947069.840    98059241.23046
  22964835.560   120681016.39309  22964834.960    94037147.90647
 15 03 03 07 06 30.0000000  0  9G01G03G04G09G11G17G23G31G32
  20795410.440   109280612.84009  20795411.500    85153728.41449
  20587132.100   108186106.93309  20587132.620    84300861.30849
  22707669.340   119329597.12809  22707669.220    92984096.77947
  22494721.680   118210553.93309  22494721.500    92112126.14448
  22041161.300   115827077.29509  22041159.460    90254852.33047
  22101535.700   116144350.44309  22101533.540    90502080.85948
  20882309.720   109737273.03709  20882305.000    85509546.67848
  23950411.840   125860259.06108  23950411.700    98072924.38046
  22979299.860   120757026.77608  22979299.560    94096376.64547
 15 03 03 07 07  0.0000000  0  9G01G03G04G09G11G17G23G31G32
  20803166.500   109321371.11909  20803167.580    85185488.03849
  20589722.980   108199722.12509  20589723.500    84311470.50649
  22724106.100   119415972.36708  22724105.920    93051402.03547
  22476932.400   118117070.40709  22476932.200    92039281.83848
  22058401.980   115917677.55409  22058400.060    90325449.83847
  22097012.380   116120579.92809  22097010.120    90483558.33148
  20873707.040   109692066.24709  20873702.520    85474320.59448
  23953856.420   125878359.52308  23953856.240    98087028.58346
  22993771.280   120833074.13408  22993770.800    94155634.23847
 15 03 03 07 07 30.0000000  0  9G01G03G04G09G11G17G23G31G32
  20810999.680   109362534.94909  20811000.820    85217563.69749
  20592354.520   108213550.89309  20592355.060    84322246.12049
  22740590.320   119502597.25709  22740590.060    93118901.82547
  22459199.240   118023881.88609  22459199.060    91966667.40948
  22075700.660   116008582.81209  22075698.720    90396285.01847
  22092597.440   116097378.95709  22092595.140    90465479.60548
  20865191.040   109647314.86709  20865186.740    85439449.37848
  23957404.120   125897002.00809  23957403.660    98101555.13846
  23008249.860   120909159.65108  23008249.580    94214921.51347
 15 03 03 07 08  0.0000000  0  9G01G03G04G09G11G17G23G31G32
  20818909.340   109404100.69809  20818910.600    85249952.55149
  20595025.960   108227589.15009  20595026.460    84333184.98149
  22757121.100   119589466.95309  22757120.860    93186592.39546
  22441521.840   117930986.66109  22441521.680    91894281.53048
  22093056.300   116099787.52409  22093054.400    90467353.53847
  22088290.340   116074745.00409  22088288.120    90447842.71848
  20856761.080   109603015.71909  20856756.960    85404930.55448
  23961054.460   125916182.96909  23961053.500    98116501.31546
  23022735.020   120985279.02908  23022734.800    94274235.21047
 15 03 03 07 08 30.0000000  0  9G01G03G04G09G11G17G23G31G32
  20826895.760   109446069.80509  20826897.180    85282655.69449
  20597737.460   108241837.83509  20597737.900    84344287.80948
  22773698.560   119676581.76009  22773698.280    93254473.94947
  22423900.820   117838388.05709  22423900.640    91822126.76848
  22110468.840   116191291.16009  22110467.060    90538654.98547
  22084091.480   116052679.98009  22084089.380    90430649.15448
  20848417.580   109559171.15609  20848413.660    85370765.93848
  23964807.480   125935903.74909  23964806.340    98131868.10046
  23037226.760   121061433.14308  23037226.380    94333575.97746
 15 03 03 07 09  0.0000000  0  9G01G03G04G09G11G17G23G31G32
  20834959.100   109488442.76109  20834960.620    85315673.52549
  20600488.960   108256296.96209  20600489.440    84355554.61548
  22790322.700   119763941.33009  22790322.340    93322546.22746
  22406336.700   117746088.45609  22406336.500    91750204.99348
  22127938.100   116283092.34909  22127936.440    90610188.28747
  22080001.140   116031185.19309  22079999.200    90413899.93248
  20840160.820   109515782.54009  20840157.100    85336956.60948
  23968663.240   125956164.89509  23968662.260    98147655.94747
  23051725.040   121137621.74808  23051724.500    94392943.63646
 15 03 03 07 09 30.0000000  0  9G01G03G04G09G11G17G23G31G32
  20843099.660   109531221.09609  20843101.160    85349007.22948
  20603280.760   108270967.67909  20603281.280    84366986.29948
  22806993.540   119851546.23409  22806993.220    93390809.64246
  22388830.160   117654091.37509  22388829.960    91678518.95948
  22145464.000   116375190.87409  22145462.420    90681953.28547
  22076019.840   116010263.01009  22076017.940    90397596.88848
  20831991.320   109472851.92209  20831987.660    85303504.15948
  23972621.960   125976967.60509  23972621.320    98163865.78947
  23066229.880   121213845.92208  23066229.700    94452338.94046
 15 03 03 07 10  0.0000000  0 10G01G03G04G06G09G11G17G23G31G32
  20851316.880   109574402.70809  20851318.360    85382655.18949
  20606112.400   108285847.41709  20606112.860    84378580.86348
  22823710.420   119939393.28509  22823710.040    93459261.77746
  24645093.000   129510835.23708  24645094.240   100917543.48445
  22371381.140   117562396.57909  22371381.060    91607068.46948
  22163045.780   116467582.93209  22163044.160    90753947.01247
  22072147.220   115989911.74209  22072145.280    90381738.71448
  20823908.880   109430378.14309  20823905.140    85270407.69948
  23976683.140   125998309.53308  23976682.740    98180495.80447
  23080741.240   121290102.86909  23080740.860    94511759.86046
 15 03 03 07 10 30.0000000  0 10G01G03G04G06G09G11G17G23G31G32
  20859612.980   109617998.61609  20859614.400    85416625.98649
  20608985.840   108300946.81809  20608986.240    84390346.58149
  22840475.120   120027492.44208  22840474.820    93527910.39447
  24626095.480   129411003.74707  24626096.920   100839752.64046
  22353992.120   117471016.99109  22353992.240    91535863.60348
  22180685.080   116560277.48009  22180683.380    90826176.43447
  22068385.400   115970142.92709  22068383.420    90366334.40948
  20815915.620   109388372.51109  20815911.660    85237676.01948
  23980849.020   126020201.78008  23980848.700    98197554.61647
  23095260.780   121366402.98108  23095260.600    94571214.38847
 15 03 03 07 11  0.0000000  0 10G01G03G04G06G09G11G17G23G31G32
  20867983.440   109661984.93709  20867984.820    85450900.97349
  20611896.420   108316241.54309  20611896.760    84402264.50849
  22857282.960   120115818.76509  22857282.880    93596735.92946
  24607094.760   129311153.76607  24607095.680   100761947.37144
  22336658.900   117379930.61209  22336659.240    91464887.20648
  22198376.960   116653248.93409  22198375.240    90898621.63347
  22064729.960   115950933.65709  22064727.960    90351366.10248
  20808007.060   109346811.95409  20808002.820    85205291.16048
  23985114.980   126042620.04808  23985114.660    98215023.30447
  23109783.880   121442721.89208  23109783.980    94630683.54347
 15 03 03 07 11 30.0000000  0 10G01G03G04G06G09G11G17G23G31G32
  20876431.420   109706378.64409  20876432.740    85485493.42149
  20614847.340   108331748.27009  20614847.600    84414347.63348
  22874137.060   120204388.24409  22874137.220    93665751.01346
  24588093.920   129211304.04608  24588094.940   100684142.41245
  22319385.100   117289156.44309  22319385.620    91394154.08448
  22216124.300   116746512.42609  22216122.720    90971294.40447
  22061184.280   115932301.75809  22061182.420    90336847.70648
  20800186.600   109305714.43709  20800182.160    85173267.10448
  23989484.200   126065581.18708  23989484.100    98232915.02746
  23124313.820   121519076.08108  23124313.680    94690180.22146
 15 03 03 07 12  0.0000000  0 10G01G03G04G06G09G11G17G23G31G32
  20884954.980   109751170.11209  20884956.280    85520395.80449
  20617836.640   108347456.96409  20617836.860    84426588.13449
  22891035.580   120293190.35909  22891035.740    93734947.36847
  24569091.780   129111446.63508  24569093.120   100606331.40045
  22302169.240   117198686.69609  22302169.820    91323658.17248
  22233925.120   116840056.54009  22233923.700    91044185.81547
  22057746.700   115914237.75509  22057744.960    90322771.83148
  20792452.420   109265070.64209  20792447.900    85141596.60248
  23993954.800   126089075.60708  23993955.040    98251222.26546
  23138848.440   121595455.31808  23138848.320    94749696.39547
 15 03 03 07 12 30.0000000  0 10G01G03G04G06G09G11G17G23G31G32
  20893555.920   109796368.28609  20893557.180    85555615.10549
  20620866.020   108363376.25009  20620866.220    84438992.73449
  22907980.040   120382233.06209  22907980.160    93804331.15747
  24550090.020   129011592.17007  24550091.400   100528522.66245
  22285013.340   117108532.29509  22285013.960    91253407.98648
  22251780.880   116933888.37009  22251779.500    91117301.43047
  22054419.100   115896751.03809  22054417.320    90309145.78448
  20784806.400   109224890.50109  20784801.920    85110287.38548
  23998528.520   126113112.10008  23998529.120    98269951.90746
  23153389.400   121671868.15808  23153389.260    94809238.73947
 15 03 03 07 13  0.0000000  0 10G01G03G04G06G09G11G17G23G31G32
  20902232.820   109841965.35309  20902233.940    85591145.22648
  20623933.880   108379497.95309  20623934.100    84451555.05548
  22924968.600   120471507.32009  22924968.700    93873895.40246
  24531087.760   128911734.61108  24531089.160   100450711.48545
  22267916.320   117018687.34009  22267916.960    91183398.93248
  22269689.680   117027998.26509  22269688.200    91190633.72247
  22051200.080   115879834.83009  22051198.260    90295964.28148
  20777247.120   109185166.57409  20777242.740    85079333.66648
  24003203.940   126137682.37508  24003204.580    98289097.48945
  23167935.160   121748306.22008  23167934.840    94868800.75846
 15 03 03 07 13 30.0000000  0 10G01G03G04G06G09G11G17G23G31G32
  20910986.520   109887966.24409  20910987.580    85626990.01348
  20627041.160   108395826.75409  20627041.380    84464278.75749
  22942001.960   120561017.37209  22942002.100    93943643.37146
  24512086.180   128811880.60607  24512087.880   100372903.15145
  22250879.480   116929158.71209  22250880.120    91113636.37548
  22287652.020   117122389.40309  22287650.340    91264185.16847
  22048090.620   115863494.50209  22048088.840    90283231.51948
  20769775.720   109145904.67209  20769771.480    85048739.96448
  24007981.960   126162791.17708  24007982.260    98308662.73345
  23182486.440   121824774.10108  23182486.260    94928385.97946
 15 03 03 07 14  0.0000000  0 10G01G03G04G06G09G11G17G23G31G32
  20919816.660   109934368.97209  20919817.780    85663147.91948
  20630187.360   108412360.35909  20630187.600    84477162.04148
  22959079.500   120650760.17209  22959079.640    94013572.67046
  24493085.200   128712030.01807  24493086.820   100295097.45545
  22233902.900   116839946.36609  22233903.480    91044120.25948
  22305667.000   117217058.08209  22305665.140    91337952.88247
  22045090.680   115847729.21709  22045088.840    90270946.84948
  20762392.040   109107103.51409  20762387.880    85018505.27448
  24012862.200   126188436.25908  24012862.080    98328645.89445
  23197043.140   121901269.25609  23197043.100    94987992.46647
 15 03 03 07 14 30.0000000  0 11G01G03G04G06G09G11G17G20G23G31G32
  20928723.520   109981174.96909  20928724.740    85699620.06348
  20633372.760   108429099.92809  20633373.060    84490205.82449
  22976201.420   120740736.18208  22976201.760    94083683.74246
  24474085.600   128612186.18608  24474086.920   100217296.98345
  22216987.220   116751053.67009  22216987.760    90974853.23448
  22323734.520   117312003.69809  22323732.640    91411936.38247
  22042200.480   115832540.20709  22042198.500    90259111.21848
  24513892.440   128821372.32907  24513892.200   100380285.75245
  20755096.500   109068765.14009  20755092.340    84988631.21048
  24017844.900   126214619.42608  24017844.380    98349048.31745
  23211605.140   121977792.94808  23211605.140    95047621.19346
 15 03 03 07 15  0.0000000  0 11G01G03G04G06G09G11G17G20G23G31G32
  20937706.480   110028380.59209  20937707.760    85736403.60949
  20636596.620   108446041.56809  20636597.020    84503407.06149
  22993366.760   120830940.67908  22993367.220    94153972.82847
  24455086.760   128512347.17308  24455088.220   100139500.30445
  22200132.020   116662478.95709  22200132.640    90905833.98148
  22341853.660   117407220.90209  22341851.820    91486131.52047
  22039419.340   115817924.65509  22039417.380    90247722.43148
  24498351.260   128739703.75007  24498351.220   100316647.88945
  20747888.420   109030886.48409  20747884.340    84959115.36848
  24022929.160   126241335.95108  24022927.960    98369866.40444
  23226171.780   122054340.88208  23226171.600    95107268.86447
 15 03 03 07 15 30.0000000  0 11G01G03G04G06G09G11G17G20G23G31G32
  20946766.780   110075992.10709  20946768.020    85773503.42349
  20639860.080   108463191.29309  20639860.600    84516770.44249
  23010576.680   120921379.14309  23010577.240    94224444.22746
  24436090.500   128412521.21308  24436092.100   100061713.77245
  22183338.920   116574230.42609  22183339.600    90837068.89048
  22360025.400   117502714.26909  22360023.700    91560541.85047
  22036748.620   115803889.27309  22036746.580    90236785.73548
  24482821.160   128658092.44507  24482820.180   100253054.54144
  20740769.120   108993474.64109  20740765.140    84929963.27148
  24028116.100   126268592.12508  24028114.740    98391104.96145
  23240744.180   122130919.06708  23240744.460    95166940.03746
 15 03 03 07 16  0.0000000  0 11G01G03G04G06G09G11G17G20G23G31G32
  20955902.840   110124001.65709  20955904.020    85810913.39648
  20643161.660   108480541.05209  20643162.200    84530289.69649
  23027829.420   121012042.64109  23027830.000    94295090.96946
  24417095.700   128312702.37207  24417097.600    99983932.84346
  22166606.760   116486302.17509  22166607.400    90768553.35948
  22378247.920   117598474.32909  22378246.440    91635159.96247
  22034186.880   115790426.80209  22034184.700    90226295.45548
  24467300.480   128576531.00706  24467298.680   100189500.14644
  20733737.200   108956522.01209  20733733.300    84901168.99848
  24033404.140   126296379.99308  24033403.040    98412757.80645
  23255320.600   122207519.37508  23255321.140    95226628.44646
 15 03 03 07 16 30.0000000  0 11G01G03G04G06G09G11G17G20G23G31G32
  20965115.460   110172413.74709  20965116.620    85848637.04948
  20646502.140   108498095.16509  20646502.660    84543968.19248
  23045125.640   121102934.72809  23045126.280    94365915.83746
  24398103.320   128212896.97808  24398105.260    99906162.39545
  22149936.700   116398700.68109  22149937.380    90700292.45048
  22396521.860   117694503.93009  22396520.480    91709988.12647
  22031735.080   115777542.29309  22031732.840    90216255.52448
  24451790.060   128495024.16707  24451789.040   100125988.33244
  20726793.760   108920034.00709  20726789.880    84872736.75848
  24038793.980   126324703.46808  24038793.160    98434828.00546
  23269902.280   122284145.85608  23269902.600    95286337.29446
 15 03 03 07 17  0.0000000  0 11G01G03G04G06G09G11G17G20G23G31G32
  20974404.440   110221227.43309  20974405.600    85886673.62848
  20649881.260   108515852.47909  20649881.760    84557805.02648
  23062465.020   121194053.58208  23062465.900    94436917.45446
  24379113.800   128113106.11908  24379115.560    99828403.21746
  22133328.960   116311426.97009  22133329.720    90632286.96548
  22414846.620   117790800.31309  22414845.200    91785024.16547
  22029393.240   115765235.36809  22029390.960    90206665.68448
  24436290.040   128413571.23306  24436289.160   100062518.42344
  20719938.800   108884010.49709  20719934.880    84844666.47648
  24044285.460   126353561.51808  24044284.940    98457314.74746
  23284488.640   122360797.40108  23284489.000    95346065.63946
 15 03 03 07 17 30.0000000  0 11G01G03G04G06G09G11G17G20G23G31G32
  20983769.940   110270443.32809  20983771.120    85925023.61348
  20653299.120   108533813.44409  20653299.640    84571800.53448
  23079847.580   121285398.94509  23079848.460    94508095.52346
  24360127.400   128013332.26008  24360129.280    99750657.36445
  22116784.100   116224483.59309  22116784.900    90564538.87448
  22433221.860   117887361.98409  22433220.320    91860266.93947
  22027161.500   115753507.05609  22027159.200    90197526.69148
  24420800.260   128332173.03007  24420799.560    99999091.27144
  20713172.520   108848452.63609  20713168.460    84816959.03548
  24049878.680   126382954.27708  24049878.520    98480218.14046
  23299079.840   122437474.27808  23299080.400    95405813.68746
 15 03 03 07 18  0.0000000  0 11G01G03G04G06G09G11G17G20G23G31G32
  20993211.580   110320059.81209  20993212.880    85963685.74948
  20656755.380   108551976.27309  20656755.880    84585953.35548
  23097272.720   121376967.98208  23097273.540    94579447.89946
  24341144.500   127913575.91408  24341146.240    99672925.07846
  22100302.140   116137870.91809  22100303.060    90497048.48848
  22451646.940   117984185.86609  22451645.240    91935714.03447
  22025039.640   115742356.37309  22025037.380    90188837.81048
  24405320.920   128250828.72807  24405320.220    99935705.99645
  20706494.680   108813359.48509  20706490.460    84789613.71548
  24055573.380   126412880.18808  24055573.360    98503536.96246
  23313675.700   122514174.57608  23313676.220    95465580.04547
 15 03 03 07 18 30.0000000  0 11G01G03G04G06G09G11G17G20G23G31G32
  21002728.520   110370072.35809  21002730.020    86002656.50448
  20660249.220   108570336.37409  20660249.740    84600259.88848
  23114739.440   121468755.67208  23114740.180    94650970.63546
  24322164.300   127813834.35807  24322166.260    99595204.40445
  22083882.600   116051586.37809  22083883.700    90429813.77948
  22470120.720   118081265.78509  22470118.900    92011360.62047
  22023026.820   115731779.09809  22023024.580    90180595.73448
  24389851.160   128169534.02508  24389850.580    99872359.51844
  20699904.440   108778727.00709  20699900.060    84762627.33948
  24061368.460   126443334.18008  24061368.640    98527267.29046
  23328274.960   122590893.49608  23328275.300    95525360.89946
 15 03 03 07 19  0.0000000  0 11G01G03G04G06G09G11G17G20G23G31G32
  21012322.380   110420489.09509  21012324.060    86041942.19948
  20663782.140   108588901.71009  20663782.680    84614726.35149
  23132249.100   121560768.97508  23132249.800    94722669.16546
  24303188.780   127714117.85608  24303191.120    99517503.26446
  22067527.460   115965640.10009  22067528.660    90362842.64548
  22488644.420   118178608.23109  22488642.640    92087211.77047
  22021124.720   115721783.91309  22021122.520    90172807.23148
  24374392.580   128088297.61907  24374392.000    99809058.29344
  20693403.440   108744563.89309  20693398.960    84736006.70848
  24067265.420   126474323.91008  24067265.920    98551415.04147
  23342879.180   122667639.15308  23342879.560    95585162.55446
 15 03 03 07 19 30.0000000  0 11G01G03G04G06G09G11G17G20G23G31G32
  21021991.760   110471302.53109  21021993.600    86081537.02448
  20667352.680   108607664.73809  20667353.200    84629346.86148
  23149800.040   121652999.47008  23149800.740    94794536.97246
  24284217.120   127614420.98908  24284219.540    99439817.37945
  22051235.640   115880026.54609  22051236.880    90296130.79648
  22507216.240   118276203.61009  22507214.700    92163260.01847
  22019332.040   115712363.69409  22019329.940    90165466.76248
  24358943.540   128007111.93807  24358942.860    99745796.74644
  20686990.500   108710863.52609  20686985.920    84709746.66448
  24073262.900   126505841.74208  24073263.600    98575974.31947
  23357487.200   122744403.57909  23357487.400    95644978.89546
 15 03 03 07 20  0.0000000  0 11G01G03G04G06G09G11G17G20G23G31G32
  21031737.300   110522515.79209  21031739.240    86121443.39148
  20670961.380   108626628.44009  20670961.880    84644123.72748
  23167392.860   121745449.75808  23167393.520    94866576.00146
  24265250.240   127514748.98308  24265252.480    99362150.79746
  22035008.140   115794750.80009  22035009.420    90229682.15048
  22525836.460   118374053.45009  22525835.140    92239506.54947
  22017649.520   115703521.89409  22017647.500    90158576.99748
  24343505.200   127925981.49807  24343504.460    99682578.08645
  20680666.340   108677629.73109  20680661.700    84683850.17648
  24079361.540   126537890.32708  24079362.220    98600947.18147
  23372099.300   122821189.88708  23372099.440    95704812.25546
 15 03 03 07 20 30.0000000  0 11G01G03G04G06G09G11G17G20G23G31G32
  21041558.900   110574128.16509  21041560.780    86161660.76548
  20674608.120   108645792.10909  20674608.600    84659056.42148
  23185027.220   121838117.90209  23185027.600    94938784.79546
  24246288.420   127415103.15808  24246290.540    99284504.62246
  22018845.200   115709814.19009  22018846.480    90163497.76648
  22544504.680   118472155.68409  22544503.600    92315949.74647
  22016077.020   115695258.25109  22016075.100    90152137.75048
  24328077.020   127844905.56808  24328076.480    99619402.10645
  20674430.840   108644861.96809  20674426.260    84658316.84348
  24085561.160   126570468.71508  24085561.800    98626332.88247
  23386715.100   122897997.24108  23386715.480    95764661.99446
 15 03 03 07 21  0.0000000  0 11G01G03G04G06G09G11G17G20G23G31G32
  21051456.360   110626138.47809  21051458.020    86202188.22748
  20678292.660   108665154.52609  20678293.180    84674143.98049
  23202702.600   121931001.83708  23202703.020    95011161.76246
  24227331.640   127315484.45008  24227333.720    99206879.64245
  22002746.980   115625217.50209  22002748.240    90097578.26448
  22563220.400   118570507.46209  22563219.460    92392587.40747
  22014614.400   115687572.10009  22014612.560    90146148.49148
  24312659.220   127763883.78807  24312658.320    99556268.15345
  20668283.940   108612559.91109  20668279.420    84633146.39548
  24091861.340   126603575.42208  24091861.900    98652130.27647
  23401335.000   122974824.20708  23401335.240    95824527.06446
 15 03 03 07 21 30.0000000  0 11G01G03G04G06G09G11G17G20G23G31G32
  21061430.060   110678549.01509  21061431.480    86243027.54848
  20682015.440   108684717.95909  20682016.040    84689388.17948
  23220419.380   122024103.13809  23220419.800    95083708.07246
  24208380.920   127215897.37908  24208382.900    99129279.27846
  21986714.160   115540964.98409  21986715.500    90031926.95848
  22581983.800   118669109.38209  22581982.760    92469419.98247
  22013262.080   115680465.95209  22013260.280    90140611.19848
  24297252.060   127682918.57408  24297251.160    99493178.32944
  20662226.140   108580726.36709  20662221.660    84608341.03048
  24098262.500   126637212.44208  24098262.700    98678340.91046
  23415958.920   123051672.99408  23415959.380    95884409.10046
 15 03 03 07 22  0.0000000  0 11G01G03G04G06G09G11G17G20G23G31G32
  21071478.700   110731353.42709  21071479.880    86284173.77448
  20685775.260   108704476.03609  20685775.860    84704784.04448
  23238176.040   122117414.50308  23238176.580    95156418.09246
  24189435.260   127116337.64908  24189437.220    99051700.27446
  21970745.900   115457052.31209  21970747.440    89966540.45548
  22600793.320   118767953.14109  22600792.000    92546440.98247
  22012019.080   115673934.38909  22012017.320    90135521.61648
  24281854.660   127602004.22507  24281853.620    99430128.15145
  20656256.480   108549355.81809  20656252.000    84583896.42448
  24104763.200   126671372.66308  24104763.020    98704959.22346
  23430585.680   123128537.25008  23430586.280    95944303.14746
 15 03 03 07 22 30.0000000  0 11G01G03G04G06G09G11G17G20G23G31G32
  21081603.300   110784557.77309  21081604.360    86325631.64148
  20689573.380   108724434.84509  20689573.940    84720336.33049
  23255973.640   122210940.90808  23255974.400    95229295.67546
  24170496.420   127016813.67808  24170498.540    98974149.09546
  21954843.760   115373487.51609  21954845.620    89901425.03748
  22619649.720   118867043.29909  22619648.120    92623653.99447
  22010886.640   115667983.26709  22010884.900    90130884.34348
  24266468.300   127521147.33607  24266467.320    99367122.73345
  20650376.180   108518454.75409  20650371.700    84559817.66048
  24111364.520   126706061.90109  24111363.980    98731989.77245
  23445216.740   123205422.81208  23445216.900    96004213.89346
 15 03 03 07 23  0.0000000  0 11G01G03G04G06G09G11G17G20G23G31G32
  21091803.760   110838161.63409  21091804.880    86367400.82348
  20693409.620   108744593.98009  20693410.160    84736044.70448
  23273811.920   122304681.57809  23273812.680    95302340.21246
  24151564.680   126917327.16008  24151566.880    98896627.10446
  21939008.240   115290272.21409  21939010.300    89836581.93848
  22638552.580   118966377.75009  22638550.860    92701057.37647
  22009864.740   115662612.43909  22009862.960    90126699.25248
  24251092.740   127440347.99408  24251092.040    99304162.21945
  20644585.300   108488023.46909  20644580.900    84536104.95648
  24118066.220   126741279.28908  24118065.500    98759431.88445
  23459851.740   123282329.31508  23459851.900    96064140.92246
 15 03 03 07 23 30.0000000  0 11G01G03G04G06G09G11G17G20G23G31G32
  21102078.860   110892158.45309  21102080.200    86409476.19748
  20697282.680   108764946.94309  20697283.260    84751904.10048
  23291689.500   122398628.81908  23291690.340    95375545.72546
  24132639.220   126817873.70908  24132641.520    98819130.93745
  21923238.520   115207401.77909  21923240.560    89772007.55948
  22657500.280   119065948.18309  22657498.540    92778644.62047
  22008952.240   115657816.31509  22008950.320    90122961.95748
  24235727.060   127359600.27007  24235725.860    99241241.78645
  20638882.680   108458055.96709  20638878.340    84512753.62448
  24124866.980   126777017.82308  24124866.440    98787280.06446
  23474489.200   123359250.14608  23474489.680    96124079.05046
 15 03 03 07 24  0.0000000  0 11G01G03G04G06G09G11G17G20G23G31G32
  21112429.720   110946553.55909  21112431.380    86451861.94148
  20701193.580   108785499.11609  20701194.300    84767918.74849
  23309607.280   122492786.99209  23309608.140    95448915.56246
  24113721.520   126718460.96008  24113723.740    98741666.48446
  21907535.820   115124883.55409  21907537.820    89707707.64848
  22676493.460   119165758.52709  22676491.980    92856418.79247
  22008150.060   115653600.26909  22008148.100    90119676.69348
  24220372.100   127278909.88907  24220370.740    99178366.19345
  20633269.400   108428558.00209  20633265.120    84489768.19348
  24131767.860   126813282.67108  24131767.700    98815538.33146
  23489130.660   123436190.49208  23489130.880    96184032.45846
 15 03 03 07 24 30.0000000  0 11G01G03G04G06G09G11G17G20G23G31G32
  21122855.560   111001342.38509  21122857.500    86494554.47549
  20705141.540   108806246.06409  20705142.320    84784085.16248
  23327564.320   122587150.96008  23327565.060    95522445.77946
  24094811.380   126619086.72408  24094813.400    98664231.97546
  21891899.720   115042714.99709  21891901.620    89643680.20548
  22695531.080   119265802.53208  22695529.980    92934375.10347
  22007457.400   115649959.89609  22007455.380    90116839.99248
  24205027.460   127198273.13808  24205026.060    99115532.33445
  20627744.720   108399525.63909  20627740.480    84467145.56648
  24138767.840   126850068.56008  24138768.040    98844202.60146
  23503775.000   123513145.92508  23503775.100    96243997.62246
 15 03 03 07 25  0.0000000  0 11G01G03G04G06G09G11G17G20G23G31G32
  21133356.760   111056526.74709  21133358.820    86537555.19948
  20709126.920   108827189.66909  20709127.760    84800404.80548
  23345560.720   122681721.51108  23345561.440    95596136.99946
  24075909.280   126519754.98708  24075911.260    98586830.62046
  21876330.920   114960899.90709  21876332.660    89579928.17848
  22714613.320   119366080.52909  22714612.420    93012513.67647
  22006874.640   115646897.30009  22006872.600    90114453.52548
  24189693.540   127117692.43208  24189692.460    99052742.14745
  20622309.200   108370961.62309  20622304.940    84444887.86248
  24145867.280   126887376.97908  24145867.560    98873274.00846
  23518422.300   123590118.29008  23518422.920    96303975.89746
 15 03 03 07 25 30.0000000  0 11G01G03G04G06G09G11G17G20G23G31G32
  21143933.380   111112107.13509  21143935.440    86580864.52648
  20713149.940   108848330.57509  20713150.800    84816878.20748
  23363596.320   122776498.46108  23363597.040    95669989.03546
  24057015.720   126420468.57708  24057017.900    98509464.60546
  21860829.900   114879440.79009  21860831.480    89516453.55648
  22733739.960   119466591.17009  22733739.040    93090833.55647
  22006401.920   115644413.33709  22006400.020    90112517.93748
  24174370.500   127037168.68508  24174369.560    98989996.34045
  20616962.980   108342866.74009  20616958.700    84422995.74048
  24153066.160   126925207.81908  24153066.460    98902752.50546
  23533073.020   123667108.01508  23533074.140    96363967.74747
 15 03 03 07 26  0.0000000  0 11G01G03G04G06G09G11G17G20G23G31G32
  21154584.980   111168081.25509  21154586.960    86624480.68348
  20717210.140   108869666.59909  20717210.920    84833503.64448
  23381670.500   122871478.60809  23381671.280    95743999.38746
  24038130.720   126321227.60608  24038133.000    98432133.94946
  21845396.680   114798337.37109  21845397.960    89453256.09548
  22752910.220   119567330.58409  22752909.140    93169331.70847
  22006038.940   115642506.30309  22006037.180    90111031.89948
  24159057.940   126956700.79208  24159056.920    98927294.04445
  20611705.720   108315239.35609  20611701.440    84401467.89948
  24160364.040   126963558.74208  24160364.220    98932636.28646
  23547726.840   123744112.91408  23547728.080    96423971.43146
 15 03 03 07 26 30.0000000  0 11G01G03G04G06G09G11G17G20G23G31G32
  21165312.060   111224451.60609  21165313.920    86668405.55048
  20721308.000   108891200.42109  20721308.640    84850283.19648
  23399783.600   122966663.66508  23399784.700    95818169.40646
  24019255.360   126222036.91708  24019257.820    98354842.50546
  21830032.040   114717594.13709  21830032.980    89390339.28148
  22772124.220   119668299.87609  22772122.960    93248008.95047
  22005786.160   115641178.53409  22005784.480    90109997.22948
  24143756.560   126876291.42608  24143755.420    98864637.32445
  20606537.980   108288082.47009  20606533.700    84380306.67148
  24167761.200   127002431.53708  24167761.320    98962926.69045
  23562383.960   123821135.66108  23562384.880    96483989.01746
 15 03 03 07 27  0.0000000  0 11G01G03G04G06G09G11G17G20G23G31G32
  21176113.520   111281212.80209  21176115.280    86712634.99648
  20725442.460   108912926.81309  20725443.040    84867212.81448
  23417934.560   123062047.43208  23417935.900    95892494.27046
  24000389.080   126122893.51808  24000391.340    98277587.85546
  21814735.300   114637207.70509  21814735.900    89327700.51748
  22791380.540   119769492.09309  22791379.220    93326859.93347
  22005642.700   115640425.04609  22005641.080    90109410.06148
  24128465.420   126795935.86408  24128463.860    98802022.59245
  20601458.820   108261391.08609  20601454.500    84359508.17648
  24175256.500   127041820.04108  24175256.880    98993618.95445
  23577043.400   123898170.84508  23577044.100    96544016.31846
 15 03 03 07 27 30.0000000  0 11G01G03G04G06G09G11G17G20G23G31G32
  21186989.280   111338364.50009  21186990.900    86757168.72748
  20729613.480   108934845.63709  20729614.120    84884292.38048
  23436123.240   123157628.86308  23436124.660    95966973.18446
  23981532.240   126023799.50908  23981534.460    98200371.75246
  21799506.720   114557179.74209  21799507.080    89265341.07648
  22810678.900   119870905.36209  22810677.660    93405883.16247
  22005608.540   115640245.44709  22005606.940    90109270.07948
  24113184.580   126715634.62108  24113182.660    98739450.18745
  20596468.280   108235165.56609  20596463.960    84339072.69648
  24182850.040   127081723.61408  24182850.500    99024712.57846
  23591705.280   123975218.23808  23591705.780    96604053.11546
 15 03 03 07 28  0.0000000  0 11G01G03G04G06G09G11G17G20G23G31G32
  21197940.360   111395912.34309  21197941.920    86802011.13348
  20733822.240   108956962.74709  20733822.940    84901526.44248
  23454350.420   123253412.77309  23454351.940    96041609.83146
  23962686.160   125924762.88708  23962688.300    98123200.33646
  21784347.780   114477517.90509  21784347.980    89203266.92348
  22830020.080   119972543.49209  22830018.940    93485081.59447
  22005684.900   115640646.37309  22005683.340    90109582.43948
  24097915.260   126635394.09707  24097913.740    98676925.06844
  20591567.700   108209412.46309  20591563.280    84319005.32848
  24190542.800   127122147.66708  24190543.140    99056211.79346
  23606370.560   124052283.74808  23606371.040    96664103.99246
 15 03 03 07 28 30.0000000  0 11G01G03G04G06G09G11G17G20G23G31G32
  21208965.420   111453849.33809  21208967.000    86847156.77648
  20738067.460   108979271.34709  20738068.180    84918909.72248
  23472614.660   123349391.26909  23472615.940    96116398.14145
  23943850.200   125825779.24408  23943852.220    98046070.22546
  21769257.520   114398217.22609  21769257.580    89141474.18448
  22849402.460   120074398.11609  22849401.480    93564448.73547
  22005870.400   115641620.66409  22005868.840    90110341.58248
  24082656.260   126555207.76007  24082655.060    98614442.23145
  20586755.700   108184124.90909  20586751.200    84299300.72148
  24198333.160   127163084.36108  24198333.120    99088110.45546
  23621037.620   124129360.47808  23621038.240    96724163.63245
 15 03 03 07 29  0.0000000  0 11G01G03G04G06G09G11G17G20G23G31G32
  21220065.360   111512180.09509  21220067.020    86892609.23848
  20742350.060   109001776.35409  20742350.800    84936446.04248
  23490916.600   123445568.33208  23490917.700    96191341.12846
  23925025.620   125726855.55808  23925027.500    97968986.80046
  21754237.220   114319284.28909  21754237.180    89079967.99348
  22868826.620   120176472.20309  22868825.740    93643986.86847
  22006165.880   115643173.02509  22006164.280    90111551.17948
  24067408.620   126475081.19707  24067407.820    98552005.92645
  20582033.300   108159308.28609  20582028.800    84279963.07348
  24206221.740   127204537.98608  24206221.460    99120411.92946
  23635707.740   124206453.20408  23635708.540    96784235.73146
 15 03 03 07 29 30.0000000  0 11G01G03G04G06G09G11G17G20G23G31G32
  21231239.200   111570899.13609  21231240.980    86938364.27148
  20746669.100   109024472.55309  20746669.800    84954131.35148
  23509255.160   123541937.88908  23509256.260    96266434.15546
  23906211.880   125627988.97108  23906213.980    97891947.89546
  21739286.200   114240715.68609  21739286.100    89018745.72448
  22888291.300   120278759.02009  22888290.460    93723690.78547
  22006570.320   115645298.11709  22006568.660    90113207.06648
  24052171.480   126395009.67808  24052171.220    98489612.55245
  20577399.500   108134957.63909  20577395.060    84260988.53948
  24214207.380   127246502.72908  24214207.180    99153111.65146
  23650380.140   124283556.74008  23650381.060    96844316.29146
 15 03 03 07 30  0.0000000  0 11G01G03G04G06G09G11G17G20G23G31G32
  21242487.400   111630008.85709  21242489.260    86984423.73148
  20751025.040   109047362.56009  20751025.700    84971967.67348
  23527630.640   123638501.07608  23527631.640    96341678.09446
  23887409.900   125529184.25608  23887412.160    97814957.22746
  21724405.320   114162515.76609  21724405.140    88957810.72748
  22907796.540   120381259.26209  22907795.680    93803560.99346
  22007084.260   115647998.64009  22007082.560    90115311.32548
  24036945.520   126314996.26608  24036945.140    98427264.40045
  20572854.900   108111075.88809  20572850.480    84242379.37348
  24222290.480   127288980.14508  24222290.420    99186210.87745
  23665055.120   124360673.61308  23665056.040    96904407.20646
 15 03 03 07 30 30.0000000  0 11G01G03G04G06G09G11G17G20G23G31G32
  21253810.160   111689510.18709  21253812.100    87030788.33648
  20755418.120   109070447.73109  20755418.700    84989956.06948
  23546043.020   123735258.58108  23546044.460    96417073.37846
  23868620.460   125430445.11108  23868622.820    97738017.61946
  21709595.140   114084687.59509  21709594.940    88897165.39748
  22927342.280   120483972.53508  22927341.300    93883597.22146
  22007707.900   115651275.78809  22007706.200    90117864.90448
  24021730.940   126235042.83508  24021730.180    98364962.99145
