     2.11           OBSERVATION DATA    G                   RINEX VERSION / TYPE
SPIDER V4,0,0,3554                      2015 03 21 02:06    PGM / RUN BY / DATE 
CNGR                                                        MARKER NAME         
CNGR                                                        MARKER NUMBER       
                                                            OBSERVER / AGENCY   
496521              LEICA GRX1200+GNSS  8.10/4.007          REC # / TYPE / VERS 
10321004            LEIAR25         NONE                    ANT # / TYPE        
  5218738.7445   688113.1521  3590185.5476                  APPROX POSITION XYZ 
        0.0720        0.0000        0.0000                  ANTENNA: DELTA H/E/N
     1     1                                                WAVELENGTH FACT L1/2
     4    C1    L1    P2    L2                              # / TYPES OF OBSERV 
    30.000                                                  INTERVAL            
  2015    03    03    00    00    0.0000000     GPS         TIME OF FIRST OBS   
  2015    03    03    23    59   30.0000000     GPS         TIME OF LAST OBS    
    16                                                      LEAP SECONDS        
    30                                                      # OF SATELLITES     
   G 1   814   813   813   813                              PRN / # OF OBS      
   G 2   930   930   930   930                              PRN / # OF OBS      
   G 3   861   860   860   860                              PRN / # OF OBS      
   G 4   843   843   843   843                              PRN / # OF OBS      
   G 5   646   646   646   646                              PRN / # OF OBS      
   G 6   785   785   785   785                              PRN / # OF OBS      
   G 7   677   677   677   677                              PRN / # OF OBS      
   G 9   818   818   817   817                              PRN / # OF OBS      
   G10   701   701   701   701                              PRN / # OF OBS      
   G11   777   777   776   776                              PRN / # OF OBS      
   G12   818   818   817   817                              PRN / # OF OBS      
   G13   759   759   759   759                              PRN / # OF OBS      
   G14   940   937   934   934                              PRN / # OF OBS      
   G15   651   650   650   650                              PRN / # OF OBS      
   G16   666   666   666   666                              PRN / # OF OBS      
   G17   924   923   922   922                              PRN / # OF OBS      
   G18   896   896   896   896                              PRN / # OF OBS      
   G19   751   751   751   751                              PRN / # OF OBS      
   G20   719   719   719   719                              PRN / # OF OBS      
   G21   719   718   718   718                              PRN / # OF OBS      
   G22   669   669   669   669                              PRN / # OF OBS      
   G23   761   761   761   761                              PRN / # OF OBS      
   G24   813   812   812   812                              PRN / # OF OBS      
   G25   847   847   847   847                              PRN / # OF OBS      
   G27   809   809   809   809                              PRN / # OF OBS      
   G28   800   800   800   800                              PRN / # OF OBS      
   G29   754   754   753   753                              PRN / # OF OBS      
   G30   725   725   725   725                              PRN / # OF OBS      
   G31   865   865   864   864                              PRN / # OF OBS      
   G32   777   777   777   777                              PRN / # OF OBS      
BIT 2 OF LLI FLAGS DATA COLLECTED UNDER A/S CONDITION       COMMENT             
SNR is mapped to RINEX snr flag value [2-9]                 COMMENT             
Lx:     = 25dBHz -> 1; 26-27dBHz -> 2; 28-31dBHz -> 3       COMMENT             
       32-35dBHz -> 4; 36-38dBHz -> 5; 39-41dBHz -> 6       COMMENT             
       42-44dBHz -> 7; 45-48dBHz -> 8; >=49dBHz -> 9        COMMENT             
                                                            END OF HEADER       
 15 03 03 00 00  0.0000000  0  7G16G18G21G22G27G29G31
  21546199.500   113226057.46809  21546196.120    88228098.26048
  22086692.680   116066575.17709  22086689.860    90441548.09247
  21463544.200   112792060.91009  21463540.620    87890068.05548
  23303434.620   122460400.07708  23303436.780    95423713.37746
  22829434.440   119969524.00908  22829434.100    93482751.98448
  24111405.840   126706766.53308  24111404.820    98732753.29446
  23388687.620   122908354.13508  23388688.320    95772736.06247
 15 03 03 00 00 30.0000000  0  7G16G18G21G22G27G29G31
  21533430.680   113158956.69009  21533427.240    88175811.93948
  22077018.800   116015738.81009  22077016.060    90401935.36147
  21472224.140   112837674.47608  21472220.600    87925611.08348
  23285648.720   122366938.24409  23285650.640    95350886.91246
  22817297.780   119905745.25109  22817297.400    93433054.26548
  24124962.580   126778006.44508  24124961.540    98788264.87546
  23406115.080   122999934.14808  23406115.780    95844096.65347
 15 03 03 00 01  0.0000000  0  7G16G18G21G22G27G29G31
  21520722.600   113092175.16009  21520719.160    88123774.39248
  22067415.460   115965273.13309  22067412.620    90362611.48447
  21480954.520   112883552.79808  21480950.920    87961360.41548
  23267880.620   122273570.24708  23267882.440    95278133.54446
  22805175.920   119842043.91109  22805175.380    93383416.87447
  24138526.620   126849284.64808  24138525.500    98843806.27746
  23423562.440   123091618.85408  23423563.180    95915538.80247
 15 03 03 00 01 30.0000000  0  7G16G18G21G22G27G29G31
  21508076.540   113025719.48509  21508073.080    88071990.76148
  22057883.840   115915184.52809  22057881.020    90323581.44347
  21489735.660   112929697.79509  21489732.000    87997317.56448
  23250131.640   122180302.93408  23250133.200    95205458.62147
  22793069.540   119778424.20008  22793068.880    93333843.10347
  24152098.620   126920605.08308  24152097.260    98899380.61746
  23441030.020   123183409.52808  23441030.880    95987063.51747
 15 03 03 00 02  0.0000000  0  7G16G18G21G22G27G29G31
  21495492.160   112959587.85109  21495488.640    88020459.61848
  22048423.640   115865471.11809  22048420.740    90284843.74347
  21498566.640   112976104.42509  21498562.860    88033478.56448
  23232401.620   122087134.92908  23232402.980    95132861.04147
  22780977.800   119714882.16108  22780977.140    93284329.84748
  24165677.800   126991963.84508  24165676.640    98954984.81346
  23458516.380   123275298.98108  23458517.380    96058665.19546
 15 03 03 00 02 30.0000000  0  7G16G18G21G22G27G29G31
  21482969.700   112893781.67709  21482966.140    87969182.08848
  22039034.940   115816133.22409  22039032.040    90246398.66247
  21507446.840   113022769.60209  21507442.940    88069841.03348
  23214690.840   121994067.85908  23214692.100    95060342.12347
  22768900.620   119651416.74308  22768900.020    93234876.30547
  24179264.000   127063359.95008  24179262.960    99010618.07546
  23476020.740   123367282.86208  23476021.820    96130340.44647
 15 03 03 00 03  0.0000000  0  7G16G18G21G22G27G29G31
  21470509.660   112828303.72809  21470506.080    87918160.31148
  22029718.300   115767174.26309  22029715.540    90208248.85947
  21516376.100   113069692.60009  21516372.060    88106404.40848
  23197000.100   121901105.42509  23197001.140    94987904.69247
  22756838.300   119588029.14408  22756837.760    93185483.38347
  24192857.660   127134794.64808  24192856.540    99066281.41746
  23493542.840   123459359.58908  23493543.860    96202088.03347
 15 03 03 00 03 30.0000000  0  7G16G18G21G22G27G29G31
  21458111.980   112763154.03409  21458108.540    87867394.32448
  22020473.720   115718593.88309  22020471.060    90170394.05447
  21525353.420   113116868.29109  21525349.320    88143164.67248
  23179329.260   121808247.84708  23179330.080    94915548.95747
  22744790.300   119524716.94908  22744789.820    93136149.21847
  24206458.220   127206265.22208  24206456.860    99121972.74945
  23511081.560   123551523.82208  23511082.560    96273903.78947
 15 03 03 00 04  0.0000000  0  7G16G18G21G22G27G29G31
  21445778.260   112698340.47609  21445774.920    87816890.26548
  22011302.580   115670399.24809  22011299.940    90132839.82247
  21534379.600   113164301.02409  21534375.580    88180125.24348
  23161679.960   121715503.19809  23161680.540    94843281.18347
  22732757.660   119461485.62008  22732757.200    93086878.07847
  24220066.800   127277777.84108  24220065.380    99177696.82946
  23528637.280   123643777.62808  23528638.300    96345789.35546
 15 03 03 00 04 30.0000000  0  7G16G18G21G22G27G29G31
  21433508.580   112633863.49009  21433505.300    87766648.46448
  22002204.920   115622590.62009  22002202.220    90095586.37448
  21543453.900   113211987.20708  21543450.020    88217283.30448
  23144052.340   121622872.35108  23144052.680    94771102.02947
  22720740.120   119398333.49908  22720739.620    93037668.64647
  24233682.840   127349330.54108  24233681.500    99233452.14246
  23546209.140   123736116.40208  23546210.220    96417741.09446
 15 03 03 00 05  0.0000000  0  7G16G18G21G22G27G29G31
  21421302.800   112569721.87809  21421299.520    87716667.99948
  21993180.480   115575166.72009  21993177.680    90058632.72347
  21552575.340   113259921.25508  21552571.600    88254634.51748
  23126446.280   121530354.54808  23126446.460    94699010.93347
  22708737.080   119335257.26108  22708736.500    92988518.34547
  24247305.760   127420919.50308  24247304.500    99289235.74946
  23563795.940   123828533.69708  23563797.240    96489754.02846
 15 03 03 00 05 30.0000000  0  7G16G18G21G22G27G29G31
  21409162.160   112505921.98209  21409158.720    87666953.79748
  21984230.380   115528133.45109  21984227.540    90021983.45747
  21561744.580   113308106.58808  21561741.020    88292181.53348
  23108863.040   121437956.67909  23108863.120    94627013.25247
  22696749.420   119272261.20909  22696748.760    92939430.53547
  24260936.480   127492549.55408  24260935.400    99345051.31046
  23581397.960   123921030.84309  23581399.300    96561829.16546
 15 03 03 00 06  0.0000000  0  7G16G18G21G22G27G29G31
  21397086.620   112442464.17609  21397083.080    87617506.15248
  21975354.480   115481490.18509  21975351.580    89985638.07947
  21570960.740   113356538.40908  21570957.280    88329920.61848
  23091302.720   121345679.09709  23091302.600    94555109.28347
  22684776.640   119209343.33209  22684775.940    92890403.63247
  24274574.600   127564218.28408  24274573.640    99400897.01746
  23599014.220   124013602.64108  23599015.620    96633962.48146
 15 03 03 00 06 30.0000000  0  7G16G18G21G22G27G29G31
  21385076.580   112379350.66909  21385072.920    87568326.80248
  21966553.220   115435239.42009  21966550.300    89949598.55947
  21580223.480   113405214.60109  21580220.020    88367850.11948
  23073765.900   121253524.84009  23073765.620    94483301.39647
  22672818.680   119146503.62308  22672817.980    92841437.65148
  24288220.140   127635925.92608  24288218.940    99456773.08346
  23616644.100   124106245.99209  23616645.560    96706151.51346
 15 03 03 00 07  0.0000000  0  7G16G18G21G22G27G29G31
  21373133.260   112316587.98609  21373129.560    87519420.81948
  21957827.760   115389386.93609  21957824.820    89913869.36747
  21589533.460   113454138.76409  21589529.920    88405972.83748
  23056253.800   121161500.57109  23056253.360    94411594.77847
  22660876.360   119083746.40508  22660875.700    92792535.94048
  24301873.800   127707676.84808  24301872.660    99512682.84146
  23634287.860   124198962.09108  23634289.420    96778397.24147
 15 03 03 00 07 30.0000000  0  7G16G18G21G22G27G29G31
  21361255.920   112254172.15909  21361252.240    87470785.11448
  21949177.300   115343928.37009  21949174.300    89878447.14347
  21598889.120   113503302.70809  21598885.500    88444282.40248
  23038765.800   121069603.13609  23038765.160    94339986.96647
  22648948.660   119021066.19208  22648948.180    92743694.23748
  24315534.620   127779465.22808  24315533.700    99568621.77546
  23651943.820   124291742.54008  23651945.580    96850693.09147
 15 03 03 00 08  0.0000000  0  7G16G18G21G22G27G29G31
  21349445.960   112192110.44509  21349442.300    87422425.33448
  21940603.220   115298871.13109  21940600.120    89843337.63047
  21608290.840   113552708.77208  21608287.120    88482780.63048
  23021303.260   120977840.08809  23021302.560    94268483.85347
  22637036.560   118958467.68408  22637036.100    92694916.18948
  24329203.540   127851296.02408  24329202.460    99624593.78546
  23669612.300   124384588.85908  23669614.200    96923040.25546
 15 03 03 00 08 30.0000000  0  7G16G18G21G22G27G29G31
  21337703.280   112130402.24509  21337699.620    87374341.02348
  21932105.240   115254213.76109  21932102.000    89808539.70447
  21617737.880   113602353.17109  21617734.120    88521464.58148
  23003866.280   120886211.34209  23003865.520    94197085.37747
  22625139.500   118895948.17209  22625138.980    92646199.72247
  24342879.880   127923166.31708  24342878.740    99680596.54145
  23687292.200   124477495.14608  23687294.280    96995434.14446
 15 03 03 00 09  0.0000000  0  7G16G18G21G22G27G29G31
  21326028.300   112069049.76109  21326024.600    87326533.89248
  21923683.660   115209957.85709  21923680.220    89774054.59247
  21627229.840   113652233.51909  21627226.020    88560332.39048
  22986455.420   120794719.23009  22986454.540    94125793.34747
  22613257.500   118833507.73809  22613256.900    92597544.86147
  24356563.860   127995076.39308  24356562.700    99736630.36846
  23704982.940   124570458.57308  23704985.260    97067872.52946
 15 03 03 00 09 30.0000000  0  7G16G18G21G22G27G29G31
  21314421.340   112008054.92909  21314417.680    87279005.46548
  21915338.800   115166105.32709  21915335.360    89739883.82047
  21636766.420   113702348.20409  21636762.560    88599382.79448
  22969071.100   120703366.26709  22969070.060    94054609.72347
  22601390.520   118771146.33208  22601389.860    92548951.58247
  24370255.540   128067026.05808  24370254.340    99792694.99946
  23722683.940   124663475.73308  23722686.480    97140352.80046
 15 03 03 00 10  0.0000000  0  7G16G18G21G22G27G29G31
  21302883.420   111947422.94509  21302879.800    87231759.76548
  21907071.600   115122660.65009  21907068.040    89706030.85747
  21646347.660   113752697.72309  21646343.760    88638616.18248
  22951714.380   120612158.20009  22951713.180    93983538.97947
  22589539.100   118708866.84108  22589538.400    92500422.13348
  24383955.300   128139018.08908  24383953.980    99848792.65346
  23740395.160   124756546.37608  23740397.780    97212874.72846
 15 03 03 00 10 30.0000000  0  7G16G18G21G22G27G29G31
  21291414.660   111887154.37009  21291411.060    87184797.24748
  21898882.140   115079624.14309  21898878.380    89672495.93548
  21655973.120   113803279.33209  21655969.140    88678030.42248
  22934385.480   120521095.89709  22934383.980    93912581.78947
  22577702.960   118646667.79508  22577702.240    92451955.36848
  24397662.820   128211050.99708  24397661.440    99904922.12245
  23758115.740   124849666.14008  23758118.560    97285434.89446
 15 03 03 00 11  0.0000000  0  7G16G18G21G22G27G29G31
  21280015.240   111827250.28709  21280011.680    87138118.74048
  21890770.320   115036996.08709  21890766.440    89639279.28948
  21665642.060   113854089.69709  21665638.040    88717622.91148
  22917084.640   120430180.77509  22917082.900    93841739.26347
  22565881.900   118584548.23408  22565881.260    92403550.53648
  24411377.900   128283123.71108  24411376.320    99961082.65446
  23775844.920   124942830.91708  23775847.900    97358030.11146
 15 03 03 00 11 30.0000000  0  7G16G18G21G22G27G29G31
  21268686.120   111767715.33609  21268682.520    87091727.87148
  21882736.860   114994780.36609  21882733.020    89606383.95247
  21675354.720   113905129.87009  21675350.720    88757394.46648
  22899812.800   120339418.10409  22899810.900    93771015.51947
  22554076.440   118522510.84208  22554076.020    92355209.73648
  24425101.000   128355238.96508  24425099.260   100017276.34145
  23793582.620   125036040.32408  23793585.660    97430660.10246
 15 03 03 00 12  0.0000000  0  7G16G18G21G22G27G29G31
  21257427.540   111708551.01209  21257423.940    87045625.80748
  21874782.080   114952978.69209  21874778.400    89573811.25047
  21685110.460   113956396.55109  21685106.460    88797342.52948
  22882570.300   120248809.75509  22882568.300    93700412.02747
  22542286.580   118460555.02808  22542286.280    92306932.50548
  24438831.940   128427396.30108  24438830.300   100073502.75946
  23811328.180   125129290.74508  23811331.320    97503322.02046
 15 03 03 00 12 30.0000000  0  7G16G18G21G22G27G29G31
  21246239.760   111649758.76509  21246236.140    86999813.66748
  21866906.280   114911592.06909  21866902.740    89541561.96647
  21694908.920   114007887.81309  21694904.860    88837465.58948
  22865357.520   120158357.74909  22865355.520    93629930.34347
  22530512.140   118398680.13008  22530511.920    92258718.32548
  24452570.700   128499594.51308  24452569.300   100129761.08046
  23829080.780   125222578.09208  23829084.140    97576012.70046
 15 03 03 00 13  0.0000000  0  7G16G18G21G22G27G29G31
  21235123.160   111591340.58809  21235119.520    86954293.01648
  21859109.740   114870621.69309  21859106.200    89509637.02148
  21704749.680   114059601.63209  21704745.640    88877762.07148
  22848174.980   120068064.54509  22848172.820    93559572.36647
  22518753.160   118336885.99509  22518752.940    92210567.08048
  24466317.240   128571833.81208  24466316.000   100186051.40445
  23846839.820   125315899.46908  23846843.260    97648729.99046
 15 03 03 00 13 30.0000000  0  7G16G18G21G22G27G29G31
  21224078.340   111533299.59609  21224074.680    86909066.26348
  21851392.940   114830070.04709  21851389.540    89478038.35547
  21714632.600   114111536.99309  21714628.620    88918231.18948
  22831023.400   119977933.80809  22831021.160    93489340.97947
  22507009.840   118275173.94809  22507009.540    92162479.79148
  24480071.880   128644115.07008  24480070.520   100242374.44346
  23864604.980   125409253.34308  23864608.600    97721472.74446
 15 03 03 00 14  0.0000000  0  7G16G18G21G22G27G29G31
  21213105.800   111475638.57009  21213102.160    86864135.59748
  21843756.340   114789939.48809  21843752.940    89446767.82047
  21724557.420   114163692.76009  21724553.540    88958872.03848
  22813903.300   119887968.57509  22813900.920    93419238.52447
  22495282.240   118213544.64209  22495281.840    92114456.98448
  24493834.700   128716439.13508  24493833.260   100298730.81746
  23882375.720   125502636.59708  23882379.560    97794238.24346
 15 03 03 00 14 30.0000000  0  7G16G18G21G22G27G29G31
  21202205.480   111418357.06509  21202201.880    86819500.66248
  21836199.660   114750228.79809  21836196.280    89415824.44848
  21734523.320   114216064.48809  21734519.580    88999681.18748
  22796814.720   119798168.78209  22796812.200    93349264.98547
  22483569.900   118151995.57008  22483569.360    92066496.68448
  24507605.220   128788803.37208  24507603.720   100355118.49546
  23900151.020   125596043.86808  23900155.040    97867022.53346
 15 03 03 00 15  0.0000000  0  7G16G18G21G22G27G29G31
  21191378.520   111361461.00309  21191374.920    86775166.07448
  21828723.940   114710943.46709  21828720.460    89385212.52848
  21744530.700   114268654.06409  21744527.080    89040660.08248
  22779758.960   119708541.26409  22779756.380    93279425.67047
  22471873.460   118090530.76208  22471872.900    92018602.04948
  24521384.300   128861211.68608  24521382.540   100411540.53246
  23917931.080   125689476.35908  23917935.380    97939826.65846
 15 03 03 00 15 30.0000000  0  7G16G18G21G22G27G29G31
  21180624.940   111304950.47509  21180621.360    86731131.89448
  21821329.060   114672082.98409  21821325.600    89354931.66148
  21754578.880   114321457.92909  21754575.300    89081805.94748
  22762736.000   119619086.10909  22762733.340    93209720.64147
  22460192.660   118029148.34308  22460192.140    91970771.61748
  24535171.380   128933662.18508  24535169.460   100467995.41946
  23935714.860   125782929.00108  23935719.320    98012646.66845
 15 03 03 00 16  0.0000000  0  7G16G18G21G22G27G29G31
  21169945.340   111248828.54309  21169941.680    86687400.52148
  21814015.500   114633649.93309  21814012.060    89324983.85348
  21764667.700   114374474.94909  21764664.120    89123117.91148
  22745746.600   119529807.48409  22745743.840    93140153.15347
  22448527.800   117967849.47609  22448527.320    91923006.28148
  24548966.700   129006155.89608  24548964.580   100524483.99845
  23953502.020   125876399.78608  23953506.540    98085480.90446
 15 03 03 00 16 30.0000000  0  6G16G18G21G22G27G31
  21159347.000   111193133.54409  21159343.220    86644001.82648
  21806790.480   114595682.27009  21806787.020    89295398.68247
  21774803.700   114427739.90709  21774800.160    89164623.07948
  22728798.140   119440743.91309  22728795.340    93070753.23947
  22436885.860   117906670.39809  22436885.360    91875334.29048
  23971298.760   125969921.10408  23971303.420    98158354.12846
 15 03 03 00 17  0.0000000  0  6G16G18G21G22G27G31
  21148815.060   111137787.72809  21148811.200    86600875.22348
  21799638.980   114558101.09409  21799635.480    89266114.66748
  21784971.220   114481170.43309  21784967.720    89206257.26348
  22711875.800   119351817.83509  22711873.060    93001460.45547
  22425251.620   117845531.32409  22425251.040    91827693.47448
  23989089.500   126063410.67808  23989094.440    98231202.69746
 15 03 03 00 17 30.0000000  0  6G16G18G21G22G27G31
  21138359.680   111082844.45609  21138355.760    86558062.28848
  21792571.180   114520959.56009  21792567.600    89237173.22847
  21795179.740   114534816.36609  21795176.260    89248059.29448
  22694989.980   119263083.43709  22694987.260    92932317.01047
  22413634.780   117784483.93709  22413634.140    91780124.09848
  24006883.480   126156917.20808  24006888.580    98304064.50846
 15 03 03 00 18  0.0000000  0  6G16G18G21G22G27G31
  21127979.520   111028296.50209  21127975.580    86515557.38748
  21785585.540   114484249.70809  21785581.900    89208568.16348
  21805427.160   114588666.45109  21805423.600    89290020.39448
  22678139.360   119174533.81909  22678136.560    92863317.54147
  22402033.500   117723518.85709  22402032.820    91732618.86548
  24024678.320   126250428.00808  24024683.500    98376929.70845
 15 03 03 00 18 30.0000000  0  6G16G18G21G22G27G31
  21117676.280   110974152.66109  21117672.340    86473367.38948
  21778683.580   114447979.70509  21778679.900    89180305.84048
  21815714.400   114642725.71009  21815710.760    89332144.49648
  22661325.700   119086178.33609  22661322.920    92794469.35647
  22390449.080   117662643.02608  22390448.480    91685183.16948
  24042474.740   126343947.19208  24042479.820    98449801.53945
 15 03 03 00 19  0.0000000  0  6G16G18G21G22G27G31
  21107449.660   110920411.37609  21107445.740    86431491.06348
  21771864.900   114412147.47409  21771861.180    89152384.65148
  21826040.180   114696987.61109  21826036.380    89374426.50348
  22644548.880   118998016.17909  22644546.020    92725771.79147
  22378880.960   117601852.97208  22378880.460    91637814.33548
  24060271.420   126437468.22308  24060276.700    98522675.02145
 15 03 03 00 19 30.0000000  0  6G16G18G21G22G27G31
  21097299.360   110867071.07109  21097295.520    86389927.19348
  21765128.980   114376750.33509  21765125.320    89124802.49047
  21836403.880   114751448.77609  21836399.920    89416863.77048
  22627808.620   118910046.04509  22627805.680    92657223.84947
  22367328.520   117541145.25008  22367328.060    91590509.62848
  24078066.920   126530983.76308  24078072.420    98595544.07446
 15 03 03 00 20  0.0000000  0  6G16G18G21G22G27G31
  21087226.080   110814135.50109  21087222.300    86348678.69948
  21758476.540   114341791.79009  21758472.940    89097562.08147
  21846805.200   114806108.02409  21846801.160    89459455.39148
  22611105.680   118822272.26709  22611102.700    92588828.91347
  22355792.200   117480521.76009  22355791.740    91543270.56248
  24095861.160   126624492.62608  24095866.820    98668407.85546
 15 03 03 00 20 30.0000000  0  6G16G18G21G22G27G31
  21077231.160   110761611.57409  21077227.400    86307750.96648
  21751908.680   114307277.78609  21751905.120    89070668.07747
  21857244.680   114860968.10309  21857240.680    89502203.50748
  22594441.560   118734702.46409  22594438.580    92520592.89747
  22344272.920   117419987.60309  22344272.500    91496101.11248
  24113654.500   126717996.51508  24113660.260    98741267.50646
 15 03 03 00 21  0.0000000  0  6G16G18G21G22G27G31
  21067314.100   110709496.82809  21067310.280    86267142.07648
  21745424.880   114273205.36809  21745421.360    89044118.16847
  21867721.160   114916022.85509  21867717.300    89545103.31848
  22577815.900   118647334.98709  22577812.920    92452514.54647
  22332769.940   117359538.61309  22332769.380    91448998.02048
  24131445.780   126811489.27708  24131451.700    98814118.67947
 15 03 03 00 21 30.0000000  0  6G16G18G21G22G27G31
  21057475.120   110657792.64909  21057471.320    86226853.11448
  21739025.340   114239575.41709  21739021.860    89017913.03548
  21878234.320   114971270.15709  21878230.480    89588153.16448
  22561229.000   118560171.16709  22561226.080    92384594.86047
  22321283.020   117299174.15109  22321282.400    91401960.79248
  24149234.240   126904966.93808  24149240.180    98886958.20445
 15 03 03 00 22  0.0000000  0  7G16G18G19G21G22G27G31
  21047708.720   110606470.13609  21047704.960    86186861.54848
  21732704.300   114206357.96209  21732700.920    88992029.32748
  24475032.560   128617160.13205  24475027.780   100221162.80643
  21888777.920   115026677.03109  21888774.060    89631327.34948
  22544675.380   118473182.68609  22544672.560    92316811.81747
  22309806.340   117238863.41309  22309805.660    91354965.42448
  24167013.240   126998394.83408  24167019.200    98959758.74745
 15 03 03 00 22 30.0000000  0  7G16G18G19G21G22G27G31
  21038028.920   110555602.93809  21038025.160    86147224.77648
  21726475.660   114173626.20909  21726472.320    88966524.07748
  24460303.740   128539757.95305  24460299.340   100160849.43043
  21899365.140   115082312.80109  21899361.140    89674679.89348
  22528169.300   118386443.88809  22528166.440    92249223.30347
  22298353.480   117178678.31909  22298352.820    91308067.96748
  24184795.960   127091841.99806  24184801.920    99032574.25843
 15 03 03 00 23  0.0000000  0  7G16G18G19G21G22G27G31
  21028427.120   110505145.43509  21028423.360    86107907.23748
  21720330.660   114141333.86909  21720327.300    88941361.22548
  24445581.020   128462388.89405  24445576.380   100100561.95144
  21909986.600   115138128.37709  21909982.400    89718172.55248
  22511702.180   118299909.82909  22511699.420    92181794.33947
  22286915.560   117118571.55209  22286914.920    91261231.53548
  24202572.980   127185259.27408  24202579.040    99105367.08246
 15 03 03 00 23 30.0000000  0  7G16G18G19G21G22G27G31
  21018907.120   110455117.61909  21018903.360    86068924.52348
  21714272.940   114109500.14409  21714269.540    88916555.75747
  24430867.840   128385070.85506  24430863.560   100040314.22143
  21920645.420   115194140.46809  21920641.100    89761818.33148
  22495278.020   118213600.94009  22495275.140    92114540.81747
  22275496.000   117058561.20409  22275495.340    91214470.24748
  24220346.680   127278660.41608  24220352.780    99178147.26045
 15 03 03 00 24  0.0000000  0  7G16G18G19G21G22G27G31
  21009468.060   110405514.57909  21009464.260    86030272.80648
  21708301.360   114078118.99509  21708297.900    88892102.93148
  24416163.020   128307796.78005  24416158.700    99980100.76744
  21931340.000   115250340.51809  21931335.600    89805610.58448
  22478895.980   118127513.08009  22478892.900    92047459.51247
  22264093.540   116998640.79109  22264092.860    91167779.03748
  24238115.420   127372035.56008  24238121.740    99250907.09046
 15 03 03 00 24 30.0000000  0  7G16G18G19G21G22G27G31
  21000109.520   110356334.69909  21000105.720    85991950.82048
  21702415.480   114047188.26909  21702411.960    88868001.08748
  24401465.760   128230562.77505  24401461.680    99919918.50344
  21942069.040   115306722.19609  21942064.720    89849544.35348
  22462555.740   118041644.51309  22462552.440    91980549.08948
  22252707.480   116938806.68909  22252706.780    91121155.07848
  24255877.880   127465377.65408  24255884.140    99323640.96446
 15 03 03 00 25  0.0000000  0  7G16G18G19G21G22G27G31
  20990832.980   110307585.70309  20990829.200    85953964.58948
  21696616.680   114016715.35609  21696613.100    88844255.96848
  24386777.120   128153374.70206  24386772.900    99859772.01644
  21952833.460   115363289.73409  21952829.200    89893622.94548
  22446258.980   117956004.35909  22446255.420    91913816.63347
  22241338.940   116879065.05709  22241338.320    91074603.17348
  24273634.720   127558690.41508  24273641.160    99396351.95946
 15 03 03 00 25 30.0000000  0  7G16G18G19G21G22G27G31
  20981637.480   110259263.23509  20981633.820    85916310.72448
  21690903.860   113986694.48909  21690900.300    88820863.10748
  24372096.080   128076226.28806  24372091.760    99799656.43845
  21963631.860   115420035.74009  21963627.560    89937840.60948
  22430004.920   117870588.58609  22430001.140    91847259.00747
  22229986.860   116819409.80509  22229986.280    91028118.58848
  24291384.320   127651964.49107  24291390.840    99469032.66045
 15 03 03 00 26  0.0000000  0  7G16G18G19G21G22G27G31
  20972523.680   110211370.58609  20972520.160    85878991.78548
  21685277.580   113957128.96309  21685274.080    88797825.04648
  24357423.000   127999118.95306  24357418.940    99739572.89745
  21974464.000   115476959.24309  21974459.720    89982196.59148
  22413794.320   117785401.46309  22413790.460    91780879.56847
  22218651.640   116759842.93509  22218651.000    90981702.85148
  24309126.420   127745199.39108  24309133.100    99541683.25446
 15 03 03 00 26 30.0000000  0  7G16G18G19G21G22G27G31
  20963492.680   110163913.19609  20963489.300    85842012.01348
  21679738.700   113928022.60709  21679735.160    88775144.79248
  24342758.340   127922055.90206  24342754.620    99679523.85044
  21985330.160   115534061.48909  21985325.880    90026691.85048
  22397628.240   117700448.50009  22397624.260    91714682.58247
  22207333.860   116700367.65009  22207333.200    90935358.49148
  24326860.840   127838393.86908  24326867.500    99614302.14746
 15 03 03 00 27  0.0000000  0  7G16G18G19G21G22G27G31
  20954545.360   110116895.43009  20954542.140    85805374.79848
  21674287.960   113899379.17209  21674284.400    88752825.24748
  24328102.320   127845039.10106  24328098.480    99619510.80344
  21996230.460   115591343.39909  21996226.260    90071327.11848
  22381507.580   117615734.40309  22381503.560    91648671.71547
  22196034.020   116640986.56909  22196033.300    90889087.52348
  24344587.500   127931547.27108  24344594.080    99686888.43245
 15 03 03 00 27 30.0000000  0  7G16G18G19G21G22G27G31
  20945681.180   110070314.08609  20945677.980    85769077.64148
  21668924.640   113871195.08409  21668921.060    88730863.62448
  24313454.340   127768063.89806  24313450.780    99559530.18944
  22007163.740   115648798.90809  22007159.680    90116097.62948
  22365431.980   117531257.16509  22365427.980    91582845.41047
  22184751.140   116581695.11809  22184750.480    90842886.40748
  24362305.260   128024652.96808  24362311.700    99759437.67045
 15 03 03 00 28  0.0000000  0  7G16G18G19G21G22G27G31
  20936900.200   110024169.99009  20936897.020    85733121.20348
  21663648.700   113843470.08209  21663645.160    88709259.76148
  24298814.200   127691128.87006  24298810.600    99499580.89544
  22018129.420   115706424.50509  22018125.480    90161000.69048
  22349401.640   117447018.16309  22349397.660    91517204.75047
  22173485.120   116522492.50009  22173484.640    90796754.51648
  24380013.200   128117706.50808  24380019.840    99831946.06046
 15 03 03 00 28 30.0000000  0  7G16G18G19G21G22G27G31
  20928203.740   109978469.81109  20928200.520    85697510.67348
  21658461.240   113816209.86409  21658457.740    88688018.04148
  24284182.600   127614238.85707  24284178.880    99439666.65444
  22029127.960   115764222.56509  22029124.100    90206038.14347
  22333417.980   117363024.43809  22333414.120    91451755.20647
  22162237.020   116463383.59309  22162236.600    90750695.65048
  24397711.740   128210709.93708  24397718.380    99904415.46846
 15 03 03 00 29  0.0000000  0  7G16G18G19G21G22G27G31
  20919591.920   109933214.27809  20919588.620    85662246.62048
  21653362.300   113789414.58509  21653358.800    88667138.63048
  24269559.180   127537392.64707  24269555.140    99379786.52144
  22040158.900   115822190.89309  22040155.160    90251208.26848
  22317481.260   117279277.43109  22317477.460    91386497.91748
  22151006.720   116404367.71109  22151006.240    90704709.25648
  24415400.040   128303659.17308  24415406.760    99976842.54745
 15 03 03 00 29 30.0000000  0  7G16G18G19G21G22G27G31
  20911065.400   109888407.10809  20911062.080    85627331.94248
  21648352.360   113763086.95209  21648348.820    88646623.60748
  24254944.360   127460592.14906  24254940.280    99319942.02045
  22051222.240   115880329.52809  22051218.640    90296511.08748
  22301592.260   117195781.43409  22301588.540    91321436.20448
  22139794.560   116345446.90509  22139794.000    90658796.94848
  24433077.820   128396552.94708  24433084.820   100049226.41245
 15 03 03 00 30  0.0000000  0  7G16G18G19G21G22G27G31
  20902623.980   109844047.43809  20902620.740    85592765.97448
  21643431.120   113737225.28309  21643427.560    88626471.68048
  24240337.620   127383834.41806  24240333.740    99260130.88344
  22062317.120   115938633.80009  22062313.640    90341942.99548
  22285751.040   117112536.51409  22285747.460    91256570.14348
  22128600.000   116286618.80909  22128599.360    90612956.89848
  24450744.160   128489386.19208  24450751.180   100121562.92045
 15 03 03 00 30 30.0000000  0  7G16G18G19G21G22G27G31
  20894268.120   109800137.10809  20894264.920    85558550.13248
  21638598.720   113711830.70209  21638595.220    88606683.71548
  24225739.020   127307119.27607  24225735.200    99200352.88644
  22073443.320   115997102.57809  22073439.940    90387503.08448
  22269958.140   117029545.17109  22269954.620    91191901.67047
  22117423.100   116227883.73209  22117422.360    90567189.31148
  24468398.500   128582156.19708  24468405.960   100193850.24845
 15 03 03 00 31  0.0000000  0  7G16G18G19G21G22G27G31
  20885998.120   109756677.99109  20885994.940    85524685.88348
  21633855.220   113686903.78609  21633851.820    88587260.15448
  24211148.580   127230446.56407  24211144.780    99140607.96445
  22084600.340   116055733.08508  22084597.000    90433189.18548
  22254214.020   116946809.51209  22254210.400    91127432.42648
  22106263.920   116169241.68009  22106262.980    90521494.21048
  24486040.400   128674860.79508  24486047.960   100266087.21545
 15 03 03 00 31 30.0000000  0  7G16G18G19G21G22G27G31
  20877814.940   109713674.78009  20877811.700    85491176.88348
  21629201.400   113662448.63209  21629198.120    88568204.21348
  24196566.920   127153819.43707  24196563.000    99080898.58645
  22095788.520   116114526.84709  22095785.120    90479002.50048
  22238519.680   116864334.87009  22238515.840    91063166.56548
  22095123.080   116110696.07609  22095121.940    90475874.26548
  24503669.600   128767499.11907  24503676.940   100338272.39844
 15 03 03 00 32  0.0000000  0  7G16G18G19G21G22G27G31
  20869718.320   109671126.58309  20869715.040    85458022.45148
  21624637.040   113638463.74909  21624633.960    88549514.71648
  24181993.400   127077235.24107  24181989.300    99021222.64644
  22107007.040   116173479.90609  22107003.560    90524939.94448
  22222875.020   116782121.45809  22222870.900    90999104.26747
  22084000.120   116052244.75509  22083999.000    90430327.79348
  24521285.160   128860066.76108  24521292.780   100410402.95645
 15 03 03 00 32 30.0000000  0  7G16G18G19G21G22G27G31
  20861709.140   109629037.94009  20861705.820    85425226.09948
  21620162.820   113614952.41809  21620159.900    88531194.21148
  24167428.420   127000696.23807  24167424.400    98961581.89345
  22118255.900   116232592.49608  22118252.300    90571001.70348
  22207281.020   116700174.31409  22207276.620    90935249.43048
  22072895.580   115993890.47209  22072894.580    90384856.93548
  24538886.820   128952562.27508  24538894.320   100482477.26845
 15 03 03 00 33  0.0000000  0  7G16G18G19G21G22G27G31
  20853787.820   109587411.02509  20853784.440    85392789.55048
  21615779.080   113591916.29809  21615776.180    88513244.00148
  24152872.140   126924203.03007  24152868.300    98901976.86445
  22129534.820   116291863.47109  22129531.160    90617186.87648
  22191738.200   116618496.18409  22191733.640    90871604.21748
  22061809.640   115935634.11309  22061808.860    90339462.39048
  24556474.080   129044982.79107  24556481.820   100554492.78845
 15 03 03 00 33 30.0000000  0  7G16G18G19G21G22G27G31
  20845954.640   109546247.08209  20845951.200    85360713.74848
  21611485.780   113569355.39809  21611482.940    88495664.08448
  24138324.480   126847755.01007  24138320.540    98842407.02145
  22140843.420   116351290.84909  22140839.800    90663493.91648
  22176246.960   116537089.26809  22176242.300    90808170.34048
  22050742.240   115877475.39008  22050741.700    90294143.91748
  24574046.520   129137325.68308  24574054.640   100626447.68647
 15 03 03 00 34  0.0000000  0  7G16G18G19G21G22G27G31
  20838209.680   109505546.58009  20838206.220    85328999.07748
  21607282.860   113547269.26709  21607280.080    88478454.13248
  24123785.280   126771351.33407  24123781.260    98782871.72845
  22152181.200   116410871.50109  22152177.600    90709920.41848
  22160807.440   116455954.24509  22160802.740    90744948.33348
  22039693.280   115819413.20209  22039692.800    90248900.67648
  24591603.400   129229586.95008  24591611.780   100698538.23547
 15 03 03 00 34 30.0000000  0  7G16G18G19G21G22G27G31
  20830553.480   109465312.23609  20830549.940    85297647.63548
  21603170.660   113525659.93009  21603167.960    88461615.70048
  24109254.540   126694992.26407  24109250.640    98723371.20544
  22163548.120   116470604.77409  22163544.460    90756465.81648
  22145420.400   116375095.10609  22145415.740    90681941.29548
  22028663.060   115761449.15709  22028662.620    90203733.89648
  24609144.320   129321764.23208  24609153.260   100770363.87845
 15 03 03 00 35  0.0000000  0  7G16G18G19G21G22G27G31
  20822984.880   109425538.37309  20822981.280    85266655.02248
  21599147.940   113504520.56509  21599145.220    88445143.48448
  24094730.800   126618670.32807  24094727.140    98663899.61045
  22174942.300   116530481.24509  22174938.600    90803122.79848
  22130084.780   116294506.39709  22130080.200    90619144.98048
  22017650.220   115703576.04509  22017649.720    90158637.98148
  24626667.540   129413847.91107  24626677.220   100842123.54245
 15 03 03 00 35 30.0000000  0  7G16G18G19G21G22G27G31
  20815507.500   109386244.12409  20815503.800    85236036.12548
  21595218.300   113483869.71509  21595215.480    88429051.92348
  24080217.520   126542403.52807  24080214.000    98604470.99045
  22186366.760   116590516.87709  22186362.960    90849903.81248
  22114804.440   116214208.08809  22114799.960    90556574.94848
  22006658.120   115645811.71809  22006657.620    90113626.82748
  24644176.600   129506016.83008  24644184.800   100913804.10745
 15 03 03 00 36  0.0000000  0  7G16G18G19G21G22G27G31
  20808120.140   109347423.12009  20808116.380    85205785.99648
  21591380.280   113463699.79609  21591377.260    88413335.11948
  24065713.300   126466183.64407  24065709.980    98545078.92045
  22197819.700   116650701.92309  22197815.760    90896801.23648
  22099578.340   116134194.88209  22099573.860    90494227.08548
  21995685.300   115588148.56309  21995684.760    90068694.50348
  24661667.940   129597940.80008  24661677.320   100985401.42446
 15 03 03 00 36 30.0000000  0  7G16G18G19G21G22G27G31
  20800820.260   109309062.09909  20800816.440    85175894.28548
  21587631.080   113443996.48209  21587627.860    88397981.89548
  24051215.280   126389995.53608  24051211.880    98485711.61845
  22209297.860   116711019.52309  22209293.780    90943801.95948
  22084404.080   116054453.93609  22084399.640    90432091.35648
  21984728.880   115530571.85409  21984728.360    90023829.54148
  24679138.960   129689749.10808  24679148.560   101056984.14746
 15 03 03 00 37  0.0000000  0  6G16G18G19G21G27G31
  20793611.980   109271182.59009  20793608.100    85146377.79248
  21583974.600   113424780.58309  21583971.240    88383008.48048
  24036726.900   126313858.12308  24036723.540    98426383.80446
  22220804.480   116771487.02709  22220800.420    90990919.49348
  21973792.620   115473101.51909  21973792.120    89979047.48348
  24696591.980   129781465.38906  24696603.580   101128442.48744
 15 03 03 00 37 30.0000000  0  6G16G18G19G21G22G27
  20786494.760   109233781.81109  20786490.860    85117234.32048
  21580410.020   113406048.26009  21580406.620    88368411.87548
  24022247.520   126237767.82107  24022244.000    98367092.69546
  22232338.620   116832099.28409  22232334.640    91038149.81748
  22054223.360   115895852.95509  22054218.580    90308506.31648
  21962875.860   115415733.76309  21962875.400    89934345.34348
 15 03 03 00 38  0.0000000  0  6G16G18G19G21G22G27
  20779469.040   109196861.83709  20779465.120    85088465.51148
  21576937.620   113387800.56509  21576934.180    88354192.90648
  24007777.100   126161724.98508  24007773.440    98307838.57646
  22243899.980   116892854.71209  22243896.000    91085491.72148
  22039217.080   115816994.20609  22039212.240    90247058.00848
  21951978.720   115358469.43109  21951978.340    89889723.81148
 15 03 03 00 38 30.0000000  0  6G16G18G19G21G22G27
  20772534.640   109160421.86309  20772530.780    85060070.72448
  21573557.080   113370035.76009  21573553.640    88340350.21748
  23993315.120   126085727.06707  23993311.460    98248619.45646
  22255487.840   116953749.38509  22255483.860    91132942.10348
  22024266.980   115738430.60609  22024262.000    90185839.67948
  21941100.920   115301306.47709  21941100.620    89845181.26748
 15 03 03 00 39  0.0000000  0  6G16G18G19G21G22G27
  20765692.480   109124466.48509  20765688.720    85032053.55548
  21570269.160   113352757.64209  21570265.760    88326886.76948
  23978862.220   126009777.23708  23978858.600    98189437.82046
  22267102.340   117014784.26509  22267098.360    91180501.74648
  22009374.040   115660167.62309  22009369.040    90124855.60048
  21930243.100   115244248.30609  21930242.840    89800720.37748
 15 03 03 00 39 30.0000000  0  6G16G18G19G21G22G27
  20758942.420   109088994.90609  20758938.760    85004413.35748
  21567073.520   113335964.41909  21567070.060    88313801.15548
  23964418.100   125933873.06108  23964414.320    98130291.75546
  22278742.760   117075955.46609  22278738.760    91228167.60847
  21994538.220   115582205.21509  21994533.260    90064105.74148
  21919404.840   115187292.87309  21919404.600    89756339.53348
 15 03 03 00 40  0.0000000  0  6G16G18G19G21G22G27
  20752284.520   109054007.62809  20752280.980    84977150.53848
  21563969.920   113319655.14909  21563966.520    88301092.63548
  23949982.520   125858013.13508  23949978.600    98071180.16146
  22290408.540   117137259.79009  22290404.520    91275937.21048
  21979759.760   115504544.33509  21979754.880    90003590.83248
  21908586.020   115130439.34309  21908585.740    89712038.08748
 15 03 03 00 40 30.0000000  0  6G16G18G19G21G22G27
  20745719.400   109019507.96309  20745716.000    84950267.69048
  21560958.960   113303832.55509  21560955.520    88288763.36648
  23935555.780   125782199.45008  23935551.700    98012104.61646
  22302099.840   117198698.12009  22302095.760    91323811.22747
  21965039.520   115427189.58009  21965034.740    89943314.46248
  21897787.060   115073690.08109  21897786.580    89667817.89748
 15 03 03 00 41  0.0000000  0  6G16G18G19G21G22G27
  20739247.920   108985500.29009  20739244.660    84923768.20449
  21558041.240   113288499.99609  21558037.740    88276815.93148
  23921138.300   125706434.73708  23921134.180    97953067.23146
  22313816.740   117260270.85309  22313812.540    91371789.97247
  21950378.480   115350145.78409  21950373.780    89883280.39548
  21887008.560   115017048.19809  21887007.900    89623681.37548
 15 03 03 00 41 30.0000000  0  6G16G18G19G21G22G27
  20732869.940   108951983.86809  20732866.760    84897651.51048
  21555216.480   113273655.89209  21555212.960    88265249.10748
  23906729.560   125630716.59408  23906725.460    97894066.13446
  22325558.480   117321974.27408  22325554.240    91419870.55548
  21935776.680   115273413.30309  21935772.040    89823488.90548
  21876250.100   114960511.82809  21876249.260    89579627.06548
 15 03 03 00 42  0.0000000  0  6G16G18G19G21G22G27
  20726586.760   108918965.30109  20726583.580    84871922.75648
  21552485.600   113259305.42509  21552482.140    88254066.95248
  23892330.540   125555050.09808  23892326.640    97835105.29346
  22337325.700   117383811.75809  22337321.500    91468055.60247
  21921235.500   115196999.27809  21921230.920    89763945.57448
  21865512.740   114904086.46809  21865511.900    89535659.26648
 15 03 03 00 42 30.0000000  0  6G16G18G19G21G22G27
  20720397.240   108886438.81209  20720394.000    84846577.43848
  21549847.420   113245441.99809  21549844.080    88243264.30248
  23877939.960   125479428.18308  23877936.260    97776179.17046
  22349116.760   117445774.40408  22349112.640    91516338.17147
  21906754.060   115120898.85809  21906749.420    89704646.59448
  21854795.240   114847765.41509  21854794.400    89491772.73848
 15 03 03 00 43  0.0000000  0  6G16G18G19G21G22G27
  20714302.480   108854410.22809  20714299.140    84821620.09349
  21547302.820   113232070.07709  21547299.480    88232844.62948
  23863558.740   125403855.12108  23863555.080    97717291.10346
  22360932.140   117507864.79708  22360928.120    91564720.28147
  21892333.620   115045118.77109  21892328.860    89645597.21748
  21844098.460   114791553.38609  21844097.660    89447971.16548
 15 03 03 00 43 30.0000000  0  6G16G18G19G21G22G27
  20708302.120   108822877.78709  20708298.760    84797049.36849
  21544851.320   113219187.31309  21544847.980    88222806.13248
  23849186.340   125328327.82508  23849182.580    97658438.71446
  22372770.920   117570078.13809  22372767.040    91613198.20847
  21877973.940   114969657.93609  21877969.060    89586796.62248
  21833421.840   114735447.49509  21833421.060    89404252.30348
 15 03 03 00 44  0.0000000  0  6G16G18G19G21G22G27
  20702396.780   108791844.66909  20702393.400    84772867.71249
  21542493.380   113206796.15709  21542490.040    88213150.70748
  23834823.080   125252848.32408  23834819.220    97599623.56346
  22384633.100   117632414.33808  22384629.300    91661771.87747
  21863675.680   114894520.33809  21863670.780    89528247.89348
  21822765.820   114679450.13109  21822765.080    89360618.00048
 15 03 03 00 44 30.0000000  0  6G16G18G19G21G22G27
  20696587.380   108761315.53709  20696583.920    84749078.77249
  21540229.560   113194899.70809  21540226.180    88203880.75548
  23820469.380   125177419.12408  23820465.360    97540847.59646
  22396519.020   117694875.19609  22396515.220    91710442.67347
  21849439.920   114819711.37909  21849434.980    89469955.24348
  21812131.100   114623564.74709  21812130.360    89317070.96048
 15 03 03 00 45  0.0000000  0  6G16G18G19G21G22G27
  20690873.580   108731288.91909  20690870.100    84725681.40749
  21538059.300   113183495.19609  21538056.000    88194994.14048
  23806124.700   125102037.59208  23806120.640    97482108.78546
  22408427.840   117757455.96509  22408424.080    91759206.90147
  21835266.540   114745230.49509  21835261.660    89411918.24048
  21801517.220   114567788.93909  21801516.520    89273609.30748
 15 03 03 00 45 30.0000000  0  6G16G18G19G21G22G27
  20685256.020   108701767.91909  20685252.440    84702678.02549
  21535983.020   113172584.64709  21535979.800    88186492.42448
  23791789.480   125026705.57608  23791785.420    97423408.54446
  22420359.560   117820156.96709  22420355.780    91808064.81947
  21821156.380   114671081.75509  21821151.560    89354140.03848
  21790924.640   114512124.99609  21790923.980    89230234.81548
 15 03 03 00 46  0.0000000  0  6G16G18G19G21G22G27
  20679734.520   108672751.93609  20679730.880    84680068.17249
  21534000.700   113162167.61909  21533997.540    88178375.27248
  23777463.340   124951420.73008  23777459.180    97364745.07446
  22432313.420   117882974.25309  22432309.580    91857013.34947
  21807109.500   114597265.42009  21807104.800    89296620.86948
  21780353.040   114456571.31509  21780352.460    89186946.24648
 15 03 03 00 46 30.0000000  0  6G16G18G19G21G22G27
  20674309.920   108644245.52009  20674306.260    84657855.36848
  21532112.800   113152246.62709  21532109.660    88170644.64348
  23763146.860   124876186.90908  23763142.580    97306121.36346
  22444289.640   117945909.46709  22444285.860    91906053.77547
  21793126.980   114523786.94709  21793122.320    89239364.95548
  21769803.180   114401131.55609  21769802.620    89143746.44848
 15 03 03 00 47  0.0000000  0  6G16G18G19G21G22G27
  20668981.520   108616244.96509  20668977.920    84636036.75449
  21530318.560   113142817.30409  21530315.240    88163297.13948
  23748839.040   124800998.89408  23748834.860    97247533.33646
  22456287.120   118008956.14309  22456283.280    91955181.04947
  21779208.240   114450643.28609  21779203.560    89182369.92948
  21759274.240   114345801.27709  21759273.620    89100631.94548
 15 03 03 00 47 30.0000000  0  6G16G18G19G21G22G27
  20663751.320   108588760.49909  20663747.760    84614620.29749
  21528619.600   113133888.53309  21528616.140    88156339.68048
  23734541.560   124725865.47908  23734537.580    97188987.87347
  22468307.020   118072121.09409  22468303.240    92004400.47947
  21765355.340   114377845.40609  21765350.640    89125644.35348
  21748767.920   114290589.61709  21748767.200    89057609.88948
 15 03 03 00 48  0.0000000  0  6G16G18G19G21G22G27
  20658618.000   108561785.36409  20658614.560    84593600.71149
  21527014.300   113125452.27309  21527010.740    88149765.98348
  23720253.040   124650778.67108  23720249.100    97130478.71946
  22480347.540   118135394.53709  22480343.800    92053704.45347
  21751567.240   114305387.81509  21751562.380    89069183.93248
  21738282.740   114235489.04309  21738281.900    89014674.38748
 15 03 03 00 48 30.0000000  0  6G16G18G19G21G22G27
  20653582.920   108535326.16309  20653579.520    84572983.15249
  21525503.760   113117514.30809  21525500.080    88143580.57848
  23705974.360   124575743.61208  23705970.380    97072009.88547
  22492409.520   118198780.82209  22492405.760    92103096.35147
  21737845.300   114233277.85609  21737840.320    89012994.39448
  21727819.700   114180505.35809  21727818.780    88971829.96748
 15 03 03 00 49  0.0000000  0  6G16G18G19G21G22G27
  20648646.360   108509384.38409  20648642.960    84552768.78049
  21524088.100   113110075.12009  21524084.380    88137783.82448
  23691705.560   124500760.86908  23691701.480    97013581.82547
  22504492.580   118262278.29108  22504488.940    92152574.89447
  21724189.940   114161518.01909  21724184.820    88957077.67448
  21717379.040   114125639.49009  21717378.100    88929077.34948
 15 03 03 00 49 30.0000000  0  6G16G18G19G21G22G27
  20643808.700   108483961.89409  20643805.160    84532959.04449
  21522767.440   113103135.37009  21522763.740    88132376.23948
  23677446.740   124425831.03408  23677442.540    96955194.97746
  22516596.560   118325885.81808  22516593.000    92202139.19747
  21710601.580   114090110.82309  21710596.440    88901435.74948
  21706960.920   114070892.26809  21706959.920    88886417.19248
 15 03 03 00 50  0.0000000  0  6G16G18G19G21G22G27
  20639069.380   108459056.03409  20639065.720    84513551.87848
  21521541.100   113096691.32209  21521537.460    88127354.91848
  23663197.320   124350950.13208  23663192.980    96896846.25946
  22528720.400   118389597.89708  22528716.960    92251784.96547
  21697079.940   114019054.68809  21697074.900    88846067.37148
  21696564.740   114016260.55109  21696563.800    88843847.04048
 15 03 03 00 50 30.0000000  0  6G16G18G19G21G22G27
  20634429.380   108434672.18909  20634425.600    84494551.48149
  21520409.900   113090747.35409  21520406.340    88122723.27548
  23648958.060   124276122.38908  23648953.560    96838538.95947
  22540864.580   118453416.90008  22540861.300    92301514.05247
  21683626.220   113948355.87109  21683621.340    88790977.43348
  21686191.420   113961748.86509  21686190.580    88801370.40948
 15 03 03 00 51  0.0000000  0  6G16G18G19G21G22G27
  20629887.780   108410805.91209  20629884.000    84475954.38049
  21519372.920   113085298.28209  21519369.400    88118477.24448
  23634727.880   124201342.38508  23634723.360    96780268.87646
  22553027.900   118517336.15708  22553024.640    92351321.25247
  21670239.860   113878010.98109  21670235.100    88736163.27448
  21675840.080   113907352.31609  21675839.340    88758983.49448
 15 03 03 00 51 30.0000000  0  6G16G18G19G21G22G27
  20625445.620   108387462.60009  20625441.900    84457764.78948
  21518430.900   113080348.07009  21518427.320    88114619.95148
  23620507.660   124126614.67208  23620503.220    96722039.53446
  22565210.820   118581357.89608  22565207.520    92401208.31647
  21656922.160   113808026.44709  21656917.400    88681629.90348
  21665511.580   113853075.52009  21665510.840    88716689.89148
 15 03 03 00 52  0.0000000  0  6G16G18G19G21G22G27
  20621103.180   108364643.43409  20621099.600    84439983.62249
  21517583.800   113075896.47709  21517580.140    88111151.19348
  23606297.280   124051938.53508  23606292.800    96663850.37746
  22577412.980   118645480.39309  22577409.620    92451173.89647
  21643673.420   113738403.83509  21643668.560    88627378.56048
  21655205.900   113798918.78709  21655205.180    88674489.85048
 15 03 03 00 52 30.0000000  0  6G16G18G19G21G22G27
  20616861.180   108342351.97809  20616857.680    84422613.65349
  21516832.120   113071946.48209  21516828.380    88108073.28148
  23592097.280   123977317.02008  23592092.800    96605703.76946
  22589634.620   118709705.01409  22589631.200    92501219.04947
  21630494.520   113669148.24309  21630489.600    88573413.19548
  21644923.660   113744885.46909  21644922.960    88632385.97648
 15 03 03 00 53  0.0000000  0  6G16G18G19G21G22G27
  20612719.240   108320586.07809  20612715.820    84405653.21149
  21516175.200   113068494.64409  21516171.480    88105383.56048
  23577907.100   123902747.12908  23577902.600    96547597.39546
  22601874.700   118774026.73808  22601871.260    92551339.87347
  21617385.220   113600258.58809  21617380.200    88519732.98548
  21634664.380   113690972.99909  21634663.740    88590376.27148
 15 03 03 00 53 30.0000000  0  6G16G18G19G21G22G27
  20608678.800   108299353.44909  20608675.440    84389108.29749
  21515614.200   113065547.09209  21515610.560    88103086.77448
  23563727.880   123828234.87008  23563723.180    96489535.92346
  22614134.160   118838450.19608  22614130.700    92601539.96447
  21604347.080   113531743.05209  21604342.020    88466344.28848
  21624429.340   113637187.87709  21624428.720    88548465.78848
 15 03 03 00 54  0.0000000  0  6G16G18G19G21G22G27
  20604738.320   108278645.85009  20604734.980    84372972.50049
  21515147.560   113063095.22109  21515143.980    88101176.24448
  23549557.900   123753771.28308  23549553.220    96431512.38347
  22626410.940   118902964.60908  22626407.400    92651810.93947
  21591378.780   113463594.57709  21591373.740    88413241.61148
  21614216.960   113583521.55709  21614216.340    88506647.88748
 15 03 03 00 54 30.0000000  0  6G16G18G19G21G22G27
  20600899.300   108258471.47009  20600895.980    84357252.21049
  21514776.560   113061145.99409  21514773.100    88099657.37848
  23535398.660   123679363.74808  23535394.060    96373532.52347
  22638706.100   118967575.48809  22638702.460    92702157.07647
  21578481.960   113395821.80409  21578477.020    88360431.70748
  21604028.700   113529981.85309  21604028.080    88464928.65548
 15 03 03 00 55  0.0000000  0  6G16G18G19G21G22G27
  20597161.440   108238828.78809  20597158.120    84341946.22449
  21514500.700   113059696.94409  21514497.400    88098528.26148
  23521249.660   123605010.14608  23521245.000    96315594.67447
  22651019.000   119032279.38109  22651015.220    92752575.67647
  21565656.760   113328425.23809  21565651.880    88307914.93648
  21593864.260   113476567.16309  21593863.640    88423306.82548
 15 03 03 00 55 30.0000000  0  6G16G18G19G21G22G27
  20593525.560   108219722.08909  20593522.180    84327057.88349
  21514320.500   113058750.57009  21514317.380    88097790.83348
  23507111.300   123530713.17808  23507106.720    96257700.95747
  22663349.740   119097077.12109  22663345.780    92803067.41347
  21552904.100   113261409.51809  21552899.200    88255694.91748
  21583724.260   113423280.71709  21583723.600    88381784.92848
 15 03 03 00 56  0.0000000  0  6G16G18G19G21G22G27
  20589991.040   108201148.05309  20589987.560    84312584.61049
  21514235.200   113058302.82009  21514232.260    88097441.96348
  23492983.080   123456468.94908  23492978.660    96199848.32647
  22675697.360   119161963.43009  22675693.180    92853628.16747
  21540223.520   113194772.35809  21540218.560    88203769.89348
  21573608.020   113370118.93409  21573607.260    88340360.17448
 15 03 03 00 56 30.0000000  0  6G16G18G19G21G22G27
  20586558.640   108183110.68809  20586555.060    84298529.51449
  21514245.480   113058356.68209  21514242.540    88097483.93948
  23478865.460   123382280.43708  23478861.020    96142039.12047
  22688061.960   119226939.40008  22688057.720    92904258.78747
  21527615.940   113128518.82509  21527610.900    88152143.79348
  21563516.220   113317085.50209  21563515.300    88299035.41548
 15 03 03 00 57  0.0000000  0  6G16G18G19G21G22G27
  20583228.800   108165612.24509  20583225.140    84284894.36648
  21514351.520   113058913.20609  21514348.460    88097917.61548
  23464758.700   123308149.11208  23464754.160    96084274.48447
  22700443.560   119292005.10308  22700439.320    92954959.33347
  21515081.860   113062651.95609  21515076.820    88100819.00348
  21553449.180   113264182.24309  21553448.140    88257812.10748
 15 03 03 00 57 30.0000000  0  6G16G18G19G21G22G27
  20580000.720   108148648.61709  20579997.040    84271675.94648
  21514552.240   113059967.07209  21514549.040    88098738.81748
  23450661.880   123234069.80708  23450657.260    96026550.37547
  22712840.860   119357153.86909  22712836.720    93005724.60347
  21502620.740   112997168.77209  21502615.780    88049793.16048
  21543406.000   113211404.76809  21543404.920    88216686.80848
 15 03 03 00 58  0.0000000  0  6G16G18G19G21G22G27
  20576876.080   108132228.72009  20576872.440    84258881.22349
  21514849.000   113061525.90909  21514845.680    88099953.52148
  23436576.520   123160050.90908  23436571.900    95968873.34247
  22725255.140   119422392.22308  22725251.340    93056559.67247
