     2.11           OBSERVATION DATA    G                   RINEX VERSION / TYPE
SPIDER V4,0,0,3554                      2015 04 03 00:28    PGM / RUN BY / DATE 
EADB                                                        MARKER NAME         
EADB                                                        MARKER NUMBER       
                                                            OBSERVER / AGENCY   
462408              LEICA GRX1200PRO    3.00/2.127          REC # / TYPE / VERS 
103310              LEIAT504                                ANT # / TYPE        
  5238464.6656   142765.3090  3625629.6523                  APPROX POSITION XYZ 
        0.0770        0.0000        0.0000                  ANTENNA: DELTA H/E/N
     1     1                                                WAVELENGTH FACT L1/2
     4    C1    L1    P2    L2                              # / TYPES OF OBSERV 
    30.000                                                  INTERVAL            
  2015    03    03    00    00    0.0000000     GPS         TIME OF FIRST OBS   
  2015    03    03    23    59   30.0000000     GPS         TIME OF LAST OBS    
    16                                                      LEAP SECONDS        
    30                                                      # OF SATELLITES     
   G 1   834   834   834   834                              PRN / # OF OBS      
   G 2   928   928   928   928                              PRN / # OF OBS      
   G 3   846   846   846   846                              PRN / # OF OBS      
   G 4   847   847   847   847                              PRN / # OF OBS      
   G 5   673   673   673   673                              PRN / # OF OBS      
   G 6   728   728   726   726                              PRN / # OF OBS      
   G 7   648   648   648   648                              PRN / # OF OBS      
   G 9   788   788   788   788                              PRN / # OF OBS      
   G10   785   785   785   785                              PRN / # OF OBS      
   G11   799   799   799   799                              PRN / # OF OBS      
   G12   818   818   818   818                              PRN / # OF OBS      
   G13   823   823   823   823                              PRN / # OF OBS      
   G14   919   919   919   919                              PRN / # OF OBS      
   G15   733   733   733   733                              PRN / # OF OBS      
   G16   691   691   691   691                              PRN / # OF OBS      
   G17   930   930   930   930                              PRN / # OF OBS      
   G18   936   936   936   936                              PRN / # OF OBS      
   G19   780   780   780   780                              PRN / # OF OBS      
   G20   795   795   795   795                              PRN / # OF OBS      
   G21   706   706   706   706                              PRN / # OF OBS      
   G22   785   785   785   785                              PRN / # OF OBS      
   G23   731   731   731   731                              PRN / # OF OBS      
   G24   833   833   830   830                              PRN / # OF OBS      
   G25   850   850   850   850                              PRN / # OF OBS      
   G27   832   832   832   832                              PRN / # OF OBS      
   G28   908   908   908   908                              PRN / # OF OBS      
   G29   737   737   737   737                              PRN / # OF OBS      
   G30   694   694   694   694                              PRN / # OF OBS      
   G31   783   783   783   783                              PRN / # OF OBS      
   G32   743   743   743   743                              PRN / # OF OBS      
BIT 2 OF LLI FLAGS DATA COLLECTED UNDER A/S CONDITION       COMMENT             
SNR is mapped to RINEX snr flag value [2-9]                 COMMENT             
Lx:     = 25dBHz -> 1; 26-27dBHz -> 2; 28-31dBHz -> 3       COMMENT             
       32-35dBHz -> 4; 36-38dBHz -> 5; 39-41dBHz -> 6       COMMENT             
       42-44dBHz -> 7; 45-48dBHz -> 8; >=49dBHz -> 9        COMMENT             
                                                            END OF HEADER       
 15 03 03 00 00  0.0000000  0  6G16G18G21G22G27G31
  21300384.367   111934295.59109  21300382.558    87221535.78548
  22456515.952   118009957.10708  22456514.941    91955893.68646
  21637650.992   113706643.26109  21637648.975    88602580.47548
  23472609.943   123349571.10407  23472613.146    96116662.35246
  22385397.971   117636109.10008  22385398.975    91664524.56947
  23231400.426   122081774.09608  23231401.592    95128633.98846
 15 03 03 00 00 30.0000000  0  6G16G18G21G22G27G31
  21288732.908   111873066.95109  21288731.296    87173825.15848
  22446961.925   117959751.82608  22446961.106    91916772.73746
  21647183.322   113756736.15309  21647181.243    88641613.89648
  23455431.477   123259302.49607  23455434.543    96046323.87646
  22374445.819   117578555.33508  22374446.861    91619677.49348
  23249491.952   122176845.42807  23249493.725    95202715.28046
 15 03 03 00 01  0.0000000  0  6G16G18G21G22G27G31
  21277137.558   111812132.88309  21277135.935    87126344.06248
  22437471.072   117909877.96508  22437470.574    91877910.03347
  21656766.678   113807097.87209  21656764.760    88680856.79348
  23438264.669   123169091.43608  23438267.203    95976030.17746
  22363513.247   117521104.22108  22363514.296    91574910.40647
  23267604.036   122272024.85407  23267605.995    95276880.77846
 15 03 03 00 01 30.0000000  0  6G16G18G21G22G27G31
  21265603.265   111751519.07309  21265601.375    87079112.52848
  22428048.475   117860361.25808  22428047.570    91839325.62647
  21666405.417   113857749.47209  21666403.401    88720325.57548
  23421113.508   123078963.97707  23421115.572    95905801.61745
  22352604.668   117463779.12508  22352605.643    91530241.51247
  23285740.776   122367332.93708  23285742.761    95351146.55246
 15 03 03 00 02  0.0000000  0  6G16G18G21G22G27G31
  21254129.103   111691222.88309  21254127.384    87032128.48548
  22418693.228   117811199.22708  22418692.287    91801017.58447
  21676098.233   113908685.15909  21676096.040    88760015.71748
  23403977.554   122988918.02807  23403980.004    95835636.61146
  22341719.117   117406575.26308  22341720.174    91485667.08647
  23303900.632   122462761.78608  23303902.481    95425506.44546
 15 03 03 00 02 30.0000000  0  6G16G18G21G22G27G31
  21242715.252   111631242.63109  21242713.507    86985390.63148
  22409405.044   117762389.36608  22409403.987    91762983.95646
  21685843.841   113959898.80209  21685841.681    88799922.45648
  23386857.119   122898952.37708  23386859.514    95765534.13046
  22330855.740   117349488.52108  22330856.665    91441183.92747
  23322082.147   122558304.19807  23322083.943    95499954.80546
 15 03 03 00 03  0.0000000  0  6G16G18G21G22G27G31
  21231359.776   111571569.07709  21231357.956    86938891.76548
  22400182.240   117713923.30008  22400181.333    91725218.23247
  21695640.084   114011377.74709  21695637.745    88840035.92048
  23369750.517   122809058.79408  23369752.079    95695487.76045
  22320012.840   117292508.07208  22320013.687    91396783.59147
  23340282.099   122653946.74707  23340284.459    95574481.15646
 15 03 03 00 03 30.0000000  0  6G16G18G21G22G27G31
  21220067.147   111512226.21909  21220065.402    86892650.58248
  22391029.307   117665824.93808  22391028.651    91687739.02847
  21705490.265   114063140.89509  21705488.021    88880370.84248
  23352661.959   122719261.69407  23352663.564    95625516.55446
  22309194.015   117235655.54308  22309194.892    91352482.93147
  23358505.383   122749708.18708  23358507.449    95649100.19246
 15 03 03 00 04  0.0000000  0  6G16G18G21G22G27G31
  21208837.746   111453215.82309  21208836.136    86846668.45848
  22381946.736   117618095.57908  22381945.965    91650547.35447
  21715394.193   114115186.54309  21715392.032    88920925.89048
  23335592.059   122629563.14007  23335594.300    95555622.17846
  22298399.516   117178930.28608  22298400.560    91308281.44848
  23376750.448   122845584.65008  23376752.094    95723808.87146
 15 03 03 00 04 30.0000000  0  6G16G18G21G22G27G31
  21197667.321   111394514.18309  21197665.465    86800926.92648
  22372929.896   117570711.57908  22372928.883    91613624.78247
  21725346.404   114167486.98309  21725344.649    88961679.47748
  23318537.359   122539940.27208  23318539.423    95485786.74446
  22287624.295   117122306.52308  22287625.521    91264159.05848
  23395011.879   122941547.58507  23395013.611    95798584.91546
 15 03 03 00 05  0.0000000  0  6G16G18G21G22G27G31
  21186558.945   111336139.46109  21186557.287    86755440.14148
  22363982.272   117523691.30808  22363981.301    91576985.65047
  21735350.068   114220056.09109  21735348.210    89002642.41848
  23301500.117   122450411.67907  23301502.038    95416024.75145
  22276871.533   117065800.31508  22276872.707    91220128.26848
  23413292.027   123037610.13007  23413294.319    95873438.54946
 15 03 03 00 05 30.0000000  0  7G16G18G19G21G22G27G31
  21175513.909   111278097.65709  21175512.118    86710212.77048
  22355104.900   117477040.55908  22355104.001    91540634.46547
  24425290.128   128355764.23616  24425288.182   100017482.05755
  21745405.184   114272896.98709  21745403.583    89043817.14348
  23284482.098   122360984.04207  23284483.542    95346341.38745
  22266141.782   117009415.65508  22266143.175    91176192.19248
  23431591.346   123133773.42008  23431593.949    95948370.66046
 15 03 03 00 06  0.0000000  0  7G16G18G19G21G22G27G31
  21164529.740   111220375.58309  21164528.012    86665234.53648
  22346295.298   117430745.38308  22346294.206    91504560.32747
  24410557.462   128278341.70906  24410555.127    99957152.88045
  21755508.932   114325991.35809  21755507.067    89085189.38148
  23267480.916   122271644.41708  23267482.350    95276726.59746
  22255432.239   116953136.94108  22255433.636    91132338.67148
  23449906.638   123230018.80208  23449908.897    96023366.81246
 15 03 03 00 06 30.0000000  0  7G16G18G19G21G22G27G31
  21153611.081   111162997.54909  21153609.390    86620524.38548
  22337557.936   117384830.64208  22337556.793    91468782.64347
  24395842.534   128201014.27206  24395841.054    99896897.83445
  21765664.681   114379359.23709  21765662.523    89126774.74348
  23250501.882   122182418.08508  23250503.322    95207200.06547
  22244747.294   116896986.29808  22244748.453    91088584.94648
  23468240.992   123326365.48407  23468243.236    96098441.86646
 15 03 03 00 07  0.0000000  0  7G16G18G19G21G22G27G31
  21142756.730   111105957.39409  21142754.966    86576077.51948
  22328891.672   117339289.70808  22328890.679    91433296.23347
  24381143.963   128123773.82106  24381143.106    99836710.54045
  21775870.601   114432991.58809  21775868.558    89168566.18848
  23233542.447   122093299.11908  23233544.227    95137757.25246
  22234084.968   116840955.36608  22234086.234    91044924.50148
  23486592.494   123422802.15507  23486595.171    96173587.03246
 15 03 03 00 07 30.0000000  0  7G16G18G19G21G22G27G31
  21131966.726   111049255.51009  21131964.988    86531894.23748
  22320296.683   117294122.79908  22320295.657    91398101.27147
  24366461.931   128046619.00206  24366460.607    99776589.97145
  21786126.088   114486884.62609  21786123.902    89210560.76348
  23216604.070   122004288.97308  23216605.490    95068399.14446
  22223445.324   116785043.03408  22223446.430    91001356.47348
  23504960.034   123519324.91407  23504963.253    96248799.25946
 15 03 03 00 08  0.0000000  0  7G16G18G19G21G22G27G31
  21121242.378   110992898.46309  21121240.469    86487979.66048
  22311774.162   117249336.93308  22311773.174    91363203.22147
  24351796.845   127969554.01806  24351795.550    99716539.39045
  21796431.523   114541040.05309  21796429.322    89252759.79948
  23199687.645   121915394.71608  23199688.649    94999131.34846
  22212828.874   116729253.31008  22212829.826    90957883.97048
  23523344.690   123615934.77907  23523347.592    96324079.39846
 15 03 03 00 08 30.0000000  0  7G16G18G19G21G22G27G31
  21110581.394   110936874.14209  21110579.450    86444324.34948
  22303321.881   117204919.39308  22303320.750    91328592.17947
  24337146.091   127892564.32006  24337144.625    99656547.48744
  21806783.777   114595442.64209  21806781.912    89295151.42448
  23182791.394   121826604.87808  23182792.277    94929944.90646
  22202233.174   116673572.02808  22202233.958    90914495.97548
  23541742.442   123712614.49207  23541745.173    96399413.97846
 15 03 03 00 09  0.0000000  0  7G16G18G19G21G22G27G31
  21099986.226   110881196.87709  21099984.405    86400939.47348
  22294942.265   117160884.12308  22294941.209    91294279.01547
  24322512.291   127815662.39706  24322510.592    99596623.97746
  21817185.151   114650102.13809  21817183.337    89337743.23648
  23165917.737   121737934.02507  23165918.497    94860851.16146
  22191660.146   116618011.29808  22191661.062    90871201.92048
  23560155.019   123809373.51807  23560158.283    96474810.30645
 15 03 03 00 09 30.0000000  0  7G16G18G19G21G22G27G31
  21089457.491   110825867.00209  21089455.550    86357825.28848
  22286635.372   117117231.72908  22286634.329    91260264.19647
  24307894.787   127738846.58406  24307893.005    99536767.55545
  21827634.806   114705015.38009  21827632.880    89380532.77548
  23149066.502   121649383.28308  23149067.536    94791851.01246
  22181109.817   116562569.57308  22181110.872    90828000.59648
  23578582.181   123906206.97307  23578585.086    96550264.70345
 15 03 03 00 10  0.0000000  0  7G16G18G19G21G22G27G31
  21078994.948   110770886.74909  21078993.141    86314983.53548
  22278401.760   117073963.93408  22278400.687    91226549.06147
  24293293.370   127662116.58706  24293291.802    99476978.00945
  21838132.284   114760179.93709  21838130.506    89423518.14448
  23132239.041   121560955.69108  23132239.449    94722946.77746
  22170582.114   116507246.65208  22170583.145    90784891.84248
  23597022.847   124003111.82707  23597025.833    96625774.69746
 15 03 03 00 10 30.0000000  0  7G16G18G19G21G22G27G31
  21068599.578   110716258.17809  21068597.633    86272415.82548
  22270241.759   117031082.83808  22270240.555    91193135.24747
  24278708.422   127585472.29706  24278706.843    99417255.25846
  21848677.521   114815594.59809  21848675.512    89466698.40048
  23115435.277   121472653.68808  23115435.791    94654140.41946
  22160077.030   116452042.68408  22160078.161    90741875.78648
  23615476.433   124100085.35807  23615480.010    96701338.15446
 15 03 03 00 11  0.0000000  0  7G16G18G19G21G22G27G31
  21058270.974   110661981.78209  21058269.224    86230122.53048
  22262155.412   116988588.39009  22262153.922    91160022.71147
  24264139.393   127508912.09306  24264137.934    99357598.04145
  21859269.430   114871255.48509  21859267.389    89510070.51948
  23098655.818   121384478.35108  23098656.099    94585432.72646
  22149594.517   116396956.05308  22149595.581    90698951.15547
  23633942.254   124197123.05807  23633945.952    96776951.63045
 15 03 03 00 11 30.0000000  0  7G16G18G19G21G22G27G31
  21048010.276   110608061.66609  21048008.468    86188106.85648
  22254143.301   116946484.21308  22254141.921    91127214.28447
  24249586.769   127432438.09906  24249585.210    99298007.97945
  21869908.273   114927163.13709  21869906.078    89553634.92348
  23081901.319   121296434.48908  23081901.621    94516827.47246
  22139134.501   116341988.89208  22139135.491    90656119.61248
  23652420.408   124294224.09807  23652423.727    96852614.50045
 15 03 03 00 12  0.0000000  0  7G16G18G19G21G22G27G31
  21037817.374   110554497.07409  21037815.619    86146368.21948
  22246205.376   116904770.04109  22246203.932    91094709.76247
  24235050.117   127356047.38606  24235048.697    99238482.82645
  21880592.952   114983312.06509  21880590.963    89597387.33548
  23065171.828   121208521.94908  23065172.207    94448324.56946
  22128696.808   116287138.37908  22128697.730    90613378.97848
  23670909.205   124391382.82207  23670912.583    96928322.30745
 15 03 03 00 12 30.0000000  0  7G16G18G19G21G22G27G31
  21027692.945   110501293.81009  21027691.414    86104911.13349
  22238342.651   116863451.45608  22238341.296    91062513.48747
  24220529.762   127279743.65306  24220528.609    99179025.43145
  21891323.872   115039704.68309  21891322.022    89641329.63348
  23048469.072   121120747.31108  23048468.674    94379929.04946
  22118282.007   116232408.16908  22118283.120    90570732.07948
  23689409.162   124488599.59407  23689412.691    97004075.31246
 15 03 03 00 13  0.0000000  0  7G16G18G19G21G22G27G31
  21017637.803   110448453.15209  21017636.049    86063736.59649
  22230555.358   116822529.23708  22230554.247    91030626.07447
  24206025.780   127203525.84006  24206024.390    99119634.98246
  21902100.994   115096338.30809  21902098.998    89685459.73648
  23031792.456   121033112.47908  23031791.919    94311642.49446
  22107889.948   116177797.40508  22107891.079    90528178.25248
  23707919.267   124585870.79207  23707922.997    97079870.70045
 15 03 03 00 13 30.0000000  0  7G16G18G19G21G22G27G31
  21007651.608   110395975.71809  21007650.017    86022845.09148
  22222843.490   116782003.59409  22222842.291    90999047.68447
  24191538.038   127127392.64606  24191536.657    99060310.54345
  21912923.317   115153209.47209  21912921.206    89729774.93348
  23015142.373   120945618.73408  23015142.137    94243465.88946
  22097520.260   116123304.85908  22097521.398    90485716.54848
  23726439.383   124683192.31007  23726443.088    97155705.31646
 15 03 03 00 14  0.0000000  0  7G16G18G19G21G22G27G31
  20997734.847   110343862.88309  20997733.077    85982237.69149
  22215207.370   116741875.76408  22215206.332    90967779.27347
  24177066.454   127051343.18106  24177064.935    99001051.26045
  21923790.410   115210315.58309  21923788.374    89774273.20148
  22998520.047   120858267.97608  22998519.635    94175400.65046
  22087173.115   116068929.80608  22087174.220    90443346.39448
  23744968.414   124780560.43307  23744971.831    97231576.26645
 15 03 03 00 14 30.0000000  0  7G16G18G19G21G22G27G31
  20987888.290   110292118.75209  20987886.512    85941917.59149
  22207647.676   116702149.30209  22207646.429    90936823.61047
  24162611.092   126975379.58506  24162609.304    98941858.90145
  21934702.116   115267656.86309  21934699.974    89818954.72148
  22981925.584   120771064.79808  22981925.439    94107450.44046
  22076848.692   116014674.19408  22076849.717    90401069.31448
  23763505.842   124877974.08707  23763509.391    97307482.66245
 15 03 03 00 15  0.0000000  0  7G16G18G19G21G22G27G31
  20978111.941   110240743.31309  20978110.047    85901884.78649
  22200164.376   116662824.04809  22200162.972    90906180.57047
  24148171.692   126899499.77406  24148170.040    98882731.83945
  21945657.751   115325229.20509  21945655.727    89863816.29148
  22965359.521   120684010.27108  22965359.021    94039616.00646
  22066546.602   115960536.18608  22066547.463    90358883.86648
  23782050.804   124975428.36407  23782054.752    97383420.65646
 15 03 03 00 15 30.0000000  0  7G16G18G19G21G22G27G31
  20968406.977   110189743.38409  20968405.121    85862144.58249
  22192758.458   116623906.49809  22192757.274    90875855.22847
  24133749.078   126823708.55206  24133747.324    98823673.82345
  21956657.662   115383035.84709  21956655.895    89908860.42448
  22948822.876   120597111.42508  22948822.085    93971902.89547
  22056267.738   115906520.55108  22056268.655    90316793.77548
  23800604.288   125072925.14207  23800608.038    97459391.79546
 15 03 03 00 16  0.0000000  0  7G16G18G19G21G22G27G31
  20958772.596   110139114.11909  20958770.761    85822693.20649
  22185429.266   116585391.58309  22185428.007    90845843.63547
  24119341.728   126747998.60106  24119340.147    98764679.15445
  21967700.723   115441067.74209  21967699.029    89954080.08448
  22932315.297   120510364.63608  22932314.863    93904308.26747
  22046010.877   115852620.47708  22046011.793    90274793.73348
  23819163.820   125170454.73907  23819167.634    97535388.51945
 15 03 03 00 16 30.0000000  0  7G16G18G19G21G22G27G31
  20949210.565   110088865.21609  20949208.720    85783538.21849
  22178178.516   116547288.88509  22178177.472    90816153.24847
  24104951.432   126672377.64806  24104949.638    98705753.79945
  21978788.106   115499331.05109  21978786.137    89999480.06348
  22915838.679   120423780.02108  22915838.501    93836840.00747
  22035777.412   115798843.59808  22035778.451    90232889.68948
  23837730.532   125268022.09206  23837734.382    97611414.62345
 15 03 03 00 17  0.0000000  0  7G16G18G19G21G22G27G31
  20939720.255   110038993.95209  20939718.443    85744677.49549
  22171005.577   116509594.77609  22171004.572    90786781.23747
  24090577.251   126596840.91006  24090575.715    98646894.05346
  21989917.989   115557818.45109  21989915.699    90045054.66748
  22899392.156   120337355.14208  22899391.908    93769496.20646
  22025566.610   115745185.09708  22025567.468    90191077.88748
  23856302.854   125365619.08607  23856306.828    97687463.83945
 15 03 03 00 17 30.0000000  0  7G16G18G19G21G22G27G31
  20930302.218   109989501.89809  20930300.441    85706112.25749
  22163910.655   116472310.89409  22163909.585    90757728.88647
  24076219.081   126521387.97107  24076217.402    98588099.59745
  22001090.010   115616527.97209  22001087.857    90090802.34748
  22882976.667   120251092.63708  22882975.986    93702278.90746
  22015378.110   115691644.82408  22015379.173    90149358.21248
  23874880.310   125463242.80407  23874884.508    97763533.86446
 15 03 03 00 18  0.0000000  0  7G16G18G19G21G22G27G31
  20920956.860   109940391.71309  20920955.032    85667844.58549
  22156894.226   116435439.43809  22156893.133    90728997.90747
  24061877.080   126446019.27506  24061875.050    98529370.81345
  22012304.146   115675458.31509  22012302.028    90136722.09748
  22866592.897   120164995.65908  22866592.148    93635190.58047
  22005212.417   115638223.30608  22005213.355    90107731.07248
  23893462.592   125560890.76107  23893466.850    97839622.73246
 15 03 03 00 18 30.0000000  0  7G16G18G19G21G22G27G31
  20911685.788   109891671.43109  20911683.892    85629880.72549
  22149957.821   116398988.04109  22149956.691    90700594.24447
  24047551.830   126370740.73406  24047549.980    98470712.26445
  22023560.848   115734613.71509  22023558.941    90182817.21348
  22850242.164   120079072.94308  22850241.720    93568238.05947
  21995070.338   115584926.60408  21995071.256    90066201.18648
  23912049.971   125658566.07007  23912054.209    97915732.92345
 15 03 03 00 19  0.0000000  0  7G16G18G19G21G22G27G31
  20902487.780   109843335.13309  20902485.954    85592216.08049
  22143100.076   116362950.56309  22143098.931    90672513.11347
  24033242.512   126295544.54207  24033240.509    98412117.87646
  22034858.515   115793983.26109  22034856.635    90229079.19448
  22833923.735   119993319.45708  22833922.985    93501417.37947
  21984950.392   115531746.89608  21984951.477    90024762.47748
  23930640.040   125756257.82306  23930644.686    97991855.91145
 15 03 03 00 19 30.0000000  0  7G16G18G19G21G22G27G31
  20893363.969   109795389.02809  20893362.030    85554855.48049
  22136322.252   116327332.32809  22136320.760    90644758.66747
  24018949.530   126220434.60706  24018947.572    98353590.68845
  22046197.795   115853571.38909  22046195.766    90275511.50648
  22817638.538   119907741.92108  22817638.001    93434733.81347
  21974853.734   115478688.44408  21974854.801    89983418.24548
  23949234.184   125853967.36407  23949238.582    98067992.77746
 15 03 03 00 20  0.0000000  0  7G16G18G19G21G22G27G31
  20884314.593   109747834.08209  20884312.602    85517799.67949
  22129624.295   116292134.35909  22129622.698    90617331.69347
  24004672.577   126145409.96206  24004670.910    98295129.98645
  22057577.982   115913374.14509  22057575.936    90322111.05848
  22801387.601   119822342.04508  22801386.689    93368188.65847
  21964779.975   115425750.32808  21964780.902    89942167.78148
  23967830.809   125951690.69507  23967835.353    98144140.38146
 15 03 03 00 20 30.0000000  0  7G16G18G19G21G22G27G31
  20875339.754   109700671.91909  20875337.896    85481049.94649
  22123006.455   116257357.56009  22123004.837    90590232.90647
  23990412.202   126070470.52507  23990410.361    98236735.67146
  22068998.281   115973388.97409  22068996.151    90368875.86648
  22785170.463   119737122.28408  22785169.515    93301783.85447
  21954728.954   115372932.32608  21954729.952    89901010.91348
  23986429.254   126049424.68406  23986434.060    98220296.25745
 15 03 03 00 21  0.0000000  0  7G16G18G19G21G22G27G31
  20866440.446   109653905.30309  20866438.620    85444608.42949
  22116469.275   116223004.47909  22116467.892    90563464.30347
  23976167.970   125995616.80407  23976166.330    98178408.15145
  22080458.857   116033614.95809  22080456.882    90415805.20648
  22768988.777   119652086.48008  22768987.599    93235522.36347
  21944700.996   115320235.42608  21944702.184    89859948.41348
  24005028.940   126147167.66106  24005034.265    98296459.08345
 15 03 03 00 21 30.0000000  0  7G16G18G19G21G22G27G31
  20857616.114   109607533.34309  20857614.329    85408474.43449
  22110012.358   116189073.93209  22110011.062    90537024.94747
  23961939.485   125920845.54807  23961937.485    98120144.87946
  22091958.776   116094047.65709  22091956.805    90462895.62448
  22752841.540   119567233.74208  22752840.419    93169403.54647
  21934695.568   115267656.63808  21934696.648    89818977.94748
  24023629.903   126244913.59907  24023635.036    98372624.25445
 15 03 03 00 22  0.0000000  0  7G16G18G19G21G22G27G31
  20848868.834   109561566.13809  20848866.946    85372655.83349
  22103637.823   116155575.27409  22103636.737    90510922.12147
  23947728.256   125846165.22306  23947726.309    98061952.45845
  22103499.238   116154693.13009  22103497.292    90510151.83648
  22736731.247   119482575.01708  22736730.212    93103435.91147
  21924714.354   115215204.16308  21924715.293    89778105.90448
  24042232.640   126342667.51507  24042237.207    98448795.69245
 15 03 03 00 22 30.0000000  0  7G16G18G19G21G22G27G31
  20840196.978   109515995.88409  20840195.246    85337146.54449
  22097343.851   116122500.50809  22097342.718    90485149.60047
  23933532.395   125771565.75007  23933530.522    98003823.05245
  22115077.861   116215539.20409  22115076.129    90557564.36248
  22720656.847   119398103.31708  22720655.479    93037613.97246
  21914755.172   115162868.36908  21914756.135    89737324.78448
  24060834.102   126440416.92107  24060838.779    98524963.55145
 15 03 03 00 23  0.0000000  0  7G16G18G19G21G22G27G31
  20831602.964   109470833.66109  20831601.206    85301955.20049
  22091132.688   116089860.25609  22091131.422    90459715.66247
  23919353.768   125697056.50007  23919351.710    97945763.93545
  22126696.174   116276593.51209  22126694.469    90605139.14748
  22704620.050   119313830.60208  22704618.778    92971947.08147
  21904819.922   115110658.58908  21904820.924    89696641.85148
  24079435.822   126538168.18406  24079440.760    98601132.80345
 15 03 03 00 23 30.0000000  0  7G16G18G19G21G22G27G31
  20823085.411   109426073.21209  20823083.332    85267076.92849
  22085002.813   116057647.79109  22085001.614    90434615.06247
  23905190.734   125622629.00407  23905188.623    97887768.52646
  22138352.335   116337846.48409  22138350.401    90652868.73948
  22688620.010   119229751.19908  22688618.707    92906430.84147
  21894907.151   115058566.59708  21894908.159    89656050.70348
  24098035.928   126635910.08707  24098040.974    98677294.75945
 15 03 03 00 24  0.0000000  0  7G16G18G19G21G22G27G31
  20814646.089   109381724.86809  20814644.138    85232519.77849
  22078956.210   116025872.55409  22078954.923    90409855.15347
  23891044.664   125548291.71307  23891042.666    97829843.38545
  22150047.354   116399304.78909  22150045.544    90700758.33048
  22672659.293   119145876.40708  22672657.947    92841074.00847
  21885018.554   115006601.10908  21885019.550    89615558.12748
  24116635.329   126733648.53807  24116640.729    98753454.05145
 15 03 03 00 24 30.0000000  0  7G16G18G19G21G22G27G31
  20806284.210   109337782.39709  20806282.133    85198278.89149
  22072991.546   115994528.06409  22072990.057    90385430.90147
  23876914.172   125474036.16606  23876912.112    97771981.97346
  22161779.435   116460957.51008  22161777.643    90748799.41048
  22656736.228   119062200.04208  22656734.499    92775871.80747
  21875152.208   114954753.79708  21875153.193    89575157.63848
  24135231.829   126831371.86507  24135237.215    98829601.52044
 15 03 03 00 25  0.0000000  0  7G16G18G19G21G22G27G31
  20798001.094   109294254.61309  20797999.284    85164361.13649
  22067110.476   115963623.02009  22067109.127    90361349.06847
  23862800.614   125399869.29506  23862798.545    97714189.65046
  22173549.444   116522809.88709  22173547.828    90796996.07048
  22640852.845   118978732.46008  22640851.128    92710832.27747
  21865309.804   114903031.83408  21865310.719    89534854.82448
  24153826.558   126929084.70107  24153831.899    98905740.83344
 15 03 03 00 25 30.0000000  0  7G16G18G19G21G22G27G31
  20789796.228   109251137.31509  20789794.351    85130763.24249
  22061311.934   115933152.10009  22061310.587    90337605.51647
  23848702.834   125325785.11706  23848700.807    97656461.77046
  22185356.287   116584854.70009  22185354.381    90845342.67848
  22625008.202   118895469.95208  22625006.469    92645952.54947
  21855490.286   114851429.22908  21855491.263    89494645.01248
  24172417.679   127026778.01506  24172422.571    98981864.96244
 15 03 03 00 26  0.0000000  0  7G16G18G19G21G22G27G31
  20781670.098   109208434.96409  20781668.256    85097488.68149
  22055597.023   115903120.00909  22055595.598    90314203.90747
  23834621.352   125251786.33606  23834619.276    97598800.40945
  22197199.887   116647092.11309  22197197.890    90893839.36748
  22609204.189   118812418.18008  22609202.246    92581237.02047
  21845693.976   114799949.05508  21845694.771    89454530.60548
  24191004.339   127124451.97706  24191010.034    99057973.92245
 15 03 03 00 26 30.0000000  0  7G16G18G19G21G22G27G31
  20773624.294   109166153.72509  20773622.579    85064542.25949
  22049966.474   115873531.55909  22049965.040    90291147.99147
  23820556.650   125177876.92306  23820554.697    97541208.71645
  22209080.382   116709524.07009  22209078.311    90942487.64648
  22593441.287   118729583.50708  22593439.241    92516690.65047
  21835921.619   114748595.18808  21835922.412    89414514.61648
  24209587.894   127222106.93707  24209594.311    99134068.02746
 15 03 03 00 27  0.0000000  0  7G16G18G19G21G22G27G31
  20765657.835   109124289.42009  20765655.991    85031920.72449
  22044419.693   115844382.27609  22044418.288    90268434.28247
  23806508.031   125104050.27306  23806505.963    97483681.50045
  22220996.153   116772142.96308  22220994.337    90991281.59048
  22577718.880   118646962.23508  22577716.970    92452310.58047
  21826172.094   114697361.62208  21826173.007    89374592.37248
  24228166.707   127319734.54207  24228172.748    99210140.83946
 15 03 03 00 27 30.0000000  0  7G16G18G19G21G22G27G31
  20757771.904   109082848.47709  20757770.209    84999629.07849
  22038957.561   115815678.42509  22038956.078    90246067.66447
  23792475.948   125030311.52506  23792473.762    97426222.76345
  22232948.409   116834952.30508  22232946.412    91040223.93548
  22562038.526   118564562.19508  22562036.435    92388102.87947
  21816446.603   114646253.35408  21816447.300    89334767.75948
  24246740.476   127417336.79107  24246746.261    99286193.92445
 15 03 03 00 28  0.0000000  0  7G16G18G19G21G22G27G31
  20749966.460   109041830.47009  20749964.505    84967666.99549
  22033579.717   115787418.75709  22033578.571    90224047.17047
  23778460.241   124956658.11106  23778458.038    97368830.55945
  22244935.890   116897947.31908  22244933.872    91089310.95648
  22546400.413   118482383.70208  22546398.116    92324067.79347
  21806744.466   114595268.21708  21806745.284    89295039.09448
  24265308.228   127514908.45606  24265313.889    99362223.16443
 15 03 03 00 28 30.0000000  0  7G16G18G19G21G22G27G31
  20742242.062   109001238.51409  20742240.135    84936036.89549
  22028286.921   115759605.67809  22028285.800    90202374.66147
  23764460.971   124883091.29206  23764458.714    97311505.79346
  22256958.479   116961126.76209  22256956.574    91138541.69148
  22530805.155   118400430.38208  22530803.084    92260208.18347
  21797065.842   114544407.45508  21797066.693    89255407.34948
  24283869.248   127612447.93106  24283875.149    99438227.32744
 15 03 03 00 29  0.0000000  0  7G16G18G19G21G22G27G31
  20734599.099   108961074.19209  20734597.332    84904740.02049
  22023079.404   115732240.49109  22023078.483    90181051.15947
  23750477.926   124809610.83606  23750475.987    97254248.33345
  22269016.171   117024489.29708  22269014.140    91187915.09648
  22515253.114   118318704.69608  22515250.994    92196525.94447
  21787411.067   114493671.14208  21787411.843    89215872.57248
  24302424.530   127709952.00407  24302430.591    99514203.85345
 15 03 03 00 29 30.0000000  0  7G16G18G19G21G22G27G31
  20727037.371   108921337.88709  20727035.574    84873776.66649
  22017957.010   115705322.75309  22017956.053    90160076.32247
  23736511.311   124736215.30806  23736509.381    97197057.07145
  22281107.904   117088031.56308  22281105.686    91237428.55048
  22499744.569   118237207.80508  22499742.628    92133021.99647
  21777779.487   114443057.91208  21777780.402    89176433.71248
  24320972.037   127807416.05707  24320978.750    99590149.21646
 15 03 03 00 30  0.0000000  0  7G16G18G19G21G22G27G31
  20719558.217   108882034.57209  20719556.387    84843150.70949
  22012920.705   115678856.94409  22012919.545    90139453.63547
  23722561.084   124662907.71506  23722559.261    97139934.31845
  22293234.034   117151754.71308  22293231.783    91287082.95248
  22484280.914   118155945.75108  22484278.776    92069701.01447
  21768172.282   114392571.14908  21768173.208    89137093.38948
  24339511.973   127904841.42406  24339519.178    99666064.35446
 15 03 03 00 30 30.0000000  0  7G16G18G19G21G22G27G31
  20712161.525   108843164.97609  20712159.742    84812862.71549
  22007970.657   115652843.32909  22007969.356    90119183.31147
  23708627.394   124589686.74306  23708625.771    97082879.06846
  22305394.065   117215656.45008  22305391.941    91336876.51348
  22468862.346   118074920.09608  22468859.882    92006564.25247
  21758588.746   114342209.95009  21758589.664    89097850.91248
  24358043.210   128002223.86005  24358050.868    99741945.99544
 15 03 03 00 31  0.0000000  0  7G16G18G19G21G22G27G31
  20704848.166   108804732.45109  20704846.375    84782915.29449
  22003107.028   115627284.19709  22003105.558    90099267.12047
  23694710.580   124516553.76506  23694708.942    97025892.38845
  22317587.750   117279735.48108  22317585.866    91386808.22448
  22453489.173   117994134.62408  22453486.537    91943614.62947
  21749029.541   114291975.70609  21749030.525    89058707.36648
  24376566.184   128099561.93006  24376574.344    99817793.06544
 15 03 03 00 31 30.0000000  0  7G16G18G19G21G22G27G31
  20697617.024   108766732.29709  20697615.065    84753304.78949
  21998328.828   115602174.52109  21998327.267    90079701.16447
  23680809.495   124443502.63307  23680807.695    96968969.47845
  22329813.738   117343983.85408  22329811.840    91436871.88848
  22438160.912   117913585.38008  22438158.667    91880849.09647
  21739493.381   114241862.34909  21739494.380    89019658.00948
  24395079.836   128196846.20207  24395086.763    99893598.44943
 15 03 03 00 32  0.0000000  0  7G16G18G19G21G22G27G31
  20690468.994   108729169.67309  20690467.250    84724035.21349
  21993637.196   115577519.14309  21993635.479    90060489.20047
  23666924.601   124370536.77207  23666922.279    96912112.99146
  22342072.562   117408403.59708  22342070.632    91487069.09447
  22422878.932   117833278.84608  22422876.729    91818272.67647
  21729980.771   114191873.65109  21729981.699    88980705.79448
  24413583.131   128294077.89207  24413589.995    99969362.75045
 15 03 03 00 32 30.0000000  0  7G16G18G19G21G22G27G31
  20683405.277   108692049.09109  20683403.492    84695110.08749
  21989032.511   115553321.54709  21989030.736    90041633.95447
  23653056.392   124297658.43707  23653054.039    96855324.73846
  22354363.912   117472994.92408  22354361.954    91537400.00148
  22407644.306   117753220.19108  22407642.012    91755889.40147
  21720492.557   114142012.25309  21720493.425    88941852.77348
  24432076.292   128391256.39206  24432083.835   100045085.52545
 15 03 03 00 33  0.0000000  0  7G16G18G19G21G22G27G31
  20676425.872   108655372.81909  20676424.223    84666531.17849
  21984515.195   115529583.73609  21984513.717    90023136.98647
  23639204.911   124224868.38307  23639202.726    96798605.27446
  22366687.699   117537756.70308  22366685.542    91587863.72248
  22392457.249   117673412.38508  22392454.910    91693701.60047
  21711028.726   114092279.01609  21711029.553    88903099.61548
  24450558.370   128488379.58605  24450566.863   100120765.12245
 15 03 03 00 33 30.0000000  0  6G16G18G19G21G22G27
  20669531.893   108619144.37109  20669530.172    84638301.22249
  21980086.006   115506308.25109  21980084.773    90005000.26447
  23625370.516   124152168.27207  23625368.122    96741955.88346
  22379043.948   117602689.19808  22379041.823    91638460.46948
  22377318.905   117593860.13108  22377316.118    91631712.90247
  21701589.386   114042675.79409  21701590.286    88864447.76848
 15 03 03 00 34  0.0000000  0  7G16G18G19G21G22G27G31
  20662722.208   108583359.33209  20662720.369    84610416.78149
  21975743.803   115483490.03809  21975742.495    89987219.85947
  23611552.043   124079552.42207  23611549.944    96685372.16146
  22391431.011   117667784.34408  22391428.879    91689183.95447
  22362228.268   117514559.36308  22362226.014    91569920.19947
  21692173.755   113993196.53709  21692174.747    88825892.52048
  24487489.807   128682618.38116  24487498.863   100272205.08555
 15 03 03 00 34 30.0000000  0  7G16G18G19G21G22G27G31
  20655998.371   108548025.58109  20655996.521    84582883.99549
  21971489.916   115461136.49209  21971488.816    89969801.53647
  23597750.699   124007026.27807  23597748.628    96628858.32946
  22403849.927   117733046.55908  22403848.032    91740037.62347
  22347187.306   117435519.38508  22347184.869    91508330.69447
  21682782.933   113943847.87209  21682784.103    88787439.03048
  24505937.554   128779558.62906  24505946.725   100347742.21244
 15 03 03 00 35  0.0000000  0  7G16G18G19G21G22G27G31
  20649359.614   108513138.29709  20649357.899    84555699.10349
  21967323.468   115439241.94109  21967322.234    89952740.86147
  23583965.125   123934583.28507  23583963.276    96572409.30546
  22416299.137   117798467.22808  22416297.064    91791014.76547
  22332195.159   117356735.74408  22332192.879    91446940.93947
  21673415.911   113894623.30709  21673416.884    88749082.23948
  24524371.761   128876428.04306  24524380.457   100423224.17045
 15 03 03 00 35 30.0000000  0  7G16G18G19G21G22G27G31
  20642807.074   108478704.46809  20642805.215    84528867.55149
  21963245.854   115417813.02809  21963244.622    89936043.03147
  23570196.547   123862229.26207  23570194.547    96516029.59646
  22428779.150   117864050.16808  22428777.111    91842118.34948
  22317253.447   117278216.48808  22317250.955    91385757.16547
  21664073.429   113845528.45209  21664074.295    88710826.52448
  24542792.776   128973229.03606  24542801.822   100498652.73845
 15 03 03 00 36  0.0000000  0  7G16G18G19G21G22G27G31
  20636340.334   108444721.96109  20636338.522    84502387.68049
  21959255.972   115396846.65209  21959254.659    89919705.61447
  23556444.162   123789960.30607  23556442.247    96459716.16645
  22441288.872   117929789.76308  22441287.031    91893344.00547
  22302361.740   117199960.69508  22302359.133    91324778.70347
  21654754.921   113796559.79709  21654755.879    88672669.13948
  24561199.583   129069955.17806  24561208.627   100574022.99645
 15 03 03 00 36 30.0000000  0  7G16G18G19G21G22G27G31
  20629960.359   108411194.49709  20629958.503    84476262.38449
  21955354.798   115376345.72209  21955353.229    89903730.88047
  23542708.506   123717778.19607  23542706.310    96403470.42446
  22453828.649   117995686.07908  22453826.484    91944691.78047
  22287521.068   117121972.65508  22287518.468    91264008.88347
  21645460.955   113747719.48909  21645461.705    88634611.76948
  24579592.063   129166605.75006  24579601.376   100649334.38544
 15 03 03 00 37  0.0000000  0  7G16G18G19G21G22G27G31
  20623667.512   108378125.10909  20623665.677    84450494.03049
  21951542.646   115356312.82009  21951541.091    89888120.84447
  23528989.296   123645683.44507  23528986.989    96347292.75546
  22466397.790   118061737.92608  22466395.792    91996160.74747
  22272732.291   117044256.04408  22272729.584    91203450.56247
  21636191.589   113699008.86109  21636192.437    88596655.44548
  24597970.119   129263179.21406  24597979.553   100724585.66644
 15 03 03 00 37 30.0000000  0  7G16G18G19G21G22G27G31
  20617462.393   108345517.46009  20617460.518    84425085.47549
  21947820.085   115336750.78409  21947818.633    89872877.71947
  23515287.149   123573678.89707  23515285.089    96291185.35846
  22478997.025   118127946.50808  22478994.943    92047751.85047
  22257995.646   116966815.64408  22257993.147    91143107.47247
  21626947.501   113650430.38309  21626948.255    88558802.09648
  24616333.221   129359674.65106  24616342.959   100799776.17944
 15 03 03 00 38  0.0000000  0  7G16G18G19G21G22G27G31
  20611344.651   108313368.63109  20611342.808    84400034.44349
  21944186.385   115317655.93609  21944185.032    89857998.63847
  23501601.511   123501759.88607  23501599.158    96235144.60046
  22491624.716   118194305.22308  22491622.508    92099459.93147
  22243311.295   116889649.70208  22243308.960    91082978.24347
  21617727.527   113601979.81009  21617728.343    88521048.41248
  24634680.291   129456085.34106  24634690.000   100874900.65344
 15 03 03 00 38 30.0000000  0  7G16G18G19G21G22G27G31
  20605314.770   108281681.33309  20605313.000    84375343.04449
  21940642.185   115299030.28909  21940640.786    89843485.16747
  23487932.270   123429927.44207  23487929.873    96179171.32046
  22504280.790   118260813.52908  22504278.708    92151284.58147
  22228679.901   116812761.54708  22228677.435    91023065.47047
  21608532.319   113553658.44909  21608533.135    88483395.41448
  24653010.721   129552409.34107  24653020.609   100949957.52644
 15 03 03 00 39  0.0000000  0  7G16G18G19G21G22G27G31
  20599373.768   108250461.90909  20599372.088    84351016.22149
  21937188.144   115280879.65109  21937186.671    89829341.83247
  23474280.442   123358186.44807  23474278.072    96123269.28946
  22516965.990   118327474.10808  22516963.710    92203227.88647
  22214102.896   116736158.55608  22214100.042    90963374.88647
  21599362.587   113505471.33509  21599363.534    88445847.02748
  24671325.106   129648648.98706  24671335.111   101024948.69646
 15 03 03 00 39 30.0000000  0  7G16G18G19G21G22G27G31
  20593520.924   108219704.38109  20593519.094    84327049.31549
  21933823.350   115263197.28909  21933821.926    89815563.38847
  23460644.415   123286529.29907  23460642.021    96067432.59846
  22529678.224   118394277.82108  22529675.996    92255282.72947
  22199579.049   116659835.66408  22199576.281    90903902.57847
  21590217.024   113457411.10809  21590217.866    88408397.51148
  24689621.449   129744793.73306  24689631.534   101099865.89545
 15 03 03 00 40  0.0000000  0  6G16G18G19G21G22G27
  20587755.976   108189409.87209  20587754.295    84303443.20749
  21930547.586   115245983.12809  21930546.048    89802149.77947
  23447024.225   123214955.21707  23447021.923    96011660.63546
  22542417.447   118461222.01208  22542415.265    92307447.02847
  22185108.814   116583794.59608  22185106.087    90844649.86547
  21581095.500   113409477.39509  21581096.386    88371046.57848
 15 03 03 00 40 30.0000000  0  6G16G18G19G21G22G27
  20582081.780   108159591.80009  20582080.074    84280208.34349
  21927363.387   115229250.23609  21927362.066    89789111.18248
  23433422.116   123143476.30507  23433419.794    95955962.81846
  22555185.182   118528317.56808  22555183.085    92359729.27647
  22170695.174   116508050.18808  22170692.644    90785628.31847
  21572000.410   113361682.53309  21572001.245    88333803.83748
 15 03 03 00 41  0.0000000  0  6G16G18G19G21G22G27
  20576498.168   108130249.12809  20576496.211    84257343.92249
  21924270.366   115212996.83309  21924269.175    89776446.21948
  23419837.563   123072089.77907  23419835.347    95900336.99646
  22567980.868   118595559.41808  22567978.752    92412125.51847
  22156337.908   116432602.09008  22156334.972    90726837.64747
  21562931.467   113314024.07109  21562932.312    88296667.38548
 15 03 03 00 41 30.0000000  0  6G16G18G19G21G22G27
  20571003.046   108101372.54009  20571001.263    84234842.68549
  21921266.732   115197212.97409  21921265.620    89764147.13047
  23406268.754   123000784.74107  23406266.384    95844774.67246
  22580802.009   118662935.18608  22580800.086    92464626.11147
  22142035.478   116357442.18808  22142032.465    90668271.54947
  21553886.280   113266491.41609  21553887.030    88259628.96748
 15 03 03 00 42  0.0000000  0  6G16G18G19G21G22G27
  20565599.114   108072974.24409  20565597.422    84212714.14049
  21918354.694   115181909.70609  21918353.356    89752222.52447
  23392717.221   122929571.82707  23392715.078    95789284.12246
  22593650.194   118730453.79108  22593648.495    92517238.00947
  22127790.190   116282583.41708  22127787.321    90609940.10047
  21544867.163   113219095.54309  21544868.089    88222697.13348
 15 03 03 00 42 30.0000000  0  6G16G18G19G21G22G27
  20560285.009   108045048.55909  20560283.173    84190953.86649
  21915532.896   115167080.77409  21915531.487    89740667.53447
  23379182.193   122858444.05907  23379179.693    95733859.92146
  22606524.128   118798106.30408  22606522.192    92569954.24147
  22113601.486   116208021.14708  22113598.516    90551839.68747
  21535872.721   113171829.65209  21535873.540    88185866.58148
 15 03 03 00 43  0.0000000  0  6G16G18G19G21G22G27
  20555062.235   108017602.54109  20555060.514    84169567.35849
  21912802.577   115152732.10409  21912800.923    89729486.76747
  23365664.248   122787406.93307  23365661.907    95678506.34546
  22619424.215   118865896.46408  22619422.116    92622777.74347
  22099470.720   116133763.50308  22099467.793    90493976.64748
  21526904.184   113124699.54609  21526904.915    88149141.84248
 15 03 03 00 43 30.0000000  0  6G16G18G19G21G22G27
  20549930.390   107990634.23409  20549928.676    84148553.09049
  21910163.022   115138861.39409  21910161.465    89718678.44047
  23352163.051   122716457.10207  23352160.593    95623220.81446
  22632349.577   118933819.20208  22632347.451    92675704.54947
  22085397.699   116059809.37009  22085394.888    90436350.10947
  21517960.710   113077701.99209  21517961.626    88112520.38448
 15 03 03 00 44  0.0000000  0  6G16G18G19G21G22G27
  20544890.082   107964147.98509  20544888.441    84127914.45149
  21907615.242   115125472.53609  21907613.646    89708245.57848
  23338678.796   122645597.77007  23338676.519    95568005.78546
  22645300.208   119001875.47608  22645298.167    92728735.41047
  22071383.468   115986164.09009  22071380.418    90378964.22947
  21509043.285   113030840.38709  21509043.972    88076004.86048
 15 03 03 00 44 30.0000000  0  6G16G18G19G21G22G27
  20539941.509   107938142.99809  20539939.772    84107650.82249
  21905158.674   115112563.37109  21905157.126    89698186.50948
  23325211.304   122574825.96207  23325208.986    95512858.95846
  22658275.647   119070061.59008  22658273.582    92781867.44047
  22057427.858   115912827.74108  22057425.002    90321819.07048
  21500151.189   112984112.57709  21500152.008    88039593.59848
 15 03 03 00 45  0.0000000  0  6G16G18G19G21G22G27
  20535085.990   107912626.32309  20535084.155    84087767.69649
  21902794.300   115100139.87409  21902792.850    89688505.88248
  23311761.751   122504147.49107  23311759.303    95457784.84946
  22671276.533   119138381.14208  22671274.421    92835103.45247
  22043532.781   115839808.40009  22043529.559    90264920.93048
  21491285.789   112937524.46209  21491286.664    88003291.18448
 15 03 03 00 45 30.0000000  0  6G16G18G19G21G22G27
  20530321.426   107887588.30909  20530319.601    84068257.55049
  21900520.607   115088191.60409  21900519.190    89679195.56247
  23298327.861   122433551.45707  23298325.277    95402774.97746
  22684300.224   119206821.66208  22684298.180    92888433.72347
  22029696.283   115767097.57909  22029693.378    90208263.20648
  21482444.947   112891065.46109  21482445.691    87967089.37748
 15 03 03 00 46  0.0000000  0  6G16G18G19G21G22G27
  20525650.844   107863044.32509  20525649.097    84049132.36449
  21898340.346   115076734.28309  21898338.877    89670267.79548
  23284912.064   122363051.43607  23284909.501    95347839.93046
  22697349.392   119275395.06508  22697347.293    92941867.53547
  22015921.712   115694711.65809  22015918.685    90151858.64248
  21473631.297   112844749.76009  21473632.154    87930999.23248
 15 03 03 00 46 30.0000000  0  6G16G18G19G21G22G27
  20521072.529   107838985.46309  20521070.901    84030385.19949
  21896251.429   115065757.23009  21896250.109    89661714.26647
  23271512.757   122292637.78907  23271510.380    95292972.17447
  22710421.412   119344089.43308  22710419.394    92995395.60247
  22002207.375   115622642.79909  22002204.433    90095701.13647
  21464843.160   112798567.38409  21464843.784    87895012.98148
 15 03 03 00 47  0.0000000  0  6G16G18G19G21G22G27
  20516587.858   107815418.19909  20516586.200    84012021.09749
  21894255.018   115055266.48809  21894253.600    89653539.67547
  23258130.847   122222315.37807  23258128.342    95238175.53046
  22723517.292   119412908.37408  22723515.135    93049020.75647
  21988554.838   115550898.26509  21988551.772    90039796.36248
  21456081.258   112752523.87109  21456081.968    87859134.93348
 15 03 03 00 47 30.0000000  0  6G16G18G19G21G22G27
  20512196.480   107792341.85509  20512194.825    83994039.52649
  21892350.961   115045260.22909  21892349.415    89645742.60447
  23244765.964   122152082.13107  23244763.390    95183448.34646
  22736635.993   119481847.67608  22736633.970    93102739.68947
  21974963.925   115479478.25209  21974960.923    89984144.45448
  21447345.594   112706617.27109  21447346.336    87823363.57348
 15 03 03 00 48  0.0000000  0  6G16G18G19G21G22G27
  20507899.469   107769760.41009  20507897.689    83976443.59849
  21890539.586   115035741.41809  21890538.086    89638325.36248
  23231418.393   122081940.73507  23231415.872    95128792.74146
  22749777.879   119550908.22008  22749775.944    93156553.09447
  21961435.860   115408388.19709  21961432.818    89928749.65548
  21438636.422   112660850.64009  21438637.278    87787701.28048
 15 03 03 00 48 30.0000000  0  6G16G18G19G21G22G27
  20503695.855   107747670.95409  20503694.335    83959231.03549
  21888820.238   115026706.58909  21888818.834    89631285.24648
  23218087.640   122011886.71507  23218085.027    95074205.22446
  22762941.644   119620084.73908  22762939.559    93210456.86847
  21947970.312   115337626.07909  21947967.260    89873610.38348
  21429953.305   112615220.11209  21429954.172    87752145.03848
 15 03 03 00 49  0.0000000  0  6G16G18G19G21G22G27
  20499587.033   107726078.95109  20499585.498    83942406.09549
  21887193.936   115018160.37809  21887192.357    89624625.87847
  23204774.298   121941924.59907  23204771.632    95019689.31346
  22776127.950   119689379.40008  22776125.847    93264452.70147
  21934568.307   115267198.47509  21934565.291    89818731.77948
  21421296.913   112569730.34309  21421297.676    87716698.48048
 15 03 03 00 49 30.0000000  0  6G16G18G19G21G22G27
  20495572.615   107704982.82409  20495570.901    83925967.55549
  21885660.118   115010100.26809  21885658.741    89618345.28848
  23191477.869   121872051.45907  23191475.132    94965242.74446
  22789335.804   119758787.57808  22789333.683    93318536.98647
  21921229.847   115197104.67109  21921226.854    89764113.26748
  21412666.722   112524378.59809  21412667.537    87681359.47148
 15 03 03 00 50  0.0000000  0  6G16G18G19G21G22G27
  20491654.295   107684391.63009  20491652.558    83909922.47049
  21884220.362   115002534.42509  21884218.898    89612449.84248
  23178199.690   121802274.96707  23178197.186    94910871.49347
  22802566.541   119828315.32408  22802564.478    93372714.44347
  21907956.776   115127354.90209  21907953.805    89709762.84748
  21404064.441   112479173.18309  21404065.182    87646134.48648
 15 03 03 00 50 30.0000000  0  6G16G18G19G21G22G27
  20487830.349   107664296.06409  20487828.453    83894263.58749
  21882872.716   114995452.80709  21882871.315    89606931.71547
  23164938.133   121732584.61207  23164935.559    94856567.34946
  22815817.748   119897950.16408  22815815.578    93426975.35947
  21894747.566   115057940.93909  21894744.800    89655674.08948
  21395487.853   112434103.78409  21395488.688    87611015.48848
 15 03 03 00 51  0.0000000  0  6G16G18G19G21G22G27
  20484101.934   107644703.61109  20484100.057    83878996.74249
  21881618.677   114988862.34909  21881617.296    89601796.31248
  23151694.027   121662986.86507  23151691.424    94802335.36146
  22829090.112   119967697.31608  22829087.942    93481323.78147
  21881604.151   114988871.42309  21881601.198    89601853.73448
  21386938.737   112389177.25309  21386939.349    87576007.81248
 15 03 03 00 51 30.0000000  0  6G16G18G19G21G22G27
  20480469.418   107625614.86309  20480467.680    83864122.39049
  21880457.918   114982762.45709  21880456.583    89597043.16648
  23138467.463   121593481.36207  23138464.977    94748175.27446
  22842383.384   120037554.08908  22842381.304    93535757.62947
  21868526.573   114920148.13009  21868523.722    89548303.15848
  21378416.619   112344393.15509  21378417.391    87541111.12948
 15 03 03 00 52  0.0000000  0  6G16G18G19G21G22G27
  20476933.000   107607030.85909  20476931.261    83849641.34649
  21879390.449   114977152.96309  21879389.066    89592672.14448
  23125258.447   121524067.16907  23125255.888    94694086.32246
  22855697.000   120107518.42608  22855695.119    93590275.28547
  21855515.238   114851772.66509  21855512.136    89495023.60848
  21369921.537   112299751.51409  21369922.279    87506325.44249
 15 03 03 00 52 30.0000000  0  6G16G18G19G21G22G27
  20473492.676   107588951.08209  20473490.824    83835553.20549
  21878416.179   114972032.95509  21878414.656    89588682.53648
  23112066.479   121454743.22607  23112063.936    94640067.70246
  22869030.629   120177587.52608  22869028.745    93644874.56847
  21842570.204   114783746.14409  21842566.978    89442015.97348
  21361453.449   112255251.37809  21361454.256    87471650.02149
 15 03 03 00 53  0.0000000  0  6G16G18G19G21G22G27
  20470148.612   107571378.84409  20470146.831    83821860.55349
  21877535.541   114967404.73009  21877533.975    89585076.13848
  23098892.030   121385511.90107  23098889.729    94586121.24847
  22882384.358   120247761.71808  22882382.409    93699555.74547
  21829692.388   114716073.14309  21829689.192    89389283.81048
  21353012.778   112210895.41609  21353013.278    87437086.94048
 15 03 03 00 53 30.0000000  0  6G16G18G19G21G22G27
  20466901.447   107554314.75509  20466899.574    83808563.85849
  21876748.341   114963267.49809  21876746.597    89581852.33247
  23085735.420   121316372.01407  23085732.824    94532246.04846
  22895757.707   120318038.39308  22895755.577    93754316.78847
  21816881.936   114648754.85409  21816879.156    89336828.04148
  21344599.276   112166682.85209  21344599.961    87402635.59749
 15 03 03 00 54  0.0000000  0  6G16G18G19G21G22G27
  20463751.716   107537762.21109  20463749.767    83795665.76749
  21876055.114   114959624.50409  21876053.363    89579013.65348
  23072596.327   121247326.14307  23072593.672    94478444.10146
  22909150.558   120388418.26708  22909148.648    93809158.23847
  21804139.991   114581795.98509  21804137.210    89284652.34248
  21336213.726   112122616.54909  21336214.586    87368298.22949
 15 03 03 00 54 30.0000000  0  6G16G18G19G21G22G27
  20460699.277   107521721.12909  20460697.433    83783166.22249
  21875455.708   114956474.67009  21875454.109    89576559.24548
  23059474.796   121178373.31307  23059472.150    94424714.66346
  22922562.431   120458898.44908  22922560.472    93864077.85647
  21791466.774   114515197.09009  21791463.854    89232757.13248
  21327855.809   112078695.83909  21327856.739    87334074.30849
 15 03 03 00 55  0.0000000  0  6G16G18G19G21G22G27
  20457744.583   107506194.23509  20457742.763    83771067.34349
  21874950.454   114953819.97709  21874948.802    89574490.66048
  23046371.448   121109515.56907  23046368.998    94371059.32147
  22935993.572   120529479.60308  22935991.732    93919076.15047
  21778862.848   114448963.01409  21778859.869    89181146.20148
  21319526.272   112034923.13909  21319526.974    87299965.71749
 15 03 03 00 55 30.0000000  0  6G16G18G19G21G22G27
  20454886.983   107491177.63409  20454885.276    83759366.09649
  21874538.434   114951654.95409  21874536.861    89572803.64248
  23033285.391   121040747.37307  23033282.807    94317473.74246
  22949442.647   120600154.25208  22949440.606    93974147.29247
  21766327.624   114383090.40309  21766324.568    89129816.92648
  21311223.811   111991293.28909  21311224.568    87265968.43849
 15 03 03 00 56  0.0000000  0  6G16G18G19G21G22G27
  20452127.123   107476674.87709  20452125.477    83748065.24549
  21874220.175   114949982.65109  21874218.681    89571500.56248
  23020216.727   120972071.51907  23020214.358    94263960.13146
  22962909.535   120670923.85008  22962907.687    94029292.42447
  21753861.980   114317583.94009  21753859.073    89078772.96548
  21302949.120   111947809.36909  21302949.763    87232084.87449
 15 03 03 00 56 30.0000000  0  6G16G18G19G21G22G27
  20449466.209   107462691.14809  20449464.293    83737168.82949
  21873996.578   114948807.42209  21873994.931    89570584.81248
  23007166.651   120903492.15508  23007164.049    94210521.70246
  22976395.068   120741790.52208  22976393.226    94084513.20347
  21741467.485   114252450.05109  21741464.745    89028019.32548
  21294703.162   111904476.00509  21294703.784    87198318.62449
 15 03 03 00 57  0.0000000  0  6G16G18G19G21G22G27
  20446902.772   107449220.94509  20446901.052    83726672.56649
  21873866.184   114948122.79009  21873864.783    89570051.34748
  22994133.406   120835002.83608  22994130.980    94157153.43246
  22989897.572   120812746.44108  22989895.611    94139803.52246
  21729142.816   114187684.16909  21729140.079    88977552.43948
  21286484.575   111861287.06909  21286485.151    87164664.91449
 15 03 03 00 57 30.0000000  0  6G16G18G19G21G22G27
  20444439.424   107436275.77809  20444437.691    83716585.41949
  21873831.336   114947939.22409  21873829.893    89569908.32148
  22981119.338   120766613.91708  22981116.941    94103863.40147
  23003418.698   120883800.40408  23003416.934    94195170.23947
  21716890.736   114123299.02109  21716887.963    88927382.22748
  21278295.478   111818253.51109  21278296.269    87131132.27949
