     2.11           OBSERVATION DATA    G                   RINEX VERSION / TYPE
SPIDER V4,0,0,3554                      2015 03 16 00:52    PGM / RUN BY / DATE 
EBGR                                                        MARKER NAME         
EBGR                                                        MARKER NUMBER       
                                                            OBSERVER / AGENCY   
496564              LEICA GRX1200+GNSS  8.20/4.007          REC # / TYPE / VERS 
10301050            LEIAR25         NONE                    ANT # / TYPE        
  5192132.1029   175475.0084  3689306.2490                  APPROX POSITION XYZ 
        0.0780        0.0000        0.0000                  ANTENNA: DELTA H/E/N
     1     1                                                WAVELENGTH FACT L1/2
     4    C1    L1    P2    L2                              # / TYPES OF OBSERV 
    30.000                                                  INTERVAL            
  2015    03    03    00    00    0.0000000     GPS         TIME OF FIRST OBS   
  2015    03    03    23    59   30.0000000     GPS         TIME OF LAST OBS    
    16                                                      LEAP SECONDS        
    30                                                      # OF SATELLITES     
   G 1   829   829   829   829                              PRN / # OF OBS      
   G 2   930   928   927   927                              PRN / # OF OBS      
   G 3   842   842   841   841                              PRN / # OF OBS      
   G 4   843   843   843   843                              PRN / # OF OBS      
   G 5   670   669   669   669                              PRN / # OF OBS      
   G 6   758   758   756   756                              PRN / # OF OBS      
   G 7   654   654   654   654                              PRN / # OF OBS      
   G 9   787   787   787   787                              PRN / # OF OBS      
   G10   779   779   779   779                              PRN / # OF OBS      
   G11   794   794   794   794                              PRN / # OF OBS      
   G12   815   815   815   815                              PRN / # OF OBS      
   G13   818   818   818   818                              PRN / # OF OBS      
   G14   934   933   929   929                              PRN / # OF OBS      
   G15   729   729   728   728                              PRN / # OF OBS      
   G16   687   686   686   686                              PRN / # OF OBS      
   G17   933   933   933   933                              PRN / # OF OBS      
   G18   936   936   936   936                              PRN / # OF OBS      
   G19   781   781   781   781                              PRN / # OF OBS      
   G20   792   792   791   791                              PRN / # OF OBS      
   G21   715   715   715   715                              PRN / # OF OBS      
   G22   787   786   785   785                              PRN / # OF OBS      
   G23   731   731   731   731                              PRN / # OF OBS      
   G24   833   831   825   825                              PRN / # OF OBS      
   G25   853   852   852   852                              PRN / # OF OBS      
   G27   828   828   828   828                              PRN / # OF OBS      
   G28   909   909   909   909                              PRN / # OF OBS      
   G29   745   745   745   745                              PRN / # OF OBS      
   G30   696   696   696   696                              PRN / # OF OBS      
   G31   809   809   809   809                              PRN / # OF OBS      
   G32   744   744   744   744                              PRN / # OF OBS      
BIT 2 OF LLI FLAGS DATA COLLECTED UNDER A/S CONDITION       COMMENT             
SNR is mapped to RINEX snr flag value [2-9]                 COMMENT             
Lx:     = 25dBHz -> 1; 26-27dBHz -> 2; 28-31dBHz -> 3       COMMENT             
       32-35dBHz -> 4; 36-38dBHz -> 5; 39-41dBHz -> 6       COMMENT             
       42-44dBHz -> 7; 45-48dBHz -> 8; >=49dBHz -> 9        COMMENT             
                                                            END OF HEADER       
 15 03 03 00 00  0.0000000  0  6G16G18G21G22G27G31
  21276310.860   111807787.65609  21276306.820    87122945.89048
  22467854.060   118069551.09209  22467851.120    92002314.95847
  21598176.800   113499497.74209  21598172.660    88441314.81948
  23532144.820   123662450.77608  23532145.580    96360426.44446
  22388912.620   117654578.17009  22388911.900    91678908.35548
  23308622.460   122487634.58509  23308622.040    95444916.54447
 15 03 03 00 00 30.0000000  0  6G16G18G21G22G27G31
  21264773.680   111747159.55509  21264769.680    87075703.21848
  22458011.800   118017829.57809  22458008.840    91962012.51647
  21607434.320   113548146.41609  21607430.200    88479222.88348
  23514787.580   123571240.82108  23514788.060    96289354.39446
  22377693.160   117595619.42809  22377692.400    91632966.49148
  23326832.740   122583328.82508  23326832.320    95519483.21947
 15 03 03 00 01  0.0000000  0  6G16G18G21G22G27G31
  21253297.300   111686851.05009  21253293.340    87028709.58248
  22448235.120   117966452.85409  22448232.180    91921978.74247
  21616747.040   113597085.25809  21616742.960    88517357.05048
  23497443.480   123480099.36908  23497443.740    96218335.71646
  22366496.680   117536781.64209  22366495.920    91587118.88448
  23345065.180   122679139.37308  23345064.740    95594140.51447
 15 03 03 00 01 30.0000000  0  6G16G18G21G22G27G31
  21241881.840   111626862.71209  21241877.940    86981965.41948
  22438524.160   117915421.58809  22438521.200    91882214.14847
  21626114.180   113646310.26909  21626110.180    88555714.20148
  23480112.720   123389027.48709  23480112.700    96147371.21046
  22355322.900   117478063.14209  22355322.180    91541364.22148
  23363318.840   122775061.69508  23363318.420    95668884.90047
 15 03 03 00 02  0.0000000  0  6G16G18G21G22G27G31
  21230527.500   111567195.34809  21230523.620    86935471.37448
  22428879.140   117864736.76809  22428876.140    91842719.51647
  21635535.340   113695819.14809  21635531.400    88594292.54748
  23462795.500   123298026.55509  23462795.180    96076461.96747
  22344171.580   117419462.61209  22344170.880    91495701.49148
  23381592.920   122871091.38008  23381592.580    95743712.93747
 15 03 03 00 02 30.0000000  0  7G16G18G19G21G22G27G31
  21219235.360   111507854.76709  21219231.480    86889231.96348
  22419301.000   117814403.39209  22419297.940    91803498.73847
  24542498.860   128971704.29008  24542495.580   100497409.89345
  21645010.780   113745613.26309  21645006.880    88633093.15848
  23445492.900   123207102.72009  23445492.400    96005612.80946
  22333043.360   117360983.50609  22333042.660    91450133.37648
  23399887.460   122967228.69109  23399887.200    95818624.83747
 15 03 03 00 03  0.0000000  0  7G16G18G19G21G22G27G31
  21207989.600   111448757.84709  21207985.720    86843182.41548
  22409774.100   117764339.26809  22409771.000    91764487.75947
  24527403.440   128892371.83108  24527398.160   100435592.33544
  21654524.060   113795606.15209  21654520.220    88672048.65248
  23428189.380   123116174.03508  23428188.680    95934759.83647
  22321922.120   117302541.19709  22321921.480    91404593.93648
  23418185.800   123063386.35509  23418185.680    95893552.57147
 15 03 03 00 03 30.0000000  0  7G16G18G19G21G22G27G31
  21196829.020   111390108.33509  21196825.100    86797481.50548
  22400337.200   117714748.05509  22400334.040    91725845.28547
  24512344.960   128813239.87008  24512340.760   100373931.25746
  21664113.000   113845996.47409  21664109.200    88711313.84448
  23410923.620   123025444.55508  23410922.820    95864062.10546
  22310846.220   117244337.05009  22310845.620    91359240.08148
  23436525.940   123159762.86508  23436525.860    95968650.87447
 15 03 03 00 04  0.0000000  0  7G16G18G19G21G22G27G31
  21185727.720   111331770.51009  21185723.800    86752023.45748
  22390964.380   117665493.59309  22390961.140    91687465.21147
  24497298.680   128734170.58107  24497294.760   100312318.88145
  21673751.120   113896645.09009  21673747.340    88750780.29548
  23393670.000   122934778.93708  23393669.200    95793414.10247
  22299789.320   117186233.05309  22299788.820    91313964.25848
  23454880.780   123256216.95708  23454880.700    96043809.59647
 15 03 03 00 04 30.0000000  0  7G16G18G19G21G22G27G31
  21174688.080   111273756.70509  21174684.140    86706817.89948
  22381658.020   117616588.34409  22381654.740    91649357.25747
  24482266.000   128655174.30808  24482262.000   100250763.37846
  21683440.060   113947560.36409  21683436.240    88790454.53548
  23376431.040   122844190.22108  23376430.240    95722826.02047
  22288753.460   117128239.50109  22288752.980    91268774.49548
  23473251.800   123352756.07308  23473251.740    96119034.58447
 15 03 03 00 05  0.0000000  0  7G16G18G19G21G22G27G31
  21163712.060   111216077.44909  21163708.140    86661873.03448
  22372420.140   117568043.04909  22372416.900    91611529.79347
  24467248.940   128576259.45807  24467245.000   100189271.33946
  21693180.960   113998748.54709  21693177.040    88830341.43948
  23359208.900   122753689.43208  23359208.040    95652306.41846
  22277740.300   117070364.85409  22277739.760    91223677.39548
  23491640.000   123449385.67108  23491640.080    96194330.06147
 15 03 03 00 05 30.0000000  0  7G16G18G19G21G22G27G31
  21152800.680   111158737.96209  21152796.840    86617192.91748
  22363251.740   117519862.75809  22363248.480    91573986.74047
  24452247.820   128497429.36508  24452243.660   100127845.38644
  21702974.240   114050212.04509  21702970.200    88870442.86848
  23342004.720   122663282.56309  23342003.640    95581859.97146
  22266750.420   117012612.39609  22266749.780    91178675.49548
  23510045.460   123546106.22208  23510045.700    96269696.38947
 15 03 03 00 06  0.0000000  0  7G16G18G19G21G22G27G31
  21141953.820   111101737.58309  21141950.060    86572777.04748
  22354152.500   117472046.10309  22354149.260    91536727.03347
  24437262.240   128418680.82708  24437258.640   100066483.05545
  21712818.780   114101945.13109  21712814.640    88910754.37248
  23324818.380   122572969.12209  23324817.040    95511486.29946
  22255783.260   116954979.11809  22255782.520    91133766.47348
  23528467.120   123642911.64808  23528467.420    96345128.86747
 15 03 03 00 06 30.0000000  0  7G16G18G19G21G22G27G31
  21131172.600   111045082.11809  21131168.920    86528629.93848
  22345123.620   117424599.43609  22345120.400    91499755.63147
  24422292.920   128340017.38908  24422289.760   100005186.97046
  21722714.880   114153949.34309  21722710.700    88951277.13548
  23307651.120   122482755.86009  23307649.520    95441190.67046
  22244839.440   116897468.71209  22244838.600    91088953.18348
  23546905.080   123739802.56508  23546905.480    96420627.97846
 15 03 03 00 07  0.0000000  0  7G16G18G19G21G22G27G31
  21120456.340   110988768.06309  21120452.740    86484748.86248
  22336164.420   117377518.85009  22336161.260    91463069.48147
  24407338.740   128261433.49908  24407335.500    99943952.79146
  21732661.320   114206218.34109  21732657.140    88992006.22448
  23290502.340   122392639.59809  23290500.480    95370970.60147
  22233917.800   116840075.50609  22233917.020    91044231.22148
  23565357.700   123836770.41608  23565358.020    96496187.01546
 15 03 03 00 07 30.0000000  0  7G16G18G19G21G22G27G31
  21109806.280   110932801.97709  21109802.760    86441138.93348
  22327276.140   117330810.76609  22327272.980    91426673.59647
  24392400.800   128182934.20808  24392397.480    99882784.54446
  21742658.600   114258754.55209  21742654.440    89032943.53348
  23273373.320   122302627.86608  23273371.340    95300831.99546
  22223019.420   116782804.64209  22223018.720    90999604.59048
  23583825.460   123933817.41108  23583825.740    96571807.74246
 15 03 03 00 08  0.0000000  0  7G16G18G19G21G22G27G31
  21099222.800   110877185.82109  21099219.360    86397801.67548
  22318459.220   117284477.63809  22318456.040    91390569.88347
  24377478.860   128104519.10208  24377475.020    99821681.90746
  21752706.220   114311555.13809  21752702.040    89074086.84748
  23256264.600   122212723.21408  23256262.620    95230776.80947
  22212144.220   116725655.57909  22212143.640    90955072.87648
  23602307.600   124030940.08308  23602307.860    96647487.42746
 15 03 03 00 08 30.0000000  0  7G16G18G19G21G22G27G31
  21088705.880   110821919.38609  21088702.500    86354736.92048
  22309713.460   117238518.66409  22309710.300    91354757.71947
  24362572.540   128026185.56208  24362568.700    99760642.83946
  21762803.500   114364616.75009  21762799.320    89115433.55748
  23239176.260   122122926.04008  23239174.420    95160805.37247
  22201291.820   116668626.07209  22201291.280    90910634.31048
  23620803.060   124128133.02308  23620803.440    96723221.85447
 15 03 03 00 09  0.0000000  0  7G16G18G19G21G22G27G31
  21078256.640   110767008.38809  21078253.260    86311949.14048
  22301039.920   117192939.23209  22301036.800    91319241.30447
  24347682.400   127947937.49808  24347678.740    99699670.43646
  21772950.680   114417940.61709  21772946.540    89156984.62948
  23222109.560   122033242.34608  23222107.840    95090922.35347
  22190462.860   116611719.77609  22190462.340    90866291.76148
  23639312.020   124225397.14208  23639312.500    96799011.74547
 15 03 03 00 09 30.0000000  0  7G16G18G19G21G22G27G31
  21067874.620   110712450.45209  21067871.200    86269436.46948
  22292438.220   117147737.26109  22292435.140    91284019.01747
  24332807.780   127869770.65307  24332804.440    99638761.29446
  21783146.680   114471520.88009  21783142.520    89198735.48348
  23205064.280   121943670.52608  23205062.520    95021126.47647
  22179656.540   116554932.34709  22179656.000    90822041.83848
  23657833.100   124322724.86608  23657833.720    96874851.20647
 15 03 03 00 10  0.0000000  0  7G16G18G19G21G22G27G31
  21057561.620   110658254.87709  21057558.100    86227206.15948
  22283910.100   117102921.62309  22283907.020    91249097.76947
  24317949.780   127791691.85107  24317946.580    99577920.77646
  21793392.360   114525362.24709  21793388.200    89240689.79748
  23188042.380   121854220.69709  23188040.440    94951425.64447
  22168874.220   116498270.90909  22168873.620    90777890.08748
  23676367.060   124420120.31108  23676367.800    96950743.41547
 15 03 03 00 10 30.0000000  0  7G16G18G19G21G22G27G31
  21047316.660   110604416.91209  21047313.040    86185254.49848
  22275454.580   117058487.59409  22275451.500    91214473.87947
  24303107.240   127713694.20508  24303104.180    99517143.47946
  21803686.180   114579456.69909  21803682.060    89282841.31048
  23171042.920   121764888.50209  23171040.760    94881816.45947
  22158114.600   116441728.67209  22158113.940    90733831.20548
  23694912.140   124517573.86408  23694912.840    97026680.93346
 15 03 03 00 11  0.0000000  0  7G16G18G19G21G22G27G31
  21037140.580   110550940.94409  21037136.860    86143584.92048
  22267072.420   117014439.10109  22267069.300    91180150.40147
  24288280.640   127635780.09608  24288277.460    99456431.22946
  21814028.140   114633804.30509  21814024.060    89325190.09448
  23154066.820   121675678.93909  23154064.360    94812302.81647
  22147378.140   116385308.10209  22147377.460    90689867.14348
  23713468.180   124615085.01708  23713468.840    97102663.32846
 15 03 03 00 11 30.0000000  0  7G16G18G19G21G22G27G31
  21027033.500   110497827.92209  21027029.740    86102198.15648
  22258763.740   116970776.66409  22258760.620    91146127.74947
  24273469.800   127557948.50708  24273466.420    99395783.26246
  21824417.760   114688402.50209  21824413.740    89367734.14648
  23137114.360   121586593.65909  23137111.660    94742886.00846
  22136664.680   116329008.19009  22136663.940    90645997.10148
  23732034.460   124712649.80308  23732035.000    97178687.53246
 15 03 03 00 12  0.0000000  0  7G16G18G19G21G22G27G31
  21016996.300   110445082.52109  21016992.620    86061097.85248
  22250529.480   116927505.42009  22250526.360    91112409.92147
  24258675.180   127480202.03908  24258671.600    99335201.65846
  21834855.060   114743251.23909  21834851.100    89410473.42348
  23120186.500   121497637.94008  23120183.560    94673570.14846
  22125974.680   116272831.60609  22125973.860    90602223.15348
  23750610.860   124810268.00708  23750611.460    97254753.35346
 15 03 03 00 12 30.0000000  0  7G16G18G19G21G22G27G31
  21007028.940   110392703.98309  21007025.340    86020283.41748
  22242369.480   116884624.49909  22242366.340    91078996.23947
  24243896.220   127402537.84008  24243892.420    99274684.14646
  21845339.280   114798346.46209  21845335.360    89453404.76848
  23103283.240   121408811.80508  23103280.260    94604355.25247
  22115307.660   116216775.54109  22115306.720    90558543.12348
  23769196.260   124907933.48808  23769197.100    97330855.99246
 15 03 03 00 13  0.0000000  0  7G16G18G19G21G22G27G31
  20997132.960   110340700.40409  20997129.380    85979761.14948
  22234285.200   116842141.48909  22234282.060    91045892.62547
  24229133.820   127324961.70408  24229130.060    99214235.31546
  21855871.220   114853692.29609  21855867.320    89496531.39848
  23086406.260   121320123.96708  23086403.260    94535248.11447
  22104664.620   116160845.97809  22104663.640    90514961.65848
  23787791.200   125005649.38508  23787792.160    97406997.93646
 15 03 03 00 13 30.0000000  0  7G16G18G19G21G22G27G31
  20987307.200   110289065.84409  20987303.680    85939526.44048
  22226275.440   116800050.13609  22226272.260    91013094.20047
  24214386.800   127247465.94507  24214382.800    99153849.02646
  21866448.960   114909278.76609  21866445.060    89539845.53748
  23069554.620   121231569.23608  23069551.600    94466244.69347
  22094044.140   116105035.20709  22094043.180    90471472.76448
  23806393.620   125103405.19408  23806394.900    97483170.96046
 15 03 03 00 14  0.0000000  0  7G16G18G19G21G22G27G31
  20977553.200   110237808.03909  20977549.600    85899585.28748
  22218341.700   116758358.04109  22218338.480    90980606.86347
  24199656.020   127170055.93808  24199652.120    99093529.61445
  21877073.220   114965109.72409  21877069.300    89583350.17548
  23052729.880   121143155.80209  23052726.840    94397351.35047
  22083447.320   116049348.93109  22083446.440    90428080.86748
  23825004.200   125201203.54308  23825005.640    97559377.12246
 15 03 03 00 14 30.0000000  0  7G16G18G19G21G22G27G31
  20967871.160   110186928.19409  20967867.460    85859938.66148
  22210484.060   116717065.95109  22210480.860    90948431.22947
  24184941.480   127092731.11108  24184937.540    99033276.55246
  21887743.520   115021182.48409  21887739.580    89627043.23748
  23035932.420   121054885.44209  23035929.280    94328569.48547
  22072874.080   115993786.31409  22072873.200    90384785.33148
  23843622.100   125299040.41708  23843623.720    97635613.31346
 15 03 03 00 15  0.0000000  0  7G16G18G19G21G22G27G31
  20958260.800   110136424.80709  20958256.980    85820585.37648
  22202702.240   116676172.25809  22202699.040    90916566.04047
  24170242.640   127015487.97208  24170238.720    98973087.14946
  21898458.780   115077491.52909  21898454.840    89670920.42348
  23019162.120   120966757.74609  23019158.860    94259898.78247
  22062323.800   115938344.01909  22062322.900    90341583.56148
  23862246.220   125396909.51408  23862247.980    97711874.61646
 15 03 03 00 15 30.0000000  0  7G16G18G19G21G22G27G31
  20948723.380   110086304.99109  20948719.460    85781530.98248
  22194997.520   116635683.77009  22194994.340    90885016.59847
  24155560.220   126938331.61307  24155556.360    98912965.36846
  21909219.680   115134040.42509  21909215.760    89714984.49948
  23002420.420   120878780.01809  23002417.000    94191344.92147
  22051797.420   115883027.21909  22051796.480    90298479.57748
  23880876.920   125494813.03208  23880878.740    97788162.71746
 15 03 03 00 16  0.0000000  0  7G16G18G19G21G22G27G31
  20939258.620   110036566.96809  20939254.640    85742774.08348
  22187369.560   116595598.54609  22187366.380    90853781.37947
  24140893.460   126861257.90208  24140889.680    98852908.01146
  21920025.100   115190823.22409  21920021.220    89759230.83748
  22985707.120   120790951.73809  22985703.500    94122907.51147
  22041294.200   115827832.25709  22041293.260    90255470.52948
  23899512.960   125592744.38108  23899514.740    97864472.51946
 15 03 03 00 16 30.0000000  0  7G16G18G19G21G22G27G31
  20929867.660   109987216.82509  20929863.640    85704319.42648
  22179819.500   116555922.59009  22179816.280    90822865.06847
  24126243.200   126784270.92608  24126239.320    98792918.19246
  21930875.540   115247842.52109  21930871.680    89803661.45448
  22969023.500   120703279.41709  22969019.780    94054591.61847
  22030814.840   115772763.17509  22030813.980    90212559.56748
  23918154.500   125690704.86808  23918156.460    97940805.00846
 15 03 03 00 17  0.0000000  0  7G16G18G19G21G22G27G31
  20920549.620   109938250.06309  20920545.540    85666163.51048
  22172346.300   116516650.59609  22172343.020    90792263.53847
  24111608.260   126707364.28807  24111604.440    98732990.98546
  21941769.280   115305089.28009  21941765.380    89848269.31848
  22952368.720   120615758.88509  22952364.960    93986393.99547
  22020358.160   115717813.48109  22020357.400    90169741.63548
  23936799.700   125788684.74708  23936801.740    98017152.59546
 15 03 03 00 17 30.0000000  0  7G16G18G19G21G22G27G31
  20911306.040   109889674.78009  20911301.940    85628312.64248
  22164951.520   116477790.74309  22164948.200    90761983.15547
  24096989.880   126630544.16408  24096985.900    98673131.19946
  21952707.180   115362568.08809  21952703.240    89893058.00448
  22935744.560   120528399.30609  22935740.760    93918321.78747
  22009925.480   115662989.60609  22009924.760    90127021.74848
  23955449.280   125886687.62508  23955451.300    98093518.08046
 15 03 03 00 18  0.0000000  0  7G16G18G19G21G22G27G31
  20902136.760   109841490.25109  20902132.740    85590766.25848
  22157634.900   116439341.88809  22157631.580    90732023.02847
  24082387.380   126553807.61108  24082383.520    98613336.53446
  21963688.360   115420274.28709  21963684.360    89938023.87148
  22919150.980   120441200.46609  22919147.200    93850374.80747
  21999516.260   115608288.73909  21999515.480    90084397.70248
  23974102.080   125984707.60708  23974104.140    98169896.90346
 15 03 03 00 18 30.0000000  0  7G16G18G19G21G22G27G31
  20893042.640   109793700.73209  20893038.700    85553527.67448
  22150397.240   116401307.96109  22150393.920    90702386.22447
  24067801.200   126477156.93408  24067797.260    98553608.78246
  21974712.920   115478208.40709  21974708.840    89983167.34548
  22902588.940   120354167.34709  22902585.200    93782556.96747
  21989130.940   115553713.26409  21989130.040    90041871.38148
  23992758.080   126082744.07708  23992760.200    98246288.55446
 15 03 03 00 19  0.0000000  0  7G16G18G19G21G22G27G31
  20884023.820   109746306.95209  20884019.960    85516597.45848
  22143238.660   116363689.50409  22143235.300    90673073.15947
  24053231.160   126400590.96708  24053227.300    98493947.04546
  21985779.980   115536366.20509  21985775.920    90028485.11448
  22886058.720   120267301.60309  22886055.080    93714869.53647
  21978769.200   115499262.08709  21978768.240    89999441.91048
  24011416.460   126180792.81808  24011418.620    98322689.77146
 15 03 03 00 19 30.0000000  0  7G16G18G19G21G22G27G31
  20875080.380   109699309.41709  20875076.640    85479976.00648
  22136159.140   116326486.23809  22136155.720    90644083.62247
  24038676.900   126324107.99608  24038672.960    98434349.96046
  21996889.340   115594746.50709  21996885.320    90073976.25648
  22869560.600   120180604.28009  22869557.020    93647313.33247
  21968430.760   115444933.82509  21968429.900    89957108.21448
  24030076.420   126278849.56508  24030078.580    98399097.20246
 15 03 03 00 20  0.0000000  0  7G16G18G19G21G22G27G31
  20866213.180   109652712.20909  20866209.500    85443666.49748
  22129159.440   116289702.30109  22129155.940    90615420.83247
  24024138.920   126247710.26708  24024135.060    98374819.31546
  22008040.880   115653348.47909  22008036.920    90119640.13048
  22853095.460   120094080.16309  22853091.880    93579892.10047
  21958116.060   115390730.74809  21958115.400    89914872.06548
  24048737.720   126376913.44308  24048740.020    98475510.15946
 15 03 03 00 20 30.0000000  0  7G16G18G19G21G22G27G31
  20857422.300   109606515.84409  20857418.620    85407669.32948
  22122239.480   116253337.58709  22122235.960    90587084.71847
  24009617.000   126171396.65508  24009613.000    98315354.17946
  22019233.900   115712168.49809  22019229.980    90165473.91048
  22836663.580   120007730.71009  22836659.960    93512606.95647
  21947825.020   115336651.57809  21947824.500    89872732.45848
  24067399.660   126474980.18008  24067401.980    98551925.34946
 15 03 03 00 21  0.0000000  0  7G16G18G19G21G22G27G31
  20848709.080   109560727.40309  20848705.360    85371990.03348
  22115400.560   116217398.98309  22115397.060    90559080.63747
  23995111.860   126095172.00508  23995107.960    98255958.43446
  22030469.100   115771210.03309  22030465.180    90211480.29848
  22820266.540   119921564.02009  22820262.800    93445464.23147
  21937558.700   115282701.72309  21937558.200    89830693.62648
  24086062.540   126573052.46808  24086064.860    98628344.84246
 15 03 03 00 21 30.0000000  0  7G16G18G19G21G22G27G31
  20840072.960   109515343.99709  20840069.180    85336626.34048
  22108642.140   116181883.39809  22108638.620    90531406.17747
  23980622.680   126019031.23408  23980618.700    98196627.99246
  22041745.260   115830466.68809  22041741.300    90257654.31548
  22803903.780   119835577.30609  22803899.920    93378461.73147
  21927316.080   115228876.24509  21927315.540    89788751.71348
  24104725.000   126671122.43408  24104727.380    98704762.53046
 15 03 03 00 22  0.0000000  0  7G16G18G19G21G22G27G31
  20831514.180   109470367.16809  20831510.400    85301579.46548
  22101964.340   116146791.64609  22101960.820    90504061.99147
  23966149.440   125942974.22508  23966145.480    98137362.84646
  22053061.880   115889935.98809  22053057.900    90303994.03348
  22787575.740   119749772.93709  22787571.760    93311601.31247
  21917097.040   115175174.83209  21917096.500    89746906.48148
  24123386.340   126769186.52008  24123388.940    98781175.63046
 15 03 03 00 22 30.0000000  0  7G16G18G19G21G22G27G31
  20823033.820   109425802.68809  20823030.060    85266853.90248
  22095368.260   116112129.39209  22095364.760    90477052.46547
  23951692.860   125867004.60508  23951688.920    98078165.77646
  22064419.240   115949619.41209  22064415.260    90350500.60048
  22771283.680   119664157.52109  22771279.580    93244888.12847
  21906902.420   115121601.56609  21906901.800    89705161.09048
  24142046.600   126867245.92008  24142049.380    98857585.03545
 15 03 03 00 23  0.0000000  0  7G16G18G19G21G22G27G31
  20814631.480   109381648.31209  20814627.780    85232447.90548
  22088853.440   116077893.98409  22088849.960    90450375.55247
  23937252.180   125791118.47208  23937248.060    98019033.76946
  22075816.260   116009511.30109  22075812.300    90397169.61048
  22755027.280   119578729.72509  22755023.080    93178321.14647
  21896731.420   115068152.49309  21896730.760    89663512.48148
  24160704.680   126965293.57108  24160707.600    98933985.31045
 15 03 03 00 23 30.0000000  0  7G16G18G19G21G22G27G31
  20806307.620   109337906.59709  20806304.040    85198363.45448
  22082420.260   116044087.55809  22082416.800    90424032.90347
  23922827.540   125715316.28808  23922823.520    97959967.18846
  22087252.820   116069610.93409  22087248.900    90444000.48748
  22738807.140   119493492.75309  22738802.880    93111902.84447
  21886584.160   115014828.27409  21886583.480    89621961.15048
  24179360.200   127063327.24008  24179363.420    99010374.65046
 15 03 03 00 24  0.0000000  0  7G16G18G19G21G22G27G31
  20798063.340   109294582.87609  20798059.800    85164604.71048
  22076069.580   116010714.64409  22076066.160    90398028.05347
  23908419.440   125639601.52408  23908415.440    97900968.69546
  22098729.260   116129920.07109  22098725.380    90490994.62148
  22722624.480   119408452.88709  22722620.180    93045638.13047
  21876461.420   114961632.71409  21876460.720    89580510.08348
  24198013.300   127161347.82408  24198016.820    99086753.76146
 15 03 03 00 24 30.0000000  0  7G16G18G19G21G22G27G31
  20789899.080   109251679.23009  20789895.480    85131173.29948
  22069801.720   115977777.11409  22069798.340    90372362.46247
  23894028.020   125563974.12808  23894024.040    97842038.29746
  22110245.100   116190436.10809  22110241.200    90538149.96748
  22706479.720   119323612.31209  22706475.400    92979528.70447
  21866363.160   114908565.87109  21866362.440    89539159.31848
  24216663.360   127259352.00508  24216666.920    99163120.14946
 15 03 03 00 25  0.0000000  0  7G16G18G19G21G22G27G31
  20781814.200   109209192.66709  20781810.560    85098066.89548
  22063616.180   115945271.95309  22063612.860    90347033.78547
  23879652.280   125488429.30908  23879648.340    97783172.26446
  22121799.080   116251152.56709  22121795.180    90585461.49848
  22690372.600   119238969.62209  22690368.280    92913573.47147
  21856288.540   114855623.19109  21856287.780    89497905.30348
  24235308.900   127357332.74308  24235312.620    99239468.21346
 15 03 03 00 25 30.0000000  0  7G16G18G19G21G22G27G31
  20773809.920   109167129.36409  20773806.180    85065290.30148
  22057513.900   115913204.24709  22057510.580    90322045.98547
  23865293.140   125412971.56908  23865289.100    97724374.04246
  22133391.820   116312072.63009  22133387.900    90632931.67848
  22674304.400   119154531.48309  22674300.080    92847777.63447
  21846238.360   114802809.10409  21846237.580    89456751.49148
  24253950.220   127455291.40008  24253954.300    99315799.00947
 15 03 03 00 26  0.0000000  0  7G16G18G19G21G22G27G31
  20765886.520   109125490.99009  20765882.680    85032844.81349
  22051495.240   115881575.97009  22051491.940    90297400.59147
  23850950.500   125337600.85508  23850946.600    97665643.66846
  22145022.820   116373193.74009  22145018.860    90680558.50948
  22658275.680   119070300.82109  22658271.420    92782143.44647
  21836212.720   114750124.01009  21836211.920    89415698.18248
  24272586.980   127553225.17908  24272591.120    99392110.47446
 15 03 03 00 26 30.0000000  0  7G16G18G19G21G22G27G31
  20758043.860   109084277.10609  20758039.940    85000730.10249
  22045559.860   115850385.42409  22045556.520    90273096.29847
  23836623.880   125262314.60508  23836619.900    97606979.12246
  22156691.200   116434511.25909  22156687.220    90728338.40148
  22642286.440   118986277.39209  22642282.180    92716670.74647
  21826211.100   114697565.24009  21826210.280    89374743.31648
  24291217.860   127651128.10308  24291221.760    99468397.90346
 15 03 03 00 27  0.0000000  0  7G16G18G19G21G22G27G31
  20750282.520   109043491.02309  20750278.640    84968948.74548
  22039708.340   115819635.66009  22039705.000    90249135.47247
  23822313.660   125187113.83908  23822309.520    97548381.15146
  22168396.940   116496025.13609  22168392.920    90776271.29048
  22626337.420   118902465.08909  22626333.140    92651362.55747
  21816233.780   114645134.33509  21816232.940    89333888.08648
  24309842.500   127748999.46008  24309846.440    99544660.67246
 15 03 03 00 27 30.0000000  0  7G16G18G19G21G22G27G31
  20742602.760   109003133.73309  20742598.900    84937501.51248
  22033940.900   115789327.58009  22033937.540    90225518.80647
  23808019.680   125111998.30208  23808015.420    97489849.61446
  22180139.640   116557733.48009  22180135.620    90824355.71447
  22610429.040   118818866.26109  22610424.760    92586220.70747
  21806280.760   114592830.96109  21806279.900    89293132.23348
  24328460.500   127846835.67608  24328464.700    99620896.04646
 15 03 03 00 28  0.0000000  0  7G16G18G19G21G22G27G31
  20735005.200   108963208.81309  20735001.440    84906391.18348
  22028258.040   115759464.00109  22028254.680    90202248.50447
  23793742.140   125036969.52508  23793737.680    97431385.66746
  22191919.220   116619635.59109  22191915.180    90872591.12148
  22594562.120   118735485.31509  22594557.780    92521248.62547
  21796352.360   114540657.02209  21796351.540    89252477.23048
  24347071.520   127944635.58607  24347076.100    99697103.06445
 15 03 03 00 28 30.0000000  0  7G16G18G19G21G22G27G31
  20727490.220   108923718.09909  20727486.580    84875619.20148
  22022659.980   115730046.16309  22022656.620    90179325.54047
  23779481.140   124962027.54608  23779476.580    97372989.36946
  22203735.180   116681728.98509  22203731.140    90920975.58347
  22578737.100   118652324.62009  22578732.780    92456448.18247
  21786448.600   114488612.56209  21786447.820    89211923.13048
  24365675.160   128042396.28808  24365679.700    99773279.60346
 15 03 03 00 29  0.0000000  0  7G16G18G19G21G22G27G31
  20720057.700   108884660.40309  20720054.080    84845184.63449
  22017146.440   115701072.58309  22017143.120    90156748.75248
  23765236.140   124887169.43408  23765231.520    97314658.40946
  22215586.800   116744009.59209  22215582.720    90969505.93148
  22562953.940   118569383.89109  22562949.600    92391819.12647
  21776568.960   114436694.95009  21776568.220    89171467.87048
  24384270.460   128140111.95908  24384274.980    99849421.05446
 15 03 03 00 29 30.0000000  0  7G16G18G19G21G22G27G31
  20712708.880   108846042.37409  20712705.240    84815092.65748
  22011718.640   115672549.22309  22011715.300    90134522.77847
  23751008.020   124812400.12508  23751003.340    97256396.64946
  22227474.640   116806480.39009  22227470.540    91018184.46847
  22547214.040   118486670.58109  22547209.660    92327367.28547
  21766714.480   114384909.18209  21766713.680    89131115.33848
  24402857.540   128237784.34008  24402862.260    99925528.69846
 15 03 03 00 30  0.0000000  0  7G16G18G19G21G22G27G31
  20705444.180   108807865.93409  20705440.480    84785344.79049
  22006376.780   115644477.54309  22006373.400    90112648.76447
  23736796.760   124737719.62808  23736792.180    97198204.10147
  22239398.280   116869139.53009  22239394.180    91067009.77548
  22531517.980   118404187.73609  22531513.600    92263095.02447
  21756885.160   114333255.67009  21756884.320    89090865.86948
  24421435.780   128335411.79508  24421440.740   100001601.24045
 15 03 03 00 30 30.0000000  0  7G16G18G19G21G22G27G31
  20698263.240   108770129.42009  20698259.480    84755939.71448
  22001120.480   115616855.48709  22001117.060    90091125.10547
  23722601.680   124663124.36008  23722597.300    97140077.96746
  22251356.860   116931982.37109  22251352.780    91115978.21447
  22515865.660   118321934.55209  22515861.260    92199001.71447
  21747080.420   114281731.17509  21747079.480    89050716.92848
  24440004.420   128432987.45608  24440009.160   100077633.59444
 15 03 03 00 31  0.0000000  0  7G16G18G19G21G22G27G31
  20691166.600   108732835.87809  20691162.800    84726879.80948
  21995950.120   115589685.13009  21995946.720    90069953.41547
  23708423.060   124588615.47208  23708418.780    97082019.13647
  22263350.080   116995007.35909  22263346.060    91165088.58847
  22500257.760   118239914.57309  22500253.300    92135090.12047
  21737300.440   114230336.90409  21737299.460    89010669.46048
  24458562.980   128530509.72108  24458567.780   100153624.38846
 15 03 03 00 31 30.0000000  0  7G16G18G19G21G22G27G31
  20684154.800   108695988.11109  20684150.920    84698167.26348
  21990866.200   115562969.01609  21990862.780    90049135.68847
  23694261.160   124514194.36408  23694257.040    97024028.71446
  22275377.900   117058214.09609  22275373.900    91214340.59147
  22484694.940   118158131.37309  22484690.400    92071363.03147
  21727545.500   114179074.33809  21727544.500    88970724.62248
  24477110.940   128627977.09008  24477116.240   100229572.13146
 15 03 03 00 32  0.0000000  0  7G16G18G19G21G22G27G31
  20677227.700   108659585.55509  20677223.740    84669801.64249
  21985868.540   115536706.31709  21985865.100    90028671.26747
  23680115.560   124439858.84708  23680111.600    96966104.98646
  22287439.620   117121598.96509  22287435.640    91263731.39547
  22469177.280   118076585.74309  22469172.700    92007821.06147
  21717815.260   114127941.61309  21717814.260    88930880.96748
  24495647.620   128725384.79208  24495653.240   100305473.49347
 15 03 03 00 32 30.0000000  0  7G16G18G19G21G22G27G31
  20670386.420   108623634.34609  20670382.420    84641787.71348
  21980958.160   115510902.21909  21980954.720    90008564.20347
  23665986.980   124365612.88408  23665983.080    96908251.03647
  22299535.640   117185163.81109  22299531.640    91313262.44247
  22453706.120   117995284.50309  22453701.540    91944469.51747
  21708110.520   114076943.07309  21708109.540    88891141.86748
  24514173.240   128822733.82008  24514178.820   100381329.18045
 15 03 03 00 33  0.0000000  0  7G16G18G19G21G22G27G31
  20663630.040   108588129.70009  20663626.100    84614121.76148
  21976134.100   115485551.76009  21976130.700    89988810.62147
  23651874.220   124291450.23908  23651870.400    96850462.01746
  22311664.400   117248900.54109  22311660.340    91362927.42947
  22438280.680   117914223.64709  22438276.160    91881305.29048
  21698430.120   114026072.63009  21698429.140    88851502.57948
  24532685.800   128920015.24906  24532691.420   100457132.21645
 15 03 03 00 33 30.0000000  0  7G16G18G19G21G22G27G31
  20656960.300   108553080.51409  20656956.500    84586810.70649
  21971397.880   115460662.91309  21971394.500    89969416.73547
  23637778.700   124217378.08108  23637774.820    96792743.49846
  22323826.900   117312814.83409  22323822.820    91412730.76847
  22422902.900   117833413.26509  22422898.400    91818336.22647
  21688775.520   113975337.58509  21688774.520    88811968.78948
  24551186.120   129017233.76808  24551192.320   100532885.97646
 15 03 03 00 34  0.0000000  0  7G16G18G19G21G22G27G31
  20650376.400   108518482.71809  20650372.800    84559851.39249
  21966748.620   115436231.07409  21966745.220    89950378.95448
  23623699.360   124143391.19208  23623695.440    96735091.41547
  22336021.720   117376899.03709  22336017.640    91462666.50747
  22407572.080   117752849.73209  22407567.620    91755559.51948
  21679145.660   113924732.32109  21679144.640    88772536.13848
  24569673.100   129114380.24308  24569679.620   100608583.77747
 15 03 03 00 34 30.0000000  0  7G16G18G19G21G22G27G31
  20643879.860   108484343.77209  20643876.400    84533249.61948
  21962187.660   115412263.28309  21962184.260    89931702.77447
  23609637.120   124069494.61208  23609633.200    96677509.70547
  22348249.600   117441157.18809  22348245.540    91512737.79147
  22392289.940   117672541.91009  22392285.500    91692982.06947
  21669541.760   113874263.12909  21669540.640    88733209.51348
  24588147.100   129211458.39707  24588153.760   100684228.34745
 15 03 03 00 35  0.0000000  0  7G16G18G19G21G22G27G31
  20637470.860   108450664.60709  20637467.480    84507006.11848
  21957715.020   115388759.69809  21957711.700    89913388.31247
  23595591.960   123995687.66808  23595588.020    96619997.85446
  22360510.040   117505586.50609  22360506.060    91562942.44847
  22377056.720   117592491.22109  22377052.280    91630604.97447
  21659963.600   113823929.33809  21659962.460    88693988.39548
  24606607.120   129308464.81707  24606613.800   100759816.98345
 15 03 03 00 35 30.0000000  0  7G16G18G19G21G22G27G31
  20631148.460   108417440.12409  20631145.040    84481116.91249
  21953329.700   115365714.92209  21953326.420    89895431.36347
  23581562.720   123921964.15508  23581558.780    96562551.02946
  22372801.480   117570178.74509  22372797.560    91613274.05747
  22361871.640   117512693.61309  22361867.280    91568425.08748
  21650409.960   113773724.57309  21650408.820    88654867.81448
  24625051.840   129405389.59808  24625058.860   100835342.01847
 15 03 03 00 36  0.0000000  0  7G16G18G19G21G22G27G31
  20624913.980   108384677.21909  20624910.400    84455587.38048
  21949032.840   115343134.98309  21949029.580    89877836.63047
  23567550.420   123848329.29008  23567546.460    96505173.26546
  22385124.620   117634937.39109  22385120.700    91663735.34147
  22346736.280   117433157.23709  22346731.900    91506448.75647
  21640881.860   113723654.43009  21640880.780    88615852.13048
  24643481.740   129502235.45908  24643489.000   100910805.51447
 15 03 03 00 36 30.0000000  0  7G16G18G19G21G22G27G31
  20618768.020   108352379.26409  20618764.300    84430420.14948
  21944824.960   115321022.53509  21944821.700    89860606.17147
  23553555.360   123774784.63808  23553551.220    96447865.79446
  22397479.380   117699862.20809  22397475.480    91714326.10447
  22331651.420   117353886.12809  22331646.940    91444679.11647
  21631379.740   113673720.78909  21631378.680    88576942.81448
  24661896.160   129599001.62105  24661903.820   100986206.78745
 15 03 03 00 37  0.0000000  0  7G16G18G19G21G22G27G31
  20612710.300   108320545.36709  20612706.500    84405614.51748
  21940705.760   115299376.28709  21940702.520    89843738.97747
  23539576.880   123701326.84008  23539572.580    96390625.98747
  22409864.820   117764948.14309  22409860.900    91765042.41147
  22316617.020   117274880.05209  22316612.480    91383115.99547
  21621903.120   113623921.14009  21621902.080    88538137.90348
  24680294.580   129695682.49208  24680302.280   101061541.62444
 15 03 03 00 37 30.0000000  0  6G16G18G19G21G22G27
  20606739.660   108289169.23009  20606735.780    84381165.58149
  21936673.940   115278189.20809  21936670.740    89827229.58247
  23525613.640   123627948.84608  23525609.200    96333448.38747
  22422279.300   117830186.49408  22422275.340    91815877.49047
  22301632.100   117196133.88109  22301627.480    91321755.39848
  21612450.620   113574248.08009  21612449.580    88499431.63548
 15 03 03 00 38  0.0000000  0  6G16G18G19G21G22G27
  20600859.900   108258271.05009  20600856.060    84357089.08849
  21932733.220   115257480.81909  21932730.060    89811093.19747
  23511669.100   123554669.24208  23511664.640    96276347.46246
  22434725.920   117895593.81308  22434721.960    91866844.23047
  22286700.720   117117669.03609  22286696.020    91260614.02248
  21603025.820   113524720.56909  21603024.760    88460838.78348
 15 03 03 00 38 30.0000000  0  6G16G18G19G21G22G27
  20595069.180   108227840.67709  20595065.380    84333377.11149
  21928881.580   115237240.35609  21928878.400    89795321.42447
  23497741.020   123481476.27308  23497736.460    96219314.02947
  22447202.180   117961156.78909  22447198.200    91917932.25547
  22271821.100   117039476.04209  22271816.300    91199684.46548
  21593626.520   113475327.14809  21593625.460    88422350.41448
 15 03 03 00 39  0.0000000  0  6G16G18G19G21G22G27
  20589367.920   108197880.69309  20589364.220    84310031.67449
  21925119.440   115217469.92509  21925116.160    89779915.91647
  23483829.620   123408371.18308  23483825.040    96162349.06347
  22459707.860   118026874.36308  22459703.860    91969140.75047
  22256993.920   116961558.54609  22256989.020    91138969.59148
  21584252.960   113426069.16009  21584252.000    88383967.57248
 15 03 03 00 39 30.0000000  0  6G16G18G19G21G22G27
  20583756.940   108168395.04609  20583753.340    84287055.84649
  21921447.380   115198172.82209  21921444.020    89764879.22748
  23469935.340   123335356.32208  23469930.800    96105454.40747
  22472243.120   118092747.40509  22472239.080    92020470.39147
  22242220.060   116883921.46709  22242215.100    91078473.22248
  21574905.680   113376949.25309  21574904.820    88345692.33248
 15 03 03 00 40  0.0000000  0  6G16G18G19G21G22G27
  20578236.580   108139385.54509  20578233.040    84264451.04249
  21917865.540   115179349.74509  21917862.060    89750211.91648
  23456058.180   123262431.73508  23456053.660    96048630.09946
  22484807.560   118158773.98808  22484803.540    92071919.66847
  22227500.020   116806567.27909  22227495.060    91018197.28548
  21565584.820   113327967.85609  21565584.020    88307525.01748
 15 03 03 00 40 30.0000000  0  6G16G18G19G21G22G27
  20572806.660   108110851.02609  20572803.100    84242216.35749
  21914373.620   115160999.23509  21914370.060    89735912.84248
  23442197.720   123189595.03108  23442193.240    95991874.26247
  22497400.500   118224950.48108  22497396.520    92123485.76947
  22212833.860   116729496.29309  22212828.940    90958142.02248
  21556289.980   113279122.79209  21556289.140    88269463.93948
 15 03 03 00 41  0.0000000  0  6G16G18G19G21G22G27
  20567468.460   108082798.36909  20567464.840    84220357.15549
  21910972.800   115143127.53709  21910969.160    89721986.86647
  23428354.980   123116851.44608  23428350.540    95935190.97747
  22510022.540   118291279.79108  22510018.540    92175170.94547
  22198223.020   116652716.13409  22198218.160    90898313.38648
  21547022.140   113230419.61009  21547021.280    88231513.42648
 15 03 03 00 41 30.0000000  0  6G16G18G19G21G22G27
  20562221.240   108055223.63509  20562217.540    84198870.34749
  21907662.180   115125730.15609  21907658.520    89708430.48448
  23414528.940   123044195.53608  23414524.520    95878576.01147
  22522672.360   118357754.97008  22522668.320    92226969.78247
  22183667.000   116576224.09009  22183662.200    90838709.23948
  21537780.340   113181853.19209  21537779.340    88193669.46648
 15 03 03 00 42  0.0000000  0  6G16G18G19G21G22G27
  20557064.680   108028125.47909  20557060.920    84177754.89749
  21904441.320   115108804.68809  21904437.680    89695241.82647
  23400719.100   122971624.49708  23400714.640    95822027.17847
  22535349.080   118424371.43409  22535344.980    92278878.70747
  22169165.700   116500019.61409  22169161.000    90779329.18248
  21528564.100   113133421.03509  21528562.980    88155930.12548
 15 03 03 00 42 30.0000000  0  6G16G18G19G21G22G27
  20552000.960   108001515.21509  20551997.120    84157019.62649
  21901312.300   115092361.94509  21901308.700    89682429.31547
  23386927.400   122899148.43508  23386922.880    95765552.36447
  22548054.260   118491137.31609  22548050.080    92330904.06747
  22154721.480   116424115.15909  22154716.860    90720182.89848
  21519375.320   113085133.44409  21519374.160    88118303.44148
 15 03 03 00 43  0.0000000  0  6G16G18G19G21G22G27
  20547029.560   107975390.14709  20547025.640    84136662.42649
  21898274.440   115076398.16609  21898270.900    89669990.02648
  23373152.980   122826763.17208  23373148.380    95709148.30247
  22560786.760   118558046.67509  22560782.520    92383041.23047
  22140334.060   116348509.12809  22140329.460    90661269.15448
  21510213.280   113036986.53909  21510212.140    88080786.38248
 15 03 03 00 43 30.0000000  0  6G16G18G19G21G22G27
  20542150.540   107949750.73509  20542146.620    84116683.66349
  21895327.780   115060913.59709  21895324.280    89657924.14648
  23359395.640   122754467.89208  23359391.000    95652814.36247
  22573546.000   118625096.90408  22573541.780    92435288.16447
  22126003.680   116273202.88509  22125999.100    90602589.02048
  21501077.860   112988979.61109  21501076.760    88043378.40149
 15 03 03 00 44  0.0000000  0  6G16G18G19G21G22G27
  20537363.920   107924597.15009  20537360.040    84097083.46649
  21892472.280   115045907.99309  21892468.820    89646231.48648
  23345655.180   122682261.72808  23345650.580    95596549.85447
  22586331.440   118692284.84808  22586327.260    92487642.40447
  22111730.620   116198197.64809  22111725.960    90544143.42648
  21491968.940   112941111.96409  21491967.880    88006078.94649
 15 03 03 00 44 30.0000000  0  6G16G18G19G21G22G27
  20532670.760   107899934.69909  20532666.960    84077865.96949
  21889708.700   115031385.43009  21889705.280    89634915.21948
  23331932.220   122610147.90108  23331927.780    95540357.29847
  22599143.520   118759612.97208  22599139.380    92540105.87147
  22097516.040   116123499.64909  22097511.340    90485937.23548
  21482887.300   112893387.63109  21482886.200    87968891.16048
 15 03 03 00 45  0.0000000  0  6G16G18G19G21G22G27
  20528071.060   107875763.26209  20528067.300    84059031.07549
  21887036.840   115017344.77909  21887033.420    89623974.46948
  23318226.560   122538125.13908  23318222.280    95484235.69047
  22611981.620   118827077.76308  22611977.540    92592675.82647
  22083360.160   116049109.87509  22083355.360    90427971.21348
  21473832.720   112845805.43709  21473831.580    87931814.12848
 15 03 03 00 45 30.0000000  0  6G16G18G19G21G22G27
  20523564.960   107852083.46809  20523561.220    84040579.28549
  21884456.720   115003785.96509  21884453.240    89613409.17448
  23304538.180   122466192.96308  23304534.020    95428184.68247
  22624845.340   118894677.10808  22624841.300    92645350.63647
  22069263.320   115975030.18109  22069258.420    90370246.81348
  21464805.140   112798365.17909  21464804.000    87894847.70348
 15 03 03 00 46  0.0000000  0  6G16G18G19G21G22G27
  20519152.720   107828896.90309  20519148.960    84022511.83049
  21881968.680   114990711.04009  21881965.120    89603220.93747
  23290867.120   122394351.21008  23290862.980    95372204.11847
  22637734.340   118962409.18108  22637730.340    92698128.86447
  22055225.980   115901263.21409  22055220.980    90312766.10348
  21455804.620   112751067.33209  21455803.500    87857992.25248
 15 03 03 00 46 30.0000000  0  6G16G18G19G21G22G27
  20514834.700   107806205.45809  20514830.920    84004830.18249
  21879572.740   114978120.16409  21879569.140    89593409.87948
  23277213.580   122322601.16008  23277209.380    95316295.01947
  22650648.380   119030272.90408  22650644.380    92751009.67947
  22041248.680   115827811.98909  22041243.640    90255531.42148
  21446831.320   112703912.81609  21446830.240    87821248.48448
 15 03 03 00 47  0.0000000  0  6G16G18G19G21G22G27
  20510610.740   107784008.42209  20510606.980    83987533.78949
  21877268.680   114966012.33909  21877265.060    89583975.22548
  23263577.080   122250940.63808  23263572.820    95260455.68447
  22663586.860   119098264.80208  22663582.800    92803990.37747
  22027331.480   115754676.67509  22027326.400    90198542.90548
  21437885.000   112656900.08609  21437883.960    87784615.20348
 15 03 03 00 47 30.0000000  0  6G16G18G19G21G22G27
  20506481.980   107762311.51509  20506478.180    83970627.11249
  21875057.420   114954392.21309  21875053.840    89574920.59948
  23249958.480   122179373.96808  23249954.120    95204689.48447
  22676550.120   119166387.12208  22676546.020    92857072.70447
  22013475.640   115681863.93109  22013470.540    90141805.74548
  21428966.580   112610033.69609  21428965.560    87748095.95449
 15 03 03 00 48  0.0000000  0  6G16G18G19G21G22G27
  20502448.580   107741115.62109  20502444.740    83954110.82949
  21872938.960   114943259.73609  21872935.420    89566245.94847
  23236357.700   122107900.92908  23236353.240    95148996.23847
  22689537.760   119234637.69108  22689533.680    92910254.96047
  21999681.600   115609376.15009  21999676.540    90085321.79548
  21420076.040   112563313.67209  21420075.040    87711690.75548
 15 03 03 00 48 30.0000000  0  6G16G18G19G21G22G27
  20498510.620   107720421.02609  20498506.700    83937985.16749
  21870913.260   114932614.71509  21870909.740    89557951.14348
  23222774.420   122036520.31408  23222769.920    95093375.01047
  22702549.420   119303014.47608  22702545.320    92963535.56147
  21985949.620   115537214.54909  21985944.620    90029092.01148
  21411213.240   112516739.42509  21411212.300    87675399.14849
 15 03 03 00 49  0.0000000  0  6G16G18G19G21G22G27
  20494668.320   107700229.60409  20494664.400    83922251.59149
  21868980.540   114922458.31409  21868977.040    89550037.08048
  23209208.820   121965233.16408  23209204.340    95037826.62547
  22715584.820   119371516.15708  22715580.800    93016913.48847
  21972280.320   115465382.22709  21972275.380    89973118.81048
  21402378.420   112470312.13809  21402377.460    87639222.05948
 15 03 03 00 49 30.0000000  0  6G16G18G19G21G22G27
  20490921.640   107680540.58109  20490917.680    83906909.48749
  21867140.500   114912788.88809  21867136.960    89542502.47347
  23195660.580   121894037.45708  23195656.200    94982349.47847
  22728643.300   119440138.94308  22728639.280    93070385.78347
  21958673.740   115393879.29209  21958668.760    89917402.27248
  21393571.220   112424029.95309  21393570.240    87603158.03148
 15 03 03 00 50  0.0000000  0  6G16G18G19G21G22G27
  20487271.160   107661357.16009  20487267.200    83891961.36949
  21865393.600   114903608.86409  21865390.040    89535349.22648
  23182130.140   121822935.13308  23182125.860    94926945.09747
  22741724.860   119508883.12808  22741720.860    93123952.66847
  21945130.740   115322710.25009  21945125.680    89861945.91648
  21384792.160   112377895.44209  21384791.100    87567209.08248
 15 03 03 00 50 30.0000000  0  6G16G18G19G21G22G27
  20483716.920   107642679.66109  20483713.000    83877407.48149
  21863739.780   114894917.93109  21863736.200    89528577.09147
  23168617.400   121751925.39108  23168613.020    94871612.86847
  22754829.040   119577745.92808  22754825.020    93177611.99247
  21931651.540   115251876.53109  21931646.420    89806750.85048
  21376041.060   112331907.99109  21376039.940    87531374.72548
 15 03 03 00 51  0.0000000  0  6G16G18G19G21G22G27
  20480258.980   107624508.47909  20480255.140    83863248.11049
  21862178.980   114886715.99809  21862175.420    89522185.98047
  23155122.320   121681007.74208  23155117.800    94816352.38947
  22767955.420   119646725.48808  22767951.420    93231362.28547
  21918236.420   115181379.76009  21918231.280    89751818.33248
  21367317.860   112286067.44409  21367316.720    87495654.82749
 15 03 03 00 51 30.0000000  0  6G16G18G19G21G22G27
  20476897.480   107606844.21309  20476893.760    83849483.74549
  21860711.120   114879002.56509  21860707.580    89516175.52748
  23141644.740   121610181.88508  23141640.040    94761163.43847
  22781103.560   119715819.22008  22781099.520    93285201.56147
  21904885.740   115111221.79409  21904880.640    89697149.81148
  21358622.560   112240373.47909  21358621.460    87460049.15249
 15 03 03 00 52  0.0000000  0  6G16G18G19G21G22G27
  20473633.620   107589692.63909  20473629.920    83836118.88749
  21859337.140   114871782.34109  21859333.560    89510549.38747
  23128185.360   121539451.78508  23128180.540    94706049.10947
  22794273.940   119785029.87708  22794269.860    93339131.94047
  21891600.760   115041409.06309  21891595.680    89642750.31348
  21349956.120   112194830.97409  21349954.980    87424561.50049
 15 03 03 00 52 30.0000000  0  6G16G18G19G21G22G27
  20470467.700   107573055.76409  20470464.020    83823155.08449
  21858057.360   114865057.00709  21858053.760    89505308.87747
  23114744.460   121468818.93408  23114739.560    94651010.55547
  22807466.480   119854357.22608  22807462.460    93393153.23547
  21878382.160   114971945.25609  21878377.140    89588622.71248
  21341318.820   112149441.55109  21341317.660    87389193.12548
 15 03 03 00 53  0.0000000  0  6G16G18G19G21G22G27
  20467399.120   107556930.21009  20467395.440    83810589.71749
  21856870.940   114858822.27209  21856867.320    89500450.65548
  23101321.200   121398279.21608  23101316.300    94596044.57247
  22820680.020   119923794.96908  22820676.040    93447260.56547
  21865229.600   114902828.34909  21865224.640    89534765.41748
  21332709.900   112104201.32609  21332708.780    87353941.01849
 15 03 03 00 53 30.0000000  0  6G16G18G19G21G22G27
  20464428.620   107541320.05309  20464424.920    83798425.95949
  21855778.420   114853080.91509  21855774.780    89495976.87647
  23087916.020   121327834.93308  23087911.140    94541152.95547
  22833914.720   119993344.05208  22833910.820    93501454.64647
  21852143.940   114834063.04909  21852139.040    89481182.09548
  21324129.900   112059113.05609  21324128.760    87318807.30749
 15 03 03 00 54  0.0000000  0  6G16G18G19G21G22G27
  20461556.560   107526227.15509  20461552.820    83786665.25749
  21854780.080   114847834.72609  21854776.460    89491888.95548
  23074529.200   121257487.29408  23074524.340    94486336.64047
  22847170.500   120063003.69608  22847166.620    93555734.87747
  21839125.840   114765652.63209  21839120.940    89427875.30848
  21315579.060   112014178.16009  21315577.920    87283793.11249
 15 03 03 00 54 30.0000000  0  6G16G18G19G21G22G27
  20458782.440   107511648.51509  20458778.600    83775305.27549
  21853875.260   114843079.81509  21853871.600    89488183.83848
  23061160.060   121187232.48108  23061155.240    94431592.65847
  22860446.280   120132768.15908  22860442.360    93610096.78747
  21826174.840   114697594.77809  21826169.940    89374843.23848
  21307056.720   111969393.15309  21307055.580    87248895.71049
 15 03 03 00 55  0.0000000  0  6G16G18G19G21G22G27
  20456106.940   107497588.22109  20456103.060    83764349.20449
  21853064.560   114838819.66009  21853060.920    89484864.24748
  23047809.300   121117074.03408  23047804.500    94376923.76947
  22873742.400   120202639.53908  22873738.400    93664542.02247
  21813292.120   114629895.81209  21813287.260    89322090.83248
  21298563.640   111924761.92609  21298562.540    87214118.14249
 15 03 03 00 55 30.0000000  0  6G16G18G19G21G22G27
  20453529.940   107484045.72409  20453526.060    83753796.61149
  21852347.620   114835052.18409  21852344.000    89481928.56747
  23034476.540   121047009.84708  23034471.720    94322328.32947
  22887058.080   120272613.77108  22887054.040    93719067.39547
  21800477.760   114562555.77709  21800472.880    89269618.10248
  21290099.500   111880282.75109  21290098.440    87179459.05748
 15 03 03 00 56  0.0000000  0  6G16G18G19G21G22G27
  20451052.120   107471024.68709  20451048.260    83743650.34649
  21851725.020   114831780.66109  21851721.460    89479379.34548
  23021162.280   120977042.93008  23021157.500    94267808.69547
  22900393.620   120342692.50108  22900389.560    93773674.19447
  21787732.600   114495579.54109  21787727.680    89217428.85848
  21281664.900   111835958.90809  21281663.940    87144921.00349
 15 03 03 00 56 30.0000000  0  6G16G18G19G21G22G27
  20448673.480   107458524.96709  20448669.640    83733910.29949
  21851196.600   114829004.23909  21851193.120    89477215.91048
  23007866.320   120907172.23908  23007861.560    94213364.03147
  22913748.400   120412872.57008  22913744.380    93828359.94347
  21775056.940   114428968.31909  21775051.940    89165524.03648
  21273259.720   111791789.79909  21273258.860    87110503.52449
 15 03 03 00 57  0.0000000  0  6G16G18G19G21G22G27
  20446394.260   107446547.78809  20446390.460    83724577.42849
  21850762.480   114826723.24409  21850759.060    89475438.51948
  22994588.680   120837398.16108  22994583.920    94158994.64547
  22927122.220   120483152.95208  22927118.360    93883123.86347
  21762451.120   114362724.29109  21762446.080    89113905.33948
  21264884.120   111747776.09409  21264883.300    87076207.13449
 15 03 03 00 57 30.0000000  0  6G16G18G19G21G22G27
  20444215.220   107435097.03409  20444211.460    83715654.76249
  21850423.240   114824940.64709  21850419.820    89474049.49648
  22981329.880   120767723.53008  22981325.280    94104702.76947
  22940515.400   120553534.89808  22940511.620    93937966.93147
