     2.11           OBSERVATION DATA    G                   RINEX VERSION / TYPE
SPIDER V4,0,0,3554                      2015 03 12 00:06    PGM / RUN BY / DATE 
EECH                                                        MARKER NAME         
EECH                                                        MARKER NUMBER       
                                                            OBSERVER / AGENCY   
462240              LEICA GRX1200PRO    8.20/2.127          REC # / TYPE / VERS 
103299              LEIAT504                                ANT # / TYPE        
  5154282.7593   121017.3605  3742656.9418                  APPROX POSITION XYZ 
        0.0590        0.0000        0.0000                  ANTENNA: DELTA H/E/N
     1     1                                                WAVELENGTH FACT L1/2
     4    C1    L1    P2    L2                              # / TYPES OF OBSERV 
    30.000                                                  INTERVAL            
  2015    03    03    00    00    0.0000000     GPS         TIME OF FIRST OBS   
  2015    03    03    23    59   30.0000000     GPS         TIME OF LAST OBS    
    16                                                      LEAP SECONDS        
    30                                                      # OF SATELLITES     
   G 1   819   819   819   819                              PRN / # OF OBS      
   G 2   907   907   899   899                              PRN / # OF OBS      
   G 3   797   797   797   797                              PRN / # OF OBS      
   G 4   838   838   837   837                              PRN / # OF OBS      
   G 5   670   670   670   670                              PRN / # OF OBS      
   G 6   671   671   665   665                              PRN / # OF OBS      
   G 7   693   693   693   693                              PRN / # OF OBS      
   G 9   781   781   781   781                              PRN / # OF OBS      
   G10   779   779   779   779                              PRN / # OF OBS      
   G11   783   783   783   783                              PRN / # OF OBS      
   G12   805   805   805   805                              PRN / # OF OBS      
   G13   811   811   810   810                              PRN / # OF OBS      
   G14   867   867   867   867                              PRN / # OF OBS      
   G15   729   729   729   729                              PRN / # OF OBS      
   G16   690   690   690   690                              PRN / # OF OBS      
   G17   908   908   908   908                              PRN / # OF OBS      
   G18   893   893   893   893                              PRN / # OF OBS      
   G19   781   781   781   781                              PRN / # OF OBS      
   G20   784   784   784   784                              PRN / # OF OBS      
   G21   652   652   652   652                              PRN / # OF OBS      
   G22   773   773   773   773                              PRN / # OF OBS      
   G23   694   694   688   688                              PRN / # OF OBS      
   G24   809   809   808   808                              PRN / # OF OBS      
   G25   826   826   823   823                              PRN / # OF OBS      
   G27   822   822   822   822                              PRN / # OF OBS      
   G28   879   879   878   878                              PRN / # OF OBS      
   G29   725   725   725   725                              PRN / # OF OBS      
   G30   662   662   660   660                              PRN / # OF OBS      
   G31   689   689   689   689                              PRN / # OF OBS      
   G32   730   730   730   730                              PRN / # OF OBS      
BIT 2 OF LLI FLAGS DATA COLLECTED UNDER A/S CONDITION       COMMENT             
SNR is mapped to RINEX snr flag value [2-9]                 COMMENT             
Lx:     = 25dBHz -> 1; 26-27dBHz -> 2; 28-31dBHz -> 3       COMMENT             
       32-35dBHz -> 4; 36-38dBHz -> 5; 39-41dBHz -> 6       COMMENT             
       42-44dBHz -> 7; 45-48dBHz -> 8; >=49dBHz -> 9        COMMENT             
                                                            END OF HEADER       
 15 03 03 00 00  0.0000000  0  6G16G18G21G22G27G31
  21225412.760   111540324.72709  21225412.260    86914553.24048
  22534705.100   118420684.55108  22534704.960    92275871.64846
  21597460.760   113495440.21308  21597459.920    88438008.42848
  23607045.260   124056066.62007  23607048.200    96667145.74946
  22329292.560   117341245.97308  22329294.520    91434757.86948
  23349987.820   122704966.23007  23349990.060    95614246.35846
 15 03 03 00 00 30.0000000  0  6G16G18G21G22G27G31
  21214149.780   111481136.68209  21214149.180    86868432.68448
  22524664.500   118367920.63408  22524664.340    92234756.94246
  21606618.020   113543561.96508  21606617.220    88475505.90348
  23589652.700   123964671.50507  23589655.640    96595929.37045
  22318049.920   117282165.97708  22318052.220    91388721.52848
  23368377.800   122801603.91007  23368379.820    95689548.21146
 15 03 03 00 01  0.0000000  0  6G16G18G21G22G27G31
  21202945.600   111422257.63109  21202944.960    86822552.91148
  22514685.300   118315479.56608  22514685.200    92193893.80947
  21615828.740   113591964.56008  21615828.000    88513222.21348
  23572268.940   123873321.78707  23572271.760    96524748.37945
  22306828.680   117223198.70608  22306831.140    91342773.00648
  23386786.000   122898338.33507  23386787.920    95764925.44546
 15 03 03 00 01 30.0000000  0  7G16G18G19G21G22G27G31
  21191805.140   111363714.20709  21191804.540    86776934.66848
  22504772.520   118263388.09908  22504772.540    92153303.08247
  24516901.640   128837181.87006  24516902.020   100392609.65745
  21625097.160   113640670.11808  21625096.420    88551174.59848
  23554898.880   123782044.63506  23554901.840    96453623.87746
  22295633.460   117164368.58408  22295635.960    91296931.37148
  23405216.620   122995191.03207  23405218.620    95840394.81746
 15 03 03 00 02  0.0000000  0  7G16G18G19G21G22G27G31
  21180717.400   111305447.65609  21180716.780    86731532.16248
  22494915.040   118211587.72008  22494915.240    92112939.17546
  24501619.780   128756877.31606  24501620.080   100330034.73944
  21634411.500   113689616.77909  21634410.720    88589314.84748
  23537531.600   123690781.91807  23537534.660    96382510.61046
  22284452.880   117105614.79908  22284455.260    91251149.20948
  23423657.580   123092098.04807  23423659.700    95915906.51446
 15 03 03 00 02 30.0000000  0  7G16G18G19G21G22G27G31
  21169705.740   111247580.81909  21169705.060    86686441.12648
  22485136.220   118160200.54308  22485136.480    92072897.24446
  24486366.960   128676728.95206  24486367.500   100267581.52645
  21643794.240   113738923.03308  21643793.440    88627735.30248
  23520190.780   123599656.77907  23520193.780    96311504.50346
  22273309.840   117047057.85808  22273312.120    91205520.44848
  23442131.260   123189176.78007  23442133.420    95991552.01146
 15 03 03 00 03  0.0000000  0  7G16G18G19G21G22G27G31
  21158755.600   111190037.20109  21158754.880    86641601.94748
  22475421.700   118109151.04508  22475422.020    92033118.43646
  24471128.720   128596658.76805  24471129.860   100205189.23244
  21653230.200   113788509.05608  21653229.360    88666373.76448
  23502862.040   123508593.89007  23502864.620    96240546.94146
  22262189.520   116988619.80608  22262191.720    91159984.32848
  23460622.200   123286346.54507  23460624.360    96067268.43746
 15 03 03 00 03 30.0000000  0  7G16G18G19G21G22G27G31
  21147867.220   111132818.44109  21147866.560    86597015.90748
  22465771.860   118058440.85408  22465772.180    91993604.02246
  24455905.760   128516666.02405  24455907.520   100142857.29746
  21662718.700   113838371.47308  21662717.860    88705227.60048
  23485545.260   123417595.34707  23485547.740    96169639.46646
  22251091.620   116930300.00808  22251093.860    91114540.36048
  23479129.800   123383603.86507  23479131.920    96143053.09246
 15 03 03 00 04  0.0000000  0  7G16G18G19G21G22G27G31
  21137041.080   111075927.01709  21137040.500    86552684.92948
  22456187.080   118008072.04608  22456187.320    91954355.63146
  24440698.460   128436750.86006  24440700.060   100080585.83145
  21672259.620   113888509.34108  21672258.780    88744296.06448
  23468241.060   123326663.95807  23468243.740    96098784.31347
  22240016.280   116872098.67208  22240018.400    91069188.68448
  23497653.480   123480945.62707  23497655.580    96218903.55046
 15 03 03 00 04 30.0000000  0  7G16G18G19G21G22G27G31
  21126279.240   111019373.54409  21126278.680    86508617.28448
  22446669.240   117958055.42808  22446669.420    91915381.66746
  24425508.060   128356922.27906  24425508.980   100018381.80945
  21681854.200   113938929.39109  21681853.360    88783584.41148
  23450951.860   123235811.08907  23450954.660    96027990.32746
  22228965.120   116814024.39508  22228967.040    91023936.00148
  23516194.380   123578377.62107  23516196.520    96294824.31246
 15 03 03 00 05  0.0000000  0  7G16G18G19G21G22G27G31
  21115584.560   110963173.12909  21115584.100    86464824.75648
  22437221.260   117908406.39708  22437221.440    91876694.14546
  24410336.160   128277193.15906  24410336.860    99956255.28244
  21691504.620   113989642.52209  21691503.700    88823101.14248
  23433680.640   123145052.39407  23433683.480    95957269.70246
  22217940.660   116756090.33308  22217942.500    90978792.59248
  23534754.360   123675910.00007  23534756.720    96370823.29846
 15 03 03 00 05 30.0000000  0  7G16G18G19G21G22G27G31
  21104954.780   110907313.49909  21104954.440    86421297.77548
  22427840.920   117859112.59308  22427841.020    91838283.40846
  24395180.400   128197549.57606  24395180.620    99894195.36144
  21701207.920   114040633.63209  21701206.960    88862834.47648
  23416425.240   123054376.35207  23416427.800    95886613.48046
  22206940.120   116698282.25708  22206942.040    90933747.35948
  23553330.180   123773525.73307  23553332.820    96446887.21746
 15 03 03 00 06  0.0000000  0  7G16G18G19G21G22G27G31
  21094390.380   110851797.02909  21094390.100    86378038.17948
  22418528.500   117810175.71108  22418528.560    91800150.79546
  24380041.020   128117991.21606  24380040.440    99832201.95545
  21710963.560   114091900.08608  21710962.640    88902782.36548
  23399186.140   122963785.58407  23399188.420    95816023.67046
  22195963.560   116640600.28408  22195965.680    90888800.39148
  23571921.260   123871221.79307  23571924.060    96523013.73746
 15 03 03 00 06 30.0000000  0  7G16G18G19G21G22G27G31
  21083892.260   110796629.07609  21083892.020    86335050.17248
  22409285.120   117761601.76808  22409285.180    91762300.99047
  24364918.480   128038521.33206  24364917.320    99770277.45244
  21720771.840   114143443.04808  21720770.900    88942945.71248
  23381964.560   122873286.37407  23381966.440    95745505.19546
  22185011.540   116583047.69808  22185013.940    90843954.25148
  23590527.720   123968998.46507  23590530.540    96599203.05046
 15 03 03 00 07  0.0000000  0  7G16G18G19G21G22G27G31
  21073461.880   110741816.85109  21073461.540    86292339.34648
  22400112.160   117713397.59308  22400112.220    91724739.31946
  24349813.460   127959145.25405  24349812.500    99708426.00545
  21730633.600   114195266.91809  21730632.580    88983327.95048
  23364761.860   122782886.34007  23364763.580    95675063.95846
  22174085.160   116525629.60908  22174087.740    90799212.89848
  23609149.920   124066857.89307  23609152.680    96675456.85146
 15 03 03 00 07 30.0000000  0  7G16G18G19G21G22G27G31
  21063098.200   110687355.26709  21063097.780    86249901.74948
  22391008.660   117665558.04608  22391008.700    91687461.77747
  24334725.000   127879856.35406  24334724.600    99646642.49644
  21740547.120   114247362.52309  21740545.980    89023921.92648
  23347577.220   122692581.38307  23347578.660    95604696.81545
  22163183.300   116468339.54408  22163185.860    90754571.31348
  23627786.080   124164790.72607  23627788.800    96751767.85346
 15 03 03 00 08  0.0000000  0  7G16G18G19G21G22G27G31
  21052800.260   110633239.35809  21052799.880    86207733.50948
  22381973.720   117618078.72708  22381973.760    91650464.92447
  24319652.300   127800647.34106  24319651.860    99584921.22445
  21750510.460   114299720.13908  21750509.280    89064720.07048
  23330409.620   122602367.15407  23330410.740    95534400.34246
  22152304.500   116411170.11308  22152306.860    90710023.71848
  23646434.240   124262786.59107  23646437.000    96828127.97646
 15 03 03 00 08 30.0000000  0  7G16G18G19G21G22G27G31
  21042569.700   110579477.67309  21042569.420    86165841.28948
  22373008.820   117570967.63408  22373008.860    91613755.02446
  24304596.340   127721524.41806  24304595.400    99523267.09545
  21760524.660   114352345.20708  21760523.560    89105726.61748
  23313261.200   122512252.79907  23313261.940    95464181.70545
  22141449.880   116354127.86108  22141452.000    90665575.22148
  23665095.040   124360848.87107  23665097.860    96904539.85446
 15 03 03 00 09  0.0000000  0  7G16G18G19G21G22G27G31
  21032408.760   110526081.64909  21032408.540    86124233.99948
  22364116.100   117524235.98508  22364116.080    91577340.76746
  24289558.400   127642497.44006  24289556.900    99461687.74445
  21770591.060   114405244.74008  21770590.060    89146947.03548
  23296134.060   122422250.12007  23296134.600    95394050.06245
  22130621.140   116297222.18608  22130623.200    90621233.15548
  23683769.800   124458984.28807  23683772.760    96981008.70946
 15 03 03 00 09 30.0000000  0  7G16G18G19G21G22G27G31
  21022317.880   110473053.68009  21022317.600    86082913.50648
  22355296.140   117477886.49908  22355295.940    91541224.31247
  24274538.280   127563566.84706  24274537.020    99400183.46146
  21780709.460   114458417.67708  21780708.600    89188380.49648
  23279028.720   122332362.30207  23279029.180    95324007.88946
  22119818.340   116240453.62208  22119820.520    90576997.93148
  23702457.960   124557190.06307  23702461.080    97057532.38046
 15 03 03 00 10  0.0000000  0  7G16G18G19G21G22G27G31
  21012296.600   110420391.40309  21012296.180    86041877.96648
  22346548.420   117431916.50008  22346548.040    91505403.53846
  24259535.180   127484727.96406  24259534.820    99338750.62346
  21790878.620   114511857.11608  21790877.820    89230021.61948
  23261944.880   122242587.84307  23261945.260    95254054.05046
  22109040.680   116183817.64008  22109043.080    90532866.01548
  23721158.040   124655458.64807  23721161.380    97134105.01746
 15 03 03 00 10 30.0000000  0  7G16G18G19G21G22G27G31
  21002344.260   110368091.38009  21002343.800    86001124.70348
  22337872.120   117386322.59808  22337871.700    91469875.84347
  24244548.500   127405975.23506  24244548.880    99277384.92646
  21801097.240   114565556.41308  21801096.500    89271865.22948
  23244882.100   122152923.71307  23244882.220    95184186.18846
  22098287.260   116127308.83608  22098289.840    90488833.20148
  23739868.620   124753781.90707  23739872.080    97210720.22245
 15 03 03 00 11  0.0000000  0  7G16G18G19G21G22G27G31
  20992462.000   110316159.49109  20992461.580    85960658.30249
  22329268.320   117341110.32208  22329268.120    91434645.53346
  24229579.220   127327312.61206  24229579.780    99216089.47045
  21811365.600   114619517.14808  21811364.940    89313912.55648
  23227841.520   122063376.43007  23227841.600    95114409.34546
  22087558.880   116070931.19408  22087561.420    90444902.59348
  23758589.840   124852160.76407  23758593.260    97287378.75846
 15 03 03 00 11 30.0000000  0  7G16G18G19G21G22G27G31
  20982648.340   110264587.96309  20982647.880    85920472.70049
  22320735.700   117296271.50408  22320735.700    91399706.21647
  24214625.640   127248730.39606  24214625.560    99154856.65244
  21821681.540   114673728.06508  21821680.940    89356154.83148
  23210821.760   121973938.95807  23210822.020    95044718.05946
  22076853.720   116014675.07508  22076856.060    90401066.67948
  23777319.280   124950582.63507  23777322.520    97364070.81545
 15 03 03 00 12  0.0000000  0  7G16G18G19G21G22G27G31
  20972905.540   110213388.98009  20972905.020    85880577.39049
  22312276.620   117251818.89908  22312276.720    91365067.84147
  24199689.400   127170238.82206  24199688.520    99093694.42945
  21832046.520   114728196.68408  21832045.960    89398597.91248
  23193825.360   121884624.17007  23193825.940    94975122.34546
  22066173.640   115958550.68108  22066175.780    90357333.39348
  23796058.280   125049054.85607  23796061.220    97440802.11246
 15 03 03 00 12 30.0000000  0  7G16G18G19G21G22G27G31
  20963234.540   110162567.50309  20963234.000    85840976.25049
  22303891.900   117207757.39908  22303892.140    91330734.24047
  24184770.780   127091840.83706  24184769.600    99032605.14346
  21842460.840   114782924.71208  21842460.300    89441243.12948
  23176853.640   121795437.76007  23176854.300    94905626.71046
  22055519.140   115902560.95808  22055521.140    90313705.06148
  23814806.760   125147577.00707  23814809.360    97517572.29445
 15 03 03 00 13  0.0000000  0  7G16G18G19G21G22G27G31
  20953634.460   110112118.88409  20953633.960    85801665.63749
  22295580.680   117164081.97208  22295580.960    91296701.46247
  24169868.640   127013529.53606  24169867.580    98971583.44345
  21852922.940   114837903.59208  21852922.360    89484083.81548
  23159905.660   121706375.80307  23159906.060    94836228.02146
  22044888.960   115846699.22508  22044890.940    90270176.45548
  23833562.980   125246139.61707  23833565.240    97594374.03745
 15 03 03 00 13 30.0000000  0  7G16G18G19G21G22G27G31
  20944106.820   110062051.23409  20944106.460    85762651.89049
  22287344.480   117120800.44108  22287344.740    91262975.62947
  24154983.980   126935311.42006  24154983.580    98910634.28246
  21863433.640   114893137.43908  21863432.980    89527123.17648
  23142982.980   121617447.23907  23142983.240    94766933.24447
  22034284.300   115790971.90108  22034286.340    90226752.57748
  23852327.620   125344746.24307  23852329.520    97671210.04745
 15 03 03 00 14  0.0000000  0  7G16G18G19G21G22G27G31
  20934650.380   110012357.51909  20934650.060    85723929.52349
  22279181.980   117077905.74908  22279182.120    91229551.22647
  24140115.560   126857177.07006  24140115.080    98849750.44445
  21873990.840   114948615.35508  21873990.080    89570352.72548
  23126084.540   121528645.41407  23126084.640    94697737.21546
  22023703.560   115735369.92708  22023705.600    90183426.36748
  23871098.240   125443384.78807  23871100.060    97748070.91145
 15 03 03 00 14 30.0000000  0  7G16G18G19G21G22G27G31
  20925266.480   109963044.52409  20925266.100    85685503.81949
  22271094.320   117035404.28108  22271094.340    91196433.20347
  24125264.280   126779131.56106  24125263.080    98788935.82045
  21884595.020   115004340.27908  21884594.180    89613774.75048
  23109211.640   121439977.79407  23109211.660    94628645.74947
  22013147.720   115679898.09308  22013149.640    90140201.56648
  23889875.140   125542056.88607  23889877.120    97824957.91045
 15 03 03 00 15  0.0000000  0  7G16G18G19G21G22G27G31
  20915956.520   109914120.07509  20915956.040    85647380.88049
  22263082.800   116993303.79808  22263082.800    91163627.66047
  24110430.940   126701180.83806  24110429.080    98728195.05544
  21895246.880   115060316.07608  21895246.040    89657392.25848
  23092365.840   121351453.31907  23092365.900    94559665.80946
  22002617.860   115624562.46408  22002619.700    90097082.90848
  23908659.000   125640765.64106  23908661.260    97901873.48146
 15 03 03 00 15 30.0000000  0  7G16G18G19G21G22G27G31
  20906720.260   109865583.28309  20906719.740    85609560.00349
  22255147.320   116951603.25508  22255147.340    91131133.75347
  24095614.780   126623322.15906  24095612.700    98667525.99445
  21905945.600   115116538.34208  21905944.840    89701201.81248
  23075547.140   121263071.33407  23075547.180    94490796.90646
  21992113.240   115569360.26608  21992115.140    90054068.21948
  23927448.600   125739505.23806  23927451.380    97978813.04645
 15 03 03 00 16  0.0000000  0  7G16G18G19G21G22G27G31
  20897557.620   109817433.20609  20897557.040    85572040.46249
  22247287.860   116910301.56408  22247287.800    91098950.64047
  24080815.440   126545552.19006  24080813.640    98606926.05145
  21916690.320   115173002.02508  21916689.520    89745199.48148
  23058755.740   121174832.18408  23058755.620    94422039.30046
  21981633.360   115514288.70808  21981635.480    90011155.33548
  23946243.120   125838270.01106  23946246.200    98055772.24546
 15 03 03 00 16 30.0000000  0  7G16G18G19G21G22G27G31
  20888468.280   109769668.29909  20888467.620    85534821.06149
  22239504.060   116869397.21408  22239504.000    91067077.13547
  24066032.500   126467867.50006  24066031.280    98546392.55745
  21927480.140   115229702.11509  21927479.140    89789381.36948
  23041991.280   121086734.75907  23041990.960    94353392.13946
  21971177.660   115459344.25408  21971180.000    89968341.50548
  23965041.180   125937053.67606  23965044.540    98132746.15745
 15 03 03 00 17  0.0000000  0  7G16G18G19G21G22G27G31
  20879453.560   109722295.68409  20879452.860    85497907.34949
  22231797.100   116828896.57908  22231797.060    91035518.22147
  24051267.040   126390273.35906  24051266.120    98485929.66245
  21938315.400   115286641.25208  21938314.220    89833749.53248
  23025255.080   120998786.63308  23025254.780    94284861.29346
  21960747.240   115404532.11908  21960749.620    89925630.76748
  23983843.160   126035858.15206  23983846.700    98209736.29146
 15 03 03 00 17 30.0000000  0  7G16G18G19G21G22G27G31
  20870515.220   109675324.29509  20870514.540    85461306.27349
  22224168.660   116788808.75108  22224168.620    91004280.97747
  24036519.860   126312776.83906  24036519.040    98425542.82445
  21949197.120   115343824.89608  21949195.860    89878308.20948
  23008549.300   120910997.77908  23008548.880    94216454.54746
  21950343.480   115349859.60208  21950345.700    89883028.80848
  24002649.900   126134687.92006  24002653.480    98286746.13945
 15 03 03 00 18  0.0000000  0  7G16G18G19G21G22G27G31
  20861653.000   109628753.02509  20861652.380    85425016.97449
  22216618.460   116749132.31908  22216618.360    90973364.29947
  24021790.280   126235374.80606  24021789.860    98365229.57345
  21960124.340   115401248.06308  21960123.100    89923053.52448
  22991873.940   120823367.66308  22991873.020    94148171.50246
  21939965.740   115295323.55908  21939967.680    89840533.20248
  24021460.320   126233536.82106  24021464.000    98363770.84646
 15 03 03 00 18 30.0000000  0  7G16G18G19G21G22G27G31
  20852865.220   109582573.14809  20852864.660    85389032.65449
  22209144.900   116709858.29108  22209144.620    90942761.18146
  24007076.820   126158056.55806  24007076.740    98304981.62645
  21971094.740   115458898.32508  21971093.580    89967975.80448
  22975227.200   120735888.34908  22975226.020    94080005.95646
  21929611.920   115240913.46608  21929613.640    89798135.73348
  24040271.900   126332391.30906  24040275.800    98440799.90545
 15 03 03 00 19  0.0000000  0  7G16G18G19G21G22G27G31
  20844152.640   109536788.53309  20844152.120    85353356.33749
  22201748.620   116670990.42008  22201748.200    90912474.55547
  23992380.120   126080824.09006  23992380.000    98244800.52145
  21982108.120   115516774.63408  21982107.120    90013074.22948
  22958609.780   120648564.65507  22958608.760    94011961.62946
  21919282.380   115186631.38808  21919284.000    89755838.02048
  24059084.420   126431250.32606  24059088.660    98517832.49046
 15 03 03 00 19 30.0000000  0  7G16G18G19G21G22G27G31
  20835517.120   109491408.38809  20835516.580    85317995.18949
  22194431.140   116632537.21808  22194430.620    90882511.03547
  23977701.280   126003684.56206  23977700.680    98184691.83945
  21993165.980   115574884.54608  21993165.140    90058354.67648
  22942023.880   120561406.37308  22942022.980    93944046.20046
  21908978.540   115132484.67908  21908980.240    89713645.79048
  24077898.720   126530118.34206  24077903.280    98594872.08546
 15 03 03 00 20  0.0000000  0  7G16G18G19G21G22G27G31
  20826959.840   109446439.39109  20826959.300    85282954.42049
  22187193.940   116594505.49408  22187193.240    90852875.94247
  23963040.500   125926642.91306  23963039.840    98124659.41945
  22004268.640   115633229.87808  22004267.880    90103818.57148
  22925471.000   120474420.91908  22925470.020    93876265.46646
  21898701.360   115078478.30908  21898703.300    89671562.90948
  24096715.180   126628997.16606  24096720.060    98671920.08545
 15 03 03 00 20 30.0000000  0  7G16G18G19G21G22G27G31
  20818479.820   109401876.62009  20818479.220    85248230.18549
  22180035.920   116556889.79508  22180035.040    90823565.03047
  23948396.860   125849692.56906  23948396.120    98064698.15846
  22015414.440   115691801.61008  22015413.660    90149458.88548
  22908950.260   120387604.36508  22908949.360    93808616.32247
  21888449.580   115024605.58508  21888451.840    89629584.17948
  24115531.980   126727877.17207  24115536.900    98748969.00646
 15 03 03 00 21  0.0000000  0  7G16G18G19G21G22G27G31
  20810075.960   109357714.28409  20810075.280    85213817.97749
  22172955.900   116519684.22208  22172954.980    90794573.71247
  23933769.500   125772825.63907  23933768.760    98004801.91646
  22026601.560   115750590.38008  22026600.720    90195268.31948
  22892460.780   120300951.97308  22892460.040    93741095.09447
  21878221.820   114970859.10008  21878224.360    89587703.81848
  24134347.240   126826748.16607  24134351.940    98826010.89145
 15 03 03 00 21 30.0000000  0  7G16G18G19G21G22G27G31
  20801749.340   109313957.64309  20801748.640    85179721.89749
  22165954.900   116482893.89808  22165954.120    90765905.95747
  23919159.100   125696045.20607  23919158.140    97944973.06946
  22037830.360   115809597.96708  22037829.460    90241248.25748
  22876003.640   120214469.17108  22876002.960    93673706.02247
  21868018.780   114917242.12108  21868021.480    89545924.37348
  24153160.780   126925610.53807  24153165.320    98903046.04945
 15 03 03 00 22  0.0000000  0  7G16G18G19G21G22G27G31
  20793501.900   109270617.18509  20793501.280    85145950.11449
  22159034.820   116446528.71108  22159034.240    90737569.48147
  23904566.840   125619360.22107  23904565.640    97885218.58845
  22049102.120   115868830.91108  22049101.140    90287403.79848
  22859580.900   120128167.29408  22859580.300    93606457.92847
  21857842.120   114863763.34008  21857844.840    89504252.61348
  24171973.600   127024469.75507  24171978.120    98980078.70845
 15 03 03 00 22 30.0000000  0  7G16G18G19G21G22G27G31
  20785334.680   109227698.65609  20785334.160    85112507.10249
  22152196.700   116410594.35508  22152196.280    90709568.70547
  23889992.820   125542774.38506  23889991.820    97825541.35045
  22060417.020   115928290.66808  22060416.020    90333736.07648
  22843193.800   120042052.99708  22843193.260    93539355.98847
  21847692.600   114810426.83508  21847695.160    89462691.71248
  24190785.880   127123326.88107  24190790.660    99057109.78245
 15 03 03 00 23  0.0000000  0  7G16G18G19G21G22G27G31
  20777246.540   109185195.49809  20777246.020    85079387.76049
  22145439.300   116375083.95808  22145438.840    90681898.27747
  23875435.900   125466279.51406  23875434.860    97765935.01845
  22071773.160   115987967.35808  22071772.220    90380237.38848
  22826841.300   119956120.69408  22826840.700    93472395.84947
  21837568.500   114757224.40708  21837570.960    89421235.27848
  24209595.460   127222170.72207  24209600.660    99134130.47145
 15 03 03 00 23 30.0000000  0  7G16G18G19G21G22G27G31
  20769236.980   109143105.05709  20769236.360    85046590.01949
  22138762.000   116339994.54908  22138761.540    90654555.88547
  23860895.720   125389870.92207  23860894.520    97706395.89345
  22083169.440   116047855.07508  22083168.580    90426903.14848
  22810523.160   119870368.37608  22810522.360    93405575.96747
  21827468.980   114704151.57808  21827471.380    89379879.83648
  24228401.100   127320993.88107  24228406.640    99211135.03346
 15 03 03 00 24  0.0000000  0  7G16G18G19G21G22G27G31
  20761306.980   109101432.45509  20761306.340    85014117.86549
  22132165.560   116305330.48208  22132165.200    90627544.95547
  23846372.980   125313551.94207  23846371.360    97646926.58745
  22094606.180   116107955.36808  22094605.320    90473734.54748
  22794240.460   119784802.20508  22794239.460    93338901.12747
  21817394.820   114651211.95408  21817397.120    89338628.19748
  24247202.980   127419797.11107  24247208.640    99288124.01645
 15 03 03 00 24 30.0000000  0  7G16G18G19G21G22G27G31
  20753458.560   109060188.43609  20753457.900    84981979.67049
  22125652.040   116271102.41608  22125651.840    90600873.75447
  23831868.680   125237331.32606  23831867.100    97587533.91145
  22106084.540   116168274.37808  22106083.620    90520736.36948
  22777995.180   119699433.05508  22777994.020    93272379.79446
  21807347.780   114598414.31008  21807349.940    89297487.20048
  24266002.100   127518585.80007  24266007.740    99365101.68145
 15 03 03 00 25  0.0000000  0  7G16G18G19G21G22G27G31
  20745691.320   109019371.23509  20745690.600    84950174.06149
  22119221.180   116237308.65408  22119221.080    90574540.97647
  23817382.000   125161205.57606  23817380.940    97528215.17246
  22117603.520   116228806.90508  22117602.540    90567904.57248
  22761787.300   119614260.78608  22761786.020    93206011.89046
  21797327.260   114545755.41308  21797329.240    89256454.31048
  24284797.340   127617354.15007  24284802.800    99442063.50345
 15 03 03 00 25 30.0000000  0  7G16G18G19G21G22G27G31
  20738004.500   108978976.47409  20738003.660    84918697.63449
  22112872.000   116203943.81108  22112871.920    90548542.41547
  23802912.260   125085168.65506  23802911.460    97468965.64946
  22129161.780   116289545.58508  22129160.680    90615233.41648
  22745616.120   119529281.60208  22745614.820    93139794.44646
  21787332.000   114493229.18908  21787333.860    89215524.78948
  24303586.900   127716093.03207  24303592.260    99519002.34345
 15 03 03 00 26  0.0000000  0  7G16G18G19G21G22G27G31
  20730398.180   108939005.04009  20730397.320    84887551.05849
  22106604.700   116171009.16908  22106604.720    90522879.09147
  23788459.600   125009219.79506  23788459.080    97409784.77746
  22140758.600   116350487.13608  22140757.400    90662720.34348
  22729482.180   119444497.64808  22729480.920    93073729.12647
  21777361.820   114440835.25608  21777363.700    89174698.35848
  24322370.240   127814799.02806  24322375.540    99595915.53744
 15 03 03 00 26 30.0000000  0  7G16G18G19G21G22G27G31
  20722873.720   108899463.77009  20722873.000    84856739.68349
  22100420.380   116138510.36708  22100420.480    90497555.37947
  23774024.860   124933363.88106  23774024.400    97350676.31146
  22152394.460   116411634.24008  22152393.260    90710367.43448
  22713386.680   119359916.07308  22713385.500    93007821.47347
  21767417.580   114388578.28508  21767419.640    89133978.66048
  24341147.580   127913473.39906  24341153.000    99672804.06645
 15 03 03 00 27  0.0000000  0  7G16G18G19G21G22G27G31
  20715432.120   108860357.63809  20715431.440    84826267.37049
  22094319.980   116106452.26208  22094320.060    90472575.07047
  23759608.140   124857603.55106  23759607.720    97291642.33546
  22164069.760   116472988.55008  22164068.540    90758175.98248
  22697330.680   119275542.38508  22697329.640    92942075.83447
  21757500.060   114336461.56808  21757502.260    89093368.24648
  24359919.120   128012117.09906  24359924.840    99749668.68745
 15 03 03 00 27 30.0000000  0  7G16G18G19G21G22G27G31
  20708072.300   108821682.00609  20708071.680    84796130.52549
  22088302.560   116074830.18308  22088302.560    90447934.52047
  23745208.460   124781933.07906  23745208.120    97232678.39046
  22175783.060   116534542.57308  22175781.860    90806140.16148
  22681313.680   119191373.45708  22681312.760    92876489.73047
  21747608.160   114284479.15609  21747610.400    89052862.49748
  24378683.260   128110721.12106  24378689.360    99826502.34045
 15 03 03 00 28  0.0000000  0  7G16G18G19G21G22G27G31
  20700795.220   108783441.09409  20700794.620    84766332.41849
  22082368.780   116043647.72008  22082368.620    90423636.49547
  23730826.400   124706354.69907  23730825.460    97173786.20746
  22187534.360   116596296.28608  22187533.240    90854259.93248
  22665336.660   119107414.33608  22665335.760    92811067.10647
  21737742.400   114232633.68109  21737744.480    89012463.43948
  24397439.880   128209284.89506  24397446.100    99903304.65245
 15 03 03 00 28 30.0000000  0  7G16G18G19G21G22G27G31
  20693601.360   108745637.15809  20693600.740    84736874.80949
  22076519.040   116012906.57908  22076518.740    90399682.38247
  23716462.200   124630868.93907  23716460.620    97114966.18445
  22199323.260   116658247.71008  22199322.320    90902533.76348
  22649400.220   119023667.87808  22649399.220    92745810.19947
  21727902.760   114180925.64008  21727904.660    88972171.47648
  24416188.440   128307806.02706  24416194.700    99980073.70645
 15 03 03 00 29  0.0000000  0  7G16G18G19G21G22G27G31
  20686491.540   108708274.43309  20686490.880    84707760.99649
  22070753.980   115982610.80308  22070753.600    90376075.31247
  23702115.940   124555478.42707  23702114.280    97056220.36746
  22211150.060   116720398.22408  22211149.240    90950962.73448
  22633505.320   118940139.26008  22633504.100    92680723.05047
  21718089.680   114129357.88508  21718091.520    88931988.83048
  24434928.940   128406284.24806  24434934.940   100056809.31344
 15 03 03 00 29 30.0000000  0  7G16G18G19G21G22G27G31
  20679465.600   108671352.91709  20679464.920    84678990.98349
  22065073.460   115952759.81908  22065073.060    90352814.84047
  23687787.320   124480181.45707  23687786.060    96997547.41846
  22223014.020   116782744.17008  22223013.320    90999543.98548
  22617652.000   118856829.35408  22617650.600    92615806.32247
  21708302.960   114077928.78909  21708304.840    88891914.23148
  24453660.360   128504714.65406  24453666.120   100133507.65345
 15 03 03 00 30  0.0000000  0  7G16G18G19G21G22G27G31
  20672524.020   108634874.71809  20672523.300    84650566.41449
  22059477.920   115923355.33308  22059477.440    90329902.27047
  23673476.520   124404978.29207  23673475.660    96938947.59246
  22234914.880   116845283.95008  22234914.260    91048276.27748
  22601840.900   118773741.44508  22601839.480    92551062.58347
  21698542.820   114026639.02309  21698544.780    88851948.19548
  24472382.360   128603095.73906  24472388.020   100210167.53545
 15 03 03 00 30 30.0000000  0  7G16G18G19G21G22G27G31
  20665666.960   108598840.73709  20665666.320    84622487.99449
  22053967.520   115894398.00208  22053967.020    90307338.13247
  23659183.300   124329867.96406  23659182.500    96880420.12546
  22246852.280   116908015.52608  22246851.740    91097158.02248
  22586072.360   118690877.38108  22586071.020    92486493.26047
  21688809.120   113975487.97109  21688811.120    88812090.25148
  24491094.060   128701423.47506  24491099.840   100286785.84144
 15 03 03 00 31  0.0000000  0  7G16G18G19G21G22G27G31
  20658895.240   108563255.26609  20658894.700    84594759.05149
  22048542.880   115865891.18708  22048542.440    90285125.04047
  23644908.160   124254853.05006  23644907.560    96821966.96646
  22258826.140   116970938.58508  22258825.640    91146188.97547
  22570347.320   118608241.93508  22570346.040    92422102.06947
  21679102.240   113924478.08809  21679104.240    88772342.29948
  24509795.360   128799697.47106  24509801.580   100363362.25844
 15 03 03 00 31 30.0000000  0  7G16G18G19G21G22G27G31
  20652208.600   108528116.51209  20652208.060    84567378.20649
  22043203.540   115837832.96308  22043203.220    90263261.50947
  23630650.720   124179930.36207  23630650.080    96763585.69646
  22270835.560   117034048.23408  22270835.000    91195365.32848
  22554665.640   118525834.20008  22554664.320    92357888.32047
  21669421.600   113873606.38308  21669423.620    88732702.02248
  24528485.100   128897911.52405  24528491.920   100439891.97545
 15 03 03 00 32  0.0000000  0  7G16G18G19G21G22G27G31
  20645606.900   108493424.02709  20645606.260    84540345.10149
  22037949.420   115810222.68908  22037949.220    90241747.03047
  23616410.720   124105097.93207  23616410.000    96705274.74846
  22282879.820   117097340.98808  22282879.160    91244684.35447
  22539027.420   118443655.10708  22539026.120    92293852.72847
  21659766.880   113822871.09708  21659768.920    88693168.05348
  24547162.740   128996061.32205  24547170.100   100516371.55545
 15 03 03 00 32 30.0000000  0  7G16G18G19G21G22G27G31
  20639091.160   108459183.61609  20639090.540    84513664.26149
  22032781.460   115783065.32708  22032781.320    90220585.48347
  23602188.880   124030359.44907  23602187.780    96647037.00246
  22294959.200   117160818.42208  22294958.500    91294147.28347
  22523434.020   118361711.22408  22523432.660    92230000.41947
  21650138.880   113772276.32808  21650140.980    88653743.57648
  24565828.320   129094147.51806  24565836.280   100592801.62044
 15 03 03 00 33  0.0000000  0  7G16G18G19G21G22G27G31
  20632661.780   108425397.09909  20632661.260    84487337.10349
  22027700.060   115756362.61608  22027699.880    90199778.19447
  23587985.000   123955715.34107  23587983.240    96588872.80045
  22307073.480   117224479.06408  22307072.720    91343752.97347
  22507885.900   118280005.19708  22507884.560    92166333.45347
  21640537.800   113721822.60908  21640539.880    88614429.01248
  24584481.420   129192167.66606  24584489.720   100669180.19444
 15 03 03 00 33 30.0000000  0  7G16G18G19G21G22G27G31
  20626319.360   108392067.35409  20626318.860    84461365.86749
  22022705.600   115730116.63308  22022705.380    90179326.80147
  23573799.000   123881166.87707  23573796.720    96530783.14146
  22319222.580   117288322.62408  22319221.720    91393501.19947
  22492383.740   118198541.16108  22492382.480    92102855.03747
  21630963.900   113671511.32208  21630966.000    88575225.43048
  24603121.800   129290120.50805  24603130.260   100745506.29645
 15 03 03 00 34  0.0000000  0  7G16G18G19G21G22G27G31
  20620064.100   108359196.14309  20620063.680    84435751.94049
  22017798.280   115704328.66308  22017798.080    90159232.29147
  23559631.080   123806714.71407  23559628.560    96472768.51846
  22331406.140   117352347.30908  22331405.200    91443390.55847
  22476927.960   118117321.36908  22476926.760    92039566.94447
  21621417.220   113621342.71009  21621419.280    88536133.01548
  24621748.820   129388003.15805  24621757.480   100821777.75545
 15 03 03 00 34 30.0000000  0  7G16G18G19G21G22G27G31
  20613896.640   108326786.06909  20613896.200    84410497.33549
  22012978.540   115679001.00008  22012978.400    90139496.46847
  23545481.260   123732359.12606  23545479.240    96414829.14446
  22343624.020   117416552.35508  22343622.960    91493420.46247
  22461519.520   118036349.93308  22461518.320    91976472.37447
  21611897.960   113571318.23009  21611900.020    88497152.92248
  24640362.320   129485814.26905  24640371.060   100897993.43144
 15 03 03 00 35  0.0000000  0  7G16G18G19G21G22G27G31
  20607816.820   108294836.24209  20607816.320    84385601.36849
  22008246.040   115654132.07008  22008246.020    90120118.11047
  23531349.280   123658097.68107  23531348.340    96356963.14147
  22355875.260   117480933.18208  22355874.140    91543587.34647
  22446158.320   117955626.42908  22446157.040    91913571.00847
  21602405.620   113521435.48909  21602407.640    88458283.27648
  24658961.280   129583548.51205  24658969.880   100974149.18644
 15 03 03 00 35 30.0000000  0  7G16G18G19G21G22G27G31
  20601824.500   108263346.24009  20601823.920    84361063.69849
  22003600.760   115629721.29008  22003600.660    90101096.74147
  23517235.220   123583928.97207  23517235.260    96299169.36646
  22368159.180   117545486.30108  22368158.100    91593888.47147
  22430844.500   117875151.60708  22430843.040    91850863.41447
  21592939.880   113471692.80509  21592941.820    88419522.76448
  24677544.640   129681201.06505  24677553.360   101050241.27845
 15 03 03 00 36  0.0000000  0  7G16G18G19G21G22G27G31
  20595920.040   108232318.09109  20595919.380    84336885.91449
  21999042.980   115605769.88208  21999042.680    90082433.32547
  23503139.180   123509853.37007  23503139.580    96241448.15446
  22380475.620   117610210.31308  22380474.600    91644322.76347
  22415578.700   117794928.81408  22415577.060    91788352.20847
  21583500.840   113422090.94808  21583502.760    88380871.98548
  24696112.040   129778769.72605  24696120.840   101126267.99145
 15 03 03 00 36 30.0000000  0  6G16G18G19G21G22G27
  20590102.880   108201748.76109  20590102.200    84313065.65949
  21994571.880   115582274.20808  21994571.500    90064125.03047
  23489060.180   123435866.12807  23489060.100    96183795.82346
  22392823.360   117675098.66608  22392822.480    91694885.11347
  22400360.340   117714955.70608  22400358.540    91726035.54347
  21574087.760   113372625.48308  21574089.720    88342327.48148
 15 03 03 00 37  0.0000000  0  6G16G18G19G21G22G27
  20584376.680   108171657.26709  20584375.980    84289617.74549
  21990191.100   115559253.00208  21990190.680    90046186.44447
  23475001.180   123361983.85007  23475000.000    96126225.26246
  22405205.220   117740166.22308  22405204.500    91745587.09447
  22385193.140   117635252.03608  22385191.320    91663928.84547
  21564703.980   113323313.81509  21564706.040    88303902.82248
 15 03 03 00 37 30.0000000  0  6G16G18G19G21G22G27
  20578739.520   108142033.41509  20578738.760    84266534.21449
  21985898.540   115536695.41208  21985898.120    90028609.11447
  23460959.940   123288195.73707  23460957.760    96068728.08946
  22417618.940   117805400.43908  22417618.300    91796418.95047
  22370075.480   117555808.85308  22370073.700    91602025.10347
  21555347.420   113274144.72609  21555349.540    88265589.25748
 15 03 03 00 38  0.0000000  0  6G16G18G19G21G22G27
  20573192.260   108112882.18309  20573191.480    84243818.97149
  21981695.060   115514605.83108  21981694.660    90011396.48447
  23446936.980   123214505.18107  23446934.360    96011306.92646
  22430064.680   117870802.69208  22430064.100    91847381.73747
  22355008.640   117476632.41108  22355006.860    91540329.21947
  21546018.760   113225122.00009  21546020.880    88227389.74748
 15 03 03 00 38 30.0000000  0  6G16G18G19G21G22G27
  20567734.960   108084203.59709  20567734.140    84221472.02449
  21977580.500   115492983.79108  21977580.160    89994548.16147
  23432932.200   123140910.67207  23432929.780    95953960.59846
  22442541.820   117936369.87508  22442541.260    91898473.04647
  22339992.720   117397723.46308  22339990.940    91478841.77447
  21536717.660   113176244.39009  21536719.840    88189303.31048
 15 03 03 00 39  0.0000000  0  6G16G18G19G21G22G27
  20562367.720   108055998.51609  20562366.920    84199494.03749
  21973555.040   115471829.77208  21973554.680    89978064.53247
  23418945.480   123067411.84606  23418943.800    95896688.81446
  22455049.780   118002099.24908  22455049.180    91949690.73647
  22325028.140   117319084.01508  22325026.340    91417564.32947
  21527444.060   113127511.55609  21527446.280    88151329.68948
 15 03 03 00 39 30.0000000  0  6G16G18G19G21G22G27
  20557091.420   108028271.55409  20557090.640    84177888.61049
  21969619.440   115451147.85708  21969619.040    89961948.76747
  23404977.400   122994011.80706  23404976.680    95839494.00347
  22467588.840   118067992.39408  22467588.240    92001036.03547
  22310115.880   117240719.71708  22310114.120    91356501.29347
  21518198.660   113078926.89809  21518200.900    88113471.52648
 15 03 03 00 40  0.0000000  0  6G16G18G19G21G22G27
  20551904.820   108001015.74709  20551904.000    84156650.32349
  21965772.200   115430930.05708  21965771.660    89946194.65147
  23391026.960   122920701.86807  23391026.460    95782369.41646
  22480157.000   118134038.64908  22480156.320    92052500.64647
  22295254.760   117162624.33608  22295253.000    91295647.80647
  21508979.880   113030482.08709  21508982.160    88075722.33548
 15 03 03 00 40 30.0000000  0  6G16G18G19G21G22G27
  20546809.460   107974239.29709  20546808.600    84135785.56149
  21962014.840   115411184.39508  21962014.060    89930808.42347
  23377095.240   122847489.04307  23377094.480    95725320.50046
  22492755.340   118200243.76708  22492754.600    92104089.04547
  22280446.680   117084807.58908  22280444.920    91235011.42547
  21499789.160   112982184.38609  21499791.440    88038087.76948
 15 03 03 00 41  0.0000000  0  6G16G18G19G21G22G27
  20541805.740   107947944.38509  20541804.880    84115296.02549
  21958347.560   115391912.49808  21958346.640    89915791.36747
  23363182.100   122774373.98207  23363180.880    95668347.77546
  22505383.580   118266606.01008  22505382.740    92155799.88447
  22265692.200   117007272.50708  22265690.420    91174594.52647
  21490626.600   112934034.68209  21490628.880    88000568.52348
 15 03 03 00 41 30.0000000  0  6G16G18G19G21G22G27
  20536893.440   107922130.20309  20536892.620    84095181.07649
  21954770.060   115373113.09708  21954769.240    89901142.50847
  23349287.140   122701354.46207  23349285.200    95611449.49746
  22518041.020   118333121.62408  22518040.060    92207630.23547
  22250991.500   116930019.55008  22250989.740    91114397.46347
  21481491.820   112886031.02309  21481494.100    87963163.08749
 15 03 03 00 42  0.0000000  0  6G16G18G19G21G22G27
  20532073.460   107896801.18709  20532072.680    84075444.18249
  21951283.140   115354789.68508  21951282.560    89886864.55147
  23335410.860   122628433.53807  23335408.360    95554628.04345
  22530727.900   118399791.80208  22530726.920    92259581.02147
  22236345.520   116853054.02708  22236343.800    91054424.37648
  21472385.500   112838176.75509  21472387.700    87925874.05948
 15 03 03 00 42 30.0000000  0  6G16G18G19G21G22G27
  20527346.340   107871960.15809  20527345.560    84056087.53949
  21947887.380   115336944.72708  21947886.860    89872959.39747
  23321553.420   122555612.87507  23321550.940    95497884.71646
  22543444.180   118466616.25908  22543443.180    92311652.01847
  22221754.940   116776379.97508  22221753.340    90994678.39848
  21463307.980   112790473.73409  21463310.060    87888702.88249
 15 03 03 00 43  0.0000000  0  6G16G18G19G21G22G27
  20522711.760   107847605.57609  20522711.020    84037109.94649
  21944582.160   115319575.70808  21944581.600    89859425.11547
  23307714.400   122482889.54507  23307712.400    95441217.20946
  22556188.920   118533590.23908  22556187.980    92363839.54147
  22207219.680   116699997.00208  22207218.180    90935159.23748
  21454258.720   112742919.29409  21454260.660    87851647.48348
 15 03 03 00 43 30.0000000  0  6G16G18G19G21G22G27
  20518169.760   107823737.44609  20518169.100    84018511.40649
  21941367.420   115302682.48708  21941366.840    89846261.56647
  23293893.800   122410262.39307  23293892.320    95384624.64947
  22568961.520   118600710.72008  22568960.640    92416141.20147
  22192739.920   116623906.10908  22192738.540    90875867.66947
  21445237.520   112695512.30309  21445239.320    87814706.97648
 15 03 03 00 44  0.0000000  0  6G16G18G19G21G22G27
  20513721.100   107800359.75909  20513720.500    84000295.02449
  21938243.880   115286268.75208  21938243.440    89833471.66147
  23280092.100   122337734.37707  23280091.060    95328109.36147
  22581762.180   118667978.40408  22581761.300    92468557.57947
  22178316.660   116548112.39608  22178315.360    90816807.67647
  21436244.940   112648255.95809  21436246.620    87777883.85448
 15 03 03 00 44 30.0000000  0  6G16G18G19G21G22G27
  20509365.860   107777473.04409  20509365.340    83982461.21849
  21935211.420   115270333.92408  21935211.240    89821054.94247
  23266308.940   122265304.04507  23266308.200    95271670.18046
  22594590.420   118735390.99508  22594589.560    92521086.86347
  22163950.360   116472617.35808  22163949.020    90757980.42147
  21427280.860   112601149.51709  21427282.480    87741177.54148
 15 03 03 00 45  0.0000000  0  6G16G18G19G21G22G27
  20505104.360   107755078.71609  20505103.880    83965011.09449
  21932270.280   115254878.53608  21932270.200    89809011.80647
  23252544.440   122192971.73707  23252543.800    95215307.37446
  22607445.900   118802946.57208  22607445.060    92573727.57347
  22149641.460   116397423.62008  22149640.040    90699387.93747
  21418345.300   112554193.42709  21418347.020    87704588.38048
 15 03 03 00 45 30.0000000  0  6G16G18G19G21G22G27
  20500936.780   107733177.40209  20500936.260    83947945.13949
  21929420.480   115239902.60408  21929420.380    89797342.26147
  23238798.660   122120737.06807  23238797.860    95159020.64546
  22620328.160   118870643.07208  22620327.340    92626478.08347
  22135390.340   116322533.13008  22135388.820    90641031.75147
  21409438.380   112507387.51709  21409440.180    87668116.25048
 15 03 03 00 46  0.0000000  0  6G16G18G19G21G22G27
  20496863.280   107711770.57109  20496862.640    83931264.48849
  21926662.300   115225408.12108  21926662.080    89786047.87347
  23225071.580   122048599.79007  23225070.480    95102809.80847
  22633236.880   118938478.56908  22633236.080    92679336.90747
  22121197.380   116247948.45608  22121195.840    90582913.85647
  21400560.200   112460732.19209  21400562.040    87631761.45849
 15 03 03 00 46 30.0000000  0  6G16G18G19G21G22G27
  20492884.320   107690860.97109  20492883.660    83914971.29349
  21923995.940   115211396.29108  21923995.640    89775129.57447
  23211363.560   121976562.15907  23211362.080    95046676.62146
  22646171.940   119006452.91308  22646171.200    92732303.92847
  22107063.280   116173673.56208  22107061.800    90525037.34447
  21391711.060   112414229.29809  21391712.900    87595525.43949
 15 03 03 00 47  0.0000000  0  6G16G18G19G21G22G27
  20489000.480   107670451.10709  20488999.820    83899067.50549
  21921421.880   115197869.34908  21921421.480    89764589.10447
  23197674.580   121904625.25307  23197672.820    94990621.91847
  22659133.340   119074565.83208  22659132.660    92785378.92547
  22092988.720   116099711.87708  22092987.280    90467404.89147
  21382891.180   112367880.52909  21382892.980    87559409.52348
 15 03 03 00 47 30.0000000  0  6G16G18G19G21G22G27
  20485212.220   107650543.67209  20485211.600    83883555.21149
  21918940.500   115184829.07909  21918940.000    89754427.86647
  23184004.760   121832790.45807  23184003.080    94934646.79646
  22672120.940   119142816.61108  22672120.340    92838561.34347
  22078974.520   116026067.12208  22078973.040    90410019.40047
  21374100.880   112321687.44909  21374102.640    87523414.92148
 15 03 03 00 48  0.0000000  0  6G16G18G19G21G22G27
  20481519.640   107631139.02709  20481519.060    83868434.70749
  21916551.660   115172275.01708  21916551.120    89744645.48347
  23170354.040   121761057.08207  23170352.640    94878750.69246
  22685134.320   119211202.56908  22685133.700    92891849.09147
  22065021.040   115952741.22608  22065019.420    90352882.36347
  21365340.200   112275649.63809  21365341.860    87487541.30948
 15 03 03 00 48 30.0000000  0  6G16G18G19G21G22G27
  20477922.180   107612234.23409  20477921.580    83853703.70249
  21914254.620   115160203.85908  21914254.120    89735239.40447
  23156721.800   121689420.84907  23156720.820    94822930.27146
  22698172.500   119279718.55908  22698171.780    92945238.17947
  22051127.860   115879732.28608  22051126.180    90295992.31048
  21356608.300   112229763.31009  21356609.960    87451785.73848
 15 03 03 00 49  0.0000000  0  6G16G18G19G21G22G27
  20474420.320   107593831.87009  20474419.700    83839364.19549
  21912049.820   115148617.55108  21912049.340    89726211.12247
  23143108.560   121617883.52307  23143107.860    94767186.92547
  22711235.320   119348363.92108  22711234.480    92998728.06347
  22037295.720   115807044.15408  22037294.060    90239352.24748
  21347905.480   112184030.41009  21347907.280    87416149.72148
 15 03 03 00 49 30.0000000  0  6G16G18G19G21G22G27
  20471013.980   107575931.86109  20471013.420    83825416.13649
  21909937.080   115137515.30408  21909936.620    89717560.03147
  23129514.180   121546443.87207  23129513.420    94711519.68546
  22724322.200   119417135.66608  22724321.180    93052316.44647
  22023524.800   115734677.73908  22023523.120    90182962.86948
  21339231.700   112138449.84509  21339233.560    87380632.40648
 15 03 03 00 50  0.0000000  0  6G16G18G19G21G22G27
  20467704.560   107558540.85409  20467704.020    83811864.69249
  21907917.580   115126903.05608  21907917.100    89709290.75147
  23115939.460   121475107.32307  23115938.440    94655932.79046
  22737433.860   119486037.50308  22737432.660    93106006.18347
  22009816.580   115662641.03208  22009814.880    90126830.40748
  21330588.080   112093027.63909  21330590.000    87345238.48148
 15 03 03 00 50 30.0000000  0  6G16G18G19G21G22G27
  20464492.000   107541658.66109  20464491.460    83798709.73549
  21905991.160   115116780.07408  21905990.640    89701402.72547
  23102384.080   121403872.65007  23102382.620    94600425.28346
  22750569.660   119555066.21708  22750568.400    93159794.78147
  21996171.260   115590935.05108  21996169.580    90070955.64748
  21321974.400   112047762.70809  21321976.420    87309967.11649
 15 03 03 00 51  0.0000000  0  6G16G18G19G21G22G27
  20461376.520   107525286.62209  20461375.960    83785952.29749
  21904158.080   115107147.38109  21904157.420    89693896.74347
  23088848.080   121332740.39507  23088846.300    94544997.58946
  22763729.420   119624220.92808  22763728.140    93213681.55447
  21982589.440   115519562.44908  21982587.680    90015340.65647
  21313390.880   112002655.91609  21313393.000    87274818.98149
 15 03 03 00 51 30.0000000  0  6G16G18G19G21G22G27
  20458358.140   107509424.62309  20458357.480    83773592.29649
  21902418.220   115098003.89509  21902417.380    89686771.96747
  23075331.280   121261709.66307  23075329.340    94489648.99747
  22776912.440   119693498.37608  22776911.260    93267663.97547
  21969071.360   115448524.42208  21969069.540    89959986.37647
  21304837.340   111957706.29509  21304839.480    87239793.30449
 15 03 03 00 52  0.0000000  0  6G16G18G19G21G22G27
  20455437.520   107494076.18609  20455436.740    83761632.47149
  21900771.920   115089352.10009  21900770.980    89680030.31847
  23061834.080   121190782.15707  23061832.120    94434380.83646
  22790118.820   119762899.09408  22790117.800    93321742.43847
  21955617.800   115377825.23808  21955615.920    89904896.12748
  21296314.180   111912916.44809  21296316.300    87204892.13349
 15 03 03 00 52 30.0000000  0  6G16G18G19G21G22G27
  20452614.160   107479239.11109  20452613.360    83750071.10849
  21899218.680   115081189.62109  21899217.700    89673669.95447
  23048356.020   121119955.30707  23048354.220    94379191.10746
  22803347.820   119832418.66208  22803346.940    93375913.52447
  21942228.680   115307464.46408  21942226.700    89850069.58547
  21287820.920   111868283.89509  21287823.000    87170113.53249
 15 03 03 00 53  0.0000000  0  6G16G18G19G21G22G27
  20449888.100   107464913.48009  20449887.300    83738908.27449
  21897758.340   115073515.72708  21897757.420    89667690.30447
  23034897.120   121049228.49907  23034895.560    94324079.31946
  22816598.960   119902054.29808  22816598.200    93430175.06347
  21928904.260   115237443.61608  21928902.180    89795507.91147
  21279357.440   111823808.21709  21279359.500    87135457.17149
 15 03 03 00 53 30.0000000  0  6G16G18G19G21G22G27
  20447260.280   107451104.20009  20447259.480    83728147.79449
  21896391.640   115066334.13008  21896390.880    89662094.26347
  23021458.000   120978604.95007  23021456.460    94269047.99446
  22829872.580   119971807.80008  22829871.860    93484528.43747
  21915645.500   115167768.28308  21915643.460    89741215.47748
  21270924.520   111779493.07909  21270926.480    87100925.89849
 15 03 03 00 54  0.0000000  0  6G16G18G19G21G22G27
  20444730.440   107437809.94109  20444729.660    83717788.62949
  21895118.400   115059643.58408  21895117.820    89656880.86747
  23008038.240   120908082.75508  23008036.540    94214095.65346
  22843167.920   120041675.26008  22843167.220    93538970.60347
  21902452.500   115098438.67108  21902450.480    89687192.43548
  21262521.880   111735336.75009  21262523.660    87066518.38149
 15 03 03 00 54 30.0000000  0  6G16G18G19G21G22G27
  20442299.560   107425035.69809  20442298.800    83707834.66449
  21893939.380   115053448.24708  21893939.020    89652053.35247
  22994638.500   120837666.14707  22994636.780    94159225.60347
  22856485.440   120111658.93708  22856484.700    93593503.32647
  21889326.360   115029460.50008  21889324.300    89633443.23748
  21254150.360   111691343.74809  21254151.960    87032238.13649
 15 03 03 00 55  0.0000000  0  6G16G18G19G21G22G27
  20439967.460   107412780.58209  20439966.760    83698285.21749
  21892854.380   115047746.72808  21892854.100    89647610.62647
  22981258.440   120767353.75707  22981256.900    94104436.74847
  22869824.600   120181755.97308  22869823.700    93648124.38847
  21876267.380   114960835.19108  21876265.260    89579968.99048
  21245809.740   111647513.05209  21245811.260    86998084.36249
 15 03 03 00 55 30.0000000  0  6G16G18G19G21G22G27
  20437734.400   107401045.86009  20437733.780    83689141.27549
  21891863.280   115042538.93508  21891863.060    89643552.62047
  22967898.100   120697145.39808  22967896.860    94049728.96747
  22883184.900   120251964.23008  22883183.820    93702832.11446
  21863275.860   114892564.71608  21863273.780    89526771.25348
  21237499.980   111603844.80609  21237501.520    86964057.16949
 15 03 03 00 56  0.0000000  0  6G16G18G19G21G22G27
  20435600.400   107389831.77209  20435599.820    83680403.02249
  21890966.140   115037824.78508  21890965.940    89639879.26247
  22954557.520   120627040.72008  22954556.400    93995101.97647
  22896565.920   120322281.87508  22896564.760    93757625.07447
  21850352.140   114824650.59008  21850350.180    89473851.17848
  21229221.020   111560338.89309  21229222.660    86930156.46249
 15 03 03 00 56 30.0000000  0  6G16G18G19G21G22G27
  20433565.440   107379138.09809  20433564.860    83672070.28549
  21890162.800   115033603.45908  21890162.600    89636589.93447
  22941236.540   120557038.66908  22941235.360    93940554.95047
  22909967.180   120392705.76208  22909965.960    93812500.83447
  21837496.520   114757094.03208  21837494.620    89421209.73748
  21220972.760   111516994.70309  21220974.580    86896381.77749
 15 03 03 00 57  0.0000000  0  6G16G18G19G21G22G27
  20431630.040   107368967.67809  20431629.520    83664145.27949
  21889453.700   115029877.03509  21889453.480    89633686.23547
  22927935.560   120487141.32908  22927934.160    93886089.51947
  22923388.700   120463236.50108  22923387.520    93867459.84847
  21824709.740   114689898.91308  21824707.800    89368849.93048
  21212755.780   111473814.52309  21212757.700    86862734.89649
 15 03 03 00 57 30.0000000  0  6G16G18G19G21G22G27
  20429794.620   107359322.67309  20429794.160    83656629.68849
  21888839.120   115026646.84309  21888838.840    89631169.21747
  22914654.740   120417349.85508  22914653.100    93831706.58247
  22936830.440   120533873.65308  22936829.400    93922501.77246
