     2.11           OBSERVATION DATA    G                   RINEX VERSION / TYPE
SPIDER V4,0,0,3554                      2015 03 19 02:49    PGM / RUN BY / DATE 
OBHM                                                        MARKER NAME         
OBHM                                                        MARKER NUMBER       
                                                            OBSERVER / AGENCY   
496638              LEICA GRX1200+GNSS  8.20/4.007          REC # / TYPE / VERS 
10321015            LEIAR25         NONE                    ANT # / TYPE        
  5268006.0133   -44062.8765  3585543.8986                  APPROX POSITION XYZ 
        0.1200        0.0000        0.0000                  ANTENNA: DELTA H/E/N
     1     1                                                WAVELENGTH FACT L1/2
     4    C1    L1    P2    L2                              # / TYPES OF OBSERV 
    30.000                                                  INTERVAL            
  2015    03    03    00    00    0.0000000     GPS         TIME OF FIRST OBS   
  2015    03    03    23    59   30.0000000     GPS         TIME OF LAST OBS    
    16                                                      LEAP SECONDS        
    30                                                      # OF SATELLITES     
   G 1   845   844   844   844                              PRN / # OF OBS      
   G 2   919   919   919   919                              PRN / # OF OBS      
   G 3   843   843   842   842                              PRN / # OF OBS      
   G 4   853   853   853   853                              PRN / # OF OBS      
   G 5   682   682   682   682                              PRN / # OF OBS      
   G 6   645   645   645   645                              PRN / # OF OBS      
   G 7   741   740   740   740                              PRN / # OF OBS      
   G 9   780   780   780   780                              PRN / # OF OBS      
   G10   796   795   795   795                              PRN / # OF OBS      
   G11   809   809   809   809                              PRN / # OF OBS      
   G12   812   812   812   812                              PRN / # OF OBS      
   G13   834   834   834   834                              PRN / # OF OBS      
   G14   921   919   919   919                              PRN / # OF OBS      
   G15   743   743   743   743                              PRN / # OF OBS      
   G16   702   702   702   702                              PRN / # OF OBS      
   G17   924   924   924   924                              PRN / # OF OBS      
   G18   939   932   930   929                              PRN / # OF OBS      
   G19   803   803   803   803                              PRN / # OF OBS      
   G20   808   808   808   808                              PRN / # OF OBS      
   G21   704   704   703   703                              PRN / # OF OBS      
   G22   816   815   812   812                              PRN / # OF OBS      
   G23   722   722   722   722                              PRN / # OF OBS      
   G24   853   853   852   852                              PRN / # OF OBS      
   G25   859   858   858   858                              PRN / # OF OBS      
   G27   844   844   843   843                              PRN / # OF OBS      
   G28   917   917   916   916                              PRN / # OF OBS      
   G29   734   734   733   733                              PRN / # OF OBS      
   G30   688   688   688   688                              PRN / # OF OBS      
   G31   744   744   744   744                              PRN / # OF OBS      
   G32   735   735   735   735                              PRN / # OF OBS      
BIT 2 OF LLI FLAGS DATA COLLECTED UNDER A/S CONDITION       COMMENT             
SNR is mapped to RINEX snr flag value [2-9]                 COMMENT             
Lx:     = 25dBHz -> 1; 26-27dBHz -> 2; 28-31dBHz -> 3       COMMENT             
       32-35dBHz -> 4; 36-38dBHz -> 5; 39-41dBHz -> 6       COMMENT             
       42-44dBHz -> 7; 45-48dBHz -> 8; >=49dBHz -> 9        COMMENT             
                                                            END OF HEADER       
 15 03 03 00 00  0.0000000  0  7G16G18G19G21G22G27G31
  21254550.160   111693441.57609  21254546.520    87033849.57148
  22567561.140   118593519.69109  22567558.520    92410587.67446
  24406684.920   128257996.52808  24406682.140    99941291.97946
  21729397.820   114189077.55309  21729394.000    88978601.64148
  23488162.680   123431190.41508  23488165.320    96180195.30846
  22256972.800   116961263.56009  22256972.620    91138673.46048
  23137090.760   121586241.52209  23137090.800    94742528.21447
 15 03 03 00 00 30.0000000  0  7G16G18G19G21G22G27G31
  21243184.200   111633712.86709  21243180.500    86987307.72448
  22558264.460   118544665.03209  22558261.820    92372519.15746
  24392033.540   128181003.57108  24392030.820    99881297.55346
  21739351.060   114241382.00609  21739347.220    89019358.36248
  23471324.660   123342708.84808  23471327.080    96111249.40846
  22246594.240   116906723.76209  22246594.040    91096174.93948
  23155260.560   121681723.61209  23155260.660    94816929.64347
 15 03 03 00 01  0.0000000  0  7G16G18G19G21G22G27G31
  21231874.680   111574280.95609  21231870.980    86940997.15548
  22549031.980   118496147.91709  22549029.280    92334713.66046
  24377400.660   128104107.65408  24377397.980    99821378.74246
  21749357.920   114293968.55509  21749354.120    89060334.89348
  23454499.320   123254293.95008  23454501.620    96042355.42946
  22236239.520   116852309.24109  22236239.300    91053774.04048
  23173455.320   121777336.85909  23173455.440    94891433.27047
 15 03 03 00 01 30.0000000  0  7G16G18G19G21G22G27G31
  21220621.720   111515146.37109  21220618.020    86894918.25348
  22539863.860   118447969.02109  22539861.160    92297171.70746
  24362786.000   128027307.05008  24362783.280    99761534.18546
  21759417.640   114346833.15508  21759413.900    89101528.08348
  23437686.860   123165946.75908  23437689.060    95973514.18647
  22225908.300   116798018.17509  22225907.980    91011469.32148
  23191674.160   121873076.80009  23191674.360    94966035.60047
 15 03 03 00 02  0.0000000  0  7G16G18G19G21G22G27G31
  21209426.880   111456317.48609  21209423.280    86849077.56648
  22530761.700   118400136.92909  22530759.120    92259900.00247
  24348190.740   127950608.13308  24348187.900    99701768.86046
  21769531.240   114399981.01809  21769527.560    89142942.00248
  23420888.980   123077676.32008  23420891.120    95904732.74546
  22215601.820   116743856.77809  22215601.340    90969265.65448
  23209917.700   121968946.60609  23209918.000    95040739.13047
 15 03 03 00 02 30.0000000  0  7G16G18G19G21G22G27G31
  21198290.560   111397796.38409  21198287.100    86803476.71748
  22521725.780   118352652.93809  22521723.200    92222899.52747
  24333614.680   127874010.57108  24333611.720    99642082.52546
  21779698.320   114453409.79709  21779694.720    89184574.81248
  23404106.180   122989485.10108  23404108.300    95836013.00847
  22205319.900   116689824.66109  22205319.300    90927162.72648
  23228185.300   122064942.86708  23228185.700    95115541.19247
 15 03 03 00 03  0.0000000  0  7G16G18G19G21G22G27G31
  21187212.980   111339583.87009  21187209.640    86758116.31548
  22512756.420   118305518.78509  22512753.880    92186171.65846
  24319057.720   127797513.56608  24319054.780    99582474.55146
  21789918.400   114507116.86609  21789914.880    89226424.47248
  23387338.840   122901375.05408  23387340.880    95767356.51247
  22195062.380   116635921.01909  22195061.800    90885159.90148
  23246476.320   122161062.21309  23246476.840    95190439.14947
 15 03 03 00 03 30.0000000  0  7G16G18G19G21G22G27G31
  21176194.280   111281680.74709  21176191.060    86712997.00048
  22503853.780   118258735.22309  22503851.300    92149716.97347
  24304519.460   127721115.51408  24304516.740    99522943.68746
  21800190.660   114561097.94609  21800187.140    89268487.64348
  23370587.260   122813347.44508  23370589.180    95698764.21747
  22184828.900   116582144.26309  22184828.440    90843255.95348
  23264789.960   122257300.34208  23264790.580    95265429.66747
 15 03 03 00 04  0.0000000  0  7G16G18G19G21G22G27G31
  21165235.000   111224089.74409  21165231.860    86668120.90048
  22495018.360   118212304.58009  22495015.860    92113537.28647
  24290000.140   127644816.67908  24289997.580    99463490.13847
  21810514.920   114615352.29309  21810511.420    89310763.76048
  23353852.020   122725405.41708  23353853.700    95630238.59047
  22174619.560   116528494.64709  22174619.200    90801451.07248
  23283125.660   122353654.37309  23283126.400    95340510.50347
 15 03 03 00 04 30.0000000  0  7G16G18G19G21G22G27G31
  21154335.180   111166811.13709  21154332.120    86623488.22148
  22486250.200   118166227.26009  22486247.620    92077632.91447
  24275499.520   127568615.58308  24275497.020    99404112.73846
  21820890.540   114669876.20009  21820887.000    89353249.91948
  23337133.300   122637550.01608  23337134.760    95561780.45247
  22164434.020   116474970.38209  22164433.840    90759743.88148
  23301482.600   122450119.77709  23301483.360    95415678.10347
 15 03 03 00 05  0.0000000  0  7G16G18G19G21G22G27G31
  21143496.000   111109851.08709  21143492.980    86579103.76348
  22477550.500   118120509.66309  22477547.860    92042008.84947
  24261018.260   127492516.06308  24261015.720    99344814.47346
  21831317.760   114724671.52509  21831314.220    89395947.56948
  23320432.340   122549787.93608  23320433.580    95493395.00847
  22154273.120   116421575.45909  22154273.080    90718137.46048
  23319860.920   122546697.69908  23319861.760    95490933.38147
 15 03 03 00 05 30.0000000  0  7G16G18G19G21G22G27G31
  21132717.140   111053208.09309  21132714.220    86534966.36448
  22468918.920   118075150.14309  22468916.240    92006663.80647
  24246555.680   127416514.85808  24246553.060    99285592.82646
  21841795.800   114779733.88109  21841792.220    89438853.29948
  23303748.980   122462118.47108  23303750.060    95425081.71247
  22144136.220   116368306.34109  22144136.220    90676629.07148
  23338259.480   122643381.86008  23338260.380    95566271.42747
 15 03 03 00 06  0.0000000  0  7G16G18G19G21G22G27G31
  21121999.720   110996887.71509  21121996.840    86491080.35248
  22460356.400   118030153.58709  22460353.640    91971601.58547
  24232112.320   127340614.79608  24232109.680    99226449.97446
  21852324.700   114835063.75509  21852321.140    89481967.47648
  23287084.280   122374547.42708  23287085.280    95356845.10747
  22134024.040   116315166.19609  22134023.940    90635221.16948
  23356678.300   122740172.48508  23356679.300    95641692.42747
 15 03 03 00 06 30.0000000  0  7G16G18G19G21G22G27G31
  21111343.820   110940890.55909  21111340.960    86447446.20648
  22451863.160   117985521.16009  22451860.380    91936823.10747
  24217687.940   127264814.24908  24217685.220    99167384.67446
  21862903.780   114890657.42708  21862900.200    89525287.21648
  23270438.580   122287076.37408  23270439.500    95288686.40547
  22123936.200   116262153.34809  22123935.900    90593912.46748
  23375116.560   122837065.02308  23375117.600    95717192.84147
 15 03 03 00 07  0.0000000  0  7G16G18G19G21G22G27G31
  21100749.900   110885218.96809  21100747.060    86404065.75048
  22443439.540   117941254.80609  22443436.720    91902329.88547
  24203282.520   127189113.49008  24203279.720    99108397.12946
  21873532.980   114946514.38109  21873529.440    89568812.11648
  23253812.400   122199708.02308  23253813.340    95220607.71147
  22113872.620   116209267.92909  22113872.160    90552703.05848
  23393573.680   122934056.72908  23393574.720    95792770.52547
 15 03 03 00 07 30.0000000  0  7G16G18G19G21G22G27G31
  21090218.020   110829873.17609  21090215.180    86360939.16348
  22435085.560   117897354.64709  22435082.700    91868121.99847
  24188895.840   127113511.15508  24188893.000    99049486.28046
  21884211.540   115002630.68209  21884207.980    89612539.09747
  23237206.080   122112443.68108  23237206.900    95152610.04947
  22103832.980   116156508.63709  22103832.420    90511591.92748
  23412048.860   123031143.58808  23412050.000    95868422.34147
 15 03 03 00 08  0.0000000  0  7G16G18G19G21G22G27G31
  21079748.780   110774856.49909  21079745.880    86318069.03548
  22426801.980   117853824.50809  22426799.160    91834202.45447
  24174528.060   127038008.17208  24174525.260    98990652.85446
  21894939.180   115059004.76909  21894935.600    89656466.96148
  23220620.360   122025287.23408  23220621.080    95084696.46947
  22093817.400   116103876.18809  22093816.800    90470579.64848
  23430541.760   123128323.47708  23430542.980    95944146.65147
 15 03 03 00 08 30.0000000  0  7G16G18G19G21G22G27G31
  21069343.000   110720173.39409  21069340.020    86275458.82548
  22418589.520   117810668.25209  22418586.720    91800574.23547
  24160179.580   126962606.57408  24160176.680    98931898.41946
  21905716.180   115115637.95809  21905712.540    89700596.71347
  23204056.200   121938243.77709  23204056.740    95016870.90647
  22083826.300   116051372.89809  22083825.740    90429668.00548
  23449052.240   123225595.66308  23449053.540    96019942.87547
 15 03 03 00 09  0.0000000  0  7G16G18G19G21G22G27G31
  21059000.600   110665823.58109  21058997.580    86233108.32848
  22410448.060   117767885.30809  22410445.340    91767236.91547
  24145849.980   126887304.26508  24145846.940    98873221.36346
  21916541.580   115172525.44009  21916537.920    89744924.62348
  23187513.600   121851313.43108  23187513.880    94949133.46347
  22073859.260   115998996.34009  22073858.800    90388855.11648
  23467579.340   123322955.07508  23467580.660    96095807.06347
 15 03 03 00 09 30.0000000  0  7G16G18G19G21G22G27G31
  21048721.760   110611807.99109  21048718.740    86191018.26248
  22402377.840   117725476.88809  22402375.220    91734191.42647
  24131539.060   126812100.13308  24131535.960    98814620.80446
  21927414.880   115229664.59708  21927411.160    89789448.63147
  23170992.760   121764497.85908  23170992.840    94881485.43547
  22063916.120   115946745.36809  22063915.740    90348140.08648
  23486122.260   123420397.50508  23486123.540    96171735.92847
 15 03 03 00 10  0.0000000  0  7G16G18G19G21G22G27G31
  21038507.420   110558131.66409  21038504.440    86149192.56048
  22394379.840   117683447.62409  22394377.220    91701441.39147
  24117247.320   126736996.77908  24117244.240    98756098.78646
  21938336.120   115287055.83808  21938332.400    89834169.07748
  23154494.820   121677802.96108  23154494.820    94813931.43147
  22053997.480   115894622.74409  22053997.120    90307525.06748
  23504680.960   123517922.76308  23504682.220    96247729.34347
 15 03 03 00 10 30.0000000  0  7G16G18G19G21G22G27G31
  21028357.900   110504795.74909  21028354.900    86107632.10648
  22386454.220   117641798.70409  22386451.640    91668987.71647
  24102974.540   126661993.16308  24102971.500    98697654.47246
  21949304.860   115344696.99808  21949301.180    89879084.25648
  23138020.080   121591230.34308  23138020.080    94746472.68947
  22044103.060   115842627.46309  22044102.740    90267009.27248
  23523254.760   123615527.20608  23523255.960    96323784.44447
 15 03 03 00 11  0.0000000  0  7G16G18G19G21G22G27G31
  21018273.320   110451800.95309  21018270.280    86066337.46348
  22378601.060   117600530.38809  22378598.440    91636830.63147
  24088720.420   126587087.84608  24088717.320    98639286.75346
  21960320.420   115402584.42408  21960316.780    89924191.35448
  23121568.900   121504781.35708  23121568.860    94679110.28947
  22034232.660   115790758.19709  22034232.380    90226591.68348
  23541842.840   123713206.62108  23541844.020    96399897.96647
 15 03 03 00 11 30.0000000  0  7G16G18G19G21G22G27G31
  21008254.440   110399151.45409  21008251.400    86025311.88648
  22370821.040   117559646.39609  22370818.380    91604973.00447
  24074485.440   126512283.05708  24074482.360    98580997.37346
  21971382.900   115460718.73008  21971379.340    89969490.80447
  23105142.220   121418460.89408  23105142.100    94611848.01847
  22024386.640   115739017.08109  22024386.420    90186273.94548
  23560445.040   123810960.31508  23560446.220    96476069.35146
 15 03 03 00 12  0.0000000  0  7G16G18G19G21G22G27G31
  20998301.500   110346848.44309  20998298.420    85984556.29948
  22363114.440   117519148.44109  22363111.900    91573416.19147
  24060269.500   126437577.84808  24060266.300    98522785.58146
  21982491.640   115519096.33808  21982488.240    90014979.85447
  23088740.520   121332270.82609  23088740.160    94544687.33447
  22014564.880   115687403.19509  22014564.640    90146055.34648
  23579060.680   123908784.57408  23579061.860    96552295.72046
 15 03 03 00 12 30.0000000  0  7G16G18G19G21G22G27G31
  20988414.900   110294894.03909  20988411.780    85944072.35348
  22355481.660   117479038.50009  22355479.220    91542161.72447
  24046072.520   126362972.24608  24046069.400    98464651.39746
  21993646.460   115577716.00108  21993643.200    90060657.50948
  23072364.260   121246214.07109  23072363.620    94477630.52447
  22004767.360   115635916.47509  22004767.020    90105935.84148
  23597689.100   124006676.13908  23597690.280    96628574.53547
 15 03 03 00 13  0.0000000  0  7G16G18G19G21G22G27G31
  20978594.820   110243289.04909  20978591.620    85903860.68348
  22347922.860   117439316.90909  22347920.380    91511209.87047
  24031894.200   126288464.65908  24031891.100    98406593.60846
  22004846.820   115636574.54208  22004843.520    90106521.31448
  23056013.660   121160292.08109  23056012.680    94410678.70747
  21994993.780   115584555.50609  21994993.320    90065914.32948
  23616329.480   124104630.89908  23616330.820    96704902.57547
 15 03 03 00 13 30.0000000  0  7G16G18G19G21G22G27G31
  20968841.580   110192035.40309  20968838.400    85863922.78048
  22340438.300   117399985.22009  22340435.760    91480561.83147
  24017734.620   126214055.15908  24017731.480    98348612.23746
  22016092.240   115695669.78608  22016088.900    90152569.55448
  23039689.260   121074507.53708  23039688.080    94343833.98447
  21985244.140   115533320.31309  21985243.520    90025990.81048
  23634981.420   124202646.15208  23634982.880    96781277.74347
 15 03 03 00 14  0.0000000  0  7G16G18G19G21G22G27G31
  20959155.860   110141136.60909  20959152.720    85824261.38448
  22333028.580   117361046.89709  22333025.940    91450220.31447
  24003593.920   126139744.93508  24003590.700    98290708.22046
  22027382.680   115755001.30408  22027379.260    90198801.89947
  23023391.720   120988864.47209  23023390.460    94277099.49847
  21975518.660   115482212.32109  21975517.920    89986166.40948
  23653644.560   124300720.40308  23653646.120    96857698.86947
 15 03 03 00 14 30.0000000  0  7G16G18G19G21G22G27G31
  20949538.160   110090595.35409  20949535.040    85784878.59848
  22325694.160   117322504.13609  22325691.360    91420187.02447
  23989472.220   126065534.71908  23989468.880    98232882.13746
  22038717.900   115814567.84609  22038714.360    90245217.38247
  23007121.720   120903366.15609  23007120.380    94210477.79647
  21965817.420   115431231.99009  21965816.680    89946441.49248
  23672318.460   124398851.05708  23672320.140    96934163.94646
 15 03 03 00 15  0.0000000  0  7G16G18G19G21G22G27G31
  20939988.900   110040413.70109  20939985.820    85745776.01848
  22318435.380   117284358.85109  22318432.480    91390463.46247
  23975369.540   125991424.57008  23975366.120    98175134.03245
  22050097.480   115874367.40109  22050093.740    90291814.43847
  22990879.780   120818015.72008  22990878.400    94143971.31147
  21956140.400   115380379.44509  21956139.840    89906816.15948
  23691002.580   124497035.40408  23691004.300    97010670.85946
 15 03 03 00 15 30.0000000  0  7G16G18G19G21G22G27G31
  20930508.220   109990592.48609  20930505.120    85706954.30048
  22311252.300   117246611.60809  22311249.280    91361050.06147
  23961285.580   125917413.25708  23961282.040    98117462.94346
  22061520.900   115934397.18009  22061517.000    90338590.88347
  22974666.200   120732814.28509  22974664.780    94077580.92047
  21946487.440   115329653.48409  21946487.060    89867289.46248
  23709696.120   124595269.34308  23709697.940    97087216.39946
 15 03 03 00 16  0.0000000  0  7G16G18G19G21G22G27G31
  20921096.540   109941134.20209  20921093.520    85668415.37348
  22304145.460   117209264.72809  22304142.300    91331948.61647
  23947220.400   125843500.83108  23947216.780    98059868.90245
  22072987.780   115994655.48608  22072983.740    90385545.39947
  22958481.700   120647765.61909  22958480.160    94011309.55847
  21936858.680   115279054.57909  21936858.460    89827861.76048
  23728398.680   124693550.60808  23728400.720    97163798.80646
 15 03 03 00 16 30.0000000  0  7G16G18G19G21G22G27G31
  20911754.800   109892043.29009  20911751.840    85630162.72048
  22297115.620   117172322.55309  22297112.380    91303162.53547
  23933174.420   125769689.65708  23933170.760    98002353.76946
  22084498.240   116055143.19908  22084494.180    90432678.67847
  22942327.200   120562874.58309  22942325.560    93945161.02047
  21927254.540   115228585.01009  21927254.420    89788534.84548
  23747110.140   124791878.80108  23747112.400    97240417.76146
 15 03 03 00 17  0.0000000  0  7G16G18G19G21G22G27G31
  20902482.700   109843318.07109  20902479.760    85592195.01748
  22290162.200   117135782.59709  22290159.000    91274689.87247
  23919147.060   125695976.06308  23919143.380    97944914.65846
  22096051.140   116115854.02208  22096047.160    90479985.81347
  22926202.480   120478139.87909  22926200.720    93879134.28647
  21917674.340   115178240.97509  21917674.220    89749305.74448
  23765829.280   124890246.98808  23765831.680    97317067.88346
 15 03 03 00 17 30.0000000  0  7G16G18G19G21G22G27G31
  20893280.960   109794962.56109  20893278.020    85554515.40348
  22283286.120   117099648.95509  22283282.980    91246533.81647
  23905138.720   125622362.09408  23905135.000    97887553.20246
  22107646.540   116176788.43908  22107642.740    90527467.17547
  22910108.460   120393566.57309  22910106.580    93813233.31147
  21908118.520   115128024.72809  21908118.300    89710176.22248
  23784555.920   124988654.68408  23784558.500    97393748.78146
 15 03 03 00 18  0.0000000  0  7G16G18G19G21G22G27G31
  20884149.880   109746978.28309  20884146.920    85517125.06148
  22276487.620   117063922.72809  22276484.440    91218695.22847
  23891149.220   125548847.00408  23891145.460    97830268.78846
  22119284.000   116237943.96408  22119280.320    90575120.82947
  22894045.520   120309156.71709  22894043.600    93747459.68447
  21898586.920   115077935.56409  21898586.560    89671145.71948
  23803289.440   125087098.27508  23803292.140    97470457.64146
 15 03 03 00 18 30.0000000  0  7G16G18G19G21G22G27G31
  20875090.240   109699369.29109  20875087.220    85480027.14948
  22269767.360   117028607.64109  22269764.140    91191176.99847
  23877178.900   125475432.79208  23877175.120    97773062.97046
  22130963.600   116299320.85308  22130960.020    90622946.97547
  22878014.700   120224915.14109  22878012.660    93681817.16847
  21889079.920   115027975.52409  21889079.420    89632215.83248
  23822029.660   125185576.92308  23822032.420    97547193.79946
 15 03 03 00 19  0.0000000  0  7G16G18G19G21G22G27G31
  20866102.020   109652135.47609  20866098.920    85443221.57748
  22263125.260   116993703.37809  22263122.040    91163978.89747
  23863227.320   125402117.35408  23863223.700    97715934.13546
  22142684.300   116360913.98008  22142680.860    90670941.61847
  22862016.080   120140842.68409  22862013.920    93616306.42747
  21879597.080   114978142.55909  21879596.520    89593384.96248
  23840775.600   125284085.56108  23840778.400    97623953.32646
 15 03 03 00 19 30.0000000  0  7G16G18G19G21G22G27G31
  20857185.900   109605280.66309  20857182.700    85406711.34148
  22256561.900   116959212.94509  22256558.700    91137103.27047
  23849294.840   125328902.20808  23849291.380    97658883.44946
  22154446.540   116422725.39208  22154443.200    90719106.35947
  22846050.520   120056943.66509  22846048.240    93550930.83447
  21870138.740   114928438.44409  21870138.100    89554654.51048
  23859527.040   125382623.20908  23859529.940    97700735.45646
 15 03 03 00 20  0.0000000  0  7G16G18G19G21G22G27G31
  20848341.440   109558802.62309  20848338.160    85370494.69248
  22250076.860   116925134.19309  22250073.680    91110548.42347
  23835380.700   125255783.26408  23835377.260    97601907.71046
  22166249.020   116484747.92408  22166245.700    90767435.60147
  22830117.700   119973216.64609  22830115.320    93485689.24847
  21860704.100   114878859.02609  21860703.440    89516021.22048
  23878282.580   125481182.71308  23878285.600    97777534.60346
 15 03 03 00 20 30.0000000  0  7G16G18G19G21G22G27G31
  20839570.180   109512709.15709  20839566.820    85334577.71048
  22243671.500   116891474.25609  22243668.320    91084319.92747
  23821486.020   125182766.52708  23821482.480    97545011.61346
  22178092.420   116546985.14309  22178089.040    90815932.13147
  22814219.300   119889670.32909  22814216.840    93420588.46647
  21851294.320   114829410.18809  21851293.580    89477489.67248
  23897042.880   125579767.01808  23897046.020    97854353.07946
 15 03 03 00 21  0.0000000  0  7G16G18G19G21G22G27G31
  20830871.740   109466998.35709  20830868.220    85298958.89948
  22237345.460   116858231.03009  22237342.320    91058416.13147
  23807610.060   125109847.81008  23807606.360    97488191.88046
  22189975.640   116609431.45809  22189972.160    90864591.59048
  22798355.060   119806303.86609  22798352.580    93355627.82147
  21841908.620   114780088.18809  21841907.880    89439056.95548
  23915806.720   125678369.78908  23915809.840    97931185.92246
 15 03 03 00 21 30.0000000  0  7G16G18G19G21G22G27G31
  20822246.360   109421671.67609  20822242.720    85263639.41348
  22231098.960   116825405.75409  22231095.860    91032838.02647
  23793752.520   125037026.25308  23793748.820    97431447.87846
  22201898.260   116672084.76808  22201894.680    90913412.35147
  22782525.260   119723118.80409  22782522.820    93290808.53147
  21832546.860   114730892.31709  21832546.200    89400722.53348
  23934573.440   125776987.54308  23934576.580    98008030.43646
 15 03 03 00 22  0.0000000  0  7G16G18G19G21G22G27G31
  20813694.860   109376733.05909  20813691.140    85228622.31348
  22224932.660   116793001.62809  22224929.560    91007588.08547
  23779913.900   124964304.08508  23779910.060    97374781.30247
  22213860.220   116734944.94009  22213856.520    90962394.31047
  22766730.880   119640119.93009  22766728.480    93226134.31047
  21823209.460   114681824.52209  21823208.880    89362487.90748
  23953342.860   125875619.07708  23953345.920    98084885.70446
 15 03 03 00 22 30.0000000  0  7G16G18G19G21G22G27G31
  20805218.180   109332187.65009  20805214.380    85193911.60748
  22218847.500   116761023.65209  22218844.320    90982670.20447
  23766094.680   124891684.14808  23766090.880    97318194.39046
  22225861.640   116798012.72008  22225857.880    91011538.03247
  22750973.040   119557313.22209  22750970.640    93161609.82647
  21813897.080   114632888.09709  21813896.560    89324355.64148
  23972115.000   125974264.80308  23972117.980    98161752.00846
 15 03 03 00 23  0.0000000  0  7G16G18G19G21G22G27G31
  20796815.880   109288033.18909  20796812.060    85159505.53648
  22212842.960   116729469.16409  22212839.640    90958082.32047
  23752294.160   124819162.50708  23752290.460    97261684.06146
  22237901.420   116861282.38808  22237897.700    91060839.07047
  22735251.460   119474697.35909  22735249.140    93097234.04647
  21804609.000   114584078.93409  21804608.500    89286322.54748
  23990888.500   126072917.73908  23990891.400    98238623.93246
 15 03 03 00 23 30.0000000  0  7G16G18G19G21G22G27G31
  20788488.260   109244271.22709  20788484.480    85125405.30348
  22206919.220   116698339.26409  22206915.840    90933825.28447
  23738512.240   124746738.45608  23738508.660    97205249.79346
  22249979.260   116924752.14408  22249975.620    91110296.01947
  22719566.660   119392274.53209  22719564.340    93033008.66547
  21795345.080   114535396.58509  21795344.560    89248388.26148
  24009662.760   126171574.60808  24009665.640    98315498.91146
 15 03 03 00 24  0.0000000  0  7G16G18G19G21G22G27G31
  20780235.860   109200904.68309  20780232.140    85091613.19948
  22201076.640   116667636.03909  22201073.180    90909900.71747
  23724749.120   124674412.99608  23724745.580    97148892.33546
  22262095.020   116988421.25508  22262091.460    91159908.31647
  22703919.360   119310048.61909  22703917.000    92968936.72547
  21786105.520   114486842.26109  21786104.980    89210553.74048
  24028437.440   126270233.87408  24028440.460    98392375.74946
 15 03 03 00 24 30.0000000  0  7G16G18G19G21G22G27G31
  20772059.420   109157937.39009  20772055.800    85058132.19248
  22195315.920   116637363.09009  22195312.360    90886311.43547
  23711005.160   124602187.70708  23711001.560    97092612.94047
  22274248.540   117052288.78108  22274245.080    91209675.22147
  22688310.340   119228023.54009  22688307.840    92905021.27647
  21776890.600   114438417.61109  21776890.080    89172820.26548
  24047212.200   126368893.92508  24047215.380    98469253.17246
 15 03 03 00 25  0.0000000  0  7G16G18G19G21G22G27G31
  20763958.740   109115368.13909  20763955.220    85024961.34948
  22189636.860   116607519.15009  22189633.240    90863056.44647
  23697279.780   124530059.52308  23697276.000    97036409.19346
  22286438.920   117116349.98008  22286435.540    91259593.04347
  22672739.680   119146199.69309  22672736.940    92841262.61847
  21767699.780   114390119.74709  21767699.240    89135185.58648
  24065986.080   126467549.40708  24065989.440    98546127.01146
 15 03 03 00 25 30.0000000  0  7G16G18G19G21G22G27G31
  20755934.520   109073200.74709  20755931.100    84992103.64748
  22184039.960   116578106.93009  22184036.260    90840137.86747
  23683573.280   124458030.41808  23683569.260    96980282.66146
  22298666.340   117180605.57208  22298663.000    91309662.33747
  22657208.080   119064581.37209  22657205.220    92777664.11547
  21758533.500   114341950.58909  21758532.880    89097651.19348
  24084758.900   126566199.34508  24084762.420    98622996.56046
 15 03 03 00 26  0.0000000  0  7G16G18G19G21G22G27G31
  20747987.080   109031436.70509  20747983.760    84959560.23748
  22178525.580   116549128.20509  22178521.780    90817557.07347
  23669885.520   124386100.06808  23669881.320    96924233.08246
  22310930.240   117245052.76508  22310926.900    91359880.93147
  22641716.100   118983171.30609  22641713.140    92714227.88247
  21749391.720   114293910.17909  21749391.040    89060217.11848
  24103530.060   126664840.78308  24103533.780    98699859.45546
 15 03 03 00 26 30.0000000  0  7G16G18G19G21G22G27G31
  20740117.500   108990081.75909  20740114.220    84927335.60448
  22173094.560   116520587.40809  22173090.680    90795317.51447
  23656217.160   124314272.04908  23656212.840    96868263.23847
  22323230.920   117309693.00908  22323227.500    91410249.95447
  22626264.900   118901975.48509  22626261.820    92650958.58747
  21740275.060   114246001.90709  21740274.380    89022886.00748
  24122299.640   126763473.83608  24122303.500    98776715.81546
 15 03 03 00 27  0.0000000  0  7G16G18G19G21G22G27G31
  20732325.340   108949133.61609  20732322.060    84895427.96749
  22167746.340   116492481.96209  22167742.480    90773417.19547
  23642567.300   124242541.58008  23642563.020    96812369.41947
  22335567.260   117374520.58508  22335563.740    91460764.95447
  22610854.120   118820992.13309  22610850.980    92587854.84247
  21731182.720   114198221.56709  21731182.100    88985654.58748
  24141066.440   126862092.05008  24141070.440    98853560.61546
 15 03 03 00 27 30.0000000  0  7G16G18G19G21G22G27G31
  20724611.160   108908595.59709  20724607.900    84863839.89648
  22162481.540   116464815.07309  22162477.660    90751858.59647
  23628936.260   124170910.64308  23628932.060    96756553.13247
  22347939.340   117439535.80708  22347935.680    91511426.16347
  22595484.680   118740225.96909  22595481.500    92524920.33047
  21722115.000   114150570.94409  21722114.540    88948524.24448
  24159830.220   126960694.24808  24159834.340    98930392.90546
 15 03 03 00 28  0.0000000  0  7G16G18G19G21G22G27G31
  20716975.260   108868468.94509  20716972.000    84832572.37348
  22157300.200   116437587.21809  22157296.400    90730642.10347
  23615323.940   124099378.36508  23615319.900    96700813.75546
  22360346.520   117504735.61008  22360342.800    91562231.20047
  22580156.960   118659679.02409  22580153.840    92462156.63347
  21713071.840   114103049.51909  21713071.580    88911494.57948
  24178590.300   127059276.79008  24178594.400    99007209.88146
 15 03 03 00 28 30.0000000  0  7G16G18G19G21G22G27G31
  20709418.180   108828756.47709  20709414.940    84801627.60048
  22152202.780   116410800.52309  22152199.120    90709769.38247
  23601730.560   124027945.57708  23601726.780    96645151.88847
  22372788.520   117570118.39108  22372784.760    91613178.81547
  22564871.660   118579354.64809  22564868.480    92399566.36647
  21704053.460   114055658.13009  21704053.340    88874566.24848
  24197346.340   127157837.78708  24197350.500    99084010.07646
 15 03 03 00 29  0.0000000  0  7G16G18G19G21G22G27G31
  20701940.020   108789458.99809  20701936.820    84771006.18048
  22147189.400   116384455.49409  22147185.920    90689240.80647
  23588155.980   123956611.33208  23588152.300    96589566.80347
  22385264.940   117635682.00308  22385261.060    91664267.34247
  22549629.060   118499254.54609  22549625.840    92337150.84347
  21695059.760   114008395.99109  21695059.640    88837738.62448
  24216097.500   127256373.44608  24216101.760    99160790.50746
 15 03 03 00 29 30.0000000  0  7G16G18G19G21G22G27G31
  20694541.300   108750579.14309  20694538.200    84740710.19748
  22142260.440   116358554.04909  22142257.060    90669057.89147
  23574600.360   123885376.33308  23574596.720    96534059.05746
  22397775.480   117701425.30608  22397771.520    91715495.90247
  22534429.740   118419382.14009  22534426.520    92274912.76547
  21686090.940   113961263.91209  21686090.620    88801012.34148
  24234843.380   127354881.33708  24234847.700    99237549.29746
 15 03 03 00 30  0.0000000  0  7G16G18G19G21G22G27G31
  20687222.440   108712118.86009  20687219.420    84710741.14348
  22137416.160   116333097.63809  22137412.880    90649221.74047
  23561063.680   123814240.56308  23561060.120    96478628.63146
  22410319.840   117767346.39108  22410315.900    91766862.97147
  22519274.260   118339740.48309  22519271.080    92212854.46547
  21677146.980   113914262.18109  21677146.400    88764387.61748
  24253583.640   127453359.62208  24253588.040    99314284.98246
 15 03 03 00 30 30.0000000  0  7G16G18G19G21G22G27G31
  20679983.980   108674080.71409  20679981.020    84681101.03048
  22132656.980   116308088.38509  22132653.760    90629734.04047
  23547545.980   123743204.50708  23547542.380    96423275.90646
  22422897.920   117833444.76908  22422894.040    91818368.20947
  22504163.360   118260333.00809  22504160.180    92150978.64847
  21668227.960   113867391.62109  21668227.160    88727865.11548
  24272317.800   127551805.96408  24272322.380    99390995.77246
 15 03 03 00 31  0.0000000  0  7G16G18G19G21G22G27G31
  20672826.320   108636466.78109  20672823.360    84651791.46348
  22127983.080   116283527.35909  22127979.960    90610595.59247
  23534047.280   123672268.23108  23534043.660    96368000.91646
  22435509.300   117899717.79409  22435505.340    91870009.51947
  22489097.500   118181162.22009  22489094.380    92089287.26548
  21659333.880   113820652.27109  21659332.920    88691444.84548
  24291045.340   127650217.56008  24291050.260    99467679.46745
 15 03 03 00 31 30.0000000  0  7G16G18G19G21G22G27G31
  20665749.320   108599276.50309  20665746.340    84622812.02648
  22123394.280   116259413.68809  22123391.300    90591805.74747
  23520567.120   123601429.66208  23520563.400    96312802.07246
  22448153.200   117966161.66708  22448149.160    91921783.97747
  22474076.780   118102228.39009  22474073.660    92027780.53347
  21650464.360   113774042.13509  21650463.320    88655125.27348
  24309765.380   127748589.33808  24309770.460    99544332.13146
 15 03 03 00 32  0.0000000  0  7G16G18G19G21G22G27G31
  20658753.940   108562515.12609  20658750.920    84594166.79948
  22118891.540   116235752.30209  22118888.740    90573368.33047
  23507106.200   123530692.27308  23507102.400    96257682.07246
  22460829.960   118032778.45308  22460825.860    91973693.16847
  22459102.440   118023538.04409  22459099.180    91966463.51348
  21641620.080   113727564.95109  21641619.060    88618909.30048
  24328478.080   127846922.47408  24328483.340    99620954.68046
 15 03 03 00 32 30.0000000  0  7G16G18G19G21G22G27G31
  20651840.260   108526182.93809  20651837.140    84565855.99748
  22114474.780   116212542.52109  22114472.080    90555282.80147
  23493664.120   123460054.06508  23493660.280    96202639.34546
  22473538.780   118099564.07608  22473534.760    92025733.90947
  22444174.640   117945092.15609  22444171.240    91905336.96747
  21632800.780   113681219.09409  21632799.780    88582795.65248
  24347182.560   127945212.09208  24347187.940    99697543.30346
 15 03 03 00 33  0.0000000  0  7G16G18G19G21G22G27G31
  20645008.580   108490281.57309  20645005.300    84537880.90648
  22110144.260   116189785.74709  22110141.560    90537550.26447
  23480240.940   123389515.07308  23480237.080    96147673.93146
  22486279.400   118166516.77008  22486275.440    92077904.83947
  22429293.800   117866893.10409  22429290.280    91844402.76347
  21624006.460   113635004.66709  21624005.480    88546784.41748
  24365878.220   128043455.41108  24365883.760    99774095.83545
 15 03 03 00 33 30.0000000  0  7G16G18G19G21G22G27G31
  20638258.360   108454808.24509  20638254.900    84510239.34548
  22105899.260   116167478.22709  22105896.480    90520167.79747
  23466835.780   123319070.63908  23466831.900    96092782.20446
  22499050.580   118233630.41008  22499046.740    92130201.18047
  22414459.660   117788939.26909  22414456.000    91783659.63247
  21615236.260   113588917.16509  21615235.300    88510872.08648
  24384563.700   128141645.38108  24384569.340    99850606.80145
 15 03 03 00 34  0.0000000  0  7G16G18G19G21G22G27G31
  20631592.120   108419776.32009  20631588.560    84482941.74049
  22101742.200   116145632.73209  22101739.300    90503145.35447
  23453450.920   123248732.85908  23453447.080    96037973.58746
  22511854.240   118300914.70408  22511850.480    92182630.49847
  22399674.820   117711244.43709  22399671.080    91723118.31648
  21606492.400   113542968.19409  21606491.480    88475067.70148
  24403240.680   128239790.53308  24403246.420    99927082.84146
 15 03 03 00 34 30.0000000  0  7G16G18G19G21G22G27G31
  20625008.540   108385178.94109  20625004.860    84455982.75148
  22097671.620   116124241.92809  22097668.680    90486477.23147
  23440084.560   123178492.30008  23440080.840    95983240.73746
  22524688.420   118368359.26408  22524684.720    92235184.71347
  22384938.180   117633803.15709  22384934.420    91662774.57948
  21597773.340   113497149.55809  21597772.520    88439364.88448
  24421907.040   128337879.99808  24421912.960   100003515.45745
 15 03 03 00 35  0.0000000  0  7G16G18G19G21G22G27G31
  20618508.100   108351018.80109  20618504.340    84429364.46048
  22093687.920   116103307.69109  22093684.940    90470164.85647
  23426736.880   123108349.94908  23426733.300    95928584.40547
  22537552.900   118435962.99108  22537549.280    92287862.92947
  22370250.300   117556618.53409  22370246.620    91602630.82948
  21589079.260   113451462.21609  21589078.540    88403764.37148
  24440562.440   128435911.84708  24440568.620   100079903.16146
 15 03 03 00 35 30.0000000  0  7G16G18G19G21G22G27G31
  20612091.380   108317298.72809  20612087.540    84403089.07848
  22089791.560   116082832.51709  22089788.580    90454210.19347
  23413408.200   123038307.36808  23413404.700    95874005.81947
  22550447.580   118503725.45408  22550444.040    92340664.85747
  22355612.000   117479694.45509  22355608.420    91542690.09548
  21580410.400   113405907.49409  21580409.780    88368267.19848
  24459206.540   128533884.36808  24459212.940   100156244.62845
 15 03 03 00 36  0.0000000  0  7G16G18G19G21G22G27G31
  20605758.500   108284019.36309  20605754.640    84377157.10648
  22085982.480   116062816.10009  22085979.600    90438613.01447
  23400098.220   122968363.35308  23400094.780    95819504.04147
  22563371.960   118571643.78708  22563368.440    92393588.23547
  22341023.660   117403032.79609  22341020.200    91482953.84648
  21571766.600   113360484.57009  21571766.060    88332872.72948
  24477838.620   128631793.92208  24477845.380   100232536.97445
 15 03 03 00 36 30.0000000  0  7G16G18G19G21G22G27G31
  20599510.100   108251184.26509  20599506.320    84351571.31549
  22082261.280   116043261.20409  22082258.420    90423375.44547
  23386807.220   122898519.54408  23386803.920    95765080.34847
  22576325.980   118639717.82908  22576322.480    92446632.94347
  22326486.060   117326637.67109  22326482.660    91423425.28148
  21563148.220   113315195.33909  21563147.780    88297582.43448
  24496458.500   128729639.58708  24496465.660   100308779.52846
 15 03 03 00 37  0.0000000  0  7G16G18G19G21G22G27G31
  20593346.680   108218795.70209  20593343.040    84326333.47248
  22078628.320   116024169.69209  22078625.460    90408498.96647
  23373535.180   122828775.54408  23373532.040    95710734.42147
  22589309.280   118707945.57908  22589305.780    92499797.43447
  22311999.740   117250512.02409  22311996.360    91364106.69848
  21554555.440   113270040.25709  21554555.060    88262396.66948
  24515065.840   128827418.97608  24515073.260   100384970.40446
 15 03 03 00 37 30.0000000  0  7G16G18G19G21G22G27G31
  20587268.020   108186852.84009  20587264.620    84301442.93648
  22075083.280   116005539.91609  22075080.340    90393982.27447
  23360281.880   122759129.68608  23360278.720    95656464.96747
  22602321.240   118776323.71608  22602317.720    92553079.10447
  22297564.800   117174656.14409  22297561.380    91304998.32448
  21545987.860   113225017.21209  21545987.460    88227313.79248
  24533659.580   128925126.73308  24533667.200   100461105.45145
 15 03 03 00 38  0.0000000  0  7G16G18G19G21G22G27G31
  20581274.700   108155358.39109  20581271.500    84276901.80548
  22071626.420   115987373.83609  22071623.460    90379826.91047
  23347047.520   122689582.90708  23347044.200    95602272.71347
  22615361.660   118844851.20008  22615358.100    92606477.14347
  22283182.000   117099073.95109  22283178.500    91246103.19548
  21537445.720   113180127.48509  21537445.180    88192334.79648
  24552239.520   129022761.66108  24552247.260   100537183.75745
 15 03 03 00 38 30.0000000  0  7G16G18G19G21G22G27G31
  20575367.240   108124314.55809  20575364.080    84252711.81149
  22068258.040   115969672.99809  22068255.040    90366034.08247
  23333832.140   122620135.61108  23333828.580    95548157.98647
  22628430.300   118913526.93608  22628426.680    92659990.71347
  22268851.800   117023768.25309  22268848.200    91187423.53748
  21528929.100   113135371.78309  21528928.400    88157460.24148
  24570805.200   129120321.39708  24570813.000   100613203.44045
 15 03 03 00 39  0.0000000  0  7G16G18G19G21G22G27G31
  20569545.980   108093723.58309  20569542.840    84228874.68648
  22064978.480   115952439.11709  22064975.500    90352605.10047
  23320635.880   122550788.56808  23320632.120    95494121.37647
  22641526.880   118982349.46608  22641523.220    92713618.65747
  22254574.780   116948742.33709  22254571.180    91128961.87848
  21520438.100   113090750.92709  21520437.300    88122690.75048
  24589356.280   129217804.08408  24589364.120   100689163.05845
 15 03 03 00 39 30.0000000  0  7G16G18G19G21G22G27G31
  20563810.840   108063584.77209  20563807.580    84205389.90049
  22061787.480   115935670.75909  22061784.540    90339538.87047
  23307458.280   122481539.34308  23307454.320    95440160.98147
  22654650.640   119051314.86408  22654646.940    92767357.92247
  22240350.940   116873996.44709  22240347.440    91070718.42648
  21511972.260   113046262.74009  21511971.460    88088024.64848
  24607891.720   129315204.47108  24607899.540   100765058.53145
 15 03 03 00 40  0.0000000  0  7G16G18G19G21G22G27G31
  20558163.140   108033905.28809  20558159.740    84182263.03249
  22058686.240   115919373.92909  22058683.300    90326840.06047
  23294300.260   122412393.18908  23294296.200    95386280.90147
  22667802.260   119120426.50308  22667798.520    92821211.14547
  22226181.780   116799538.35909  22226178.460    91012699.23148
  21503532.680   113001912.80009  21503531.940    88053466.25748
  24626411.960   129412525.48207  24626419.960   100840892.11045
 15 03 03 00 40 30.0000000  0  7G16G18G19G21G22G27G31
  20552602.300   108004682.11509  20552598.740    84159491.73448
  22055674.080   115903545.24209  22055671.100    90314506.03947
  23281160.960   122343345.63608  23281156.820    95332477.65947
  22680980.580   119189678.74008  22680976.860    92875173.93347
  22212067.080   116725366.43409  22212063.940    90954903.02648
  21495118.580   112957696.90309  21495117.940    88019012.33248
  24644915.720   129509759.97007  24644923.980   100916658.24045
 15 03 03 00 41  0.0000000  0  7G16G18G19G21G22G27G31
  20547129.100   107975919.76809  20547125.420    84137079.51448
  22052751.740   115888188.49709  22052748.780    90302539.75447
  23268040.920   122274399.46508  23268036.860    95278753.40447
  22694185.660   119259072.00308  22694181.960    92929246.59647
  22198007.860   116651485.96109  22198004.760    90897333.91948
  21486730.540   112913618.00209  21486730.040    87984665.14648
  24663403.060   129606907.90907  24663411.540   100992356.91145
 15 03 03 00 41 30.0000000  0  7G16G18G19G21G22G27G31
  20541743.340   107947617.36409  20541739.600    84115025.69448
  22049918.920   115873302.20809  22049916.000    90290940.06747
  23254939.660   122205552.10508  23254935.680    95225106.14747
  22707416.800   119328602.33108  22707413.180    92983426.06647
  22184004.240   116577897.20609  22184001.040    90839992.10948
  21478368.180   112869673.90309  21478367.800    87950423.00248
  24681873.000   129703964.20507  24681881.800   101067984.13546
 15 03 03 00 42  0.0000000  0  6G16G18G19G21G22G27
  20536445.500   107919777.25009  20536441.800    84093332.09748
  22047175.840   115858887.59309  22047173.040    90279707.92047
  23241857.360   122136804.27608  23241853.380    95171536.44847
  22720673.760   119398268.69108  22720670.240    93037711.53347
  22170056.840   116504603.27709  22170053.400    90782880.03948
  21470031.640   112825865.54109  21470031.380    87916286.63248
 15 03 03 00 42 30.0000000  0  6G16G18G19G21G22G27
  20531235.740   107892400.26509  20531232.140    84071999.38848
  22044522.560   115844944.89709  22044519.840    90268843.49747
  23228793.900   122068155.44808  23228789.960    95118043.89947
  22733956.160   119468068.63108  22733952.740    93092101.09547
  22156165.980   116431606.08109  22156162.260    90725999.18948
  21461720.860   112782192.58109  21461720.720    87882255.77349
 15 03 03 00 43  0.0000000  0  6G16G18G19G21G22G27
  20526114.700   107865489.24209  20526111.180    84051029.75949
  22041959.460   115831475.86209  22041956.800    90258348.15847
  23215749.540   121999606.79508  23215745.520    95064629.39447
  22747263.920   119538001.59808  22747260.520    93146594.30947
  22142332.360   116358909.49209  22142328.360    90669352.56548
  21453436.120   112738656.47009  21453436.060    87848331.53849
 15 03 03 00 43 30.0000000  0  6G16G18G19G21G22G27
  20521082.940   107839047.05909  20521079.460    84030425.46149
  22039487.020   115818483.03709  22039484.400    90248223.89947
  23202724.500   121931159.74808  23202720.360    95011294.07847
  22760596.940   119608067.31708  22760593.600    93201190.96747
  22128556.600   116286517.25809  22128552.420    90612943.11248
  21445177.800   112695258.71109  21445177.700    87814515.11348
 15 03 03 00 44  0.0000000  0  6G16G18G19G21G22G27
  20516140.840   107813076.02209  20516137.400    84010188.29148
  22037105.560   115805968.25609  22037102.960    90238472.15347
  23189718.920   121862815.39508  23189714.780    94958038.78747
  22773955.040   119678264.63708  22773951.760    93255890.18247
  22114839.340   116214432.66809  22114835.060    90556773.37548
  21436946.120   112652000.53309  21436945.900    87780807.46348
 15 03 03 00 44 30.0000000  0  6G16G18G19G21G22G27
  20511287.780   107787572.74909  20511284.300    83990315.60949
  22034814.200   115793926.80809  22034811.580    90229089.22047
  23176731.780   121794568.10508  23176727.700    94904859.12947
  22787337.000   119748587.21508  22787333.680    93310686.98747
  22101180.040   116142653.20809  22101175.840    90500841.40548
  21428740.100   112608877.10509  21428739.760    87747204.80249
 15 03 03 00 45  0.0000000  0  6G16G18G19G21G22G27
  20506524.860   107762543.52509  20506521.380    83970812.31849
  22032613.920   115782363.90609  22032611.200    90220079.17747
  23163764.100   121726422.83008  23163760.080    94851758.96147
  22800743.360   119819037.81008  22800739.960    93365583.55147
  22087580.200   116071186.20209  22087576.060    90445152.90648
  21420560.680   112565893.44209  21420560.200    87713711.04748
 15 03 03 00 45 30.0000000  0  6G16G18G19G21G22G27
  20501851.720   107737986.25009  20501848.260    83951676.76948
  22030504.120   115771276.67009  22030501.360    90211439.79047
  23150815.220   121658376.17508  23150811.240    94798735.63047
  22814173.160   119889611.49608  22814169.720    93420576.02247
  22074039.620   116000030.73609  22074035.580    90389707.16048
  21412407.280   112523046.39809  21412406.680    87680323.74548
 15 03 03 00 46  0.0000000  0  6G16G18G19G21G22G27
  20497269.120   107713904.96109  20497265.700    83932912.13249
  22028485.680   115760669.50709  22028482.820    90203174.48947
  23137885.520   121590430.26608  23137881.620    94745790.80947
  22827626.460   119960308.75008  22827622.960    93475664.79547
  22060559.320   115929191.83909  22060555.380    90334508.09748
  21404280.340   112480338.70409  21404279.680    87647045.03748
 15 03 03 00 46 30.0000000  0  6G16G18G19G21G22G27
  20492777.340   107690300.95509  20492773.980    83914519.38948
  22026558.480   115750541.91309  22026555.480    90195282.87247
  23124975.100   121522585.58008  23124971.200    94692924.85447
  22841102.920   120031127.77008  22841099.420    93530848.43747
  22047139.720   115858671.84309  22047135.820    90279557.51948
  21396179.900   112437770.44609  21396179.200    87613874.97348
 15 03 03 00 47  0.0000000  0  6G16G18G19G21G22G27
  20488376.580   107667175.32809  20488373.280    83896499.42248
  22024722.700   115740894.62209  22024719.600    90187765.52047
  23112083.840   121454841.61208  23112079.900    94640137.39447
  22854602.240   120102066.77308  22854598.640    93586125.58446
  22033781.160   115788472.68309  22033777.340    90224856.95048
  21388105.960   112395341.73709  21388105.300    87580813.65548
 15 03 03 00 47 30.0000000  0  6G16G18G19G21G22G27
  20484067.200   107644529.67809  20484063.920    83878853.46148
  22022978.320   115731728.06909  22022975.220    90180622.77247
  23099211.780   121387198.36508  23099207.820    94587428.41347
  22868124.000   120173123.75808  22868120.340    93641494.65946
  22020484.140   115718596.82809  22020480.320    90170408.30648
  21380058.560   112353052.74009  21380057.960    87547861.20448
 15 03 03 00 48  0.0000000  0  6G16G18G19G21G22G27
  20479849.700   107622366.37409  20479846.360    83861583.34848
  22021325.720   115723043.62309  22021322.640    90173855.68647
  23086359.060   121319656.85708  23086355.000    94534798.70247
  22881668.040   120244297.89508  22881664.320    93696955.01546
  22007249.400   115649048.10009  22007245.560    90116214.56148
  21372037.960   112310904.79109  21372037.460    87515018.65548
 15 03 03 00 48 30.0000000  0  6G16G18G19G21G22G27
  20475724.540   107600687.99909  20475721.080    83844691.10048
  22019765.240   115714843.27209  22019762.160    90167465.81047
  23073525.820   121252218.06508  23073521.760    94482249.03247
  22895234.380   120315589.35408  22895230.700    93752506.78747
  21994077.640   115579829.92309  21994073.740    90062278.38748
  21364044.460   112268899.35909  21364044.060    87482287.16748
 15 03 03 00 49  0.0000000  0  6G16G18G19G21G22G27
  20471691.200   107579492.07609  20471687.640    83828174.79248
  22018296.260   115707123.74809  22018293.240    90161450.62047
  23060711.480   121184878.48508  23060707.420    94429776.67147
  22908821.940   120386992.29008  22908818.280    93808145.43447
  21980968.600   115510940.96709  21980964.600    90008598.73948
  21356077.460   112227033.10309  21356077.120    87449664.12849
 15 03 03 00 49 30.0000000  0  6G16G18G19G21G22G27
  20467750.440   107558782.78609  20467746.840    83812037.68549
  22016919.340   115699888.28709  22016916.440    90155812.61647
  23047916.540   121117640.82408  23047912.400    94377383.73847
  22922430.900   120458507.78108  22922427.240    93863871.78947
  21967923.160   115442386.25509  21967919.060    89955179.54448
  21348137.560   112185308.88409  21348137.220    87417151.76548
 15 03 03 00 50  0.0000000  0  6G16G18G19G21G22G27
  20463902.300   107538560.50309  20463898.700    83796280.04949
  22015634.440   115693136.38109  22015631.620    90150551.40547
  23035140.800   121050503.97008  23035136.540    94325069.32647
  22936060.720   120530133.10508  22936057.080    93919683.72647
  21954941.580   115374167.33909  21954937.400    89902022.00048
  21340224.680   112143726.21909  21340224.260    87384749.69349
 15 03 03 00 50 30.0000000  0  6G16G18G19G21G22G27
  20460147.400   107518828.41509  20460143.880    83780904.39649
  22014442.060   115686870.47109  22014439.320    90145668.90347
  23022384.640   120983469.87808  23022380.280    94272835.00647
  22949711.380   120601868.24908  22949707.820    93975581.23347
  21942024.660   115306288.46609  21942020.460    89849129.43448
  21332339.140   112102287.14309  21332338.640    87352459.51849
 15 03 03 00 51  0.0000000  0  6G16G18G19G21G22G27
  20456485.800   107499586.74009  20456482.340    83765910.87749
  22013342.120   115681090.23709  22013339.420    90141164.83847
  23009647.840   120916537.59208  23009643.480    94220680.00947
  22963382.540   120673711.03208  22963378.960    94031562.61447
  21929172.720   115238751.01609  21929168.500    89796502.89848
  21324480.820   112060991.12409  21324480.220    87320280.81248
 15 03 03 00 51 30.0000000  0  6G16G18G19G21G22G27
  20452917.240   107480833.95109  20452913.840    83751298.31948
  22012334.120   115675792.96409  22012331.360    90137037.12447
  22996929.900   120849704.57108  22996925.580    94168602.35947
  22977073.260   120745656.61408  22977069.700    94087624.10846
  21916385.700   115171554.64109  21916381.440    89744142.14848
  21316649.220   112019835.48909  21316648.500    87288211.50348
 15 03 03 00 52  0.0000000  0  6G16G18G19G21G22G27
  20449443.020   107462576.84709  20449439.620    83737071.99949
  22011419.100   115670984.23409  22011416.260    90133290.06547
  22984231.720   120782975.54808  22984227.520    94116605.74647
  22990784.220   120817708.64208  22990780.720    94143768.53346
  21903664.960   115104706.68309  21903660.680    89692052.87748
  21308845.380   111978825.88109  21308844.580    87256255.97048
 15 03 03 00 52 30.0000000  0  6G16G18G19G21G22G27
  20446063.520   107444817.20209  20446060.060    83723233.31948
  22010597.340   115666665.46709  22010594.460    90129924.80547
  22971553.480   120716351.61408  22971549.460    94064691.03347
  23004515.380   120889866.49308  23004511.900    94199995.43046
  21891011.100   115038210.53609  21891006.800    89640237.75748
  21301069.540   111937963.52109  21301068.740    87224415.18248
 15 03 03 00 53  0.0000000  0  6G16G18G19G21G22G27
  20442777.820   107427550.55809  20442774.300    83709778.79248
  22009867.720   115662831.14609  22009864.800    90126937.04147
  22958894.180   120649827.31408  22958890.380    94012853.94747
  23018265.260   120962122.66808  23018261.780    94256298.93546
  21878423.520   114972062.99809  21878419.200    89588694.27848
  21293320.660   111897243.18109  21293319.940    87192685.05648
 15 03 03 00 53 30.0000000  0  7G04G16G18G19G21G22G27
  24606444.860   129307739.90107  24606448.020   100759291.65744
  20439586.640   107410780.88909  20439583.120    83696711.51349
  22009230.800   115659483.86209  22009227.800    90124328.78047
  22946254.320   120583404.70608  22946250.580    93961096.10947
  23032034.020   121034477.84308  23032030.500    94312679.58146
  21865903.120   114906268.61609  21865898.820    89537425.97648
  21285599.240   111856667.30309  21285598.640    87161067.49649
 15 03 03 00 54  0.0000000  0  7G04G16G18G19G21G22G27
  24587025.300   129205689.82407  24587028.620   100679772.66144
  20436491.860   107394517.76809  20436488.340    83684038.95149
  22008688.320   115656633.03409  22008685.300    90122107.37247
  22933635.520   120517092.48508  22933631.700    93909424.28247
  23045822.920   121106938.86808  23045819.360    94369142.71046
  21853452.000   114840838.27509  21853447.740    89486441.34948
  21277907.060   111816244.82109  21277906.540    87129569.46448
 15 03 03 00 54 30.0000000  0  7G04G16G18G19G21G22G27
  24567631.520   129103775.66307  24567635.040   100600359.55744
  20433490.340   107378744.76909  20433486.800    83671748.30449
  22008236.980   115654261.22309  22008233.980    90120259.22647
  22921034.480   120450873.20008  22921030.520    93857824.86447
  23059628.280   121179486.39308  23059624.640    94425673.24346
  21841067.180   114775756.15309  21841062.960    89435728.06348
  21270240.880   111775958.57609  21270240.380    87098177.59449
 15 03 03 00 55  0.0000000  0  7G04G16G18G19G21G22G27
  24548265.980   129002010.42407  24548269.500   100521062.46844
  20430584.480   107363474.52609  20430580.940    83659849.40848
  22007879.080   115652380.33109  22007876.020    90118793.59747
  22908453.420   120384758.70008  22908449.220    93806307.10047
  23073452.140   121252130.87108  23073448.400    94482279.32046
  21828751.480   114711037.00409  21828747.280    89385297.60448
  21262602.960   111735820.74409  21262602.420    87066901.36149
 15 03 03 00 55 30.0000000  0  7G04G16G18G19G21G22G27
  24528928.640   128900393.87407  24528932.160   100441881.25344
  20427774.340   107348707.09109  20427770.780    83648342.31649
  22007614.320   115650988.84709  22007611.180    90117709.33947
  22895891.960   120318747.30708  22895887.540    93754869.67347
  23087293.740   121324868.79108  23087289.900    94538958.20446
  21816504.960   114646681.39909  21816500.860    89335150.43348
  21254993.040   111695830.01909  21254992.460    87035739.76349
 15 03 03 00 56  0.0000000  0  7G04G16G18G19G21G22G27
  24509619.640   128798926.54907  24509623.040   100362816.27344
  20425059.940   107334442.97009  20425056.400    83637227.41448
  22007442.680   115650086.72609  22007439.480    90117006.40447
  22883350.020   120252838.67008  22883345.460    93703512.31947
