     2.11           OBSERVATION DATA    G                   RINEX VERSION / TYPE
SPIDER V4,0,0,3554                      2015 03 24 06:25    PGM / RUN BY / DATE 
OJGS                                                        MARKER NAME         
OJGS                                                        MARKER NUMBER       
                                                            OBSERVER / AGENCY   
496552              LEICA GRX1200+GNSS  8.20/4.007          REC # / TYPE / VERS 
10401003            LEIAR25         NONE                    ANT # / TYPE        
  5198100.9450    88691.2920  3684205.7148                  APPROX POSITION XYZ 
        0.1200        0.0000        0.0000                  ANTENNA: DELTA H/E/N
     1     1                                                WAVELENGTH FACT L1/2
     4    C1    L1    P2    L2                              # / TYPES OF OBSERV 
    30.000                                                  INTERVAL            
  2015    03    03    00    00    0.0000000     GPS         TIME OF FIRST OBS   
  2015    03    03    23    59   30.0000000     GPS         TIME OF LAST OBS    
    16                                                      LEAP SECONDS        
    30                                                      # OF SATELLITES     
   G 1   832   832   832   832                              PRN / # OF OBS      
   G 2   926   926   925   925                              PRN / # OF OBS      
   G 3   839   839   839   839                              PRN / # OF OBS      
   G 4   845   845   844   844                              PRN / # OF OBS      
   G 5   673   673   673   673                              PRN / # OF OBS      
   G 6   732   732   732   732                              PRN / # OF OBS      
   G 7   721   721   721   721                              PRN / # OF OBS      
   G 9   783   782   782   782                              PRN / # OF OBS      
   G10   784   784   784   784                              PRN / # OF OBS      
   G11   797   797   797   797                              PRN / # OF OBS      
   G12   811   811   811   811                              PRN / # OF OBS      
   G13   821   821   821   821                              PRN / # OF OBS      
   G14   933   931   931   931                              PRN / # OF OBS      
   G15   733   733   733   733                              PRN / # OF OBS      
   G16   693   693   693   693                              PRN / # OF OBS      
   G17   931   931   931   931                              PRN / # OF OBS      
   G18   939   939   938   938                              PRN / # OF OBS      
   G19   791   791   791   791                              PRN / # OF OBS      
   G20   797   797   796   796                              PRN / # OF OBS      
   G21   678   678   678   678                              PRN / # OF OBS      
   G22   804   804   804   804                              PRN / # OF OBS      
   G23   727   727   727   727                              PRN / # OF OBS      
   G24   839   835   836   835                              PRN / # OF OBS      
   G25   820   820   820   820                              PRN / # OF OBS      
   G27   832   832   831   831                              PRN / # OF OBS      
   G28   913   913   912   912                              PRN / # OF OBS      
   G29   708   708   708   708                              PRN / # OF OBS      
   G30   692   692   691   691                              PRN / # OF OBS      
   G31   763   763   763   763                              PRN / # OF OBS      
   G32   740   740   739   739                              PRN / # OF OBS      
BIT 2 OF LLI FLAGS DATA COLLECTED UNDER A/S CONDITION       COMMENT             
SNR is mapped to RINEX snr flag value [2-9]                 COMMENT             
Lx:     = 25dBHz -> 1; 26-27dBHz -> 2; 28-31dBHz -> 3       COMMENT             
       32-35dBHz -> 4; 36-38dBHz -> 5; 39-41dBHz -> 6       COMMENT             
       42-44dBHz -> 7; 45-48dBHz -> 8; >=49dBHz -> 9        COMMENT             
                                                            END OF HEADER       
 15 03 03 00 00  0.0000000  0  7G16G18G19G21G22G27G31
  21246074.800   111648899.38809  21246071.400    86999145.91848
  22524907.840   118369370.73009  22524905.240    92235959.15246
  24532855.580   128921024.42108  24532851.660   100457930.10944
  21633857.760   113686703.27008  21633854.500    88587033.61248
  23552118.860   123767412.96808  23552120.160    96442223.36046
  22323742.480   117312111.87509  22323741.160    91412058.15948
  23277341.420   122323203.10109  23277340.920    95316756.55647
 15 03 03 00 00 30.0000000  0  7G16G18G19G21G22G27G31
  21234699.240   111589120.24609  21234695.920    86952564.78948
  22515125.000   118317961.71909  22515122.440    92195900.22046
  24517760.560   128841697.37208  24517756.320   100396116.88345
  21643267.460   113736151.73208  21643264.200    88625564.88548
  23534883.900   123676845.05408  23534884.960    96371651.61146
  22312743.620   117254312.42909  22312742.300    91367019.64948
  23295619.480   122419254.05309  23295619.020    95391601.23147
 15 03 03 00 01  0.0000000  0  7G16G18G19G21G22G27G31
  21223389.220   111529685.70609  21223385.860    86906252.15248
  22505412.400   118266921.93709  22505409.920    92156128.99446
  24502687.640   128762488.67708  24502684.220   100334395.91844
  21652738.080   113785920.17308  21652734.860    88664345.48547
  23517666.820   123586371.03708  23517667.540    96301152.98946
  22301774.160   117196667.69309  22301772.760    91322101.68648
  23313925.680   122515452.95609  23313925.240    95466561.16946
 15 03 03 00 01 30.0000000  0  7G16G18G19G21G22G27G31
  21212138.580   111470563.44809  21212135.320    86860182.87548
  22495763.940   118216219.21109  22495761.520    92116620.41746
  24487630.700   128683363.74208  24487627.440   100272740.18645
  21662262.620   113835971.72708  21662259.380    88703346.68748
  23500461.580   123495959.05308  23500462.060    96230702.69446
  22290827.580   117139143.11109  22290826.100    91277277.34848
  23332252.920   122611762.44509  23332252.600    95541607.29147
 15 03 03 00 02  0.0000000  0  7G16G18G19G21G22G27G31
  21200948.660   111411760.23509  21200945.400    86814362.18748
  22486181.000   118165860.49009  22486178.520    92077379.88446
  24472590.620   128604327.38307  24472587.280   100211153.49345
  21671841.700   113886310.01409  21671838.420    88742571.32448
  23483269.580   123405616.49608  23483269.800    96160306.47846
  22279904.820   117081743.33609  22279903.280    91232550.26548
  23350601.500   122708184.08309  23350601.380    95616740.78547
 15 03 03 00 02 30.0000000  0  7G16G18G19G21G22G27G31
  21189820.640   111353282.02409  21189817.280    86768794.75248
  22476664.460   118115850.96809  22476662.060    92038411.45646
  24457567.820   128525383.19008  24457564.340   100149638.65245
  21681475.660   113936936.59709  21681472.220    88782020.61447
  23466092.020   123315349.70408  23466091.980    96089969.29346
  22269006.480   117024471.94109  22269004.800    91187923.21748
  23368971.480   122804718.33008  23368971.460    95691962.03147
 15 03 03 00 03  0.0000000  0  7G16G18G19G21G22G27G31
  21178753.920   111295125.97809  21178750.480    86723478.34948
  22467214.040   118066188.75009  22467211.560    91999713.66246
  24442561.800   128446526.86108  24442558.320   100088192.17845
  21691163.320   113987845.27608  21691159.740    88821689.71348
  23448928.500   123225156.99408  23448928.340    96019689.82746
  22258131.720   116967324.57109  22258129.920    91143392.80648
  23387361.640   122901358.13009  23387361.620    95767265.52347
 15 03 03 00 03 30.0000000  0  7G16G18G19G21G22G27G31
  21167748.600   111237292.91009  21167745.240    86678413.63048
  22457829.860   118016874.61909  22457827.320    91961287.09446
  24427572.260   128367756.64308  24427568.620   100026812.89645
  21700903.860   114039031.81508  21700900.180    88861575.33047
  23431779.400   123135039.54908  23431778.920    95949468.97146
  22247280.160   116910299.71909  22247278.420    91098957.86948
  23405771.060   122998099.22108  23405771.060    95842647.94846
 15 03 03 00 04  0.0000000  0  7G16G18G19G21G22G27G31
  21156806.720   111179792.81609  21156803.400    86633608.36148
  22448513.760   117967918.15509  22448511.220    91923139.22646
  24412600.560   128289080.32308  24412596.980    99965506.74245
  21710698.520   114090502.75408  21710694.780    88901682.56347
  23414646.560   123045007.75708  23414645.840    95879314.86246
  22236453.360   116853405.00609  22236451.820    91054624.35148
  23424200.620   123094945.97209  23424200.600    95918112.69746
 15 03 03 00 04 30.0000000  0  7G16G18G19G21G22G27G31
  21145927.080   111122619.92509  21145923.760    86589058.06448
  22439264.660   117919313.74609  22439262.200    91885265.68946
  24397645.440   128210490.29807  24397642.020    99904267.80246
  21720545.420   114142248.42608  21720541.640    88942003.86447
  23397529.120   122955056.62908  23397528.120    95809223.57246
  22225649.880   116796632.68209  22225648.380    91010386.18948
  23442648.220   123191887.79808  23442648.320    95993651.53246
 15 03 03 00 05  0.0000000  0  7G16G18G19G21G22G27G31
  21135111.740   111065784.54109  21135108.360    86544770.75448
  22430084.580   117871071.94709  22430082.180    91847674.71446
  24382708.120   128131994.63708  24382705.000    99843102.46546
  21730445.740   114194274.83808  21730441.820    88982543.93747
  23380429.060   122865196.95908  23380427.860    95739203.55046
  22214871.280   116739990.95109  22214869.780    90966249.79848
  23461114.860   123288929.94708  23461115.080    96069268.53746
 15 03 03 00 05 30.0000000  0  7G16G18G19G21G22G27G31
  21124359.980   111009283.36909  21124356.440    86500743.85648
  22420972.820   117823189.33609  22420970.460    91810363.61746
  24367787.780   128053588.32808  24367784.760    99782006.73645
  21740398.220   114246575.88608  21740394.280    89023297.99047
  23363345.960   122775426.23209  23363344.580    95669252.81246
  22204116.500   116683474.58709  22204115.120    90922211.08748
  23479599.100   123386064.40108  23479599.480    96144957.45047
 15 03 03 00 06  0.0000000  0  7G16G18G19G21G22G27G31
  21113672.140   110953118.18809  21113668.500    86456978.78748
  22411929.660   117775667.02309  22411927.180    91773333.27247
  24352884.400   127975270.52708  24352881.380    99720979.95045
  21750402.380   114299148.27308  21750398.420    89064263.48448
  23346280.160   122685746.44008  23346278.560    95599372.91847
  22193385.500   116627083.02209  22193384.240    90878269.63248
  23498100.220   123483287.55708  23498100.680    96220715.49547
 15 03 03 00 06 30.0000000  0  7G16G18G19G21G22G27G31
  21103049.280   110897294.75609  21103045.720    86413480.00848
  22402956.240   117728511.34809  22402953.600    91736588.61946
  24337998.460   127897044.79408  24337995.180    99660024.90545
  21760458.480   114351993.52108  21760454.520    89105441.59847
  23329232.960   122596164.29908  23329231.040    95529569.09346
  22182678.900   116570819.88209  22182677.820    90834428.22948
  23516618.360   123580600.03308  23516618.880    96296543.12547
 15 03 03 00 07  0.0000000  0  7G16G18G19G21G22G27G31
  21092490.580   110841808.26809  21092487.000    86370243.78648
  22394051.560   117681717.10709  22394048.900    91700125.60747
  24323128.880   127818904.31408  24323125.040    99599136.26245
  21770565.040   114405103.98108  21770561.140    89146826.37448
  23312203.460   122506675.37008  23312201.400    95459837.89247
  22171995.400   116514678.18409  22171994.400    90790681.48148
  23535151.620   123677991.92408  23535152.200    96372432.65147
 15 03 03 00 07 30.0000000  0  7G16G18G19G21G22G27G31
  21081997.780   110786667.95109  21081994.200    86327277.30748
  22385217.440   117635293.44309  22385214.740    91663951.35646
  24308276.880   127740856.67408  24308272.760    99538319.95944
  21780723.020   114458484.75808  21780719.180    89188421.79147
  23295193.660   122417289.87109  23295191.440    95390187.26946
  22161336.500   116458665.73509  22161335.640    90747035.43248
  23553700.920   123775468.21508  23553701.540    96448387.93547
 15 03 03 00 08  0.0000000  0  7G16G18G19G21G22G27G31
  21071571.360   110731876.71309  21071567.780    86284582.83148
  22376454.520   117589243.79309  22376451.720    91628068.53246
  24293442.520   127662902.53508  24293438.540    99477576.58445
  21790932.120   114512133.95608  21790928.280    89230226.35747
  23278204.240   122328011.32909  23278201.980    95320619.98046
  22150702.320   116402782.95509  22150701.440    90703490.42348
  23572265.800   123873026.35408  23572266.480    96524406.99346
 15 03 03 00 08 30.0000000  0  7G16G18G19G21G22G27G31
  21061210.920   110677432.11509  21061207.300    86242158.47848
  22367762.160   117543565.14409  22367759.300    91592474.81046
  24278625.100   127585037.13008  24278620.980    99416902.29744
  21801191.220   114566046.04008  21801187.400    89272235.77547
  23261234.800   122238837.91009  23261232.480    95251134.59146
  22140092.000   116347025.35009  22140091.140    90660042.95548
  23590844.820   123970658.74908  23590845.580    96600483.90846
 15 03 03 00 09  0.0000000  0  7G16G18G19G21G22G27G31
  21050918.040   110623342.38909  21050914.400    86200010.63848
  22359141.900   117498265.45809  22359138.960    91557176.37346
  24263825.560   127507266.84808  24263821.760    99356302.16445
  21811501.080   114620224.71008  21811497.360    89314452.92647
  23244286.980   122149778.18909  23244284.620    95181737.79546
  22129506.620   116291399.06809  22129505.920    90616697.81448
  23609438.640   124068368.83908  23609439.460    96676621.36046
 15 03 03 00 09 30.0000000  0  7G16G18G19G21G22G27G31
  21040690.580   110569596.43309  21040686.820    86158130.67348
  22350591.740   117453333.95109  22350588.740    91522164.82947
  24249041.940   127429578.71608  24249038.300    99295766.02745
  21821858.840   114674655.41308  21821855.280    89356866.45347
  23227358.840   122060821.87609  23227356.380    95112421.54246
  22118943.680   116235891.06609  22118943.080    90573444.84648
  23628044.160   124166140.38208  23628045.040    96752806.71046
 15 03 03 00 10  0.0000000  0  7G16G18G19G21G22G27G31
  21030531.600   110516210.71909  21030527.860    86116531.42248
  22342114.720   117408786.71109  22342111.660    91487452.70846
  24234276.500   127351986.80108  24234273.280    99235304.86845
  21832266.800   114729350.03308  21832263.360    89399485.62947
  23210453.720   121971986.22909  23210451.120    95043199.31047
  22108405.920   116180515.61209  22108405.480    90530295.14648
  23646663.500   124263984.62808  23646664.440    96829048.68746
 15 03 03 00 10 30.0000000  0  7G16G18G19G21G22G27G31
  21020439.900   110463178.60409  21020436.160    86075207.70448
  22333709.500   117364617.13109  22333706.360    91453034.89346
  24219527.860   127274482.29308  24219524.700    99174911.80246
  21842723.220   114784298.64108  21842719.760    89442302.73747
  23193570.380   121883265.07609  23193567.740    94974066.28847
  22097891.720   116125263.99309  22097891.460    90487241.96348
  23665294.500   124361890.16208  23665295.500    96905338.42646
 15 03 03 00 11  0.0000000  0  7G16G18G19G21G22G27G31
  21010416.620   110410506.06209  21010412.880    86034164.16748
  22325377.160   117320830.77509  22325374.120    91418915.67146
  24204796.680   127197069.12008  24204793.680    99114589.91045
  21853228.300   114839502.94908  21853224.860    89485319.07647
  23176710.060   121794664.97109  23176707.260    94905027.57846
  22087401.880   116070140.28509  22087401.760    90444288.43048
  23683937.360   124459858.00908  23683938.400    96981676.71446
 15 03 03 00 11 30.0000000  0  7G16G18G19G21G22G27G31
  21000462.320   110358195.65509  21000458.580    85993402.82548
  22317118.180   117277429.77909  22317115.180    91385096.74346
  24190082.900   127119747.97808  24190079.820    99054339.75244
  21863781.840   114894961.95508  21863778.420    89528533.89347
  23159873.420   121706189.24909  23159870.500    94836085.77946
  22076936.500   116015145.08309  22076936.560    90401435.04848
  23702591.700   124557885.94008  23702592.800    97058061.81546
 15 03 03 00 12  0.0000000  0  7G16G18G19G21G22G27G31
  20990577.000   110306247.90309  20990573.300    85952924.05948
  22308932.720   117234415.20909  22308929.820    91351578.91546
  24175386.380   127042517.32308  24175383.220    98994160.05245
  21874383.060   114950671.48008  21874379.660    89571943.91447
  23143060.660   121617839.05209  23143057.700    94767241.77147
  22066495.300   115960276.88409  22066495.560    90358680.61848
  23721256.660   124655969.51908  23721257.820    97134490.26946
 15 03 03 00 12 30.0000000  0  7G16G18G19G21G22G27G31
  20980761.100   110254664.89209  20980757.320    85912729.51248
  22300821.160   117191789.05709  22300818.320    91318363.75646
  24160707.000   126965377.09408  24160703.780    98934050.86445
  21885031.720   115006630.32108  21885028.320    89615548.19847
  23126272.340   121529617.26409  23126269.380    94698497.80746
  22056078.220   115905535.69509  22056078.620    90316025.16248
  23739931.600   124754105.48508  23739932.780    97210959.53446
 15 03 03 00 13  0.0000000  0  7G16G18G19G21G22G27G31
  20971015.220   110203449.86609  20971011.400    85872821.70948
  22292784.080   117149554.08709  22292781.280    91285453.41946
  24146045.060   126888328.40007  24146041.780    98874012.96645
  21895727.720   115062837.75209  21895724.180    89659346.20247
  23109509.200   121441527.79109  23109506.200    94629856.95246
  22045685.560   115850922.65709  22045686.060    90273469.56548
  23758616.140   124852292.21008  23758617.400    97287468.34946
 15 03 03 00 13 30.0000000  0  7G16G18G19G21G22G27G31
  20961339.540   110152603.84809  20961335.640    85833201.44448
  22284821.600   117107711.03809  22284818.800    91252848.48246
  24131400.280   126811370.37908  24131397.080    98814045.76945
  21906470.420   115119290.77508  21906466.780    89703335.57647
  23092771.600   121353572.40709  23092768.500    94561320.56147
  22035317.280   115796437.03609  22035317.840    90231013.24948
  23777309.680   124950526.09908  23777310.920    97364013.90746
 15 03 03 00 14  0.0000000  0  7G16G18G19G21G22G27G31
  20951734.760   110102130.62209  20951730.940    85793871.66048
  22276934.400   117066263.63609  22276931.660    91220551.83246
  24116773.020   126734504.55708  24116770.160    98754150.36645
  21917259.780   115175989.25208  21917256.160    89747516.20647
  23076060.300   121265755.40909  23076057.300    94492891.99047
  22024973.620   115742080.55409  22024974.180    90188657.55748
  23796011.940   125048805.88808  23796013.300    97440595.20646
 15 03 03 00 14 30.0000000  0  7G16G18G19G21G22G27G31
  20942200.600   110052028.42009  20942196.840    85754830.98748
  22269122.060   117025209.62509  22269119.340    91188561.70846
  24102162.780   126657727.30908  24102159.900    98694323.99245
  21928094.740   115232927.57708  21928091.120    89791883.73847
  23059375.140   121178075.59409  23059372.160    94424570.31047
  22014653.840   115687849.36109  22014654.300    90146399.48848
  23814721.640   125147124.61208  23814723.080    97517206.84646
 15 03 03 00 15  0.0000000  0  7G16G18G19G21G22G27G31
  20932738.400   110002304.15309  20932734.600    85716084.80648
  22261385.900   116984555.84009  22261383.180    91156883.46046
  24087570.300   126581043.65908  24087567.440    98634570.57045
  21938975.880   115290108.60908  21938972.300    89836440.39247
  23042717.640   121090540.95509  23042714.680    94356361.75247
  22004358.840   115633748.53909  22004359.200    90104243.02748
  23833439.140   125245484.42408  23833440.680    97593850.49846
 15 03 03 00 15 30.0000000  0  7G16G18G19G21G22G27G31
  20923347.300   109952953.81209  20923343.520    85677630.01848
  22253725.120   116944298.04309  22253722.300    91125513.77746
  24072994.540   126504447.54908  24072991.840    98574885.33745
  21949901.780   115347524.78708  21949898.180    89881180.28047
  23026087.060   121003147.76808  23026084.040    94288263.40547
  21994087.540   115579772.15709  21994087.800    90062183.52748
  23852162.780   125343876.35308  23852164.380    97670519.16346
 15 03 03 00 16  0.0000000  0  7G16G18G19G21G22G27G31
  20914028.160   109903981.68509  20914024.440    85639469.92348
  22246140.460   116904440.38309  22246137.580    91094455.88346
  24058435.940   126427940.99408  24058433.180    98515269.92345
  21960872.500   115405176.27608  21960868.940    89926103.51847
  23009484.460   120915901.58608  23009481.360    94220279.59847
  21983840.360   115525922.55009  21983840.620    90020222.81648
  23870892.460   125442299.99108  23870894.140    97747212.53046
 15 03 03 00 16 30.0000000  0  7G16G18G19G21G22G27G31
  20904782.300   109855394.56009  20904778.620    85601609.82848
  22238633.240   116864989.61809  22238630.280    91063715.05846
  24043895.260   126351528.71608  24043892.180    98455727.94045
  21971888.580   115463066.32508  21971884.860    89971212.65147
  22992911.180   120828809.62308  22992908.020    94152415.95247
  21973618.300   115472204.50809  21973618.300    89978364.61648
  23889628.540   125540757.30008  23889630.300    97823932.11646
 15 03 03 00 17  0.0000000  0  7G16G18G19G21G22G27G31
  20895609.380   109807190.59509  20895605.740    85564048.29948
  22231202.900   116825943.06509  22231199.820    91033289.19346
  24029371.800   126275206.96608  24029368.300    98396256.49445
  21982948.840   115521188.57508  21982945.020    90016502.71447
  22976366.960   120741870.41108  22976363.840    94084671.32647
  21963420.600   115418614.15109  21963420.320    89936605.90848
  23908369.680   125639241.24208  23908371.600    97900672.44846
 15 03 03 00 17 30.0000000  0  7G16G18G19G21G22G27G31
  20886509.720   109759371.68509  20886506.140    85526786.82148
  22223849.900   116787302.80009  22223846.800    91003179.91446
  24014865.600   126198975.78808  24014862.080    98336855.63045
  21994052.960   115579541.44508  21994049.200    90061972.48347
  22959852.420   120655086.93709  22959849.200    94017048.04547
  21953247.300   115365151.71909  21953246.720    89894946.89348
  23927115.400   125737749.20708  23927117.460    97977431.51146
 15 03 03 00 18  0.0000000  0  7G16G18G19G21G22G27G31
  20877483.940   109711941.24309  20877480.440    85489828.04148
  22216574.740   116749071.82809  22216571.660    90973389.57746
  24000376.780   126122836.39808  24000373.020    98277526.28745
  22005200.960   115638124.35208  22005197.060    90107621.51847
  22943368.280   120568463.12908  22943365.000    93949549.17847
  21943098.520   115311818.50609  21943097.680    89853388.56548
  23945865.420   125836279.49808  23945867.560    98054207.95146
 15 03 03 00 18 30.0000000  0  7G16G18G19G21G22G27G31
  20868532.420   109664901.03509  20868528.960    85453173.32948
  22209377.720   116711251.62209  22209374.700    90943919.31147
  23985905.360   126046788.55708  23985901.500    98218268.25645
  22016392.320   115696935.38308  22016388.400    90153448.29547
  22926914.960   120482001.52108  22926911.680    93882176.68947
  21932974.280   115258614.40409  21932973.200    89811930.83648
  23964619.120   125934829.07308  23964621.440    98130999.39446
 15 03 03 00 19  0.0000000  0  7G16G18G19G21G22G27G31
  20859656.260   109618256.79409  20859652.780    85416827.17348
  22202259.940   116673847.78209  22202256.960    90914773.48847
  23971451.960   125970836.15808  23971448.500    98159084.65045
  22027627.180   115755975.29408  22027623.460    90199453.42047
  22910493.780   120395708.77308  22910490.480    93814935.76747
  21922875.300   115205543.29809  21922874.100    89770576.74448
  23983376.600   126033398.68208  23983378.960    98207806.45646
 15 03 03 00 19 30.0000000  0  7G16G18G19G21G22G27G31
  20850854.840   109572005.27909  20850851.420    85380787.04048
  22195220.640   116636856.27609  22195217.600    90885948.95947
  23957015.660   125894973.74108  23957012.120    98099971.12345
  22038904.600   115815239.12708  22038901.040    90245633.02847
  22894104.240   120309582.22508  22894101.000    93747824.35647
  21912800.600   115152600.03809  21912799.320    89729322.27848
  24002136.340   126131980.30208  24002138.760    98284622.86446
 15 03 03 00 20  0.0000000  0  7G16G18G19G21G22G27G31
  20842128.540   109526148.65009  20842125.180    85345054.59648
  22188260.260   116600279.33809  22188257.220    90857447.46247
  23942596.560   125819201.62408  23942592.860    98040927.95645
  22050224.220   115874724.13908  22050220.680    90291984.98247
  22877746.860   120223624.76208  22877743.720    93680844.67647
  21902750.240   115099784.94209  21902748.940    89688167.66748
  24020897.860   126230571.21308  24020900.400    98361446.49646
 15 03 03 00 20 30.0000000  0  7G16G18G19G21G22G27G31
  20833477.260   109480686.00309  20833473.920    85309629.15948
  22181378.500   116564115.51109  22181375.520    90829267.88347
  23928194.260   125743517.28908  23928190.320    97981953.18745
  22061585.060   115934425.31008  22061581.400    90338505.37747
  22861421.680   120137836.42308  22861418.580    93613996.78347
  21892723.660   115047095.32409  21892722.400    89647110.83748
  24039660.060   126329165.73408  24039662.720    98438272.94546
 15 03 03 00 21  0.0000000  0  7G16G18G19G21G22G27G31
  20824902.740   109435626.67209  20824899.460    85274517.98848
  22174577.140   116528373.98109  22174574.140    90801417.34947
  23913810.000   125667927.85808  23913806.160    97923052.35245
  22072988.180   115994348.33208  22072984.400    90385198.64347
  22845130.620   120052227.60708  22845127.620    93547288.76947
  21882722.320   114994538.81009  21882721.200    89606157.72648
  24058423.940   126427768.78108  24058426.620    98515106.01546
 15 03 03 00 21 30.0000000  0  7G16G18G19G21G22G27G31
  20816404.860   109390970.08509  20816401.620    85239720.64948
  22167855.940   116493053.96809  22167852.920    90773895.28947
  23899443.300   125592430.52608  23899439.440    97864223.30945
  22084432.660   116054489.11508  22084428.960    90432061.58947
  22828873.660   119966797.85908  22828870.720    93480720.28147
  21872745.800   114942112.78509  21872744.840    89565306.29448
  24077188.480   126526374.82908  24077191.120    98591941.42246
 15 03 03 00 22  0.0000000  0  7G16G18G19G21G22G27G31
  20807983.660   109346716.45909  20807980.520    85205237.30448
  22161214.840   116458155.02209  22161211.840    90746701.33146
  23885093.960   125517023.90208  23885089.940    97805464.94445
  22095917.760   116114843.89908  22095914.160    90479091.27847
  22812650.980   119881548.24308  22812648.140    93414292.15747
  21862793.820   114889815.59409  21862792.980    89524555.24748
  24095952.600   126624979.04508  24095955.320    98668775.39146
 15 03 03 00 22 30.0000000  0  7G16G18G19G21G22G27G31
  20799640.000   109302870.39609  20799636.900    85171071.53848
  22154654.760   116423681.65609  22154651.740    90719838.97947
  23870762.240   125441710.41508  23870758.420    97746779.15746
  22107443.680   116175412.94708  22107440.080    90526287.94147
  22796463.600   119796484.23008  22796460.900    93348008.64147
  21852866.940   114837650.10209  21852866.180    89483906.83048
  24114716.360   126723581.37208  24114719.200    98745607.86746
 15 03 03 00 23  0.0000000  0  7G16G18G19G21G22G27G31
  20791374.140   109259433.04509  20791371.000    85137224.25848
  22148175.800   116389634.66509  22148172.740    90693308.88947
  23856448.240   125366489.59808  23856444.720    97688165.57946
  22119009.940   116236194.03008  22119006.400    90573649.81947
  22780311.980   119711607.90608  22780309.380    93281871.38147
  21842965.020   114785615.75009  21842964.280    89443360.59248
  24133479.060   126822178.23708  24133482.020    98822436.07946
 15 03 03 00 23 30.0000000  0  7G16G18G19G21G22G27G31
  20783186.180   109216405.18809  20783183.060    85103696.05648
  22141778.040   116356014.43209  22141775.020    90667111.32047
  23842151.580   125291360.09808  23842148.140    97629623.15646
  22130616.100   116297184.61808  22130612.480    90621174.95347
  22764196.420   119626920.72108  22764193.840    93215881.49147
  21833087.820   114733711.41009  21833087.180    89402915.65548
  24152239.960   126920765.63208  24152243.060    98899256.88146
 15 03 03 00 24  0.0000000  0  7G16G18G19G21G22G27G31
  20775076.700   109173789.64009  20775073.580    85070489.13648
  22135461.880   116322822.99509  22135458.900    90641247.89147
  23827872.400   125216322.92108  23827869.180    97571152.69245
  22142261.940   116358383.95708  22142258.240    90668862.75147
  22748117.620   119542426.44808  22748114.980    93150041.91947
  21823235.620   114681938.34109  21823235.020    89362573.02048
  24170998.820   127019341.96008  24171002.020    98976069.06445
 15 03 03 00 24 30.0000000  0  7G16G18G19G21G22G27G31
  20767046.500   109131590.52309  20767043.340    85037606.70348
  22129228.100   116290064.27609  22129225.120    90615721.63347
  23813611.160   125141379.99908  23813608.000    97512755.66145
  22153947.340   116419791.45808  22153943.660    90716712.74747
  22732076.380   119458129.34708  22732073.700    93084355.98147
  21813408.820   114630298.61309  21813408.280    89322334.27348
  24189755.400   127117905.96508  24189758.660    99052871.63646
 15 03 03 00 25  0.0000000  0  7G16G18G19G21G22G27G31
  20759095.200   109089806.00209  20759092.020    85005047.34648
  22123076.320   116257736.47209  22123073.300    90590531.16747
  23799367.260   125066527.80408  23799363.980    97454429.32745
  22165671.380   116481401.84608  22165667.740    90764720.83147
  22716072.580   119374029.17508  22716069.840    93018823.50247
  21803606.800   114578788.80809  21803606.280    89282196.77948
  24208508.460   127216451.72408  24208511.860    99129659.96246
 15 03 03 00 25 30.0000000  0  7G16G18G19G21G22G27G31
  20751223.200   109048438.28409  20751220.040    84972812.76048
  22117006.720   116225840.73509  22117003.720    90565677.35847
  23785140.680   124991766.74308  23785137.280    97396174.00346
  22177433.940   116543214.26708  22177430.240    90812886.36147
  22700106.820   119290128.65808  22700103.960    92953446.58547
  21793829.620   114527409.39009  21793829.120    89242160.87248
  24227257.600   127314976.66908  24227261.080    99206432.06446
 15 03 03 00 26  0.0000000  0  7G16G18G19G21G22G27G31
  20743430.920   109007489.42709  20743427.760    84940904.55448
  22111019.860   116194379.46509  22111016.800    90541162.09947
  23770931.660   124917097.25008  23770927.960    97337990.00145
  22189234.520   116605226.59408  22189230.860    90861207.65747
  22684179.700   119206431.14108  22684176.780    92888227.85347
  21784077.440   114476161.11509  21784076.960    89202227.15948
  24246002.320   127413478.47208  24246005.960    99283186.11546
 15 03 03 00 26 30.0000000  0  7G16G18G19G21G22G27G31
  20735719.340   108966964.51409  20735716.140    84909326.70648
  22105116.380   116163356.47709  22105113.280    90516988.37047
  23756740.620   124842522.28708  23756736.460    97279879.68845
  22201073.300   116667439.68708  22201069.520    90909685.40047
  22668292.240   119122941.92808  22668289.200    92823171.43547
  21774350.780   114425046.78809  21774350.300    89162397.83448
  24264742.580   127511956.63408  24264746.380    99359921.74045
 15 03 03 00 27  0.0000000  0  7G16G18G19G21G22G27G31
  20728088.860   108926865.60009  20728085.580    84878080.79948
  22099296.680   116132773.62809  22099293.500    90493157.60047
  23742567.320   124768041.51908  23742563.140    97221842.74845
  22212949.980   116729852.23508  22212946.160    90958318.54947
  22652444.900   119039663.65508  22652441.740    92758279.37547
  21764649.680   114374066.72209  21764649.180    89122673.12648
  24283478.020   127610409.13208  24283481.840    99436637.35846
 15 03 03 00 27 30.0000000  0  7G16G18G19G21G22G27G31
  20720539.200   108887191.65909  20720535.860    84847166.03848
  22093560.500   116102629.83109  22093557.300    90469668.94547
  23728411.420   124693652.76308  23728407.300    97163877.52346
  22224863.900   116792460.30208  22224859.980    91007104.06447
  22636637.820   118956596.71008  22636634.500    92693551.98247
  21754973.680   114323218.50309  21754973.120    89083051.15748
  24302207.500   127708830.50208  24302211.400    99513328.70445
 15 03 03 00 28  0.0000000  0  7G16G18G19G21G22G27G31
  20713071.180   108847946.81509  20713067.800    84816585.64448
  22087908.500   116072928.52209  22087905.360    90446525.08747
  23714273.240   124619358.08408  23714269.320    97105985.60345
  22236815.040   116855263.75408  22236811.080    91056041.81847
  22620871.860   118873746.03309  22620868.440    92628993.10747
  21745323.240   114272504.59609  21745322.580    89043533.83148
  24320930.920   127807220.04808  24320934.980    99589995.21746
 15 03 03 00 28 30.0000000  0  7G16G18G19G21G22G27G31
  20705684.700   108809130.69309  20705681.320    84786339.31748
  22082340.480   116043668.67209  22082337.400    90423725.23047
  23700152.680   124545155.27508  23700149.480    97048165.29646
  22248802.380   116918257.90008  22248798.640    91105128.15846
  22605147.100   118791111.80409  22605143.600    92564602.89547
  21735697.900   114221922.79109  21735697.160    89004119.45448
  24339647.340   127905572.74208  24339651.660    99666633.04446
 15 03 03 00 29  0.0000000  0  7G16G18G19G21G22G27G31
  20698380.480   108770746.78109  20698377.100    84756429.77148
  22076857.060   116014853.55709  22076854.060    90401271.91647
  23686050.120   124471046.14508  23686046.960    96990417.96346
  22260826.040   116981443.33808  22260822.460    91154363.56247
  22589464.360   118708698.46509  22589460.740    92500384.79947
  21726098.080   114171475.10209  21726097.320    88964809.58348
  24358356.520   128003887.46108  24358360.940    99743241.23645
 15 03 03 00 29 30.0000000  0  7G16G18G19G21G22G27G31
  20691158.280   108732793.99509  20691154.920    84726856.17648
  22071458.000   115986481.44709  22071455.000    90379163.79947
  23671964.960   124397027.83808  23671961.560    96932741.41246
  22272885.240   117044815.25008  22272881.740    91203744.27946
  22573823.560   118626505.72209  22573819.840    92436338.59947
  21716523.200   114121158.77109  21716522.440    88925602.07248
  24377057.320   128102158.22508  24377061.880    99819815.18045
 15 03 03 00 30  0.0000000  0  7G16G18G19G21G22G27G31
  20684018.800   108695275.69109  20684015.420    84697621.13148
  22066143.760   115958555.22709  22066140.760    90357403.12647
  23657897.380   124323101.85408  23657893.980    96875136.78646
  22284979.880   117108373.27808  22284976.440    91253270.00246
  22558225.580   118544538.11209  22558221.840    92372467.82148
  21706973.660   114070975.62609  21706972.920    88886498.33748
  24395749.680   128200384.61708  24395754.340    99896354.53245
 15 03 03 00 30 30.0000000  0  7G16G18G19G21G22G27G31
  20676962.760   108658195.90009  20676959.380    84668727.78648
  22060915.060   115931078.60409  22060912.100    90335992.79547
  23643847.840   124249270.26108  23643844.220    96817605.71146
  22297110.160   117172118.43208  22297106.720    91302941.54747
  22542671.400   118462800.53609  22542667.620    92308776.30147
  21697449.940   114020928.10809  21697449.240    88847500.29248
  24414433.440   128298565.81708  24414438.380    99972858.66245
 15 03 03 00 31  0.0000000  0  7G16G18G19G21G22G27G31
  20669990.260   108621555.06809  20669986.820    84640176.48448
  22055771.840   115904051.08109  22055768.860    90314932.39947
  23629815.860   124175531.58508  23629812.060    96760147.05246
  22309275.260   117236046.52708  22309271.840    91352755.64547
  22527161.140   118381293.93209  22527157.320    92245264.74448
  21687951.800   113971014.78009  21687951.100    88808606.80048
  24433107.780   128396697.49508  24433112.960   100049324.19946
 15 03 03 00 31 30.0000000  0  7G16G18G19G21G22G27G31
  20663101.860   108585356.22409  20663098.440    84611969.59948
  22050714.640   115877475.41609  22050711.620    90294224.12547
  23615801.800   124101887.49408  23615798.060    96702762.09946
  22321475.180   117300157.43208  22321471.700    91402712.19447
  22511695.560   118300022.12309  22511691.700    92181936.15647
  21678479.480   113921237.31309  21678478.720    88769819.18448
  24451772.400   128494778.20008  24451777.740   100125750.00945
 15 03 03 00 32  0.0000000  0  7G16G18G19G21G22G27G31
  20656297.360   108549598.50909  20656294.020    84584106.44448
  22045743.220   115851350.56209  22045740.260    90273867.11447
  23601805.260   124028335.50308  23601801.600    96645448.89046
  22333709.180   117364447.17008  22333705.680    91452808.09447
  22496274.820   118218985.68009  22496270.880    92118790.95147
  21669032.520   113871593.55209  21669031.760    88731135.74848
  24470426.420   128592803.13808  24470432.020   100202132.35745
 15 03 03 00 32 30.0000000  0  7G16G18G19G21G22G27G31
  20649577.620   108514286.18409  20649574.300    84556590.35348
  22040858.260   115825679.84509  22040855.300    90253863.97447
  23587826.620   123954877.68008  23587823.200    96588209.06546
  22345977.240   117428915.78308  22345973.680    91503043.37047
  22480899.760   118138189.53609  22480895.760    92055832.99647
  21659611.380   113822085.94209  21659610.700    88692558.42048
  24489069.660   128690771.42108  24489075.460   100278470.55445
 15 03 03 00 33  0.0000000  0  7G16G18G19G21G22G27G31
  20642942.660   108479419.55209  20642939.340    84529421.54848
  22036059.760   115800463.39409  22036056.840    90234214.82547
  23573865.740   123881512.86008  23573862.400    96531041.72046
  22358278.740   117493560.18608  22358275.060    91553415.63747
  22465570.580   118057634.74809  22465566.580    91993063.11548
  21650215.980   113772713.40709  21650215.320    88654086.33448
  24507701.360   128788679.02008  24507707.240   100354761.46146
 15 03 03 00 33 30.0000000  0  7G16G18G19G21G22G27G31
  20636393.200   108445002.03309  20636389.880    84502602.69548
  22031348.200   115775703.76109  22031345.240    90214921.62247
  23559922.940   123808242.73408  23559919.420    96473948.16246
  22370613.700   117558380.57608  22370609.900    91603925.02347
  22450288.220   117977325.96909  22450284.180    91930484.92648
  21640846.660   113723477.77909  21640845.980    88615720.92148
  24526321.380   128886525.15508  24526327.420   100431004.46845
 15 03 03 00 34  0.0000000  0  7G16G18G19G21G22G27G31
  20629929.140   108411033.25009  20629925.860    84476133.52348
  22026723.400   115751400.06509  22026720.360    90195983.69847
  23545997.840   123735065.77108  23545994.020    96416927.19146
  22382981.420   117623373.01008  22382977.480    91654568.48547
  22435052.740   117897263.32509  22435048.660    91868098.51847
  21631502.980   113674377.12109  21631502.280    88577460.68548
  24544928.700   128984304.69908  24544935.020   100507195.57945
 15 03 03 00 34 30.0000000  0  7G16G18G19G21G22G27G31
  20623551.700   108377519.51909  20623548.420    84450018.92848
  22022186.460   115727558.20909  22022183.400    90177405.64947
  23532091.060   123661985.82408  23532087.060    96359981.83346
  22395382.360   117688540.34708  22395378.320    91705348.22647
  22419865.620   117817454.55209  22419861.460    91805909.94447
  21622185.980   113625416.51009  21622185.240    88539309.57648
  24563523.800   129082020.01608  24563530.360   100583336.63345
 15 03 03 00 35  0.0000000  0  7G16G18G19G21G22G27G31
  20617260.040   108344456.57209  20617256.740    84424255.59548
  22017736.420   115704173.19809  22017733.360    90159183.58347
  23518201.740   123588997.12608  23518197.460    96303107.54546
  22407815.040   117753874.60608  22407811.060    91756258.03046
  22404726.080   117737895.84009  22404721.860    91743916.20848
  21612894.520   113576590.11309  21612893.760    88501263.04348
  24582105.080   129179662.31608  24582111.840   100659420.77645
 15 03 03 00 35 30.0000000  0  7G16G18G19G21G22G27G31
  20611054.840   108311847.90309  20611051.460    84398846.24848
  22013373.920   115681248.26109  22013370.900    90141320.02047
  23504330.320   123516101.99008  23504326.360    96246306.20046
  22420279.540   117819376.13508  22420275.560    91807298.18646
  22389634.960   117658591.76609  22389630.740    91682120.90548
  21603629.000   113527900.04909  21603628.300    88463322.75448
  24600672.300   129277230.62608  24600679.220   100735447.28146
 15 03 03 00 36  0.0000000  0  7G16G18G19G21G22G27G31
  20604936.800   108279696.99909  20604933.320    84373793.59448
  22009099.480   115658786.03209  22009096.500    90123817.00547
  23490477.100   123443302.19708  23490473.120    96189579.11746
  22432775.920   117885044.96808  22432771.940    91858468.70446
  22374593.240   117579547.12309  22374588.960    91620527.73448
  21594389.900   113479348.50609  21594389.180    88425490.39548
  24619225.280   129374724.23808  24619232.380   100811415.55245
 15 03 03 00 36 30.0000000  0  7G16G18G19G21G22G27G31
  20598905.820   108248003.79609  20598902.300    84349097.59448
  22004912.960   115636785.75309  22004910.000    90106673.94947
  23476641.720   123370595.91008  23476637.660    96132924.91246
  22445303.440   117950877.41708  22445299.460    91909766.70646
  22359601.020   117500762.48609  22359596.740    91559137.17148
  21585176.880   113430933.88509  21585176.180    88387764.72948
  24637763.220   129472138.62208  24637770.340   100887322.09445
 15 03 03 00 37  0.0000000  0  7G16G18G19G21G22G27G31
  20592962.980   108216773.70109  20592959.400    84324762.45948
  22000815.300   115615252.48609  22000812.380    90089894.80648
  23462824.680   123297986.00508  23462820.460    96076345.81547
  22457862.340   118016874.72408  22457858.400    91961193.17546
  22344659.420   117422243.96609  22344655.080    91497953.97848
  21575990.680   113382659.95009  21575990.020    88350148.69148
  24656286.260   129569474.74408  24656293.580   100963167.64345
 15 03 03 00 37 30.0000000  0  7G16G18G19G21G22G27G31
  20587108.320   108186007.11309  20587104.720    84300788.49248
  21996806.440   115594185.89709  21996803.500    90073479.30347
  23449025.600   123225472.17208  23449021.580    96019841.60246
  22470452.200   118083034.88808  22470448.200    92012746.55346
  22329768.720   117343993.11109  22329764.360    91436979.35048
  21566831.200   113334525.99809  21566830.520    88312641.72848
  24674793.580   129666728.47408  24674801.140   101038949.01845
 15 03 03 00 38  0.0000000  0  7G16G18G19G21G22G27G31
  20581342.140   108155705.44409  20581338.520    84277176.80648
  21992886.520   115573586.74909  21992883.600    90057428.03147
  23435244.620   123153054.18708  23435240.800    95963412.06246
  22483072.600   118149355.65608  22483068.540    92064425.07347
  22314929.480   117266012.62109  22314925.100    91376215.39748
  21557698.380   113286532.12709  21557697.700    88275243.92748
  24693284.760   129763897.43208  24693292.520   101114664.30245
 15 03 03 00 38 30.0000000  0  6G16G18G19G21G22G27
  20575662.900   108125861.08809  20575659.420    84253921.47248
  21989054.000   115553446.86009  21989051.080    90041734.63447
  23421480.280   123080722.83008  23421476.420    95907050.00046
  22495721.540   118215826.23908  22495717.520    92116220.33146
  22300140.380   117188295.55209  22300135.960    91315656.70348
  21548590.500   113238669.38209  21548589.840    88237948.30248
 15 03 03 00 39  0.0000000  0  6G16G18G19G21G22G27
  20570073.920   108096490.73209  20570070.500    84231035.48448
  21985311.940   115533782.47309  21985309.040    90026411.75348
  23407735.380   123008493.41608  23407731.440    95850767.39746
  22508401.400   118282459.67908  22508397.520    92168142.48246
  22285404.800   117110859.71609  22285400.400    91255317.14948
  21539510.520   113190953.21309  21539509.820    88200766.88248
 15 03 03 00 39 30.0000000  0  6G16G18G19G21G22G27
  20564574.060   108067588.56009  20564570.640    84208514.31748
  21981659.140   115514587.11809  21981656.220    90011454.35047
  23394008.520   122936358.59508  23394004.380    95794558.47946
  22521110.640   118349247.03108  22521106.820    92220184.57546
  22270721.780   117033700.25109  22270717.420    91195192.95048
  21530457.040   113143376.46309  21530456.260    88163694.10648
 15 03 03 00 40  0.0000000  0  6G16G18G19G21G22G27
  20559163.840   108039157.30209  20559160.300    84186360.09248
  21978095.920   115495862.46209  21978093.020    89996863.73248
  23380299.880   122864319.24008  23380295.680    95738423.96546
  22533848.900   118416187.33408  22533845.340    92272345.84746
  22256092.040   116956820.57709  22256087.660    91135286.77448
  21521430.260   113095940.44309  21521429.520    88126730.99048
 15 03 03 00 40 30.0000000  0  6G16G18G19G21G22G27
  20553843.480   108011198.59509  20553839.860    84164574.08748
  21974622.540   115477609.89609  21974619.680    89982640.95447
  23366609.500   122792375.74408  23366605.340    95682364.15646
  22546616.040   118483279.68308  22546612.520    92324625.58547
  22241516.120   116880223.81109  22241511.700    91075601.03348
  21512430.340   113048645.74409  21512429.640    88089877.99248
 15 03 03 00 41  0.0000000  0  6G16G18G19G21G22G27
  20548613.220   107983713.35109  20548609.580    84143157.01648
  21971239.060   115459829.68009  21971236.140    89968786.26047
  23352937.300   122720527.40408  23352933.000    95626378.47146
  22559411.500   118550521.03308  22559408.220    92377021.43447
  22226994.400   116803911.62109  22226989.900    91016137.03548
  21503457.280   113001491.92409  21503456.580    88053134.75848
 15 03 03 00 41 30.0000000  0  6G16G18G19G21G22G27
  20543473.220   107956702.23809  20543469.500    84122109.39748
  21967945.540   115442521.99009  21967942.540    89955299.76447
  23339283.040   122648773.37608  23339278.400    95570466.28746
  22572234.980   118617909.03308  22572231.700    92429531.55846
  22212527.160   116727885.94509  22212522.620    90956896.30948
  21494510.920   112954478.42209  21494510.180    88016500.86748
 15 03 03 00 42  0.0000000  0  6G16G18G19G21G22G27
  20538423.980   107930168.36809  20538420.240    84101433.65848
  21964742.340   115425688.86609  21964739.240    89942183.06047
  23325647.020   122577115.29008  23325642.320    95514628.84346
  22585086.360   118685443.49308  22585083.060    92482155.80746
  22198115.200   116652150.68709  22198110.580    90897881.87548
  21485591.600   112907607.15809  21485590.780    87979977.82248
 15 03 03 00 42 30.0000000  0  6G16G18G19G21G22G27
  20533465.860   107904113.48709  20533462.140    84081131.15848
  21961629.680   115409331.62409  21961626.520    89929437.17448
  23312029.340   122505553.66208  23312024.600    95458866.57746
  22597965.360   118753123.05508  22597962.040    92534893.11647
  22183759.060   116576708.77009  22183754.400    90839096.01248
  21476699.420   112860878.84909  21476698.580    87943566.15948
 15 03 03 00 43  0.0000000  0  6G16G18G19G21G22G27
  20528599.960   107878543.00509  20528596.280    84061206.10948
  21958608.420   115393454.60109  21958605.180    89917065.49348
  23298430.540   122434092.37408  23298426.040    95403182.50347
  22610872.360   118820949.76408  22610869.160    92587745.08846
  22169460.000   116501566.69209  22169455.260    90780543.79748
  21467835.200   112814297.68209  21467834.460    87907269.15948
 15 03 03 00 43 30.0000000  0  6G16G18G19G21G22G27
  20523825.580   107853453.59209  20523822.020    84041655.92148
  21955677.820   115378054.28409  21955674.580    89905065.26647
  23284849.840   122362726.85008  23284845.640    95347573.05446
  22623806.240   118888917.25808  22623802.900    92640706.77846
  22155217.500   116426722.05409  22155212.740    90722223.34548
  21458998.120   112767859.09309  21458997.460    87871083.25548
 15 03 03 00 44  0.0000000  0  6G16G18G19G21G22G27
  20519143.040   107828846.79609  20519139.560    84022481.79948
  21952838.140   115363131.85109  21952834.960    89893437.41348
  23271287.460   122291457.56008  23271283.600    95292038.56747
  22636766.520   118957023.72308  22636763.120    92693776.73746
  22141032.100   116352177.46609  22141027.320    90664136.70848
  21450188.280   112721563.74709  21450187.700    87835008.97748
 15 03 03 00 44 30.0000000  0  6G16G18G19G21G22G27
  20514552.580   107804723.92909  20514549.120    84003684.75948
  21950089.440   115348687.39309  21950086.260    89882182.00548
  23257743.360   122220283.74108  23257739.840    95236578.49547
  22649752.980   119025267.62908  22649749.360    92746953.80846
  22126904.240   116277935.18909  22126899.440    90606285.62748
  21441405.720   112675411.64809  21441405.220    87799046.31748
 15 03 03 00 45  0.0000000  0  6G16G18G19G21G22G27
  20510054.820   107781088.09309  20510051.320    83985267.22948
  21947432.080   115334723.00309  21947428.920    89871300.68748
  23244217.920   122149207.30008  23244214.320    95181194.28646
  22662765.540   119093648.63408  22662761.840    92800237.71646
  22112834.680   116203999.43109  22112829.880    90548673.40348
  21432650.840   112629404.79509  21432650.460    87763196.84448
 15 03 03 00 45 30.0000000  0  6G16G18G19G21G22G27
  20505649.520   107757938.18609  20505646.020    83967228.33848
  21944865.740   115321236.93209  21944862.520    89860792.08148
  23230710.620   122078226.03308  23230706.760    95125884.23646
  22675803.420   119162162.91708  22675799.600    92853625.46346
  22098823.440   116130370.35609  22098818.720    90491300.14548
  21423923.300   112583541.24709  21423923.000    87727459.01648
 15 03 03 00 46  0.0000000  0  6G16G18G19G21G22G27
  20501337.800   107735280.55109  20501334.400    83949573.03848
  21942391.660   115308235.98509  21942388.520    89850661.48548
  23217222.280   122007344.46408  23217218.500    95070651.87446
  22688867.200   119230813.34408  22688863.320    92907119.30246
  22084872.020   116057055.35909  22084867.300    90434171.62348
  21415224.060   112537826.15109  21415223.720    87691836.87448
 15 03 03 00 46 30.0000000  0  6G16G18G19G21G22G27
  20497119.020   107713111.31409  20497115.760    83932298.31248
  21940008.880   115295714.64709  21940005.800    89840904.61048
  23203752.120   121936558.16708  23203748.460    95015493.74747
  22701955.520   119299593.11708  22701951.700    92960713.92846
  22070979.840   115984051.72609  22070975.120    90377285.71648
  21406552.100   112492254.67009  21406551.740    87656326.63748
 15 03 03 00 47  0.0000000  0  6G16G18G19G21G22G27
  20492993.820   107691433.70409  20492990.620    83915406.65648
  21937717.920   115283675.77009  21937714.860    89831523.68348
  23190300.540   121865868.83008  23190296.620    94960411.16747
  22715068.520   119368502.60708  22715064.740    93014409.62946
  22057147.680   115911363.55809  22057142.960    90320645.62848
  21397907.860   112446829.11909  21397907.500    87620930.10948
 15 03 03 00 47 30.0000000  0  6G16G18G19G21G22G27
  20488963.100   107670252.27709  20488960.000    83898901.64449
  21935519.460   115272122.96609  21935516.340    89822521.50948
  23176867.980   121795279.60508  23176863.960    94905406.60447
  22728206.420   119437542.91308  22728202.800    93068207.25647
  22043376.560   115838996.36709  22043371.920    90264255.65948
  21389292.020   112401552.86809  21389291.740    87585649.92048
 15 03 03 00 48  0.0000000  0  6G16G18G19G21G22G27
  20485026.280   107649564.29309  20485023.300    83882781.13948
  21933412.800   115261052.52209  21933409.660    89813895.20148
  23163453.740   121724786.62508  23163449.520    94850477.03247
  22741368.120   119506708.18708  22741364.300    93122102.27046
  22029666.260   115766948.94609  22029661.720    90208114.85648
  21380703.960   112356422.26309  21380703.640    87550483.22648
 15 03 03 00 48 30.0000000  0  6G16G18G19G21G22G27
  20481184.460   107629375.27509  20481181.480    83867049.43648
  21931398.920   115250469.52409  21931395.760    89805648.71547
  23150058.480   121654393.91908  23150054.000    94795625.60247
  22754554.280   119576001.67908  22754550.420    93176097.19146
  22016018.100   115695227.75409  22016013.580    90152228.24548
  21372144.480   112311441.94509  21372144.120    87515433.62948
 15 03 03 00 49  0.0000000  0  6G16G18G19G21G22G27
  20477437.580   107609685.01109  20477434.520    83851706.36748
  21929477.620   115240373.06909  21929474.440    89797781.36247
  23136682.000   121584100.41108  23136677.560    94740851.45647
  22767764.200   119645419.88008  22767760.400    93230189.29646
  22002432.240   115623833.79009  22002427.740    90096596.62248
  21363613.380   112266610.93309  21363613.020    87480500.38548
 15 03 03 00 49 30.0000000  0  6G16G18G19G21G22G27
  20473785.540   107590493.34309  20473782.480    83836751.81949
  21927648.700   115230762.17409  21927645.520    89790292.36748
  23123324.160   121513904.67708  23123319.920    94686153.52047
  22780997.220   119714959.65408  22780993.460    93284376.14146
  21988908.800   115552767.85709  21988904.300    90041220.61348
  21355110.520   112221927.98109  21355110.160    87445682.50748
 15 03 03 00 50  0.0000000  0  6G16G18G19G21G22G27
  20470228.720   107571802.09109  20470225.640    83822187.20748
  21925912.400   115221637.89009  21925909.260    89783182.54848
  23109985.080   121443807.21208  23109981.020    94631532.14647
  22794253.040   119784619.85308  22794249.320    93338656.79646
  21975448.380   115482033.03509  21975443.900    89986102.60348
  21346636.080   112177394.19609  21346635.680    87410980.87048
 15 03 03 00 50 30.0000000  0  6G16G18G19G21G22G27
  20466767.820   107553614.74509  20466764.700    83808015.24048
  21924269.220   115213003.07409  21924266.080    89776454.12348
  23096665.140   121373810.43708  23096661.180    94576989.22247
  22807531.940   119854400.86208  22807528.160    93393031.61546
  21962051.840   115411633.95509  21962047.380    89931246.21648
  21338190.580   112133012.12109  21338190.080    87376397.44648
 15 03 03 00 51  0.0000000  0  6G16G18G19G21G22G27
  20463403.040   107535932.38309  20463399.880    83794236.77148
  21922719.320   115204858.34409  21922716.180    89770107.59548
  23083364.320   121303914.41808  23083360.360    94522524.82747
  22820833.600   119924301.44108  22820829.860    93447499.58046
  21948719.620   115341572.92909  21948715.200    89876653.25048
  21329774.060   112088782.22509  21329773.400    87341932.59948
 15 03 03 00 51 30.0000000  0  6G16G18G19G21G22G27
  20460133.900   107518752.98409  20460130.740    83780850.22448
  21921262.120   115197200.67009  21921258.960    89764140.58448
  23070082.140   121234116.34108  23070078.080    94468136.71747
  22834157.040   119994316.41708  22834153.260    93502056.70746
  21935451.600   115271849.23109  21935447.200    89822323.13348
  21321385.960   112044701.54709  21321385.060    87307584.03648
 15 03 03 00 52  0.0000000  0  6G16G18G19G21G22G27
  20456960.900   107502078.94809  20456957.760    83767857.47548
  21919897.840   115190031.31709  21919894.700    89758554.09648
  23056818.700   121164416.68508  23056814.480    94413825.33447
  22847502.100   120064445.11308  22847498.440    93556702.44146
  21922248.360   115202465.86609  21922243.940    89768258.21348
  21313026.440   112000771.50509  21313025.300    87273352.85148
 15 03 03 00 52 30.0000000  0  6G16G18G19G21G22G27
  20453884.880   107485914.30909  20453881.720    83755261.64848
  21918627.200   115183354.07409  21918624.080    89753351.05648
  23043574.600   121094818.96408  23043570.360    94359593.37047
  22860869.120   120134689.30308  22860865.500    93611438.16846
  21909111.020   115133428.63609  21909106.520    89714463.00048
  21304696.200   111956995.74109  21304694.980    87239241.88048
 15 03 03 00 53  0.0000000  0  6G16G18G19G21G22G27
  20450905.400   107470256.82308  20450902.220    83743061.00648
  21917449.620   115177165.76309  21917446.500    89748529.00248
  23030349.280   121025320.14508  23030345.140    94305438.46247
  22874257.080   120205043.80208  22874253.400    93666259.84346
  21896039.360   115064736.61209  21896034.780    89660936.77848
  21296394.740   111913371.42909  21296393.460    87205248.92248
 15 03 03 00 53 30.0000000  0  6G16G18G19G21G22G27
  20448023.060   107455110.08209  20448019.860    83731258.35048
  21916365.520   115171468.71009  21916362.380    89744089.75848
  23017143.280   120955922.07308  23017139.180    94251362.08847
  22887666.120   120275509.03808  22887662.480    93721167.81746
  21883034.200   114996394.05909  21883029.540    89607682.88648
  21288122.500   111869900.82509  21288121.220    87171375.74248
 15 03 03 00 54  0.0000000  0  6G16G18G19G21G22G27
  20445237.820   107440473.65809  20445234.620    83719853.34448
  21915374.820   115166262.46009  21915371.680    89740032.95448
  23003956.320   120886623.58708  23003952.000    94197363.30047
  22901095.660   120346081.93908  22901092.000    93776159.68046
  21870095.720   114928401.97109  21870091.020    89554702.07148
  21279879.340   111826583.01509  21279878.120    87137621.61548
 15 03 03 00 54 30.0000000  0  6G16G18G19G21G22G27
  20442550.200   107426349.78509  20442546.900    83708847.72748
  21914477.760   115161548.33609  21914474.640    89736359.61948
  22990788.640   120817426.11808  22990784.040    94143443.20947
  22914545.480   120416761.94208  22914542.100    93831234.99546
  21857224.500   114860763.24309  21857219.700    89501996.60248
  21271665.540   111783419.66509  21271664.400    87103987.85448
 15 03 03 00 55  0.0000000  0  6G16G18G19G21G22G27
  20439959.860   107412737.01809  20439956.480    83698240.37248
  21913673.980   115157324.31509  21913670.900    89733068.18648
  22977639.880   120748327.63008  22977635.040    94089600.26047
  22928015.080   120487545.57308  22928011.900    93886391.04846
  21844420.680   114793478.70509  21844415.800    89449567.12248
  21263480.780   111740409.11809  21263479.840    87070473.15448
 15 03 03 00 55 30.0000000  0  6G16G18G19G21G22G27
  20437467.860   107399641.27009  20437464.460    83688035.89348
  21912964.300   115153594.81909  21912961.240    89730162.10048
  22964510.720   120679332.42008  22964505.760    94035837.80347
  22941504.880   120558435.27308  22941501.740    93941629.76646
  21831685.500   114726554.85009  21831680.560    89397418.69948
  21255326.000   111697556.04809  21255325.180    87037081.16448
 15 03 03 00 56  0.0000000  0  6G16G18G19G21G22G27
  20435074.240   107387062.64609  20435070.840    83678234.36448
  21912348.620   115150359.58009  21912345.620    89727641.13648
  22951401.000   120610440.01408  22951396.020    93982155.41747
  22955014.520   120629429.01308  22955011.360    93996949.55146
  21819019.200   114659993.01609  21819014.240    89345552.36348
  21247201.180   111654860.14609  21247200.480    87003811.63448
 15 03 03 00 56 30.0000000  0  6G16G18G19G21G22G27
  20432778.940   107375000.51409  20432775.500    83668835.30048
  21911826.760   115147617.25009  21911823.740    89725504.27448
  22938310.480   120541648.69608  22938305.420    93928551.83447
  22968543.320   120700523.18508  22968540.020    94052347.59846
  21806421.920   114593793.93309  21806416.940    89293968.69548
  21239106.040   111612320.27409  21239105.460    86970663.69248
 15 03 03 00 57  0.0000000  0  6G16G18G19G21G22G27
  20430582.400   107363457.76809  20430578.960    83659840.95048
  21911399.120   115145369.86309  21911396.020    89723753.07248
  22925239.540   120472960.61908  22925234.480    93875028.68547
