     2.11           OBSERVATION DATA    G                   RINEX VERSION / TYPE
SPIDER V4,0,0,3554                      2015 03 16 00:52    PGM / RUN BY / DATE 
OLHC                                                        MARKER NAME         
OLHC                                                        MARKER NUMBER       
                                                            OBSERVER / AGENCY   
496563              LEICA GRX1200+GNSS  8.20/4.007          REC # / TYPE / VERS 
10401012            LEIAR25         NONE                    ANT # / TYPE        
  5213038.6056  -137570.4416  3660672.8464                  APPROX POSITION XYZ 
        0.0750        0.0000        0.0000                  ANTENNA: DELTA H/E/N
     1     1                                                WAVELENGTH FACT L1/2
     4    C1    L1    P2    L2                              # / TYPES OF OBSERV 
    30.000                                                  INTERVAL            
  2015    03    03    00    00    0.0000000     GPS         TIME OF FIRST OBS   
  2015    03    03    23    59   30.0000000     GPS         TIME OF LAST OBS    
    16                                                      LEAP SECONDS        
    30                                                      # OF SATELLITES     
   G 1   842   842   842   842                              PRN / # OF OBS      
   G 2   915   915   914   914                              PRN / # OF OBS      
   G 3   833   833   833   833                              PRN / # OF OBS      
   G 4   847   847   847   847                              PRN / # OF OBS      
   G 5   685   685   685   685                              PRN / # OF OBS      
   G 6   648   648   647   647                              PRN / # OF OBS      
   G 7   778   778   778   778                              PRN / # OF OBS      
   G 9   771   771   771   771                              PRN / # OF OBS      
   G10   796   795   795   795                              PRN / # OF OBS      
   G11   807   807   807   807                              PRN / # OF OBS      
   G12   802   802   802   802                              PRN / # OF OBS      
   G13   832   832   832   832                              PRN / # OF OBS      
   G14   920   918   916   916                              PRN / # OF OBS      
   G15   746   746   746   746                              PRN / # OF OBS      
   G16   705   705   705   705                              PRN / # OF OBS      
   G17   921   921   921   921                              PRN / # OF OBS      
   G18   947   940   940   937                              PRN / # OF OBS      
   G19   803   803   803   803                              PRN / # OF OBS      
   G20   807   807   807   807                              PRN / # OF OBS      
   G21   687   687   687   687                              PRN / # OF OBS      
   G22   839   839   838   838                              PRN / # OF OBS      
   G23   715   715   715   715                              PRN / # OF OBS      
   G24   848   848   848   848                              PRN / # OF OBS      
   G25   841   840   840   840                              PRN / # OF OBS      
   G27   842   842   842   842                              PRN / # OF OBS      
   G28   923   923   923   923                              PRN / # OF OBS      
   G29   716   716   716   716                              PRN / # OF OBS      
   G30   682   682   681   681                              PRN / # OF OBS      
   G31   722   721   721   721                              PRN / # OF OBS      
   G32   727   727   727   727                              PRN / # OF OBS      
BIT 2 OF LLI FLAGS DATA COLLECTED UNDER A/S CONDITION       COMMENT             
SNR is mapped to RINEX snr flag value [2-9]                 COMMENT             
Lx:     = 25dBHz -> 1; 26-27dBHz -> 2; 28-31dBHz -> 3       COMMENT             
       32-35dBHz -> 4; 36-38dBHz -> 5; 39-41dBHz -> 6       COMMENT             
       42-44dBHz -> 7; 45-48dBHz -> 8; >=49dBHz -> 9        COMMENT             
                                                            END OF HEADER       
 15 03 03 00 00  0.0000000  0  7G16G18G19G21G22G27G31
  21177615.020   111289146.21309  21177611.160    86718813.84748
  22674697.560   119156580.20109  22674694.160    92849323.72246
  24312037.480   127760627.14008  24312034.720    99553728.11446
  21736400.140   114225570.77608  21736396.480    89006929.65447
  23600827.760   124023257.33908  23600830.600    96641519.11846
  22160522.620   116454408.31609  22160521.880    90743730.50148
  23192944.520   121879701.78908  23192943.800    94971172.10946
 15 03 03 00 00 30.0000000  0  7G16G18G19G21G22G27G31
  21166674.600   111231654.22509  21166670.820    86674014.90648
  22665124.060   119106271.36009  22665120.760    92810122.06346
  24297164.980   127682470.95808  24297162.160    99492827.28746
  21746229.040   114277222.06308  21746225.380    89047177.42447
  23583959.780   123934617.81608  23583962.380    96572450.09746
  22150152.480   116399912.68909  22150151.800    90701266.39848
  23211377.180   121976566.66208  23211376.900    95046651.05347
 15 03 03 00 01  0.0000000  0  7G16G18G19G21G22G27G31
  21155791.860   111174465.55109  21155788.240    86629452.30848
  22655612.960   119056290.32109  22655609.720    92771175.83846
  24282312.340   127604419.03508  24282309.320    99432007.66046
  21756113.400   114329164.70408  21756109.720    89087652.19947
  23567102.340   123846033.66208  23567104.660    96503424.18346
  22139808.360   116345554.04809  22139807.680    90658909.03648
  23229834.000   122073557.49308  23229833.860    95122228.13247
 15 03 03 00 01 30.0000000  0  7G16G18G19G21G22G27G31
  21144968.520   111117589.04009  21144965.020    86585132.96248
  22646165.960   119006646.16209  22646162.800    92732492.11247
  24267480.700   127526478.02808  24267477.640    99371274.48446
  21766054.080   114381403.00409  21766050.340    89128357.36648
  23550257.220   123757514.33408  23550259.440    96434448.77246
  22129491.540   116291339.01909  22129490.840    90616663.57748
  23248315.720   122170678.12909  23248315.460    95197906.36347
 15 03 03 00 02  0.0000000  0  7G16G18G19G21G22G27G31
  21134204.640   111061024.80009  21134201.180    86541056.94348
  22636783.080   118957339.26709  22636780.020    92694071.19846
  24252669.760   127448646.14408  24252666.660    99310626.32246
  21776050.420   114433933.97008  21776046.700    89169290.58648
  23533424.600   123669060.58908  23533426.680    96365524.44946
  22119201.700   116237265.55009  22119200.980    90574528.42348
  23266821.220   122267923.56408  23266820.700    95273681.84247
 15 03 03 00 02 30.0000000  0  7G16G18G19G21G22G27G31
  21123500.340   111004773.30809  21123496.880    86497224.62048
  22627464.300   118908369.45209  22627461.360    92655912.93346
  24237879.260   127370921.58708  24237876.060    99250061.79646
  21786101.680   114486753.74308  21786098.000    89210448.84948
  23516604.620   123580673.36808  23516606.460    96296651.92446
  22108938.400   116183331.78609  22108937.800    90532502.13448
  23285349.520   122365288.87208  23285348.780    95349550.71746
 15 03 03 00 03  0.0000000  0  7G16G18G19G21G22G27G31
  21112855.880   110948836.37209  21112852.400    86453637.40548
  22618210.220   118859739.55609  22618207.380    92618019.54546
  24223109.200   127293304.60307  24223105.900    99189581.09245
  21796207.600   114539860.75009  21796203.940    89251830.93247
  23499797.880   123492355.66208  23499799.340    96227833.54946
  22098701.720   116129537.96409  22098701.160    90490584.88848
  23303900.120   122462771.75908  23303899.240    95425511.20347
 15 03 03 00 03 30.0000000  0  7G16G18G19G21G22G27G31
  21102272.100   110893218.17509  21102268.620    86410298.55248
  22609021.620   118811453.77609  22609018.900    92580394.30047
  24208359.860   127215797.11507  24208356.620    99129185.72345
  21806368.060   114593254.17309  21806364.340    89293436.19748
  23483005.220   123404112.13708  23483006.380    96159072.97546
  22088492.060   116075885.92209  22088491.440    90448778.11948
  23322472.900   122560371.34908  23322472.080    95501562.61547
 15 03 03 00 04  0.0000000  0  7G16G18G19G21G22G27G31
  21091749.180   110837919.73909  21091745.700    86367208.86647
  22599898.660   118763512.85209  22599896.060    92543037.76746
  24193631.080   127138397.76808  24193627.840    99068874.59945
  21816582.560   114646931.60909  21816578.820    89335262.77047
  23466226.960   123315944.27908  23466227.880    96090371.33646
  22078309.140   116022374.35909  22078308.520    90407080.81147
  23341067.060   122658083.13108  23341066.320    95577701.44546
 15 03 03 00 04 30.0000000  0  7G16G18G19G21G22G27G31
  21081286.940   110782940.45509  21081283.440    86324367.86948
  22590841.280   118715916.38009  22590838.780    92505949.64247
  24178922.540   127061104.33608  24178919.340    99008646.00845
  21826850.260   114700888.52909  21826846.500    89377307.12248
  23449463.180   123227852.27308  23449463.760    96021728.77146
  22068152.340   115969000.57909  22068151.840    90365490.87248
  23359681.520   122755901.76209  23359680.900    95653923.53347
 15 03 03 00 05  0.0000000  0  7G16G18G19G21G22G27G31
  21070885.720   110728281.97409  21070882.220    86281776.85348
  22581849.900   118668666.38009  22581847.360    92469131.50346
  24164234.040   126983916.19508  24164230.840    98948499.47045
  21837170.720   114755122.37409  21837166.860    89419567.25848
  23432714.340   123139838.39208  23432714.560    95953147.08546
  22058021.700   115915764.19309  22058021.300    90324007.99848
  23378315.660   122853823.93808  23378315.180    95730226.31946
 15 03 03 00 05 30.0000000  0  7G16G18G19G21G22G27G31
  21060546.540   110673949.36609  21060543.040    86239439.75648
  22572925.440   118621767.84209  22572922.820    92432587.21647
  24149566.300   126906836.80808  24149563.040    98888437.69046
  21847544.320   114809635.37209  21847540.340    89462044.91748
  23415981.480   123051908.54808  23415981.460    95884630.84246
  22047917.840   115862668.30509  22047917.460    90282634.59348
  23396969.520   122951850.06108  23396969.220    95806610.08647
 15 03 03 00 06  0.0000000  0  7G16G18G19G21G22G27G31
  21050270.120   110619946.24609  21050266.580    86197359.39548
  22564068.500   118575223.82709  22564065.800    92396319.18646
  24134919.500   126829867.16608  24134916.260    98828461.41745
  21857970.760   114864426.11109  21857966.720    89504738.99547
  23399265.260   122964066.61308  23399265.120    95816183.08846
  22037841.000   115809714.15109  22037840.500    90241371.62847
  23415642.740   123049978.45808  23415642.700    95883073.53046
 15 03 03 00 06 30.0000000  0  7G16G18G19G21G22G27G31
  21040055.880   110566270.01409  21040052.380    86155533.76148
  22555278.700   118529032.40709  22555275.860    92360325.92547
  24120292.680   126753002.54208  24120289.440    98768566.98346
  21868448.740   114919487.77909  21868444.600    89547644.19948
  23382565.380   122876311.00708  23382565.300    95747802.60047
  22027790.260   115756896.99309  22027789.580    90200215.41948
  23434334.020   123148201.42708  23434334.200    95959610.67947
 15 03 03 00 07  0.0000000  0  7G16G18G19G21G22G27G31
  21029905.960   110512931.95009  21029902.560    86113971.64048
  22546558.100   118483204.53609  22546555.040    92324615.93647
  24105687.540   126676252.25308  24105684.400    98708761.64046
  21878979.900   114974828.84109  21878975.620    89590767.11148
  23365884.280   122788653.47908  23365884.060    95679498.51046
  22017767.340   115704225.94309  22017766.560    90159173.06348
  23453044.620   123246525.27609  23453044.940    96036226.42847
 15 03 03 00 07 30.0000000  0  7G16G18G19G21G22G27G31
  21019819.380   110459926.57209  21019816.000    86072668.73848
  22537905.680   118437734.74209  22537902.400    92289184.95946
  24091102.720   126599609.31008  24091099.640    98649039.91846
  21889562.360   115030439.68909  21889558.000    89634100.22947
  23349221.120   122701089.60908  23349220.660    95611267.37746
  22007770.900   115651694.03409  22007770.140    90118239.12248
  23471772.720   123344940.30609  23471772.940    96112913.22146
 15 03 03 00 08  0.0000000  0  7G16G18G19G21G22G27G31
  21009796.980   110407258.67609  21009793.620    86031628.81648
  22529322.380   118392628.39009  22529319.080    92254037.19446
  24076538.800   126523076.26707  24076535.740    98589403.85846
  21900196.100   115086320.31709  21900191.800    89677643.58447
  23332576.840   122613624.82208  23332576.220    95543113.44846
  21997801.340   115599303.54809  21997800.620    90077415.38548
  23490518.140   123443445.93809  23490518.180    96189670.61046
 15 03 03 00 08 30.0000000  0  7G16G18G19G21G22G27G31
  20999838.400   110354926.23209  20999835.080    85990850.28048
  22520807.700   118347883.01609  22520804.460    92219170.70046
  24061995.020   126446648.69407  24061991.860    98529849.95845
  21910880.200   115142465.64909  21910875.960    89721393.18547
  23315951.120   122526257.81808  23315950.380    95475035.71246
  21987857.940   115547050.42009  21987857.240    90036698.67547
  23509279.420   123542035.06508  23509279.260    96266493.04246
 15 03 03 00 09  0.0000000  0  7G16G18G19G21G22G27G31
  20989944.980   110302936.14009  20989941.660    85950338.51648
  22512362.920   118303505.31909  22512359.740    92184590.70547
  24047472.300   126370331.86107  24047469.200    98470382.35746
  21921615.080   115198878.08209  21921610.940    89765350.92748
  23299345.460   122438995.88908  23299344.560    95407039.83647
  21977941.560   115494939.41809  21977940.900    89996092.72048
  23528056.840   123640709.87808  23528056.600    96343382.24547
 15 03 03 00 09 30.0000000  0  7G16G18G19G21G22G27G31
  20980116.020   110251284.67509  20980112.720    85910090.61948
  22503987.380   118259491.94209  22503984.300    92150294.60947
  24032969.660   126294120.08108  24032966.580    98410996.60446
  21932399.320   115255550.41008  21932395.320    89809511.18948
  23282759.320   122351836.15508  23282758.180    95339123.57946
  21968051.060   115442964.84209  21968050.520    89955593.07948
  23546848.660   123739461.56108  23546848.620    96420331.33646
 15 03 03 00 10  0.0000000  0  7G16G18G19G21G22G27G31
  20970352.500   110199976.85709  20970349.160    85870110.50648
  22495682.060   118215847.65109  22495679.020    92116286.10147
  24018487.620   126218016.10808  24018484.440    98351694.85646
  21943233.120   115312483.12309  21943229.200    89853874.34647
  23266193.720   122264784.55808  23266192.440    95271291.56646
  21958187.040   115391129.53209  21958186.520    89915201.94348
  23565654.920   123838289.97508  23565655.220    96497340.22646
 15 03 03 00 10 30.0000000  0  7G16G18G19G21G22G27G31
  20960655.580   110149018.76309  20960652.140    85830402.90048
  22487448.200   118172578.62409  22487445.100    92082570.00347
  24004026.800   126142023.83108  24004023.500    98292480.16745
  21954117.020   115369679.00509  21954113.200    89898442.56447
  23249649.860   122177847.64008  23249648.540    95203548.88946
  21948350.220   115339437.44509  21948349.780    89874922.40948
  23584476.060   123937196.50908  23584476.640    96574409.99246
 15 03 03 00 11  0.0000000  0  7G16G18G19G21G22G27G31
  20951025.080   110098409.75709  20951021.560    85790967.31348
  22479285.540   118129683.89609  22479282.400    92049145.56547
  23989586.740   126066140.63808  23989583.320    98233350.45946
  21965050.080   115427133.15209  21965046.360    89943212.02048
  23233127.820   122091025.43608  23233126.580    95135895.59146
  21938540.200   115287885.97809  21938539.880    89834752.44748
  23603311.240   124036175.65908  23603312.000    96651536.33046
 15 03 03 00 11 30.0000000  0  7G16G18G19G21G22G27G31
  20941460.980   110048149.59409  20941457.360    85751803.55648
  22471194.000   118087162.89409  22471190.840    92016012.36046
  23975167.100   125990364.42708  23975163.440    98174304.12446
  21976031.560   115484841.77308  21976027.920    89988179.78147
  23216627.800   122004318.53108  23216626.580    95068332.11846
  21928756.580   115236472.92109  21928756.300    89794690.34948
  23622159.460   124135222.37308  23622160.180    96728715.30346
 15 03 03 00 12  0.0000000  0  7G16G18G19G21G22G27G31
  20931964.440   109998244.90809  20931960.820    85712916.80048
  22463174.960   118045022.86509  22463171.820    91983176.00646
  23960768.680   125914699.81408  23960764.840    98115344.75246
  21987061.880   115542806.86409  21987058.260    90033347.38447
  23200151.140   121917734.26508  23200149.780    95000864.19746
  21919000.260   115185202.87209  21918999.860    89754739.68048
  23641021.040   124234338.51408  23641021.640    96805948.36146
 15 03 03 00 12 30.0000000  0  7G16G18G19G21G22G27G31
  20922535.000   109948693.19809  20922531.500    85674305.09048
  22455227.920   118003261.28709  22455224.820    91950634.54846
  23946390.580   125839142.25208  23946386.620    98056468.80345
  21998139.940   115601022.58509  21998136.280    90078710.28647
  23183697.460   121831271.00108  23183696.060    94933490.55946
  21909270.360   115134071.21609  21909269.760    89714896.84848
  23659894.320   124333516.24408  23659894.820    96883229.39846
 15 03 03 00 13  0.0000000  0  7G16G18G19G21G22G27G31
  20913173.800   109899500.10709  20913170.400    85635972.81348
  22447353.840   117961883.40109  22447350.880    91918392.06247
  23932033.400   125763695.18308  23932029.540    97997678.94446
  22009266.080   115659490.64109  22009262.300    90124269.80247
  23167268.000   121744935.07008  23167266.460    94866216.11646
  21899567.400   115083081.43409  21899566.720    89675164.56448
  23678779.360   124432756.35608  23678779.860    96960559.03246
 15 03 03 00 13 30.0000000  0  7G16G18G19G21G22G27G31
  20903880.700   109850664.56809  20903877.280    85597919.15348
  22439552.580   117920887.94709  22439549.720    91886447.58147
  23917696.660   125688355.74908  23917692.920    97938972.95746
  22020439.240   115718205.93508  22020435.480    90170021.98548
  23150862.720   121658726.26008  23150861.000    94799040.73047
  21889890.820   115032230.66309  21889890.200    89635540.60548
  23697675.060   124532053.25508  23697675.760    97037932.92146
 15 03 03 00 14  0.0000000  0  7G16G18G19G21G22G27G31
  20894656.480   109802190.67609  20894652.960    85560147.29948
  22431824.900   117880279.04309  22431822.140    91854804.30347
  23903380.720   125613125.82308  23903377.120    97880352.30146
  22031659.480   115777168.69109  22031655.720    90215966.99047
  23134482.480   121572649.18608  23134480.520    94731967.98446
  21880241.020   114981520.93209  21880240.560    89596026.54148
  23716581.320   124631406.06708  23716582.300    97115350.36746
 15 03 03 00 14 30.0000000  0  7G16G18G19G21G22G27G31
  20885501.380   109754080.07709  20885497.720    85522658.52148
  22424171.060   117840057.95209  22424168.340    91823463.21547
  23889085.620   125538005.24608  23889082.120    97821816.84046
  22042926.380   115836376.69809  22042922.600    90262103.08947
  23118127.760   121486706.18708  23118125.580    94664999.70846
  21870617.940   114930951.76709  21870617.620    89556622.00748
  23735497.620   124730811.23008  23735498.740    97192808.60846
 15 03 03 00 15  0.0000000  0  7G16G18G19G21G22G27G31
  20876415.580   109706334.00209  20876411.920    85485453.79948
  22416591.260   117800225.91609  22416588.500    91792425.29547
  23874811.160   125462993.32208  23874807.740    97763366.04346
  22054239.480   115895827.15109  22054235.600    90308428.11147
  23101799.080   121400899.62908  23101796.680    94598137.73846
  21861021.500   114880522.52909  21861021.200    89517326.50748
  23754423.460   124830265.36108  23754424.500    97270304.99446
 15 03 03 00 15 30.0000000  0  7G16G18G19G21G22G27G31
  20867400.020   109658957.07209  20867396.400    85448536.71948
  22409086.260   117760787.36609  22409083.460    91761693.98047
  23860557.880   125388092.74708  23860554.620    97705002.01246
  22065598.920   115955521.10908  22065594.980    90354942.88947
  23085497.360   121315234.43208  23085494.760    94531385.92146
  21851452.360   114830235.86209  21851451.840    89478142.10448
  23773358.760   124929768.13408  23773359.440    97347839.28246
 15 03 03 00 16  0.0000000  0  7G16G18G19G21G22G27G31
  20858454.600   109611948.79909  20858451.080    85411906.90448
  22401656.020   117721741.77209  22401653.240    91731268.86447
  23846325.240   125313300.65208  23846322.200    97646722.51146
  22077003.780   116015453.95309  22076999.840    90401643.81147
  23069222.720   121229711.45508  23069219.900    94464744.91646
  21841909.900   114780089.31609  21841909.160    89439066.89348
  23792302.400   125029314.40708  23792302.640    97425407.45946
 15 03 03 00 16 30.0000000  0  7G16G18G19G21G22G27G31
  20849579.620   109565310.49009  20849576.200    85375565.36948
  22394300.780   117683090.47109  22394298.100    91701150.99647
  23832113.140   125238616.40808  23832110.240    97588527.04546
  22088453.640   116075623.49408  22088449.760    90448529.16847
  23052975.560   121144332.48909  23052972.560    94398216.11447
  21832393.940   114730082.12709  21832392.940    89400100.27248
  23811253.580   125128900.76908  23811253.500    97503006.85546
 15 03 03 00 17  0.0000000  0  7G16G18G19G21G22G27G31
  20840775.860   109519046.30409  20840772.480    85339515.34748
  22387021.220   117644836.92409  22387018.660    91671343.06447
  23817922.000   125164042.28708  23817919.260    97530417.38946
  22099948.520   116136029.36508  22099944.620    90495598.67147
  23036756.740   121059102.16709  23036753.680    94331803.12846
  21822904.840   114680216.40009  21822903.660    89361243.85648
  23830212.000   125228526.21208  23830211.980    97580636.66946
 15 03 03 00 17 30.0000000  0  7G16G18G19G21G22G27G31
  20832043.040   109473155.16109  20832039.680    85303756.02648
  22379817.200   117606980.25009  22379814.660    91641844.39447
  23803751.260   125089575.30708  23803748.700    97472391.25146
  22111487.480   116196666.96708  22111483.580    90542848.75747
  23020566.220   120974020.50509  23020563.080    94265505.97646
  21813441.960   114630489.35209  21813440.880    89322495.53048
  23849176.600   125328185.17708  23849176.980    97658292.61246
 15 03 03 00 18  0.0000000  0  7G16G18G19G21G22G27G31
  20823381.480   109427638.53009  20823378.120    85268288.51748
  22372688.880   117569521.59809  22372686.320    91612655.85447
  23789600.960   125015214.82608  23789598.140    97414448.07746
  22123070.060   116257533.83009  22123066.180    90590277.48047
  23004404.320   120889089.56509  23004401.220    94199326.25447
  21804005.400   114580900.28609  21804004.440    89283854.70348
  23868146.840   125427874.07508  23868147.720    97735971.85946
 15 03 03 00 18 30.0000000  0  7G16G18G19G21G22G27G31
  20814791.920   109382500.47609  20814788.600    85233116.01148
  22365637.080   117532464.86409  22365634.560    91583780.50647
  23775471.420   124940962.96208  23775468.220    97356589.53446
  22134696.280   116318630.32508  22134692.480    90637885.13847
  22988271.940   120804314.26809  22988268.980    94133267.80947
  21794595.580   114531451.36409  21794594.700    89245323.08048
  23887122.680   125527592.21208  23887124.040    97813673.90246
 15 03 03 00 19  0.0000000  0  7G16G18G19G21G22G27G31
  20806275.540   109337746.58909  20806272.220    85198242.84948
  22358662.900   117495815.53709  22358660.360    91555222.61347
  23761363.260   124866823.38708  23761359.780    97298818.50946
  22146366.300   116379957.04709  22146362.540    90685672.19047
  22972170.360   120719701.19009  22972167.560    94067335.75547
  21785213.200   114482146.24109  21785212.340    89206903.51848
  23906104.260   125627340.24208  23906106.080    97891399.23746
 15 03 03 00 19 30.0000000  0  7G16G18G19G21G22G27G31
  20797831.500   109293372.99109  20797828.200    85163666.02148
  22351765.520   117459569.03009  22351762.820    91526978.60047
  23747275.360   124792790.08008  23747271.580    97241130.29146
  22158079.080   116441508.41508  22158075.340    90733634.30147
  22956098.980   120635247.04409  22956096.320    94001527.54347
  21775857.120   114432979.12809  21775856.220    89168591.49648
  23925089.960   125727109.56808  23925092.060    97969141.16146
 15 03 03 00 20  0.0000000  0  7G16G18G19G21G22G27G31
  20789460.660   109249383.87209  20789457.340    85129388.79048
  22344945.700   117423729.75409  22344942.780    91499051.92247
  23733208.160   124718865.45908  23733203.980    97183526.73846
  22169834.460   116503283.73808  22169830.860    90781770.91847
  22940058.740   120550956.85308  22940056.200    93935847.09047
  21766527.680   114383952.33209  21766526.780    89130388.81248
  23944079.560   125826899.55408  23944081.880    98046899.17246
 15 03 03 00 20 30.0000000  0  7G16G18G19G21G22G27G31
  20781163.800   109205783.46309  20781160.460    85095414.44748
  22338204.040   117388301.37409  22338200.940    91471445.41747
  23719161.980   124645052.01508  23719157.540    97126009.82146
  22181632.480   116565283.07208  22181629.040    90830082.07948
  22924050.720   120466835.81409  22924048.200    93870298.43747
  21757225.260   114335068.21909  21757224.360    89092297.30448
  23963072.920   125926709.69408  23963075.420    98124672.87546
 15 03 03 00 21  0.0000000  0  7G16G18G19G21G22G27G31
  20772941.860   109162576.41709  20772938.420    85061746.62148
  22331541.380   117353288.50209  22331538.160    91444162.68847
  23705137.280   124571352.31008  23705133.000    97068581.53346
  22193473.300   116627507.46308  22193469.980    90878568.61847
  22908076.100   120382889.71309  22908073.420    93804886.08747
  21747950.540   114286329.72209  21747949.620    89054319.25248
  23982070.140   126026540.27008  23982072.760    98202462.48445
 15 03 03 00 21 30.0000000  0  7G16G18G19G21G22G27G31
  20764794.060   109119758.91309  20764790.440    85028382.33448
  22324956.860   117318687.21009  22324953.660    91417200.66347
  23691133.060   124497760.28908  23691129.000    97011237.15046
  22205355.600   116689949.57108  22205352.380    90927224.81047
  22892134.100   120299114.89109  22892131.260    93739607.20647
  21738702.400   114237730.90709  21738701.500    89016450.05848
  24001069.660   126126382.62208  24001072.440    98280261.25746
 15 03 03 00 22  0.0000000  0  7G16G18G19G21G22G27G31
  20756720.960   109077334.13209  20756717.200    84995324.06948
  22318451.100   117284500.06909  22318448.000    91390561.35147
  23677149.640   124424277.50708  23677145.780    96953977.87646
  22217279.200   116752608.56708  22217276.000    90976050.00647
  22876225.540   120215515.45109  22876222.560    93674464.97746
  21729481.120   114189273.00109  21729480.280    88978690.66148
  24020071.240   126226234.85208  24020074.020    98358067.71245
 15 03 03 00 22 30.0000000  0  7G16G18G19G21G22G27G31
  20748723.220   109035305.59609  20748719.420    84962574.56048
  22312024.840   117250730.59109  22312021.820    91364247.49447
  23663187.240   124350905.32208  23663183.460    96896804.79245
  22229243.900   116815483.63208  22229240.700    91025043.56947
  22860351.220   120132095.83009  22860348.140    93609462.85846
  21720287.080   114140957.75309  21720286.360    88941042.43048
  24039074.740   126326095.82308  24039077.340    98435880.97346
 15 03 03 00 23  0.0000000  0  7G16G18G19G21G22G27G31
  20740800.520   108993671.60509  20740796.720    84930132.49248
  22305677.740   117217376.80009  22305674.800    91338257.54347
  23649245.300   124277640.45808  23649241.520    96839715.32546
  22241248.800   116878569.71209  22241245.540    91074201.55247
  22844510.920   120048855.34609  22844507.900    93544600.31947
  21711119.520   114092781.72909  21711119.000    88903502.68748
  24058078.880   126425959.22008  24058081.180    98513696.12545
 15 03 03 00 23 30.0000000  0  7G16G18G19G21G22G27G31
  20732953.400   108952434.94009  20732949.680    84898000.02948
  22299410.280   117184441.13809  22299407.340    91312593.41047
  23635324.000   124204483.56208  23635320.260    96782709.98847
  22253293.780   116941866.23408  22253290.480    91123523.51547
  22828705.320   119965797.44509  22828702.420    93479880.04647
  21701978.600   114044745.72009  21701978.160    88866072.03648
  24077083.100   126525823.04708  24077085.140    98591511.60146
 15 03 03 00 24  0.0000000  0  7G16G18G19G21G22G27G31
  20725182.240   108911597.61009  20725178.620    84866178.73948
  22293222.680   117151924.93109  22293219.680    91287256.13247
  23621423.300   124131434.78508  23621419.580    96725788.90046
  22265378.540   117005371.60808  22265375.200    91173008.22847
  22812935.100   119882925.18909  22812932.200    93415304.41847
  21692864.360   113996850.11909  21692863.880    88828750.80048
  24096086.840   126625684.95908  24096088.940    98669325.57945
 15 03 03 00 24 30.0000000  0  7G16G18G19G21G22G27G31
  20717488.180   108871165.53809  20717484.660    84834673.23748
  22287116.020   117119834.00809  22287112.920    91262250.25147
  23607543.880   124058497.95408  23607540.220    96668955.05946
  22277503.300   117069087.12108  22277499.840    91222656.68647
  22797201.440   119800244.69909  22797198.400    93350878.22247
  21683777.520   113949098.75709  21683776.920    88791541.96148
  24115090.080   126725545.54708  24115092.440    98747138.51646
 15 03 03 00 25  0.0000000  0  7G16G18G19G21G22G27G31
  20709871.080   108831137.62509  20709867.620    84803482.65848
  22281090.000   117088167.32809  22281086.860    91237574.93647
  23593685.300   123985670.22208  23593681.540    96612206.21046
  22289667.140   117133008.12509  22289663.560    91272465.26047
  22781504.420   119717756.49209  22781501.200    93286601.84447
  21674717.640   113901488.90009  21674716.960    88754443.37748
  24134091.860   126825399.62108  24134094.640    98824946.36746
 15 03 03 00 25 30.0000000  0  7G16G18G19G21G22G27G31
  20702331.800   108791518.27809  20702328.360    84772610.44648
  22275145.320   117056928.32009  22275142.240    91213232.88147
  23579847.900   123912954.21608  23579844.120    96555544.44046
  22301870.320   117197136.00809  22301866.720    91322435.04047
  22765845.020   119635465.57409  22765841.480    93222479.21147
  21665685.140   113854023.10509  21665684.400    88717457.06848
  24153092.220   126925246.85808  24153095.640    98902748.87546
 15 03 03 00 26  0.0000000  0  7G16G18G19G21G22G27G31
  20694870.280   108752307.27709  20694866.820    84742056.42148
  22269282.040   117026117.19009  22269279.020    91189224.22947
  23566031.380   123840348.07108  23566027.600    96498968.25646
  22314112.020   117261466.32708  22314108.360    91372562.55847
  22750223.320   119553373.02609  22750219.500    93158511.14347
  21656679.760   113806699.80309  21656679.020    88680581.78648
  24172090.480   127025082.72608  24172094.340    98980542.52145
 15 03 03 00 26 30.0000000  0  7G16G18G19G21G22G27G31
  20687486.700   108713505.90009  20687483.240    84711821.57548
  22263500.080   116995734.04709  22263497.240    91165549.07947
  23552235.600   123767850.96208  23552231.700    96442477.03946
  22326391.680   117325996.13108  22326387.920    91422845.52747
  22734639.540   119471480.44209  22734635.500    93094698.89647
  21647701.280   113759517.97109  21647700.680    88643816.74548
  24191085.960   127124902.89208  24191090.060    99058323.90646
 15 03 03 00 27  0.0000000  0  7G16G18G19G21G22G27G31
  20680181.920   108675118.59609  20680178.360    84681909.39548
  22257800.340   116965783.19309  22257797.680    91142210.77646
  23538460.900   123695464.97708  23538456.980    96386072.41746
  22338709.500   117390726.48908  22338705.700    91473284.76746
  22719094.700   119389792.88409  22719090.580    93031046.39646
  21638750.260   113712480.20909  21638749.760    88607163.95348
  24210078.720   127224707.77708  24210082.660    99136093.38745
 15 03 03 00 27 30.0000000  0  7G16G18G19G21G22G27G31
  20672955.440   108637143.07209  20672951.760    84652318.07548
  22252182.420   116936262.34309  22252179.960    91119207.53647
  23524706.660   123623186.62808  23524702.800    96329751.66046
  22351064.460   117455652.19708  22351060.640    91523876.22447
  22703588.580   119308309.52808  22703584.740    92967553.01247
  21629825.980   113665582.80109  21629825.580    88570620.53348
  24229067.400   127324490.69708  24229070.980    99213845.73545
 15 03 03 00 28  0.0000000  0  7G16G18G19G21G22G27G31
  20665807.840   108599582.41209  20665804.100    84623050.02848
  22246646.940   116907173.94309  22246644.540    91096541.28146
  23510973.160   123551016.94808  23510969.320    96273515.58246
  22363456.360   117520772.05009  22363452.600    91574618.96647
  22688122.000   119227034.32709  22688118.680    92904221.82747
  21620928.700   113618827.06409  21620928.280    88534187.51148
  24248051.560   127424249.93708  24248054.740    99291579.63545
 15 03 03 00 28 30.0000000  0  7G16G18G19G21G22G27G31
  20658739.840   108562440.28609  20658736.120    84594108.11448
  22241194.500   116878521.12209  22241191.980    91074214.42847
  23497260.680   123478957.75508  23497256.720    96217365.59547
  22375885.100   117586085.36708  22375881.300    91625512.45847
  22672696.040   119145971.54809  22672693.000    92841056.15047
  21612058.760   113572214.80709  21612058.140    88497866.28548
  24267030.960   127523984.53508  24267033.940    99369294.30346
 15 03 03 00 29  0.0000000  0  7G16G18G19G21G22G27G31
  20651751.680   108525717.83609  20651748.040    84565493.22048
  22235825.240   116850304.86609  22235822.540    91052227.77047
  23483569.220   123407008.49708  23483565.040    96161301.28346
  22388350.340   117651590.38508  22388346.480    91676555.33747
  22657311.160   119065123.33209  22657308.120    92778057.66347
  21603216.060   113525745.61409  21603215.160    88461656.55048
  24286004.920   127623691.08208  24286007.840    99446987.10445
 15 03 03 00 29 30.0000000  0  7G16G18G19G21G22G27G31
  20644843.520   108489415.57009  20644839.940    84537205.73849
  22230539.140   116822525.10109  22230536.160    91030581.21847
  23469898.480   123335167.92708  23469894.220    96105321.65347
  22400851.420   117717283.90408  22400847.560    91727745.09348
  22641967.500   118984491.02109  22641964.300    92715227.40648
  21594400.300   113479418.24809  21594399.200    88425557.32348
  24304972.620   127723365.15008  24304975.720    99524654.58246
 15 03 03 00 30  0.0000000  0  7G16G18G19G21G22G27G31
  20638016.680   108453540.24709  20638013.100    84509250.95348
  22225337.320   116795188.19909  22225334.040    91009279.76946
  23456249.280   123263440.90708  23456245.000    96049430.51846
  22413388.900   117783168.89608  22413385.080    91779084.06147
  22626666.480   118904082.59609  22626663.020    92652571.61747
  21585612.500   113433237.87709  21585611.380    88389572.64648
  24323934.760   127823009.83208  24323938.100    99602299.15445
 15 03 03 00 30 30.0000000  0  7G16G18G19G21G22G27G31
  20631270.660   108418089.31509  20631267.020    84481626.84448
  22220219.200   116768291.33709  22220215.700    90988321.19847
  23442620.880   123191822.91108  23442616.460    95993624.32046
  22425961.740   117849239.75508  22425958.000    91830567.84047
  22611407.760   118823896.43909  22611403.940    92590089.01247
  21576851.840   113387200.26609  21576850.780    88353699.19448
  24342889.960   127922617.65208  24342893.620    99679914.99745
 15 03 03 00 31  0.0000000  0  7G16G18G19G21G22G27G31
  20624605.860   108383065.26309  20624602.180    84454335.37748
  22215185.100   116741836.12809  22215181.420    90967706.77247
  23429013.340   123120314.57708  23429008.760    95937903.58146
  22438569.560   117915494.38308  22438565.860    91882194.82947
  22596191.740   118743935.58509  22596187.600    92527781.97447
  21568118.440   113341305.97609  21568117.440    88317937.41848
  24361837.740   128022186.43008  24361841.780    99757500.39645
 15 03 03 00 31 30.0000000  0  7G16G18G19G21G22G27G31
  20618022.900   108348471.43809  20618019.200    84427379.15048
  22210235.640   116715825.72809  22210231.800    90947438.95047
  23415427.000   123048917.76308  23415422.520    95882269.74746
  22451212.340   117981932.87208  22451208.720    91933965.07547
  22581019.200   118664204.24009  22581014.840    92465653.76747
  21559412.640   113295556.91209  21559411.720    88282288.80848
  24380777.920   128121714.97608  24380782.300    99835054.44245
 15 03 03 00 32  0.0000000  0  7G16G18G19G21G22G27G31
  20611521.040   108314304.23809  20611517.420    84400755.36348
  22205370.080   116690256.40709  22205366.160    90927514.82747
  23401860.880   122977627.28208  23401856.400    95826718.77046
  22463888.880   118048548.54208  22463885.300    91985873.39647
  22565889.800   118584700.22809  22565885.320    92403702.70247
  21550733.500   113249948.08109  21550732.620    88246749.47248
  24399709.000   128221195.80108  24399713.620    99912571.30445
 15 03 03 00 32 30.0000000  0  7G16G18G19G21G22G27G31
  20605102.140   108280573.20009  20605098.660    84374471.44448
  22200590.080   116665136.83609  22200586.140    90907941.15947
  23388316.360   122906450.44108  23388311.900    95771256.33546
  22476600.120   118115346.62708  22476596.540    92037923.85247
  22550805.560   118505433.80609  22550801.160    92341936.75547
  21542082.420   113204487.13109  21542081.580    88211325.37048
  24418631.780   128320633.27908  24418636.740    99990054.35845
 15 03 03 00 33  0.0000000  0  7G16G18G19G21G22G27G31
  20598765.760   108247275.48309  20598762.380    84348525.18148
  22195895.040   116640464.10309  22195891.140    90888715.68247
  23374792.600   122835382.94708  23374788.300    95715879.11047
  22489344.880   118182320.91608  22489341.340    92090111.61247
  22535766.200   118426402.97509  22535761.940    92280354.39647
  21533458.700   113159169.80009  21533457.880    88176013.17748
  24437545.100   128420020.31508  24437550.180   100067498.10746
 15 03 03 00 33 30.0000000  0  7G16G18G19G21G22G27G31
  20592513.260   108214418.26309  20592509.860    84322922.14949
  22191286.120   116616244.57209  22191282.380    90869843.33647
  23361290.560   122764430.19308  23361286.600    95660591.28347
  22502123.880   118249475.32508  22502120.440    92142439.71847
  22520773.380   118347616.19709  22520769.340    92218962.21047
  21524863.420   113114001.58209  21524862.580    88140817.17048
  24456449.560   128519359.89408  24456454.580   100144904.82645
 15 03 03 00 34  0.0000000  0  7G16G18G19G21G22G27G31
  20586343.820   108181997.27409  20586340.300    84297659.04748
  22186762.460   116592473.50809  22186758.980    90851320.45647
  23347809.340   122693586.76908  23347805.500    95605388.65347
  22514935.640   118316801.97508  22514932.320    92194902.04347
  22505826.360   118269069.67809  22505822.460    92157757.24147
  21516295.440   113068976.53809  21516294.580    88105732.73448
  24475343.380   128618643.01108  24475348.180   100222267.53045
 15 03 03 00 34 30.0000000  0  7G16G18G19G21G22G27G31
  20580257.460   108150013.12109  20580253.860    84272736.33248
  22182324.160   116569151.20909  22182320.920    90833147.24847
  23334348.640   122622850.79908  23334344.840    95550269.74246
  22527779.600   118384298.01008  22527776.400    92247496.35047
  22490925.540   118190765.53209  22490921.700    92096741.12447
  21507754.620   113024093.97909  21507753.760    88070759.32048
  24494225.820   128717866.32108  24494230.380   100299583.59245
 15 03 03 00 35  0.0000000  0  7G16G18G19G21G22G27G31
  20574255.800   108118474.10109  20574252.160    84248160.47248
  22177972.740   116546285.26209  22177969.720    90815329.63547
  23320909.740   122552228.97108  23320905.960    95495239.78546
  22540656.660   118451967.96108  22540653.580    92300226.17447
  22476072.560   118112712.55109  22476068.800    92035920.70747
  21499242.160   112979360.54009  21499241.340    88035902.10148
  24513097.480   128817033.61208  24513102.080   100376855.97945
 15 03 03 00 35 30.0000000  0  7G16G18G19G21G22G27G31
  20568338.080   108087376.13009  20568334.460    84223928.28348
  22173707.360   116523871.41909  22173704.500    90797864.32647
  23307491.620   122481716.06208  23307487.680    95440294.69447
  22553565.400   118519804.55208  22553562.420    92353085.85347
  22461266.760   118034907.80209  22461263.120    91975293.72347
  21490757.040   112934770.70709  21490756.160    88001156.78548
  24531956.760   128916136.32408  24531961.460   100454078.05045
 15 03 03 00 36  0.0000000  0  7G16G18G19G21G22G27G31
  20562505.200   108056723.92109  20562501.520    84200043.44148
  22169528.880   116501913.58709  22169526.060    90780754.34347
  23294094.780   122411315.04208  23294090.560    95385436.78846
  22566506.100   118587809.04408  22566503.220    92406076.36247
  22446509.340   117957357.31709  22446505.660    91914864.86747
  21482299.880   112890327.77609  21482298.940    87966525.94248
  24550803.760   129015174.96608  24550808.680   100531250.17145
 15 03 03 00 36 30.0000000  0  7G16G18G19G21G22G27G31
  20556757.040   108026516.81609  20556753.260    84176505.43048
  22165437.020   116480410.49709  22165434.100    90763998.70147
  23280718.780   122341023.44608  23280714.360    95330664.13046
  22579478.000   118655977.11708  22579475.140    92459194.33547
  22431800.360   117880061.13209  22431796.520    91854634.15547
  21473870.240   112846029.49909  21473869.240    87932007.81248
  24569637.520   129114144.49908  24569642.780   100608368.41145
 15 03 03 00 37  0.0000000  0  7G16G18G19G21G22G27G31
  20551094.720   107996760.91809  20551090.840    84153319.01548
  22161432.880   116459367.94209  22161429.780    90747601.92147
  23267364.240   122270844.82308  23267359.880    95275979.53146
  22592481.420   118724310.69408  22592478.540    92512441.27447
  22417141.120   117803026.07709  22417137.080    91794606.92847
  21465468.960   112801880.24609  21465467.920    87897605.80448
  24588458.320   129213046.51108  24588464.100   100685434.04345
 15 03 03 00 37 30.0000000  0  7G16G18G19G21G22G27G31
  20545517.680   107967453.06009  20545513.800    84130481.72948
  22157515.720   116438782.10309  22157512.360    90731561.03247
  23254030.440   122200775.27308  23254026.020    95221379.92746
  22605515.320   118792804.12308  22605512.340    92565812.78147
  22402531.200   117726250.21409  22402526.980    91734781.68047
  21457095.200   112757875.61609  21457094.160    87863316.49748
  24607264.840   129311873.32508  24607271.220   100762441.07546
 15 03 03 00 38  0.0000000  0  7G16G18G19G21G22G27G31
  20540026.740   107938598.10709  20540022.960    84107997.35449
  22153686.300   116418657.27709  22153682.700    90715879.36647
  23240717.980   122130817.96808  23240713.620    95166867.78647
  22618579.900   118861458.60208  22618576.820    92619309.78047
  22387971.760   117649739.68309  22387967.320    91675163.17048
  21448749.560   112714019.13209  21448748.620    87829142.62248
  24626057.400   129410626.09608  24626064.160   100839390.35846
 15 03 03 00 38 30.0000000  0  7G16G18G19G21G22G27G31
  20534621.420   107910193.30609  20534617.760    84085863.74648
  22149943.920   116398990.15709  22149940.100    90700554.36247
  23227426.020   122060968.50708  23227421.840    95112439.68246
  22631673.940   118930268.13108  22631670.860    92672927.58647
  22373462.420   117573492.45209  22373457.840    91615749.82447
  21440431.260   112670306.56709  21440430.380    87795080.89548
  24644834.600   129509297.52708  24644841.540   100916276.23444
 15 03 03 00 39  0.0000000  0  7G16G18G19G21G22G27G31
  20529303.280   107882246.69609  20529299.740    84064087.16348
  22146290.000   116379788.42809  22146286.100    90685591.99447
  23214155.840   121991233.55808  23214151.820    95058100.80447
  22644798.360   118999237.10008  22644795.200    92726669.62847
  22359004.840   117497517.70909  22359000.280    91556548.80547
  21432141.640   112626744.63309  21432140.760    87761136.53748
  24663597.080   129607891.63008  24663604.140   100993101.84744
 15 03 03 00 39 30.0000000  0  7G16G18G19G21G22G27G31
  20524071.860   107854755.68509  20524068.400    84042665.60048
  22142723.940   116361048.91409  22142720.020    90670989.79847
  23200906.600   121921608.89408  23200902.640    95003847.85847
  22657952.040   119068359.74008  22657948.820    92780531.42947
  22344598.720   117421813.86009  22344594.340    91497558.87447
  21423879.940   112583329.29009  21423879.100    87727306.41848
  24682343.540   129706401.42208  24682350.560   101069861.74344
 15 03 03 00 40  0.0000000  0  6G16G18G19G21G22G27
  20518926.220   107827715.32209  20518922.800    84021595.17348
  22139244.660   116342765.62109  22139240.740    90656743.08647
  23187677.060   121852087.71808  23187673.160    94949675.54947
  22671133.320   119137627.31608  22671129.980    92834506.15847
  22330243.280   117346376.67509  22330239.140    91438776.72847
  21415644.920   112540054.08409  21415644.120    87693585.49248
 15 03 03 00 40 30.0000000  0  6G16G18G19G21G22G27
  20513869.800   107801143.55309  20513866.360    84000889.90148
  22135855.520   116324956.33209  22135851.740    90642865.74147
  23174470.440   121782686.70608  23174466.560    94895596.88247
  22684345.120   119207055.27608  22684341.560    92888605.87547
  22315942.320   117271225.63709  22315938.240    91380217.55747
  21407439.720   112496935.83409  21407439.020    87659986.87148
 15 03 03 00 41  0.0000000  0  6G16G18G19G21G22G27
  20508901.280   107775033.65909  20508897.760    83980544.53148
  22132555.180   116307613.73509  22132551.580    90629352.04547
  23161285.080   121713397.46008  23161281.280    94841605.30147
  22697585.380   119276632.85208  22697581.640    92942822.16647
  22301694.680   117196354.81909  22301690.640    91321876.74047
  21399262.800   112453966.34709  21399262.180    87626504.16448
 15 03 03 00 41 30.0000000  0  6G16G18G19G21G22G27
  20504021.040   107749387.79309  20504017.440    83960560.73648
  22129343.940   116290739.52409  22129340.560    90616203.32247
  23148121.080   121644220.56208  23148117.400    94787701.25747
  22710853.980   119346359.14108  22710849.980    92997154.33947
  22287501.100   117121767.63309  22287497.120    91263756.93547
  21391114.360   112411146.46109  21391113.780    87593138.03348
 15 03 03 00 42  0.0000000  0  6G16G18G19G21G22G27
  20499229.160   107724206.46209  20499225.600    83940938.92348
  22126221.760   116274333.24609  22126218.600    90603419.22147
  23134978.280   121575155.03408  23134974.700    94733883.99347
  22724150.340   119416231.31908  22724146.200    93051600.19247
  22273361.860   117047465.48309  22273357.880    91205859.22547
  21382994.320   112368475.41309  21382993.620    87559887.87348
 15 03 03 00 42 30.0000000  0  6G16G18G19G21G22G27
  20494525.940   107699490.88809  20494522.400    83921680.03648
  22123188.820   116258395.69009  22123185.800    90591000.36747
  23121856.620   121506200.77608  23121853.100    94680153.43947
  22737474.080   119486247.39908  22737469.820    93106158.18147
  22259277.260   116973450.72309  22259273.280    91148185.45847
  21374902.640   112325953.23709  21374901.880    87526753.72348
 15 03 03 00 43  0.0000000  0  6G16G18G19G21G22G27
  20489912.060   107675244.70609  20489908.520    83902786.90748
  22120245.640   116242929.53209  22120242.700    90578948.82647
  23108756.580   121437359.89308  23108752.960    94626511.23047
  22750825.280   119556407.70409  22750820.940    93160828.54447
  22245248.220   116899728.16409  22245244.320    91090739.38448
  21366839.720   112283582.28009  21366838.980    87493737.40748
 15 03 03 00 43 30.0000000  0  6G16G18G19G21G22G27
  20485386.980   107651465.26009  20485383.400    83884257.47948
  22117391.720   116227931.93909  22117388.720    90567262.41647
  23095677.380   121368628.37808  23095673.560    94572954.24846
  22764202.760   119626706.41508  22764198.420    93215606.75946
  22231274.440   116826296.09609  22231270.740    91033519.67047
  21358804.880   112241358.56709  21358804.100    87460835.82748
 15 03 03 00 44  0.0000000  0  6G16G18G19G21G22G27
  20480951.220   107628155.70409  20480947.680    83866094.19348
  22114627.640   116213405.78409  22114624.500    90555943.34647
  23082619.400   121300008.31108  23082615.440    94519484.10346
  22777606.540   119697143.33709  22777602.160    93270492.66746
  22217356.800   116753158.77409  22217353.180    90976529.61147
  21350798.400   112199284.24609  21350797.660    87428050.65048
 15 03 03 00 44 30.0000000  0  6G16G18G19G21G22G27
  20476605.860   107605321.13509  20476602.380    83848301.02948
  22111954.020   116199354.94909  22111950.740    90544994.67347
  23069583.200   121231502.59708  23069579.060    94466103.06347
  22791036.980   119767720.61808  22791032.540    93325487.94747
  22203496.420   116680322.26409  22203492.820    90919773.95747
  21342821.060   112157362.99109  21342820.280    87395384.75048
 15 03 03 00 45  0.0000000  0  6G16G18G19G21G22G27
  20472350.960   107582961.59009  20472347.480    83830878.00448
  22109370.640   116185778.57309  22109367.200    90534415.69447
  23056568.500   121163110.05708  23056564.320    94412810.21747
  22804493.440   119838434.83708  22804489.020    93380589.93247
  22189693.560   116607787.72509  22189689.840    90863253.59847
  21334872.620   112115593.64109  21334871.740    87362837.21648
 15 03 03 00 45 30.0000000  0  6G16G18G19G21G22G27
  20468186.760   107561078.17709  20468183.220    83813825.99848
  22106877.560   116172677.12009  22106874.060    90524206.78947
  23043575.360   121094830.63008  23043571.280    94359605.51347
  22817975.600   119909284.30808  22817971.240    93435797.30846
  22175948.620   116535557.58009  22175944.760    90806970.42947
  21326953.120   112073976.31709  21326952.180    87330408.14748
 15 03 03 00 46  0.0000000  0  6G16G18G19G21G22G27
  20464113.480   107539672.46609  20464109.880    83797146.22148
  22104475.140   116160052.71709  22104471.660    90514369.61047
  23030603.640   121026664.05508  23030599.720    94306488.74447
  22831483.100   119980267.10908  22831478.840    93491108.58246
  22162262.180   116463634.46909  22162258.080    90750926.51247
  21319062.600   112032511.35209  21319061.700    87298097.80348
 15 03 03 00 46 30.0000000  0  6G16G18G19G21G22G27
  20460131.180   107518744.73909  20460127.460    83780838.89948
  22102163.160   116147904.01109  22102159.740    90504903.10247
  23017653.320   120958609.94208  23017649.400    94253459.59847
  22845015.460   120051380.49008  22845011.260    93546521.60246
  22148634.500   116392019.85409  22148630.020    90695122.97247
  21311200.880   111991197.89509  21311200.020    87265905.50948
 15 03 03 00 47  0.0000000  0  6G16G18G19G21G22G27
  20456240.200   107498297.15709  20456236.400    83764905.71248
  22099941.980   116136232.90509  22099938.760    90495808.75747
  23004724.540   120890668.89508  23004720.620    94200518.55147
  22858572.520   120122623.76508  22858568.340    93602035.83246
  22135066.100   116320716.82409  22135061.260    90639562.21847
  21303368.220   111950037.12509  21303367.380    87233832.18848
 15 03 03 00 47 30.0000000  0  6G16G18G19G21G22G27
  20452440.840   107478331.40309  20452437.020    83749347.98348
  22097811.860   116125040.13209  22097808.800    90487087.13147
  22991817.340   120822841.14308  22991813.380    94147665.80447
  22872153.940   120193995.05108  22872149.820    93657649.82746
  22121557.380   116249728.02109  22121552.400    90584246.32547
  21295564.740   111909029.42509  21295563.900    87201878.14648
 15 03 03 00 48  0.0000000  0  6G16G18G19G21G22G27
  20448733.120   107458847.27409  20448729.360    83734165.54848
  22095772.680   116114324.60709  22095769.740    90478737.39247
  22978931.400   120755125.25008  22978927.380    94094900.22047
  22885759.120   120265491.02008  22885755.060    93713360.97146
  22108108.700   116179054.83309  22108103.640    90529176.37047
  21287790.180   111868173.53409  21287789.240    87170042.40548
 15 03 03 00 48 30.0000000  0  6G16G18G19G21G22G27
  20445117.660   107439847.99809  20445114.000    83719360.91848
  22093824.900   116104089.14609  22093821.940    90470761.72747
  22966067.040   120687522.91008  22966063.040    94042223.11047
  22899388.220   120337112.55208  22899384.240    93769169.95646
  22094720.860   116108701.43009  22094715.740    90474355.59247
  21280044.880   111827471.69209  21280043.860    87138326.69248
 15 03 03 00 49  0.0000000  0  6G16G18G19G21G22G27
  20441594.920   107421335.90409  20441591.260    83704935.90748
  22091968.900   116094335.42409  22091965.880    90463161.44747
  22953224.540   120620035.52408  22953220.760    93989635.58547
  22913041.060   120408858.63208  22913037.180    93825075.98846
  22081394.540   116038671.38009  22081389.440    90419786.77047
  21272329.160   111786925.37809  21272328.140    87106732.17048
 15 03 03 00 49 30.0000000  0  6G16G18G19G21G22G27
  20438164.860   107403310.76109  20438161.180    83690890.34248
  22090204.440   116085062.45209  22090201.320    90455935.76647
  22940403.560   120552661.52708  22940399.860    93937136.40747
  22926716.940   120480726.00308  22926713.120    93881076.53047
  22068129.940   115968965.41809  22068124.920    90365470.49448
  21264642.720   111746533.11509  21264641.680    87075257.69048
 15 03 03 00 50  0.0000000  0  6G16G18G19G21G22G27
  20434827.620   107385773.25809  20434823.940    83677224.75448
  22088531.440   116076270.18609  22088528.240    90449084.67747
  22927604.080   120485400.22608  22927600.260    93884725.03547
  22940415.440   120552712.27208  22940411.640    93937169.72746
  22054927.380   115899585.50709  22054922.480    90311408.27748
  21256985.520   111706294.77309  21256984.580    87043903.15648
 15 03 03 00 50 30.0000000  0  6G16G18G19G21G22G27
  20431583.960   107368727.37009  20431580.200    83663942.24349
  22086950.500   116067961.98809  22086947.220    90442610.76747
  22914826.640   120418254.40408  22914822.720    93832403.64447
  22954136.720   120624818.30308  22954132.880    93993356.23646
  22041787.800   115830536.80909  22041782.980    90257604.14348
  21249358.200   111666213.25409  21249357.260    87012670.81648
 15 03 03 00 51  0.0000000  0  6G16G18G19G21G22G27
  20428433.400   107352171.14509  20428429.640    83651041.27548
  22085461.160   116060135.55109  22085457.840    90436512.25247
  22902070.580   120351221.09008  22902066.660    93780169.93647
  22967879.980   120697039.77408  22967876.060    94049632.69946
  22028711.020   115761818.63309  22028706.300    90204057.55247
  21241760.180   111626285.88809  21241759.340    86981558.59348
 15 03 03 00 51 30.0000000  0  6G16G18G19G21G22G27
  20425376.460   107336107.00309  20425372.700    83638523.75848
  22084063.660   116052792.28509  22084060.440    90430790.23947
  22889336.200   120284301.78408  22889332.260    93728025.06147
  22981645.100   120769375.84408  22981641.160    94105998.46246
  22015697.780   115693434.70709  22015693.180    90150771.42347
  21234191.760   111586514.03209  21234191.040    86950567.54948
 15 03 03 00 52  0.0000000  0  6G16G18G19G21G22G27
  20422413.960   107320539.05209  20422410.200    83626392.87748
  22082758.680   116045935.20509  22082755.480    90425447.07447
  22876623.960   120217498.60108  22876619.920    93675970.65747
  22995432.260   120841827.46808  22995428.280    94162454.26246
  22002749.100   115625389.78009  22002744.580    90097749.44748
  21226653.560   111546900.67409  21226652.900    86919700.00548
 15 03 03 00 52 30.0000000  0  6G16G18G19G21G22G27
  20419545.060   107305463.00509  20419541.320    83614645.30849
  22081545.400   116039559.85709  22081542.240    90420479.28647
  22863932.940   120150806.73608  22863928.780    93624003.00947
  23009240.160   120914388.09908  23009236.180    94218995.00047
  21989864.520   115557681.32009  21989860.020    90044989.66748
  21219144.660   111507441.03309  21219143.980    86888952.24549
 15 03 03 00 53  0.0000000  0  7G04G16G18G19G21G22G27
  24604995.040   129300121.16408  24604998.200   100753350.21044
  20416770.280   107290881.69209  20416766.560    83603283.24848
  22080424.200   116033668.14709  22080421.020    90415888.35446
  22851263.520   120084228.04308  22851259.220    93572123.54146
  23023068.780   120987057.52208  23023064.740    94275620.51846
  21977044.820   115490313.50509  21977040.200    89992495.32147
  21211665.440   111468137.22509  21211664.720    86858325.91148
 15 03 03 00 53 30.0000000  0  7G04G16G18G19G21G22G27
  24585283.740   129196538.06908  24585286.800   100672636.61844
  20414093.240   107276813.92809  20414089.560    83592321.36048
  22079398.400   116028277.70509  22079395.140    90411688.03747
  22838618.940   120017779.60408  22838614.500    93520345.58247
  23036921.120   121059851.31908  23036916.940    94332342.96246
  21964293.680   115423305.83809  21964289.020    89940281.60847
  21204219.180   111429006.60209  21204218.440    86827834.52948
 15 03 03 00 54  0.0000000  0  7G04G16G18G19G21G22G27
  24565596.560   129093082.56708  24565599.680   100592022.43445
  20411508.580   107263231.65309  20411504.980    83581737.76949
  22078462.680   116023360.42909  22078459.320    90407856.41147
  22825993.620   119951432.48009  22825989.080    93468646.56047
  23050791.220   121132738.70608  23050786.920    94389138.31846
  21951606.040   115356631.68509  21951601.380    89888327.77248
  21196800.380   111390020.47109  21196799.640    86797455.73248
 15 03 03 00 54 30.0000000  0  7G04G16G18G19G21G22G27
  24545936.720   128989770.74508  24545939.840   100511520.16245
  20409019.400   107250150.78709  20409015.820    83571544.88149
  22077619.860   116018931.42509  22077616.460    90404405.25447
  22813390.420   119885201.75208  22813385.840    93417038.22147
  23064681.580   121205732.75908  23064677.200    94446016.79047
  21938984.980   115290307.69609  21938980.380    89836646.78048
  21189412.000   111351194.10109  21189411.220    86767201.41649
 15 03 03 00 55  0.0000000  0  7G04G16G18G19G21G22G27
  24526304.420   128886603.58108  24526307.360   100431130.61545
  20406625.760   107237571.77209  20406622.160    83561743.05749
  22076869.940   116014990.56109  22076866.600    90401334.47147
  22800809.260   119819087.14108  22800804.660    93365520.38447
  23078591.820   121278831.84508  23078587.480    94502977.11946
  21926431.020   115224336.55309  21926426.520    89785240.74448
  21182054.080   111312527.53409  21182053.160    86737071.63848
 15 03 03 00 55 30.0000000  0  7G04G16G18G19G21G22G27
  24506700.080   128783583.71608  24506702.880   100350855.81946
  20404328.180   107225497.43209  20404324.480    83552334.47649
  22076213.160   116011539.22209  22076209.980    90398645.13048
  22788250.280   119753089.84508  22788245.720    93314093.95048
  23092521.880   121352035.17808  23092517.560    94560018.67147
  21913944.860   115158721.69209  21913940.500    89734112.31948
  21174726.820   111274022.25809  21174725.820    86707067.53449
 15 03 03 00 56  0.0000000  0  7G04G16G18G19G21G22G27
  24487123.740   128680711.35708  24487126.500   100270695.93744
  20402126.580   107213927.79909  20402122.820    83543319.17348
  22075649.500   116008577.09509  22075646.460    90396336.99647
  22775713.420   119687209.11008  22775708.920    93262758.32747
  23106471.340   121425340.65208  23106467.060    94617139.81446
  21901526.820   115093464.41209  21901522.480    89683262.52848
  21167430.120   111235677.75109  21167429.100    86677188.70048
