     2.11           OBSERVATION DATA    M                   RINEX VERSION / TYPE
SPIDER V4,0,0,3554                      2015 03 19 00:26    PGM / RUN BY / DATE 
ABKD                                                        MARKER NAME         
ABKD                                                        MARKER NUMBER       
                                                            OBSERVER / AGENCY   
496503              LEICA GRX1200+GNSS  8.20/4.007          REC # / TYPE / VERS 
10301028            LEIAR25         NONE                    ANT # / TYPE        
  5126847.8297   206786.8373  3776118.0908                  APPROX POSITION XYZ 
        0.0000        0.0000        0.0000                  ANTENNA: DELTA H/E/N
     1     1                                                WAVELENGTH FACT L1/2
     4    C1    L1    P2    L2                              # / TYPES OF OBSERV 
    30.000                                                  INTERVAL            
  2015    03    04    00    00    0.0000000     GPS         TIME OF FIRST OBS   
  2015    03    04    23    59   30.0000000     GPS         TIME OF LAST OBS    
    16                                                      LEAP SECONDS        
    54                                                      # OF SATELLITES     
   G 1   823   822   822   822                              PRN / # OF OBS      
   G 2   930   930   929   929                              PRN / # OF OBS      
   G 3   828   828   826   826                              PRN / # OF OBS      
   G 4   836   835   835   835                              PRN / # OF OBS      
   G 5   665   665   665   665                              PRN / # OF OBS      
   G 6   733   733   733   733                              PRN / # OF OBS      
   G 7   700   699   699   699                              PRN / # OF OBS      
   G 9   784   784   783   783                              PRN / # OF OBS      
   G10   774   774   774   774                              PRN / # OF OBS      
   G11   787   787   787   787                              PRN / # OF OBS      
   G12   809   809   808   808                              PRN / # OF OBS      
   G13   811   810   810   810                              PRN / # OF OBS      
   G14   937   937   936   936                              PRN / # OF OBS      
   G15   724   724   724   724                              PRN / # OF OBS      
   G16   685   685   685   685                              PRN / # OF OBS      
   G17   933   933   933   933                              PRN / # OF OBS      
   G18   933   933   933   933                              PRN / # OF OBS      
   G19   780   780   779   779                              PRN / # OF OBS      
   G20   784   783   783   783                              PRN / # OF OBS      
   G21   710   710   709   709                              PRN / # OF OBS      
   G22   791   791   791   791                              PRN / # OF OBS      
   G23   715   715   715   715                              PRN / # OF OBS      
   G24   832   832   831   831                              PRN / # OF OBS      
   G25   847   847   847   847                              PRN / # OF OBS      
   G27   820   820   820   820                              PRN / # OF OBS      
   G28   910   910   910   910                              PRN / # OF OBS      
   G29   730   730   730   730                              PRN / # OF OBS      
   G30   688   688   687   687                              PRN / # OF OBS      
   G31   792   792   791   791                              PRN / # OF OBS      
   G32   734   734   729   729                              PRN / # OF OBS      
   R 1   704   704   704   704                              PRN / # OF OBS      
   R 2   967   967   967   967                              PRN / # OF OBS      
   R 3   984   984   984   979                              PRN / # OF OBS      
   R 4   872   872   872   871                              PRN / # OF OBS      
   R 5   651   651   651   651                              PRN / # OF OBS      
   R 6   753   753   751   749                              PRN / # OF OBS      
   R 7   769   769   769   769                              PRN / # OF OBS      
   R 8   688   688   688   687                              PRN / # OF OBS      
   R 9   901   901   900   899                              PRN / # OF OBS      
   R10   669   669   669   668                              PRN / # OF OBS      
   R11   650   650   644   644                              PRN / # OF OBS      
   R12   749   749   747   747                              PRN / # OF OBS      
   R13   766   766   766   766                              PRN / # OF OBS      
   R14   711   711   711   711                              PRN / # OF OBS      
   R15   982   982   982   982                              PRN / # OF OBS      
   R16  1016  1016  1016  1015                              PRN / # OF OBS      
   R17   927   927   917   916                              PRN / # OF OBS      
   R18   986   986   986   986                              PRN / # OF OBS      
   R19   820   820   820   820                              PRN / # OF OBS      
   R20   593   593   593   593                              PRN / # OF OBS      
   R21   771   771   771   770                              PRN / # OF OBS      
   R22   829   829   829   827                              PRN / # OF OBS      
   R23   800   800   794   794                              PRN / # OF OBS      
   R24   691   691   683   681                              PRN / # OF OBS      
BIT 2 OF LLI FLAGS DATA COLLECTED UNDER A/S CONDITION       COMMENT             
SNR is mapped to RINEX snr flag value [2-9]                 COMMENT             
Lx:     = 25dBHz -> 1; 26-27dBHz -> 2; 28-31dBHz -> 3       COMMENT             
       32-35dBHz -> 4; 36-38dBHz -> 5; 39-41dBHz -> 6       COMMENT             
       42-44dBHz -> 7; 45-48dBHz -> 8; >=49dBHz -> 9        COMMENT             
                                                            END OF HEADER       
 15 03 04 00 00  0.0000000  0  7G16G18G19G21G22G27G31
  21150946.440   111148993.48209  21150943.260    86609604.32848
  22412877.260   117780572.35109  22412874.500    91777106.45846
  24521309.260   128860343.67007  24521308.040   100410649.64746
  21627395.680   113652739.30309  21627391.820    88560566.41048
  23476135.800   123368062.10008  23476133.340    96131008.24046
  22291139.700   117140786.03709  22291139.340    91278556.62548
  23561154.660   123814651.93308  23561154.480    96478926.20146
 15 03 04 00 00 30.0000000  0  7G16G18G19G21G22G27G31
  21140118.540   111092092.38909  21140115.380    86565265.82448
  22403182.340   117729625.47309  22403179.480    91737407.61846
  24505942.460   128779592.67407  24505941.840   100347726.89446
  21636755.300   113701924.45108  21636751.420    88598892.49548
  23458668.600   123276270.30608  23458665.600    96059482.37046
  22279784.160   117081112.46909  22279783.860    91232057.76348
  23579682.020   123912012.54508  23579681.860    96554791.36346
 15 03 04 00 01  0.0000000  0  7G16G18G19G21G22G27G31
  21129355.980   111035534.80409  21129352.900    86521194.97748
  22393554.500   117679031.20309  22393551.560    91697983.53646
  24490590.440   128698917.90907  24490589.540   100284863.50845
  21646167.660   113751386.92308  21646163.860    88637434.67348
  23441216.200   123184556.38008  23441212.760    95988017.16346
  22268451.440   117021559.09909  22268451.140    91185652.56448
  23598224.140   124009450.14308  23598223.880    96630716.50546
 15 03 04 00 01 30.0000000  0  7G16G18G19G21G22G27G31
  21118659.960   110979327.02909  21118656.960    86477396.71048
  22383994.960   117628795.98809  22383992.120    91658839.25646
  24475253.860   128618323.99107  24475252.440   100222063.15745
  21655633.340   113801129.47609  21655629.580    88676195.10248
  23423779.860   123092927.44208  23423776.200    95916618.18346
  22257142.460   116962130.62009  22257142.200    91139344.67748
  23616781.240   124106966.31808  23616780.800    96706702.86846
 15 03 04 00 02  0.0000000  0  7G16G18G19G21G22G27G31
  21108030.940   110923471.38809  21108027.980    86433872.85148
  22374504.200   117578922.19709  22374501.480    91619976.59447
  24459932.840   128537810.86008  24459930.720   100159325.79845
  21665152.040   113851150.47408  21665148.320    88715172.49948
  23406360.060   123001386.40108  23406356.400    95845287.69446
  22245857.360   116902827.18509  22245857.080    91093134.23348
  23635352.660   124204557.91308  23635351.980    96782747.99846
 15 03 04 00 02 30.0000000  0  7G16G18G19G21G22G27G31
  21097468.260   110867964.06709  21097465.280    86390620.40348
  22365081.540   117529405.91809  22365078.900    91581392.49946
  24444626.480   128457373.22507  24444623.760   100096647.20145
  21674722.120   113901441.67608  21674718.500    88754360.44948
  23388956.240   122909929.99708  23388952.900    95774023.14246
  22234595.080   116843643.10209  22234594.620    91047016.79448
  23653936.800   124302216.70608  23653936.020    96858845.48346
 15 03 04 00 03  0.0000000  0  7G16G18G19G21G22G27G31
  21086974.380   110812818.51609  21086971.440    86347649.83348
  22355729.460   117480260.28509  22355726.800    91543097.22847
  24429336.440   128377021.87208  24429332.960   100034035.90745
  21684345.600   113952013.29409  21684341.960    88793766.90248
  23371571.200   122818572.38008  23371568.160    95702835.56246
  22223357.700   116784589.68309  22223357.160    91001001.15948
  23672535.100   124399950.71508  23672534.360    96935001.56146
 15 03 04 00 03 30.0000000  0  7G16G18G19G21G22G27G31
  21076548.840   110758032.09909  21076545.920    86304959.12148
  22346447.480   117431482.81509  22346444.760    91505088.84847
  24414062.000   128296752.77408  24414058.020    99971488.67245
  21694021.180   114002858.67608  21694017.500    88833386.68548
  23354204.600   122727311.61008  23354201.720    95631723.45946
  22212144.280   116725662.55308  22212143.820    90955083.94648
  23691146.280   124497752.68208  23691145.680    97011210.58346
 15 03 04 00 04  0.0000000  0  7G16G18G19G21G22G27G31
  21066192.140   110703607.19709  21066189.140    86262550.11948
  22337235.960   117383075.79809  22337233.220    91467369.12147
  24398803.000   128216565.69108  24398798.800    99909005.32345
  21703748.560   114053976.19808  21703744.860    88873218.51648
  23336857.020   122636150.36908  23336854.060    95560688.87846
  22200954.800   116666861.79909  22200954.460    90909265.19948
  23709769.920   124595619.54908  23709769.560    97087470.18046
 15 03 04 00 04 30.0000000  0  7G16G18G19G21G22G27G31
  21055905.320   110649549.13609  21055902.140    86220426.96648
  22328095.900   117335044.65809  22328093.220    91429942.28447
  24383560.320   128136464.31807  24383555.840    99846588.75145
  21713528.040   114105367.87008  21713524.440    88913263.97048
  23319529.560   122545094.80008  23319526.520    95489736.63546
  22189790.060   116608191.04109  22189789.680    90863547.74648
  23728406.100   124693552.10308  23728405.840    97163780.94846
 15 03 04 00 05  0.0000000  0  7G16G18G19G21G22G27G31
  21045688.700   110595860.11209  21045685.420    86178591.38048
  22319027.740   117287391.32909  22319025.140    91392809.85447
  24368333.540   128056448.50007  24368329.100    99784238.88545
  21723359.260   114157031.53709  21723355.720    88953521.38048
  23302222.700   122454147.74608  23302219.540    95418868.97246
  22178650.160   116549650.32109  22178649.720    90817931.62148
  23747054.080   124791546.99308  23747053.900    97240140.28346
 15 03 04 00 05 30.0000000  0  7G16G18G19G21G22G27G31
  21035541.580   110542536.68109  21035538.280    86137040.65748
  22310030.800   117240112.30309  22310028.240    91355969.08147
  24353122.080   127976513.01708  24353117.580    99721951.58046
  21733240.880   114208959.82509  21733237.360    88993984.97648
  23284935.960   122363306.12108  23284932.700    95348083.42046
  22167534.000   116491234.25709  22167533.500    90772412.63048
  23765712.260   124889595.97008  23765712.280    97316541.73646
 15 03 04 00 06  0.0000000  0  7G16G18G19G21G22G27G31
  21025465.540   110489586.83609  21025462.200    86095781.04548
  22301106.620   117193215.59709  22301103.980    91319426.23247
  24337926.780   127896663.89107  24337922.960    99659731.61346
  21743173.800   114261157.07009  21743170.120    89034658.16048
  23267671.080   122272579.12108  23267667.820    95277387.19946
  22156442.760   116432949.12409  22156442.160    90726995.67448
  23784381.380   124987702.29308  23784381.640    97392987.87146
 15 03 04 00 06 30.0000000  0  7G16G18G19G21G22G27G31
  21015460.560   110437010.44309  21015457.200    86054812.44348
  22292255.160   117146700.92909  22292252.440    91283181.07347
  24322747.420   127816898.97907  24322744.420    99597577.26145
  21753156.940   114313618.51709  21753153.140    89075537.21648
  23250428.080   122181966.57408  23250424.760    95206780.16346
  22145376.020   116374792.62409  22145375.380    90681678.94148
  23803060.520   125085860.77208  23803061.020    97469474.64546
 15 03 04 00 07  0.0000000  0  7G16G18G19G21G22G27G31
  21005526.940   110384808.66209  21005523.500    86014135.73848
  22283476.540   117100569.31609  22283473.820    91247234.39547
  24307583.960   127737217.26808  24307581.540    99535487.67545
  21763189.840   114366341.64209  21763185.920    89116620.16448
  23233207.300   122091470.94208  23233203.940    95136264.20946
  22134333.500   116316764.06009  22134333.040    90636461.89948
  23821748.940   125184067.54208  23821749.620    97545999.01846
 15 03 04 00 07 30.0000000  0  7G16G18G19G21G22G27G31
  20995664.240   110332979.38009  20995660.660    85973749.29848
  22274770.360   117054818.47109  22274767.660    91211584.40647
  24292435.880   127657614.72908  24292433.700    99473459.78045
  21773271.520   114419321.41909  21773267.560    89157903.11648
  23216008.320   122001090.42308  23216005.080    95065837.97046
  22123314.460   116258859.31309  22123314.180    90591341.34848
  23840445.300   125282315.38608  23840446.000    97622555.40946
 15 03 04 00 08  0.0000000  0  7G16G18G19G21G22G27G31
  20985873.260   110281527.16209  20985869.580    85933656.66548
  22266137.500   117009452.79009  22266134.880    91176234.55547
  24277303.580   127578094.02208  24277301.680    99411495.71145
  21783401.960   114472557.64809  21783398.100    89199385.88048
  23198832.260   121910830.36708  23198829.100    94995505.56746
  22112319.520   116201081.07809  22112319.300    90546319.37148
  23859149.320   125380603.90908  23859150.200    97699143.47346
 15 03 04 00 08 30.0000000  0  7G16G18G19G21G22G27G31
  20976154.220   110230453.29109  20976150.540    85893858.85848
  22257578.260   116964473.55709  22257575.640    91141185.82947
  24262186.880   127498654.35508  24262184.940    99349594.76446
  21793580.760   114526047.96108  21793577.020    89241066.64048
  23181679.520   121820692.71708  23181676.300    94925268.58146
  22101348.600   116143428.81409  22101348.300    90501395.56448
  23877860.320   125478929.89208  23877861.480    97775760.71146
 15 03 04 00 09  0.0000000  0  7G16G18G19G21G22G27G31
  20966508.460   110179764.38809  20966504.720    85854361.01148
  22249093.720   116919887.05809  22249091.160    91106443.12747
  24247086.500   127419300.30808  24247084.260    99287760.53445
  21803808.400   114579794.86808  21803804.720    89282947.34047
  23164551.440   121730684.34908  23164548.060    94855132.31346
  22090402.520   116085907.06509  22090402.200    90456573.43248
  23896578.580   125577294.61808  23896579.940    97852408.12846
 15 03 04 00 09 30.0000000  0  7G16G18G19G21G22G27G31
  20956935.640   110129458.83509  20956931.900    85815161.89548
  22240683.660   116875691.85809  22240681.080    91072005.34647
  24232001.760   127340028.39208  24231998.880    99225990.27246
  21814084.000   114633793.73408  21814080.320    89325024.37847
  23147447.920   121640804.92908  23147444.320    94785096.51146
  22079480.640   116028512.56109  22079480.280    90411850.46448
  23915303.080   125675691.44508  23915304.500    97929080.57646
 15 03 04 00 10  0.0000000  0  7G16G18G19G21G22G27G31
  20947436.340   110079539.79009  20947432.640    85776263.94648
  22232348.620   116831890.81209  22232345.920    91037874.69147
  24216932.800   127260839.80308  24216929.360    99164284.96346
  21824407.280   114688043.23108  21824403.640    89367296.71148
  23130369.540   121551057.74308  23130365.860    94715163.75646
  22068583.200   115971246.57909  22068582.900    90367227.65448
  23934033.560   125774119.41808  23934035.120    98005777.25646
 15 03 04 00 10 30.0000000  0  7G16G18G19G21G22G27G31
  20938011.040   110030009.87709  20938007.420    85737669.22148
  22224088.960   116788486.16809  22224086.160    91004052.91647
  24201879.720   127181735.16008  24201875.880    99102645.07845
  21834778.100   114742542.20809  21834774.480    89409763.45547
  23113316.960   121461446.53708  23113313.380    94645336.96146
  22057710.320   115914109.73209  22057710.180    90322705.45848
  23952769.400   125872575.70808  23952771.280    98082495.97046
 15 03 04 00 11  0.0000000  0  7G16G18G19G21G22G27G31
  20928660.740   109980874.04209  20928657.100    85699381.57048
  22215905.660   116745483.02809  22215902.840    90970544.00047
  24186843.120   127102717.71408  24186838.760    99041073.10645
  21845196.640   114797291.89809  21845193.100    89452425.55048
  23096291.320   121371977.21508  23096287.860    94575620.71146
  22046862.720   115857105.28509  22046862.640    90278286.42948
  23971510.740   125971060.30408  23971512.560    98159236.74146
 15 03 04 00 11 30.0000000  0  7G16G18G19G21G22G27G31
  20919385.580   109932132.80209  20919381.940    85661401.38748
  22207798.820   116702881.27809  22207795.940    90937347.85547
  24171822.560   127023785.65207  24171818.320    98979567.66246
  21855662.240   114852288.89408  21855658.740    89495280.34348
  23079292.780   121282650.37708  23079289.440    94506015.47946
  22036040.060   115800231.64209  22036039.860    90233969.31948
  23990256.740   126069568.96508  23990258.360    98235996.24346
 15 03 04 00 12  0.0000000  0  7G16G18G19G21G22G27G31
  20910185.800   109883787.58209  20910182.200    85623729.79348
  22199768.640   116660682.37609  22199765.740    90904465.61747
  24156817.980   126944938.45107  24156814.280    98918128.35745
  21866174.420   114907530.60008  21866170.980    89538325.82748
  23062321.820   121193468.42108  23062318.480    94436523.13646
  22025242.240   115743488.58109  22025242.000    90189753.97148
  24009006.820   126168098.36008  24009008.040    98312771.89646
 15 03 04 00 12 30.0000000  0  7G16G18G19G21G22G27G31
  20901061.300   109835838.14209  20901057.760    85586366.59348
  22191815.000   116618885.70809  22191812.020    90871896.79747
  24141829.220   126866174.03007  24141826.240    98856753.54645
  21876732.400   114963013.14908  21876728.960    89581558.97248
  23045378.500   121104431.59608  23045375.120    94367143.89146
  22014468.740   115686873.74209  22014468.500    90145638.54348
  24027759.780   126266642.96108  24027760.620    98389559.37845
 15 03 04 00 13  0.0000000  0  7G16G18G19G21G22G27G31
  20892012.040   109788284.00509  20892008.520    85549311.42548
  22183937.840   116577491.24709  22183934.920    90839641.39747
  24126856.100   126787490.30008  24126853.460    98795441.61646
  21887335.500   115018732.54709  21887331.980    89624976.68548
  23028463.000   121015540.40608  23028459.600    94297878.13647
  22003719.340   115630385.35309  22003718.960    90101621.63548
  24046514.660   126365197.64908  24046515.360    98466354.70046
 15 03 04 00 13 30.0000000  0  7G16G18G19G21G22G27G31
  20883038.720   109741128.87909  20883035.180    85512567.17848
  22176137.840   116536502.16509  22176134.960    90807701.88347
  24111898.960   126708888.85308  24111896.360    98734193.79545
  21897983.640   115074688.72209  21897980.040    89668578.89947
  23011576.200   120926799.37308  23011572.740    94228729.36947
  21992994.440   115574025.16609  21992993.940    90057704.62948
  24065271.380   126463761.72708  24065272.160    98543157.33646
 15 03 04 00 14  0.0000000  0  7G16G18G19G21G22G27G31
  20874142.300   109694377.59009  20874138.700    85476137.61048
  22168415.720   116495922.40009  22168412.920    90776081.30647
  24096958.180   126630372.41708  24096955.420    98673012.20646
  21908676.880   115130881.92808  21908673.240    89712365.81748
  22994719.060   120838213.73009  22994715.460    94159701.68547
  21982294.440   115517795.90309  21982293.920    90013889.65048
  24084029.720   126562334.77908  24084030.860    98619966.92846
 15 03 04 00 14 30.0000000  0  7G16G18G19G21G22G27G31
  20865323.280   109648033.12309  20865319.720    85440025.04848
  22160772.100   116455755.08709  22160769.340    90744782.12947
  24082033.640   126551941.99008  24082030.880    98611897.65946
  21919415.140   115187311.89408  21919411.480    89756337.21947
  22977892.140   120749787.23508  22977888.400    94090798.00746
  21971619.500   115461698.73309  21971619.020    89970177.57948
  24102789.320   126660914.69608  24102790.760    98696781.84646
 15 03 04 00 15  0.0000000  0 15G16G18G19G21G22G27G31R01R02R14R15R16
                                R17R18R24
  20856582.140   109602098.34209  20856578.640    85404231.71348
  22153207.560   116416002.93809  22153204.760    90713806.45147
  24067125.480   126473599.04108  24067122.700    98550851.26146
  21930198.320   115243977.94708  21930194.640    89800492.58047
  22961096.140   120661523.92408  22961092.320    94022021.46946
  21960969.960   115405735.15709  21960969.580    89926569.61448
  24121549.920   126759500.12608  24121551.620    98773601.05246
  22630747.380   120974325.09808  22630751.380    94091167.97005
  22156182.120   118229658.06209  22156185.500    91956426.97007
  22730359.060   121165536.01006  22730368.480    94239866.44505
  20145064.960   107649117.48508  20145068.680    83727107.88208
  21362342.440   114113815.49708  21362344.220    88755191.19007
  20134440.880   107743473.35508  20134441.160    83800491.33808
  21186013.920   113092529.50609  21186016.840    87960918.84008
  23115488.320   123608892.50907  23115489.080    96140246.30205
 15 03 04 00 15 30.0000000  0 15G16G18G19G21G22G27G31R01R02R14R15R16
                                R17R18R24
  20847919.520   109556576.17509  20847916.040    85368759.89848
  22145722.620   116376668.85009  22145719.840    90683156.53547
  24052233.820   126395344.05308  24052230.880    98489873.39145
  21941026.200   115300878.76709  21941022.500    89844830.87747
  22944331.780   120573427.18809  22944327.920    93953374.75846
  21950345.960   115349906.18309  21950345.640    89883066.53648
  24140311.120   126858088.96908  24140313.200    98850422.87146
  22633164.120   120987244.60308  22633168.220    94101216.50805
  22140462.140   118145773.38908  22140465.500    91891183.38907
  22755758.780   121300929.68106  22755768.100    94345172.14005
  20157535.360   107715755.44408  20157539.020    83778937.38108
  21349338.700   114044351.04608  21349340.300    88701163.30207
  20139619.200   107771183.53508  20139619.520    83822043.69208
  21177121.600   113045061.57309  21177124.700    87923999.37008
  23130847.740   123691026.78907  23130848.600    96204128.51305
 15 03 04 00 16  0.0000000  0 15G16G18G19G21G22G27G31R01R02R14R15R16
                                R17R18R24
  20839334.760   109511462.94609  20839331.220    85333606.73748
  22138316.380   116337748.48909  22138313.540    90652829.01447
  24037357.880   126317171.94507  24037354.780    98428960.10746
  21951897.320   115358007.04308  21951893.600    89889346.41947
  22927598.480   120485493.79708  22927594.600    93884855.31447
  21939746.560   115294206.47009  21939746.100    89839664.17648
  24159071.500   126956672.78808  24159073.720    98927240.77045
  22635719.700   121000905.64508  22635723.800    94111841.76106
  22124825.880   118062335.34108  22124829.220    91826287.18607
  22781182.360   121436450.40306  22781191.560    94450576.64005
  20170137.120   107783094.94308  20170140.680    83831312.52508
  21336463.960   113975575.95608  21336465.580    88647671.57808
  20144832.780   107799082.39308  20144833.080    83843742.80208
  21168270.640   112997814.89909  21168273.840    87887251.96908
  23146201.140   123773129.23507  23146202.140    96267985.95705
 15 03 04 00 16 30.0000000  0 15G16G18G19G21G22G27G31R01R02R14R15R16
                                R17R18R24
  20830828.380   109466761.44709  20830824.740    85298774.40448
  22130989.400   116299244.71509  22130986.480    90622826.10247
  24022497.740   126239083.31708  24022494.160    98368111.87845
  21962811.560   115415361.86709  21962807.840    89934038.47547
  22910897.080   120397727.79708  22910893.140    93816466.29647
  21929171.900   115238636.96109  21929171.440    89796363.27648
  24177830.680   127055249.84908  24177832.960    99004053.39745
  22638414.140   121015308.88308  22638418.220    94123044.30506
  22109274.260   117979348.99709  22109277.620    91761742.27907
  22806629.300   121572094.91906  22806638.480    94556077.40105
  20182869.700   107851133.79808  20182873.220    83884231.61608
  21323718.920   113907494.28508  21323720.720    88594719.17808
  20150081.500   107827169.26608  20150081.720    83865588.14508
  21159461.240   112950789.75009  21159464.340    87850676.86808
  23161548.860   123855200.60307  23161549.940    96331819.19905
 15 03 04 00 17  0.0000000  0 15G16G18G19G21G22G27G31R01R02R14R15R16
                                R17R18R24
  20822400.740   109422473.88609  20822397.020    85264264.61948
  22123741.940   116261159.14509  22123739.060    90593149.06347
  24007653.720   126161078.70008  24007649.880    98307329.10746
  21973768.600   115472941.59308  21973764.940    89978905.79148
  22894228.060   120310132.25408  22894224.260    93748210.12847
  21918622.220   115183198.07609  21918621.740    89753164.14848
  24196587.900   127153817.06708  24196590.400    99080858.33846
  22641247.440   121030454.21208  22641251.580    94134824.03006
  22093808.060   117896818.75809  22093811.400    91697552.15107
  22832098.660   121707858.99606  22832108.000    94661671.09605
  20195732.740   107919869.54208  20195736.180    83937692.73008
  21311104.220   113840109.33808  21311106.220    88542308.67308
  20155365.020   107855442.81008  20155365.420    83887578.66708
  21150693.200   112903985.36009  21150696.100    87814273.47908
  23176890.840   123937240.82107  23176891.980    96395628.19005
 15 03 04 00 17 30.0000000  0 15G16G18G19G21G22G27G31R01R02R14R15R16
                                R17R18R24
  20814052.600   109378604.22209  20814048.880    85230080.46548
  22116574.680   116223495.64409  22116572.000    90563800.90947
  23992826.380   126083160.00308  23992822.200    98246613.29545
  21984768.520   115530746.75708  21984764.940    90023948.76647
  22877592.360   120222711.57009  22877588.600    93680090.18847
  21908097.900   115127892.10409  21908097.460    89710068.59348
  24215343.060   127252373.92008  24215345.880    99157655.14646
  22644219.960   121046343.87408  22644224.100    94147182.67306
  22078428.580   117814751.09809  22078431.980    91633721.77207
  22857590.200   121843740.73906  22857599.560    94767356.29605
  20208725.840   107989300.32608  20208729.260    83991694.42308
  21298620.880   113773426.08908  21298623.040    88490443.93907
  20160683.820   107883904.63308  20160684.180    83909715.64408
  21141966.860   112857403.38309  21141969.680    87778043.08108
  23192227.300   124019251.26207  23192228.400    96459414.08405
 15 03 04 00 18  0.0000000  0 15G16G18G19G21G22G27G31R01R02R14R15R16
                                R17R18R24
  20805784.080   109335153.06409  20805780.420    85196222.43048
  22109487.660   116186254.29009  22109485.240    90534781.70347
  23978015.300   126005326.23808  23978011.040    98185963.66546
  21995810.700   115588774.10408  21995807.200    90069164.87348
  22860990.260   120135467.13309  22860986.580    93612107.58747
  21897598.700   115072717.95509  21897598.200    89667075.76648
  24234095.380   127350916.02208  24234098.440    99234440.48345
  22647331.380   121062976.34708  22647335.600    94160119.06806
  22063136.320   117733148.79209  22063139.720    91570253.35307
  22883102.780   121979734.31306  22883112.060    94873128.44805
  20221848.160   108059421.79308  20221851.560    84046233.31308
  21286269.220   113707446.39508  21286271.440    88439126.41207
  20166037.260   107912551.97508  20166037.620    83931996.92508
  21133281.680   112811041.63909  21133284.480    87741983.95908
  23207557.840   124101230.35107  23207558.900    96523175.58505
 15 03 04 00 18 30.0000000  0 15G16G18G19G21G22G27G31R01R02R14R15R16
                                R17R18R24
  20797595.780   109292123.18309  20797592.140    85162692.66148
  22102481.560   116149437.74309  22102479.180    90506093.49947
  23963220.460   125927577.95408  23963216.340    98125380.65746
  22006895.000   115647022.43109  22006891.460    90114553.18547
  22844422.300   120048402.34309  22844418.760    93544264.96447
  21887124.680   115017676.58709  21887124.140    89624186.40548
  24252844.580   127449441.84308  24252847.920    99311213.08146
  22650581.800   121080351.90508  22650585.900    94173633.41805
  22047932.160   117652016.78508  22047935.600    91507150.71207
  22908635.740   122115836.44206  22908644.980    94978984.99005
  20235099.180   108130231.20708  20235102.520    84101307.27708
  21274049.880   113642173.91108  21274052.120    88388358.93607
  20171425.280   107941384.44108  20171425.680    83954422.17008
  21124637.720   112764900.11609  21124640.640    87706096.13908
  23222882.660   124183178.73307  23222883.620    96586913.22205
 15 03 04 00 19  0.0000000  0 15G16G18G19G21G22G27G31R01R02R14R15R16
                                R17R18R24
  20789488.460   109249518.47509  20789484.840    85129494.19548
  22095557.100   116113049.59609  22095554.680    90477739.13447
  23948442.240   125849917.56308  23948438.160    98064866.10346
  22018021.540   115705492.31709  22018017.960    90160114.13248
  22827889.440   119961522.19009  22827885.960    93476566.21547
  21876676.320   114962770.49709  21876675.800    89581402.47048
  24271590.760   127547950.51008  24271594.200    99387972.31845
  22653971.600   121098472.70308  22653975.700    94187727.39206
  22032817.340   117571361.62008  22032820.800    91444418.97307
  22934188.680   122252044.81406  22934197.780    95084924.13005
  20248478.420   108201726.08508  20248481.840    84156914.37708
  21261963.920   113577613.80308  21261966.180    88338145.53407
  20176848.060   107970403.22308  20176848.460    83976992.33608
  21116035.400   112718980.48209  21116038.380    87670380.88408
  23238201.960   124265098.12807  23238203.080    96650628.31305
 15 03 04 00 19 30.0000000  0 15G16G18G19G21G22G27G31R01R02R14R15R16
                                R17R18R24
  20781461.900   109207338.35409  20781458.260    85096626.56448
  22088714.060   116077089.11309  22088711.480    90449718.00047
  23933680.200   125772342.78008  23933676.280    98004418.27346
  22029189.400   115764179.35509  22029185.760    90205844.28347
  22811391.840   119874827.09508  22811388.260    93409011.66347
  21866253.240   114907997.50409  21866252.840    89538722.23048
  24290332.980   127646436.86708  24290336.300    99464714.14345
  22657500.220   121117335.72608  22657504.440    94202398.66606
  22017792.140   117491184.76708  22017795.620    91382059.25207
  22959760.380   122388353.14306  22959769.280    95190940.98105
  20261985.520   108273903.71308  20261988.980    84213052.50108
  21250011.480   113513766.53508  21250013.800    88288486.56207
  20182305.020   107999604.61708  20182305.400    83999704.52908
  21107474.120   112673279.53709  21107477.020    87634835.72408
  23253515.360   124346985.81907  23253516.400    96714318.69705
 15 03 04 00 20  0.0000000  0 15G16G18G19G21G22G27G31R01R02R14R15R16
                                R17R18R24
  20773516.500   109165585.10309  20773512.860    85064091.57848
  22081952.680   116041557.63409  22081949.900    90422031.16147
  23918934.460   125694853.95008  23918930.540    97944037.40045
  22040398.160   115823081.35809  22040394.400    90251741.95247
  22794930.040   119788319.80509  22794926.240    93341603.46147
  21855855.560   114853358.04209  21855855.400    89496146.05048
  24309070.380   127744898.23008  24309073.600    99541436.47645
  22661167.780   121136940.90908  22661172.000    94217647.16006
  22002857.540   117411490.90408  22002860.860    91320075.18207
  22985350.100   122524757.17906  22985358.900    95297032.22905
  20275619.360   108346758.32008  20275622.780    84269717.16508
  21238193.240   113450635.37508  21238195.580    88239384.56308
  20187796.040   108028987.98408  20187796.380    84022558.27008
  21098953.720   112627796.87909  21098956.440    87599460.34208
  23268822.900   124428842.04507  23268823.800    96777984.61805
 15 03 04 00 20 30.0000000  0 15G16G18G19G21G22G27G31R01R02R14R15R16
                                R17R18R24
  20765652.420   109124259.57009  20765648.860    85031889.86648
  22075273.080   116006456.13609  22075270.180    90394679.36847
  23904204.940   125617450.23408  23904201.220    97883722.88746
  22051647.460   115882196.96808  22051643.680    90297806.05747
  22778504.360   119702002.29709  22778500.420    93274343.13947
  21845483.180   114798851.47109  21845483.240    89453673.40848
  24327802.280   127843331.07008  24327805.500    99618136.56145
  22664973.940   121157286.85808  22664978.140    94233471.79306
  21988014.000   117332283.19708  21988017.400    91258469.23207
  23010956.940   122661252.01806  23010965.560    95403194.06305
  20289379.280   108420286.58908  20289382.520    84326905.77408
  21226509.460   113388221.98008  21226511.700    88190840.81308
  20193320.580   108058551.05808  20193320.960    84045551.76908
  21090473.760   112582530.76209  21090476.400    87564253.38908
  23284124.360   124510665.30407  23284125.200    96841624.89705
 15 03 04 00 21  0.0000000  0 15G16G18G19G21G22G27G31R01R02R14R15R16
                                R17R18R24
  20757870.960   109083368.16309  20757867.480    85000026.43048
  22068676.480   115971790.77209  22068673.580    90367667.41947
  23889492.320   125540136.00508  23889488.800    97823478.08746
  22062937.780   115941528.39208  22062934.060    90344038.31947
  22762116.120   119615881.70409  22762112.220    93207236.25147
  21835137.060   114744482.52009  21835137.140    89411308.00348
  24346529.080   127941737.09008  24346532.440    99694815.74545
  22668919.580   121178378.18008  22668923.760    94249876.17006
  21973263.220   117253570.25908  21973266.580    91197248.11408
  23036580.840   122797837.91906  23036589.380    95509426.70105
  20303265.480   108494489.26708  20303268.540    84384618.93108
  21214961.340   113326533.80008  21214963.560    88142861.12008
  20198879.340   108088297.51308  20198879.860    84068687.89608
  21082035.100   112537485.22509  21082037.860    87529217.99008
  23299420.420   124592459.57707  23299421.220    96905242.62805
 15 03 04 00 21 30.0000000  0 15G16G18G19G21G22G27G31R01R02R14R15R16
                                R17R18R24
  20750171.840   109042909.28509  20750168.420    84968500.03548
  22062162.460   115937559.43409  22062159.500    90340993.67647
  23874796.100   125462907.53608  23874792.660    97763300.10646
  22074267.960   116001069.32808  22074264.340    90390433.84047
  22745765.100   119529956.89009  22745761.280    93140281.91147
  21824816.520   114690247.59809  21824816.480    89369047.03748
  24365249.360   128040109.50708  24365253.200    99771468.70946
  22673003.740   121200209.92008  22673007.840    94266856.44506
  21958605.180   117175352.34908  21958608.580    91136412.02008
  23062220.320   122934506.59406  23062228.900    95615723.66305
  20317276.460   108569359.23708  20317279.400    84442851.11508
  21203548.840   113265570.09808  21203551.040    88095444.91508
  20204471.520   108118222.31208  20204472.040    84091962.74408
  21073636.900   112492655.37009  21073639.800    87494350.33108
  23314710.320   124674221.22807  23314711.120    96968835.00205
 15 03 04 00 22  0.0000000  0 15G16G18G19G21G22G27G31R01R02R14R15R16
                                R17R18R24
  20742555.800   109002886.68309  20742552.440    84937313.60048
  22055731.500   115903764.79809  22055728.580    90314660.22147
  23860116.720   125385767.07108  23860113.140    97703190.70446
  22085638.300   116060820.73708  22085634.680    90436993.38547
  22729452.200   119444232.57409  22729448.460    93073483.81747
  21814522.060   114636149.00709  21814521.760    89326892.32048
  24383963.000   128138447.75808  24383967.460    99848095.02746
  22677226.580   121222783.80208  22677230.680    94284413.94905
  21944041.140   117097635.81209  21944044.480    91075965.86508
  23087874.900   123071255.93806  23087883.620    95722083.32105
  20331411.760   108644893.98608  20331414.780    84501600.34408
  21192272.880   113205335.29208  21192274.960    88048595.62008
  20210097.160   108148326.51808  20210097.720    84115377.13108
  21065279.500   112448042.76909  21065282.480    87459651.65208
  23329994.340   124755951.74107  23329995.160    97032403.15205
 15 03 04 00 22 30.0000000  0 15G16G18G19G21G22G27G31R01R02R14R15R16
                                R17R18R24
  20735022.120   108963296.96109  20735018.800    84906464.47548
  22049383.180   115870404.32409  22049380.220    90288665.06447
  23845453.340   125308710.06808  23845449.480    97643146.35246
  22097047.520   116120776.41708  22097043.880    90483712.09448
  22713177.100   119358706.53509  22713173.340    93006840.21647
  21804252.740   114582182.26809  21804252.220    89284840.34248
  24402668.660   128236744.47608  24402673.620    99924688.97745
  22681587.320   121246094.58308  22681591.340    94302544.56805
  21929570.840   117020419.60608  21929574.140    91015908.85808
  23113542.920   123208077.11206  23113551.760    95828498.81505
  20345669.960   108721085.78308  20345673.060    84560860.60508
  21181132.880   113145827.45108  21181135.040    88002311.75808
  20215755.300   108178604.13008  20215755.760    84138926.39308
  21056961.720   112403641.90309  21056964.620    87425117.66408
  23345271.620   124837646.30007  23345272.480    97095943.35905
 15 03 04 00 23  0.0000000  0 15G16G18G19G21G22G27G31R01R02R14R15R16
                                R17R18R24
  20727571.940   108924146.19309  20727568.640    84875957.37848
  22043118.520   115837483.30309  22043115.500    90263012.33647
  23830806.520   125231740.26508  23830802.500    97583169.92946
  22108495.820   116180937.28209  22108492.120    90530590.67847
  22696941.060   119273385.46909  22696937.220    92940356.32547
  21794009.220   114528351.58909  21794008.660    89242894.37348
  24421366.620   128335000.69907  24421371.940   100001251.34645
  22686086.440   121270145.34208  22686090.420    94321250.71205
  21915195.820   116943711.90509  21915199.000    90956247.35207
  23139224.400   123344970.07006  23139233.500    95934970.07905
  20360051.260   108797935.66408  20360054.460    84620632.71008
  21170130.200   113087053.29108  21170132.460    87956598.53108
  20221446.340   108209058.04808  20221446.740    84162612.77208
  21048684.240   112359456.11509  21048686.920    87390750.96308
  23360542.820   124919308.43307  23360543.800    97159458.32305
 15 03 04 00 23 30.0000000  0 15G16G18G19G21G22G27G31R01R02R14R15R16
                                R17R18R24
  20720205.820   108885437.11009  20720202.520    84845794.46548
  22036937.880   115805003.63209  22036934.860    90237703.52647
  23816176.460   125154858.95208  23816172.640    97523262.48046
  22119983.140   116241303.29309  22119979.460    90577629.12947
  22680744.740   119188272.88909  22680740.780    92874034.90247
  21783791.800   114474658.13309  21783791.180    89201055.34348
  24440056.680   128433214.60507  24440062.240   100077780.72746
  22690724.080   121294936.73108  22690728.100    94340532.92006
  21900917.040   116867517.75109  21900920.240    90896985.27207
  23164918.660   123481931.30706  23164928.180    96041494.43105
  20374554.980   108875439.99908  20374558.400    84680913.84108
  21159265.580   113029016.33208  21159267.860    87911458.68208
  20227170.320   108239688.26408  20227170.740    84186436.27508
  21040447.140   112315485.48909  21040449.560    87356551.61208
  23375808.060   125000938.61206  23375809.100    97222948.44405
 15 03 04 00 24  0.0000000  0 15G16G18G19G21G22G27G31R01R02R14R15R16
                                R17R18R24
  20712924.240   108847172.37009  20712920.960    84815977.78848
  22030841.720   115772968.10809  22030838.740    90212740.79447
  23801563.420   125078067.16608  23801559.800    97463424.76946
  22131509.320   116301873.77009  22131505.720    90624826.89147
  22664588.780   119103372.60409  22664584.780    92807878.90847
  21773600.680   114421103.21809  21773599.960    89159324.25748
  24458738.540   128531384.28508  24458744.080   100154275.68345
  22695500.280   121320468.74908  22695504.320    94360391.17906
  21886735.520   116791842.32909  21886738.680    90838126.62907
  23190625.260   123618957.77106  23190635.100    96148069.48305
  20389180.600   108953595.83708  20389184.260    84741701.68208
  21148539.660   112971720.48308  21148541.880    87866895.23808
  20232927.220   108270494.63908  20232927.640    84210396.79108
  21032250.500   112271730.37909  21032252.860    87322519.87408
  23391067.480   125082538.01606  23391068.500    97286414.62604
 15 03 04 00 24 30.0000000  0 15G16G18G19G21G22G27G31R01R02R14R15R16
                                R17R18R24
  20705726.580   108809348.30909  20705723.260    84786504.49448
  22024829.260   115741372.32809  22024826.300    90188120.72947
  23786966.280   125001358.93008  23786962.860    97403652.16346
  22143072.880   116362640.59308  22143069.240    90672177.67247
  22648472.600   119018681.64809  22648468.600    92741886.02547
  21763434.840   114367681.29209  21763434.100    89117696.80648
  24477410.380   128629501.23908  24477415.920   100230729.54545
  22700413.900   121346735.16608  22700418.000    94380820.62106
  21872650.740   116716683.46509  21872653.900    90779669.76007
  23216342.140   123756039.33806  23216352.380    96254687.34804
  20403926.460   109032394.00608  20403930.300    84802989.11708
  21137951.760   112915162.10508  21137953.960    87822905.38208
  20238715.740   108301470.37108  20238716.220    84234489.03408
  21024092.900   112228184.19609  21024095.300    87288650.64308
  23406319.960   125164100.27906  23406321.060    97349851.95004
 15 03 04 00 25  0.0000000  0 15G16G18G19G21G22G27G31R01R02R14R15R16
                                R17R18R24
  20698614.180   108771972.10609  20698610.840    84757380.18048
  22018901.820   115710223.46309  22018898.860    90163848.91047
  23772386.300   124924740.31008  23772382.840    97343949.36946
  22154674.620   116423608.24308  22154670.980    90719684.93048
  22632397.720   118934208.03809  22632393.700    92676062.48647
  21753295.380   114314398.37809  21753294.680    89076177.66748
  24496072.720   128727568.74007  24496078.280   100307144.90045
  22705465.820   121373740.56908  22705469.980    94401824.85006
  21858664.620   116642051.17709  21858667.680    90721622.47407
  23242069.700   123893177.65306  23242080.320    96361349.33404
  20418793.060   109111836.98008  20418797.100    84864778.06408
  21127503.520   112859349.83208  21127505.780    87779495.85108
  20244536.880   108332620.24008  20244537.420    84258716.70908
  21015975.180   112184852.01009  21015977.700    87254947.85508
  23421566.720   125245630.91806  23421567.760    97413264.69004
 15 03 04 00 25 30.0000000  0 15G16G18G19G21G22G27G31R01R02R14R15R16
                                R17R18R24
  20691587.100   108735044.20709  20691583.720    84728605.19448
  22013059.340   115679521.04909  22013056.300    90139924.96447
  23757823.060   124848209.35508  23757819.380    97284314.92046
  22166313.820   116484772.80708  22166310.120    90767345.61547
  22616364.420   118849953.04309  22616360.360    92610409.29447
  21743182.100   114261253.00309  21743181.320    89034765.71148
  24514724.880   128825582.33508  24514730.380   100383518.29445
  22710655.560   121401482.51608  22710659.780    94423401.94505
  21844777.680   116567947.54309  21844780.600    90663986.35207
  23267806.880   124030366.78506  23267817.760    96468050.80204
  20433779.460   109191919.43208  20433783.520    84927064.38208
  21117195.020   112804284.31408  21117197.420    87736667.12108
  20250390.080   108363941.37408  20250390.540    84283077.59508
  21007897.180   112141731.45309  21007899.620    87221409.66508
  23436807.320   125327128.52005  23436808.240    97476651.69303
 15 03 04 00 26  0.0000000  0 15G16G18G19G21G22G27G31R01R02R14R15R16
                                R17R18R24
  20684646.020   108698568.13609  20684642.540    84700182.28148
  22007302.440   115649268.47509  22007299.420    90116351.55047
  23743276.940   124771768.70508  23743273.140    97224750.81646
  22177990.700   116546135.26708  22177987.000    90815160.51747
  22600373.740   118765921.68609  22600369.560    92544930.37847
  21733095.480   114208247.69609  21733094.660    88993462.89148
  24533366.480   128923541.11308  24533372.020   100459848.97445
  22715983.400   121429962.44408  22715987.560    94445553.00205
  21830991.080   116494378.93109  21830994.000    90606766.35407
  23293553.280   124167604.94206  23293564.240    96574790.38604
  20448885.220   109272639.40908  20448889.200    84989846.54208
  21107027.260   112749970.35208  21107029.580    87694422.93708
  20256275.460   108395435.08408  20256275.880    84307572.69308
  20999859.120   112098823.99609  20999861.460    87188037.20708
  23452041.880   125408594.57505  23452042.760    97540014.17403
 15 03 04 00 26 30.0000000  0 15G16G18G19G21G22G27G31R01R02R14R15R16
                                R17R18R24
  20677790.320   108662540.45609  20677786.660    84672108.76548
  22001630.520   115619462.17909  22001627.480    90093125.87947
  23728747.060   124695413.41308  23728743.300    97165253.23946
  22189703.760   116607687.64809  22189700.080    90863123.39247
  22584425.040   118682111.03609  22584420.780    92479623.43147
  21723034.560   114155377.54109  21723033.660    88952265.36548
  24551996.020   129021437.32608  24552001.860   100536130.90845
  22721448.060   121459174.04708  22721452.120    94468273.16705
  21817304.300   116421343.84008  21817307.320    90549961.31007
  23319307.000   124304882.84706  23319318.340    96681560.84604
  20464108.580   109353987.58708  20464112.420    85053117.30608
  21096999.760   112696405.03108  21097001.820    87652761.01207
  20262191.920   108427095.05608  20262192.340    84332197.10908
  20991859.800   112056123.49709  20991862.280    87154825.73208
  23467269.400   125490023.63804  23467270.320    97603347.86103
 15 03 04 00 27  0.0000000  0 15G16G18G19G21G22G27G31R01R02R14R15R16
                                R17R18R24
  20671021.120   108626967.42109  20671017.280    84644389.52148
  21996044.580   115590107.50409  21996041.440    90070252.13547
  23714234.200   124619147.32308  23714230.020    97105825.17846
  22201453.580   116669433.21608  22201449.880    90911236.82047
  22568519.560   118598528.06808  22568515.440    92414493.90547
  21713000.260   114102647.01809  21712999.340    88911176.67448
  24570613.980   129119272.67008  24570620.080   100612365.44945
  22727050.260   121489120.95008  22727054.300    94491565.22305
  21803718.880   116348850.44708  21803721.960    90493577.59707
  23345068.100   124442200.10905  23345080.000    96788361.91105
  20479449.600   109435964.72908  20479453.320    85116877.27908
  21087113.680   112643595.04808  21087115.620    87611686.58508
  20268140.060   108458924.57508  20268140.420    84356953.40008
  20983900.020   112013633.70609  20983902.520    87121778.13008
  23482490.840   125571420.09604  23482491.940    97666656.15103
 15 03 04 00 27 30.0000000  0 15G16G18G19G21G22G27G31R01R02R14R15R16
                                R17R18R24
  20664337.840   108591846.35109  20664333.980    84617022.45148
  21990543.960   115561201.08309  21990540.660    90047727.66147
  23699737.580   124542966.44008  23699733.060    97046463.49646
  22213239.080   116731366.30508  22213235.340    90959496.36447
  22552657.100   118515171.45209  22552653.180    92349540.74547
  21702991.860   114050052.33109  21702990.980    88870193.81248
  24589219.040   129217039.98008  24589225.240   100688546.99145
  22732788.960   121519797.78008  22732793.000    94515424.99105
  21790234.940   116276898.67708  21790238.040    90437615.13607
  23370835.220   124579549.24105  23370847.740    96895187.75105
  20494906.760   109518562.72708  20494910.400    85181120.13408
  21077368.540   112591538.48108  21077370.540    87571198.15008
  20274118.920   108490918.48308  20274119.320    84381837.55508
  20975978.720   111971349.62409  20975981.280    87088890.52108
  23497705.360   125652779.43504                                
 15 03 04 00 28  0.0000000  0 15G16G18G19G21G22G27G31R01R02R14R15R16
                                R17R18R24
  20657741.740   108557183.96309  20657737.980    84590012.80248
  21985129.920   115532749.87109  21985126.520    90025557.91547
  23685258.060   124466875.84608  23685253.340    96987172.18646
  22225060.680   116793489.36708  22225056.940    91007903.93847
  22536839.220   118432048.34409  22536835.360    92284769.54947
  21693010.240   113997598.64309  21693009.460    88829320.82548
  24607811.660   129314741.58908  24607818.140   100764677.37546
  22738664.980   121551208.41608  22738668.940    94539855.50605
  21776854.160   116205497.23208  21776857.360    90382080.72907
  23396608.360   124716930.68605  23396621.560    97002038.74005
  20510480.280   109601782.34308  20510483.800    85245846.47708
  21067765.880   112540242.88808  21067767.900    87531301.58208
  20280129.120   108523080.81308  20280129.680    84406852.70608
  20968096.760   111929275.66109  20968099.440    87056166.35908
  23512913.920   125734106.27603                                
 15 03 04 00 28 30.0000000  0 15G16G18G19G21G22G27G31R01R02R14R15R16
                                R17R18R24
  20651233.020   108522981.15509  20651229.380    84563361.27648
  21979802.420   115504753.98509  21979799.060    90003742.96347
  23670795.500   124390874.78308  23670790.800    96927950.62346
  22236917.920   116855799.71508  22236914.200    91056457.45847
  22521066.200   118349160.62809  22521062.320    92220181.78647
  21683055.300   113945285.22209  21683054.460    88788557.15348
  24626391.120   129412374.04207  24626398.000   100840753.94846
  22744677.920   121583350.70508  22744681.860    94564855.08505
  21763577.060   116134648.74408  21763580.340    90326976.39907
  23422386.600   124854339.28805  23422400.520    97108910.84905
  20526169.280   109685618.95808  20526172.740    85311052.71308
  21058305.980   112489709.43208  21058307.940    87491997.79108
  20286170.440   108555409.58608  20286171.080    84431997.30508
  20960253.840   111887409.75509  20960256.640    87023604.02208
  23528116.400   125815399.56903                                
 15 03 04 00 29  0.0000000  0 14G16G18G19G21G22G27G31R01R02R14R15R16
                                R17R18
  20644812.480   108489241.73609  20644808.960    84537070.81548
  21974562.220   115477216.99809  21974558.980    89982285.58647
  23656350.320   124314965.53808  23656345.760    96868800.61146
  22248810.920   116918297.86709  22248807.160    91105157.31147
  22505338.820   118266513.12409  22505334.960    92155781.18547
  21673127.600   113893114.87509  21673126.680    88747904.95748
  24644957.220   129509936.58207  24644964.580   100916776.00846
  22750828.020   121616226.35708  22750831.940    94590425.05505
  21750404.900   116064359.91308  21750408.220    90272307.34807
  23448169.840   124991773.35105  23448184.060    97215802.81505
  20541973.380   109770070.53908  20541976.780    85376737.24308
  21048989.660   112439942.66008  21048991.580    87453290.29808
  20292243.300   108587906.26608  20292243.760    84457272.50308
  20952450.320   111845753.95009  20952453.080    86991205.08808
 15 03 04 00 29 30.0000000  0 14G16G18G19G21G22G27G31R01R02R14R15R16
                                R17R18
  20638479.360   108455961.60409  20638475.920    84511138.24348
  21969408.400   115450134.00809  21969405.200    89961181.97747
  23641921.620   124239142.67008  23641917.320    96809717.90646
  22260738.300   116980976.62008  22260734.540    91153997.89547
  22489656.600   118184102.89409  22489652.720    92091565.46847
  21663226.040   113841082.09109  21663225.200    88707359.94548
  24663508.460   129607421.16308  24663516.100   100992737.40544
  22757113.940   121649828.27608  22757117.740    94616559.90205
  21737337.280   115994628.41009  21737340.660    90218071.76908
  23473956.060   125129223.08605  23473970.640    97322706.98504
  20557890.660   109855127.76708  20557894.160    85442892.83108
  21039816.180   112390939.24008  21039818.080    87415176.52308
  20298346.240   108620564.02908  20298346.600    84482672.98108
  20944684.860   111804301.62709  20944687.620    86958964.39008
 15 03 04 00 30  0.0000000  0 14G16G18G19G21G22G27G31R01R02R14R15R16
                                R17R18
  20632234.880   108423147.27609  20632231.560    84485568.64148
  21964342.300   115423511.61809  21964339.120    89940437.28647
  23627510.360   124163411.35808  23627506.180    96750706.53346
  22272700.660   117043839.35908  22272696.920    91202981.84447
  22474021.140   118101937.89409  22474017.160    92027540.85447
  21653351.700   113789192.39409  21653350.980    88666926.43348
  24682045.140   129704830.11407  24682053.060   101068639.90245
  22763536.420   121684160.34308  22763540.160    94643262.63305
  21724375.880   115925463.19209  21724379.040    90164276.62408
  23499745.440   125266689.73005  23499760.200    97429624.40404
  20573921.480   109940792.09508  20573925.120    85509520.61308
  21030786.960   112342706.53308  21030788.840    87377662.20308
  20304480.020   108653386.96408  20304480.300    84508201.92908
  20936958.380   111763057.23209  20936961.200    86926885.44308
 15 03 04 00 30 30.0000000  0 14G16G18G19G21G22G27G31R01R02R14R15R16
                                R17R18
  20626078.820   108390797.51409  20626075.680    84460361.03248
  21959363.380   115397347.44509  21959360.300    89920049.64147
  23613115.820   124087767.99408  23613111.700    96691763.70846
  22284697.040   117106880.79809  22284693.360    91252105.03747
  22458432.200   118020016.96809  22458428.000    91963706.43247
  21643503.920   113737442.49709  21643503.340    88626601.86148
  24700566.240   129802157.20707  24700574.360   101144478.69846
  22770094.660   121719217.78408  22770098.320    94670529.55105
  21711520.680   115856864.66609  21711523.740    90110922.25308
  23525536.440   125404165.45105  23525551.320    97536548.91604
  20590064.340   110027055.12208  20590068.140    85576614.04808
  21021901.620   112295242.78508  21021903.560    87340745.96108
  20310643.820   108686370.93008  20310644.140    84533856.11808
  20929270.040   111722016.38009  20929272.880    86894964.81208
 15 03 04 00 31  0.0000000  0 13G16G18G19G21G22G27R01R02R14R15R16R17
                                R18
  20620010.220   108358907.21009  20620007.160    84435511.44948
  21954470.660   115371636.29609  21954467.640    89900015.00447
  23598736.860   124012206.42508  23598732.600    96632884.59646
  22296725.940   117170092.88409  22296722.260    91301361.20447
  22442889.020   117938336.32509  22442884.480    91900059.21747
  21633681.700   113685826.44309  21633681.080    88586381.57348
  22776787.200   121754993.03208  22776790.860    94698354.75805
  21698771.120   115788830.12809  21698774.200    90058006.54108
  23551327.240   125541640.11206  23551342.280    97643472.75505
  20606317.380   110113907.01808  20606321.320    85644165.48008
  21013159.460   112248544.09608  21013161.500    87304424.76108
  20316836.240   108719508.44708  20316836.680    84559629.74408
  20921618.480   111681172.00409  20921621.260    86863196.98608
 15 03 04 00 31 30.0000000  0 13G16G18G19G21G22G27R01R02R03R15R16R17
                                R18
  20614032.780   108327495.54609  20614029.700    84411034.82748
  21949667.600   115346396.14809  21949664.540    89880347.37047
  23584376.620   123936743.75608  23584372.200    96574082.54146
  22308790.200   117233490.91409  22308786.520    91350762.25047
  22427395.260   117856915.87509  22427390.520    91836614.74147
  21623888.240   113634361.55809  21623887.560    88546279.08848
  22783617.020   121791501.77608  22783620.660    94726750.43905
  21686131.100   115721380.49309  21686134.220    90005545.73208
  23583801.980   126245944.74606  23583807.000    98191309.51206
  20622683.140   110201361.06408  20622687.100    85712185.24008
  21004564.080   112202629.62408  21004566.120    87268713.50008
  20323060.420   108752815.82608  20323060.900    84585535.46508
  20914006.840   111640540.60609  20914009.580    86831594.79008
 15 03 04 00 32  0.0000000  0 13G16G18G19G21G22G27R01R02R03R15R16R17
                                R18
  20608145.400   108296557.23409  20608142.320    84386927.05648
  21944953.100   115321621.50409  21944950.060    89861042.48847
  23570034.040   123861374.08508  23570029.420    96515352.99246
  22320888.280   117297066.66908  22320884.600    91400301.81247
  22411950.200   117775751.74409  22411945.540    91773370.02747
  21614122.400   113583041.78609  21614121.680    88506289.69048
  22790582.500   121828736.37908  22790586.180    94755710.70006
  21673600.200   115654513.06009  21673603.240    89953537.77408
  23561149.760   126124690.16706  23561155.260    98097001.40906
  20639159.660   110289406.68508  20639163.560    85780665.12808
  20996114.700   112157494.99608  20996116.820    87233608.80408
  20329315.120   108786285.69208  20329315.620    84611567.59008
  20906433.860   111600115.22609  20906436.640    86800152.85308
 15 03 04 00 32 30.0000000  0 13G16G18G19G21G22G27R01R02R03R15R16R17
                                R18
  20602347.400   108266088.63809  20602344.340    84363185.29748
  21940326.540   115297309.06909  21940323.560    89842097.74447
  23555708.220   123786091.90308  23555703.540    96456691.58846
  22333018.760   117360812.78509  22333015.160    91449974.09947
  22396553.300   117694841.16409  22396548.880    91710322.87347
  21604383.320   113531862.37509  21604382.500    88466409.64248
  22797682.480   121866690.27108  22797686.060    94785230.40305
  21661178.060   115588226.05009  21661181.020    89901981.23608
  23538493.940   126003415.13206  23538499.440    98002677.30005
  20655745.220   110378034.62708  20655749.100    85849597.92208
  20987810.700   112113136.94608  20987812.980    87199108.11108
  20335599.060   108819911.96908  20335599.600    84637721.35208
  20898898.360   111559889.70009  20898900.980    86768866.35308
 15 03 04 00 33  0.0000000  0 13G16G18G19G21G22G27R01R02R03R15R16R17
                                R18
  20596639.460   108236093.30809  20596636.420    84339812.31448
  21935788.440   115273461.45309  21935785.460    89823515.21647
