     2.11           OBSERVATION DATA    G                   RINEX VERSION / TYPE
SPIDER V4,0,0,3554                      2015 03 17 00:01    PGM / RUN BY / DATE 
ABZH                                                        MARKER NAME         
ABZH                                                        MARKER NUMBER       
                                                            OBSERVER / AGENCY   
462405              LEICA GRX1200PRO    8.20/2.127          REC # / TYPE / VERS 
103261              LEIAT504                                ANT # / TYPE        
  5106694.6829   270584.9059  3799508.1083                  APPROX POSITION XYZ 
        0.0770        0.0000        0.0000                  ANTENNA: DELTA H/E/N
     1     1                                                WAVELENGTH FACT L1/2
     4    C1    L1    P2    L2                              # / TYPES OF OBSERV 
    30.000                                                  INTERVAL            
  2015    03    04    00    00    0.0000000     GPS         TIME OF FIRST OBS   
  2015    03    04    23    59   30.0000000     GPS         TIME OF LAST OBS    
    16                                                      LEAP SECONDS        
    30                                                      # OF SATELLITES     
   G 1   813   813   813   813                              PRN / # OF OBS      
   G 2   910   910   902   902                              PRN / # OF OBS      
   G 3   835   835   835   835                              PRN / # OF OBS      
   G 4   833   833   830   830                              PRN / # OF OBS      
   G 5   662   662   662   662                              PRN / # OF OBS      
   G 6   779   779   779   779                              PRN / # OF OBS      
   G 7   653   653   653   653                              PRN / # OF OBS      
   G 9   776   776   776   776                              PRN / # OF OBS      
   G10   768   768   768   768                              PRN / # OF OBS      
   G11   783   783   782   782                              PRN / # OF OBS      
   G12   801   801   801   801                              PRN / # OF OBS      
   G13   805   805   805   805                              PRN / # OF OBS      
   G14   893   893   862   862                              PRN / # OF OBS      
   G15   719   719   719   719                              PRN / # OF OBS      
   G16   677   677   666   666                              PRN / # OF OBS      
   G17   914   914   910   910                              PRN / # OF OBS      
   G18   901   901   885   885                              PRN / # OF OBS      
   G19   772   772   772   772                              PRN / # OF OBS      
   G20   779   779   779   779                              PRN / # OF OBS      
   G21   692   692   688   688                              PRN / # OF OBS      
   G22   755   755   755   755                              PRN / # OF OBS      
   G23   732   732   731   731                              PRN / # OF OBS      
   G24   820   820   820   820                              PRN / # OF OBS      
   G25   828   828   828   828                              PRN / # OF OBS      
   G27   816   816   816   816                              PRN / # OF OBS      
   G28   880   880   865   865                              PRN / # OF OBS      
   G29   731   731   731   731                              PRN / # OF OBS      
   G30   698   698   698   698                              PRN / # OF OBS      
   G31   813   813   813   813                              PRN / # OF OBS      
   G32   743   743   741   741                              PRN / # OF OBS      
BIT 2 OF LLI FLAGS DATA COLLECTED UNDER A/S CONDITION       COMMENT             
SNR is mapped to RINEX snr flag value [2-9]                 COMMENT             
Lx:     = 25dBHz -> 1; 26-27dBHz -> 2; 28-31dBHz -> 3       COMMENT             
       32-35dBHz -> 4; 36-38dBHz -> 5; 39-41dBHz -> 6       COMMENT             
       42-44dBHz -> 7; 45-48dBHz -> 8; >=49dBHz -> 9        COMMENT             
                                                            END OF HEADER       
 15 03 04 00 00  0.0000000  0  6G16G18G21G22G27G31
  21162658.420   111210539.66108  21162657.560    86657574.68246
  22382042.660   117618509.43007  22382042.220    91650802.17244
  21592550.560   113469628.49308  21592548.860    88417894.66446
  23483523.980   123406824.38406  23483523.540    96161217.78744
  22331517.860   117352962.52207  22331519.580    91443905.82146
  23606545.480   124053183.70506  23606547.100    96664803.53943
 15 03 04 00 00 30.0000000  0  6G16G18G21G22G27G31
  21151780.460   111153375.47208  21151779.540    86613031.15846
  22372219.880   117566890.29107  22372219.520    91610579.50644
  21601722.300   113517826.71408  21601720.720    88455451.71146
  23465927.340   123314354.89106  23465927.260    96089163.84344
  22319938.840   117292114.97607  22319940.720    91396492.17646
  23625057.860   124150464.79806  23625059.440    96740606.74144
 15 03 04 00 01  0.0000000  0  6G16G18G21G22G27G31
  21140966.780   111096549.66008  21140965.900    86568751.31946
  22362462.520   117515614.94707  22362462.120    91570624.72144
  21610945.080   113566293.03908  21610943.580    88493217.67346
  23448343.560   123221953.20606  23448343.720    96017162.73544
  22308380.400   117231375.10807  22308382.480    91349162.43346
  23643581.940   124247808.15006  23643583.400    96816458.45844
 15 03 04 00 01 30.0000000  0  7G16G18G19G21G22G27G31
  21130220.800   111040078.99408  21130219.880    86524748.19646
  22352773.780   117464700.30107  22352773.560    91530951.01244
  24536274.120   128938994.40904  24536273.900   100471940.08445
  21620221.420   113615040.62708  21620219.980    88531202.80846
  23430776.020   123129636.90506  23430776.260    95945228.10144
  22296845.440   117170758.06407  22296847.540    91301928.39946
  23662119.900   124345225.80006  23662121.460    96892368.08044
 15 03 04 00 02  0.0000000  0  7G16G18G19G21G22G27G31
  21119545.480   110983979.72908  21119544.600    86481034.50246
  22343156.720   117414162.76407  22343156.640    91491571.12344
  24520826.080   128857813.56705  24520826.380   100408682.39444
  21629553.600   113664081.87108  21629552.240    88569416.76946
  23413228.060   123037422.85606  23413228.280    95873373.18044
  22285336.520   117110278.06007  22285338.600    91254801.16146
  23680674.000   124442728.54006  23680675.720    96968343.99743
 15 03 04 00 02 30.0000000  0  7G16G18G19G21G22G27G31
  21108935.800   110928225.14808  21108934.940    86437589.38246
  22333606.240   117363975.37607  22333606.300    91452464.10644
  24505389.800   128776694.65105  24505389.960   100345472.92442
  21638935.720   113713385.60708  21638934.460    88607835.26646
  23395694.760   122945284.89506  23395694.960    95801577.53044
  22273848.200   117049906.43607  22273850.180    91207758.36446
  23699238.260   124540285.23906  23699240.580    97044361.93644
 15 03 04 00 03  0.0000000  0  7G16G18G19G21G22G27G31
  21098396.100   110872838.59908  21098395.240    86394431.04846
  22324126.800   117314161.24207  22324127.040    91413647.93744
  24489969.000   128695658.76705  24489968.940   100282328.15343
  21648371.620   113762971.96408  21648370.440    88646473.98446
  23378180.580   122853247.02506  23378180.700    95729859.86844
  22262384.480   116989664.46207  22262386.460    91160816.58046
  23717816.200   124637913.80306  23717818.900    97120435.87344
 15 03 04 00 03 30.0000000  0  7G16G18G19G21G22G27G31
  21087924.760   110817811.44608  21087923.820    86351552.75446
  22314716.860   117264711.81007  22314717.080    91375115.94044
  24474562.160   128614695.67605  24474561.960   100219240.18645
  21657858.900   113812828.27508  21657857.760    88685323.06446
  23360683.900   122761301.31406  23360683.780    95658213.99344
  22250943.440   116929541.70907  22250945.480    91113967.70846
  23736405.460   124735600.95806  23736408.460    97196555.45044
 15 03 04 00 04  0.0000000  0  7G16G18G19G21G22G27G31
  21077524.020   110763155.33008  21077523.060    86308963.58346
  22305378.600   117215638.69408  22305378.620    91336877.18344
  24459170.900   128533814.42604  24459170.800   100156215.92043
  21667399.000   113862962.22008  21667397.900    88724388.47546
  23343206.900   122669459.66606  23343206.700    95586649.22844
  22239526.880   116869547.58607  22239528.860    91067219.05545
  23755007.360   124833352.88906  23755010.600    97272725.51743
 15 03 04 00 04 30.0000000  0  7G16G18G19G21G22G27G31
  21067193.720   110708869.16608  21067192.720    86266662.67646
  22296111.740   117166940.86107  22296111.620    91298930.84945
  24443794.740   128453012.32805  24443794.860   100093253.34644
  21676991.120   113913369.41608  21676990.040    88763666.80446
  23325749.600   122577721.81506  23325749.320    95515165.34245
  22228134.300   116809679.41607  22228136.220    91020568.57245
  23773620.660   124931164.00206  23773623.780    97348941.69544
 15 03 04 00 05  0.0000000  0  7G16G18G19G21G22G27G31
  21056934.020   110654953.80008  21056932.960    86224650.70947
  22286916.400   117118618.88107  22286916.220    91261277.38945
  24428433.320   128372287.94505  24428433.240   100030351.31343
  21686634.580   113964046.32908  21686633.540    88803155.31646
  23308312.380   122486089.26506  23308312.000    95443763.44944
  22216765.460   116749935.86607  22216767.360    90974015.17545
  23792244.320   125029029.56606  23792246.920    97425200.27144
 15 03 04 00 05 30.0000000  0  7G16G18G19G21G22G27G31
  21046744.520   110601407.58508  21046743.520    86182926.40146
  22277792.200   117070671.00507  22277792.000    91223915.43445
  24413086.080   128291637.75405  24413085.980    99967507.13743
  21696328.340   114014987.41108  21696327.280    88842849.65746
  23290894.960   122394560.62606  23290894.660    95372442.57344
  22205419.640   116690313.34807  22205421.540    90927556.08245
  23810877.020   125126943.11006  23810879.220    97501496.24044
 15 03 04 00 06  0.0000000  0  7G16G18G19G21G22G27G31
  21036626.540   110548237.44308  21036625.580    86141495.13047
  22268740.460   117023104.26107  22268740.260    91186850.46944
  24397753.880   128211066.85105  24397753.880    99904724.65241
  21706073.000   114066195.99508  21706072.000    88882752.44446
  23273498.900   122303144.14206  23273498.640    95301209.07044
  22194097.820   116630817.11907  22194099.660    90881195.40446
  23829519.160   125224906.84006  23829521.200    97577831.30744
 15 03 04 00 06 30.0000000  0  7G16G18G19G21G22G27G31
  21026580.660   110495446.16608  21026579.800    86100359.07447
  22259761.820   116975921.23107  22259761.560    91150084.48644
  24382436.760   128130575.92705  24382436.880    99842004.57344
  21715868.180   114117670.17908  21715867.260    88922862.19546
  23256124.660   122211842.43006  23256124.340    95230065.00644
  22182800.140   116571447.75607  22182801.780    90834933.58646
  23848170.460   125322918.49406  23848172.460    97654203.71144
 15 03 04 00 07  0.0000000  0  7G16G18G19G21G22G27G31
  21016607.160   110443035.21508  21016606.420    86059519.38447
  22250856.400   116929123.21407  22250856.160    91113618.53045
  24367134.860   128050164.30505  24367134.760    99779346.23744
  21725713.440   114169407.82608  21725712.580    88963177.24546
  23238772.780   122120658.32406  23238772.480    95159012.55244
  22171526.520   116512204.99107  22171528.180    90788770.42146
  23866830.400   125420974.45206  23866832.080    97730610.59544
 15 03 04 00 07 30.0000000  0  7G16G18G19G21G22G27G31
  21006705.360   110391001.10908  21006704.640    86018973.32847
  22242023.520   116882706.54207  22242023.320    91077449.72345
  24351847.160   127969826.53105  24351846.760    99716745.49444
  21735607.640   114221402.47908  21735606.940    89003692.55946
  23221442.640   122029588.59606  23221442.400    95088049.24844
  22160275.880   116453083.30307  22160277.600    90742701.59646
  23885497.180   125519066.20606  23885498.700    97807045.35944
 15 03 04 00 08  0.0000000  0  7G16G18G19G21G22G27G31
  20996876.660   110339351.26008  20996876.000    85978726.71147
  22233264.620   116836678.49307  22233264.440    91041583.74344
  24336574.560   127889568.25805  24336574.020    99654206.66044
  21745551.260   114273656.85208  21745550.680    89044410.24846
  23204135.860   121938641.43706  23204135.500    95017181.43443
  22149049.480   116394088.28107  22149051.300    90696731.48445
  23904171.160   125617196.13206  23904172.460    97883509.90244
 15 03 04 00 08 30.0000000  0  7G16G18G19G21G22G27G31
  20987121.560   110288088.28708  20987120.980    85938781.54347
  22224580.160   116791041.65207  22224579.980    91006022.59444
  24321317.000   127809389.95905  24321316.720    99591730.16343
  21755544.180   114326169.93008  21755543.540    89085329.53046
  23186853.220   121847820.09806  23186852.600    94946411.67344
  22137847.320   116335220.75407  22137849.220    90650860.70545
  23922851.780   125715362.39305  23922853.240    97960002.70444
 15 03 04 00 09  0.0000000  0  7G16G18G19G21G22G27G31
  20977439.720   110237210.10508  20977439.180    85899136.21747
  22215969.700   116745793.61607  22215969.520    90970764.41044
  24306073.940   127729287.51704  24306073.980    99529312.71444
  21765585.220   114378935.53608  21765584.540    89126445.58146
  23169594.180   121757122.81306  23169593.360    94875738.55444
  22126668.680   116276476.59907  22126670.660    90605086.05446
  23941537.600   125813557.49505  23941539.800    98036517.99744
 15 03 04 00 09 30.0000000  0  7G16G18G19G21G22G27G31
  20967832.280   110186722.80908  20967831.720    85859795.47547
  22207434.480   116700940.63507  22207434.260    90935814.06645
  24290846.180   127649265.16604  24290845.880    99466957.66143
  21775674.920   114431956.72108  21775674.160    89167760.80046
  23152359.940   121666556.89606  23152359.140    94805167.83444
  22115514.460   116217860.25907  22115516.460    90559411.01346
  23960229.240   125911782.53905  23960232.020    98113056.60045
 15 03 04 00 10  0.0000000  0  7G16G18G19G21G22G27G31
  20958299.780   110136629.33908  20958299.180    85820761.61247
  22198974.820   116656485.35307  22198974.740    90901173.61145
  24275633.800   127569323.94804  24275633.640    99404665.94441
  21785812.980   114485231.96908  21785812.080    89209273.97846
  23135151.340   121576125.43406  23135150.520    94734701.86444
  22104384.740   116159372.81507  22104386.640    90513836.39746
  23978926.500   126010036.35806  23978929.640    98189617.64041
 15 03 04 00 10 30.0000000  0  7G16G18G19G21G22G27G31
  20948842.020   110086928.66608  20948841.420    85782033.82747
  22190590.600   116612426.37307  22190590.540    90866841.95744
  24260436.260   127489460.80904  24260436.140    99342435.00242
  21795998.440   114538756.51808  21795997.440    89250981.42046
  23117968.340   121485828.42806  23117967.440    94664340.62644
  22093278.920   116101011.30907  22093280.780    90468359.91746
  23997628.060   126108312.51006  23997631.380    98266196.04343
 15 03 04 00 11  0.0000000  0  7G16G18G19G21G22G27G31
  20939459.080   110037620.73208  20939458.400    85743612.06047
  22182281.880   116568763.72907  22182281.800    90832819.14444
  24245253.520   127409667.95105  24245251.200    99280248.47344
  21806230.640   114592526.56308  21806229.500    89292880.15946
  23100811.040   121395666.86206  23100810.400    94594084.97943
  22082196.800   116042773.98108  22082198.620    90422980.19946
  24016333.040   126206605.95705  24016336.400    98342787.88844
 15 03 04 00 11 30.0000000  0  7G16G18G19G21G22G27G31
  20930152.080   109988712.13708  20930151.400    85705501.47847
  22174049.780   116525503.48107  22174049.660    90799109.88645
  24230085.860   127329961.72504  24230083.640    99218139.82044
  21816510.000   114646544.82808  21816508.880    89334972.31646
  23083680.780   121305647.34007  23083680.180    94523939.98744
  22071139.120   115984665.39908  22071141.000    90377700.80146
  24035041.700   126304918.49805  24035044.920    98419394.60744
 15 03 04 00 12  0.0000000  0  7G16G18G19G21G22G27G31
  20920922.340   109940209.30608  20920921.600    85667707.07147
  22165895.400   116482651.98007  22165895.380    90765719.13745
  24214934.260   127250340.71804  24214932.400    99156097.49944
  21826837.060   114700813.70608  21826835.920    89377259.74946
  23066578.980   121215777.30506  23066578.320    94453911.45844
  22060106.840   115926690.29708  22060108.700    90332525.41846
  24053754.360   126403251.79406  24053757.440    98496017.49545
 15 03 04 00 12 30.0000000  0  7G16G18G19G21G22G27G31
  20911769.040   109892108.21608  20911768.240    85630225.71146
  22157817.980   116440204.88007  22157817.940    90732643.49544
  24199797.680   127170798.82704  24199796.020    99094116.89342
  21837210.320   114755325.61808  21837209.220    89419736.55546
  23049504.920   121126053.17407  23049504.300    94383996.65144
  22049098.740   115868842.57808  22049100.600    90287449.29146
  24072469.140   126501596.58505  24072472.140    98572649.35044
 15 03 04 00 13  0.0000000  0  7G16G18G19G21G22G27G31
  20902691.640   109844405.97808  20902690.720    85593055.13647
  22149817.020   116398159.72707  22149816.880    90699881.07744
  24184675.620   127091331.78705  24184673.900    99032194.53844
  21847628.640   114810074.12208  21847627.480    89462397.72746
  23032458.360   121036473.06706  23032457.680    94314194.04644
  22038114.100   115811118.14707  22038115.900    90242469.24246
  24091184.620   126599945.32506  24091187.800    98649284.24643
 15 03 04 00 13 30.0000000  0  7G16G18G19G21G22G27G31
  20893691.700   109797110.46508  20893690.600    85556201.48347
  22141894.040   116356523.88208  22141893.760    90667437.57244
  24169568.880   127011945.31905  24169567.400    98970335.00843
  21858092.740   114865063.38108  21858091.500    89505246.49046
  23015440.880   120947045.63207  23015440.060    94244510.38044
  22027154.020   115753522.91307  22027155.860    90197589.85846
  24109901.440   126698301.48305  24109905.140    98725924.90543
 15 03 04 00 14  0.0000000  0  7G16G18G19G21G22G27G31
  20884769.440   109750223.49108  20884768.340    85519666.18747
  22134049.040   116315298.23607  22134048.840    90635313.72145
  24154477.480   126932639.08805  24154476.020    98908538.01044
  21868602.200   114920290.59008  21868600.920    89548280.69046
  22998452.780   120857773.07707  22998452.040    94174947.46844
  22016218.500   115696056.61707  22016220.400    90152810.95446
  24128619.040   126796661.60006  24128623.120    98802568.63643
 15 03 04 00 14 30.0000000  0  7G16G18G19G21G22G27G31
  20875925.660   109703749.08208  20875924.560    85483452.37047
  22126282.920   116274486.98708  22126282.680    90603512.77445
  24139401.700   126853415.24805  24139400.540    98846805.26043
  21879157.020   114975756.57008  21879155.800    89591500.92546
  22981495.060   120768660.24507  22981494.400    94105508.97644
  22005307.960   115638721.51907  22005309.940    90108134.26246
  24147337.220   126895024.68406  24147341.400    98879214.66144
 15 03 04 00 15  0.0000000  0  7G16G18G19G21G22G27G31
  20867159.620   109657683.48808  20867158.580    85447557.11447
  22118594.960   116234086.24007  22118594.640    90572031.68545
  24124340.700   126774268.57006  24124339.400    98785132.54543
  21889755.860   115031454.05508  21889754.720    89634901.56146
  22964567.220   120679704.51607  22964566.680    94036192.88944
  21994421.380   115581512.55707  21994423.540    90063555.88546
  24166054.400   126993382.69705  24166058.560    98955856.66044
 15 03 04 00 15 30.0000000  0  7G16G18G19G21G22G27G31
  20858473.140   109612035.76708  20858472.100    85411987.46247
  22110986.760   116194104.94208  22110986.460    90540877.46844
  24109295.560   126695205.76805  24109294.440    98723525.21243
  21900399.660   115087387.87808  21900398.580    89678486.35445
  22947671.080   120590915.39707  22947670.620    93967006.65944
  21983560.180   115524436.82007  21983562.440    90019081.29646
  24184771.500   127091739.68505  24184775.360    99032497.91643
 15 03 04 00 16  0.0000000  0  7G16G18G19G21G22G27G31
  20849865.860   109566804.36808  20849864.840    85376742.22247
  22103458.040   116154540.98908  22103457.720    90510048.44044
  24094265.720   126616223.92206  24094264.380    98661981.00544
  21911087.460   115143552.86908  21911086.320    89722251.28846
  22930806.420   120502291.79307  22930805.960    93897949.39844
  21972723.760   115467491.22507  21972726.020    89974708.11746
  24203487.340   127190089.39505  24203490.940    99109133.42744
 15 03 04 00 16 30.0000000  0  7G16G18G19G21G22G27G31
  20841337.460   109521987.77608  20841336.580    85341820.21847
  22096008.360   116115392.89807  22096008.120    90479543.44645
  24079250.780   126537319.27806  24079249.440    98600496.93044
  21921818.240   115199943.83508  21921817.080    89766192.29046
  22913973.240   120413833.42407  22913972.740    93829020.87244
  21961911.440   115410672.38907  21961913.600    89930433.70746
  24222200.660   127288425.76205  24222204.260    99185758.51944
 15 03 04 00 17  0.0000000  0  7G16G18G19G21G22G27G31
  20832889.980   109477596.17108  20832889.180    85307229.35147
  22088639.580   116076670.22108  22088639.540    90449369.97245
  24064252.020   126458500.33306  24064251.020    98539079.56844
  21932593.280   115256567.10208  21932592.180    89810314.31746
  22897173.660   120325551.29307  22897173.120    93760229.66245
  21951124.860   115353988.77307  21951126.940    89886264.67246
  24240912.400   127386753.65805  24240916.060    99262377.04244
 15 03 04 00 17 30.0000000  0  7G16G18G19G21G22G27G31
  20824522.660   109433625.75708  20824521.880    85272966.69347
  22081351.040   116038369.09408  22081351.100    90419524.95945
  24049268.460   126379761.34906  24049267.260    98477724.58943
  21943411.200   115313415.47908  21943410.160    89854611.75146
  22880407.060   120237442.07107  22880406.460    93691573.20544
  21940362.960   115297434.95307  21940365.040    89842196.80046
  24259620.900   127485064.84605  24259624.680    99338982.43843
 15 03 04 00 18  0.0000000  0  7G16G18G19G21G22G27G31
  20816236.160   109390079.76908  20816235.360    85239034.75747
  22074143.280   116000492.22308  22074143.320    90390010.52644
  24034300.360   126301103.93406  24034299.180    98416433.15043
  21954271.800   115370488.34908  21954270.800    89899084.11346
  22863674.080   120149509.76707  22863673.400    93623054.60544
  21929625.960   115241012.44407  21929628.200    89798231.23346
  24278326.000   127583357.48405  24278330.080    99415573.42643
 15 03 04 00 18 30.0000000  0  7G16G18G19G21G22G27G31
  20808031.000   109346961.07308  20808030.120    85205435.77547
  22067016.680   115963042.32608  22067016.680    90360828.82145
  24019347.920   126222528.71706  24019346.620    98355205.75443
  21965174.900   115427784.65208  21965173.960    89943730.56946
  22846975.380   120061757.87907  22846974.640    93554676.56444
  21918914.220   115184722.33007  21918916.560    89754368.82346
  24297027.300   127681630.14405  24297031.760    99492148.82444
 15 03 04 00 19  0.0000000  0  7G16G18G19G21G22G27G31
  20799906.980   109304268.92608  20799906.100    85172169.16547
  22059971.280   115926018.42808  22059971.140    90331979.04945
  24004410.760   126144033.54305  24004409.280    98294040.69545
  21976119.740   115485300.29608  21976118.880    89988547.95846
  22830310.980   119974186.75406  22830310.300    93486439.39944
  21908227.400   115128562.54407  21908229.700    89710607.96746
  24315723.480   127779877.48105  24315728.600    99568704.44143
 15 03 04 00 19 30.0000000  0  7G16G18G19G21G22G27G31
  20791864.960   109262007.78908  20791864.120    85139238.42547
  22053007.740   115889424.76207  22053007.520    90303464.53145
  23989489.360   126065621.21405  23989488.060    98232940.22644
  21987106.420   115543035.98308  21987105.600    90033536.79745
  22813682.040   119886801.79706  22813681.360    93418347.30244
  21897565.920   115072535.97007  21897568.240    89666950.91746
  24334414.860   127878099.28505  24334420.400    99645240.12441
 15 03 04 00 20  0.0000000  0  7G16G18G19G21G22G27G31
  20783905.420   109220180.12108  20783904.600    85106645.43547
  22046126.240   115853262.87208  22046126.060    90275286.46945
  23974583.760   125987292.19705  23974582.540    98171904.67144
  21998134.560   115600989.70708  21998133.740    90078695.54746
  22797089.160   119799606.01306  22797088.340    93350402.58144
  21886929.900   115016643.28207  21886932.200    89623398.19546
  24353100.980   127976292.99205  24353107.060    99721753.90044
 15 03 04 00 20 30.0000000  0  7G16G18G19G21G22G27G31
  20776028.680   109178787.88908  20776027.900    85074391.75947
  22039327.380   115817534.93108  22039327.300    90247446.53045
  23959693.820   125909046.89104  23959692.920    98110934.35743
  22009204.120   115659161.27908  22009203.420    90124024.04246
  22780532.940   119712602.44807  22780531.900    93282607.67545
  21876319.440   114960885.02207  21876321.700    89579950.23746
  24371781.480   128074456.24206  24371787.340    99798243.92443
 15 03 04 00 21  0.0000000  0  7G16G18G19G21G22G27G31
  20768234.560   109137829.63208  20768233.780    85042476.23547
  22032610.780   115782239.14907  22032610.720    90219943.34545
  23944819.100   125830881.75404  23944818.420    98050026.56241
  22020314.200   115717545.03808  22020313.420    90169517.87945
  22764013.240   119625790.38407  22764011.980    93214961.96444
  21865733.980   114905257.99708  21865736.180    89536604.53046
  24390455.100   128172582.96305  24390460.500    99874705.44344
 15 03 04 00 21 30.0000000  0  7G16G18G19G21G22G27G31
  20760524.180   109097311.12008  20760523.360    85010903.37247
  22025977.420   115747380.77308  22025977.380    90192781.00345
  23929960.340   125752800.42704  23929960.160    97989184.06641
  22031464.900   115776142.04708  22031464.000    90215177.87346
  22747531.180   119539175.99607  22747529.820    93147470.30245
  21855174.240   114849766.07508  21855176.420    89493364.08646
  24409122.040   128270673.58105  24409127.280    99951138.82943
 15 03 04 00 22  0.0000000  0  7G16G18G19G21G22G27G31
  20752896.700   109057228.70508  20752895.920    84979670.32247
  22019426.580   115712955.15608  22019426.300    90165955.84945
  23915116.760   125674797.91805  23915116.600    97928402.92243
  22042654.960   115834945.95708  22042654.040    90260999.10245
  22731086.180   119452756.65107  22731084.620    93080130.62345
  21844639.260   114794404.22408  21844641.420    89450224.99946
  24427780.600   128368720.34305  24427785.420   100027537.97242
 15 03 04 00 22 30.0000000  0  7G16G18G19G21G22G27G31
  20745353.380   109017588.50408  20745352.720    84948781.86147
  22012959.300   115678969.17808  22012958.960    90139473.29445
  23900289.100   125596879.02904  23900289.200    97867687.01643
  22053884.960   115893960.00208  22053884.040    90306984.05645
  22714679.640   119366539.65907  22714677.940    93012948.60544
  21834129.920   114739177.46908  21834132.140    89407191.17546
  24446431.060   128466725.23305  24446435.620   100103904.58041
 15 03 04 00 23  0.0000000  0  7G16G18G19G21G22G27G31
  20737895.320   108978396.34708  20737894.640    84918242.51847
  22006576.660   115645427.97908  22006576.260    90113337.31745
  23885477.880   125519047.51404  23885478.560    97807039.09043
  22065155.180   115953184.94808  22065154.200    90353133.36646
  22698312.780   119280531.46107  22698311.060    92945929.27644
  21823647.200   114684089.85008  21823649.320    89364265.77946
  24465073.620   128564689.12905  24465078.440   100180239.13143
 15 03 04 00 23 30.0000000  0  7G16G18G19G21G22G27G31
  20730521.560   108939646.81908  20730520.860    84888048.08747
  22000277.500   115612325.25708  22000276.900    90087542.99844
  23870682.320   125441296.38105  23870682.900    97746453.84144
  22076463.840   116012612.62808  22076462.920    90399440.63945
  22681984.720   119194727.35707  22681983.140    92879069.02245
  21813189.540   114629134.38908  21813191.560    89321443.35946
  24483706.240   128662602.06405  24483711.360   100256533.99943
 15 03 04 00 24  0.0000000  0  7G16G18G19G21G22G27G31
  20723232.180   108901341.06308  20723231.420    84858199.44847
  21994061.960   115579662.35308  21994061.260    90062091.39944
  23855902.140   125363625.15705  23855902.300    97685930.83243
  22087810.720   116072240.84608  22087809.700    90445904.18145
  22665695.940   119109129.67707  22665694.420    92812369.57644
  21802757.000   114574310.98108  21802758.920    89278723.84146
  24502328.340   128760460.66205  24502334.240   100332786.48743
 15 03 04 00 24 30.0000000  0  7G16G18G19G21G22G27G31
  20716028.600   108863486.06008  20716027.840    84828702.04947
  21987931.280   115547445.42008  21987930.600    90036987.32845
  23841138.060   125286038.59706  23841138.000    97625473.83743
  22099196.340   116132072.16508  22099195.120    90492525.98045
  22649447.880   119023746.11507  22649446.480    92745836.98445
  21792350.600   114519624.67008  21792352.360    89236111.15446
  24520940.700   128858267.00105  24520947.040   100408998.26943
 15 03 04 00 25  0.0000000  0  7G16G18G19G21G22G27G31
  20708910.380   108826079.64808  20708909.680    84799554.20247
  21981885.100   115515672.38508  21981884.480    90012229.12945
  23826389.640   125208533.48506  23826389.400    97565080.27044
  22110619.740   116192101.73308  22110618.300    90539302.25545
  22633240.460   118938575.35707  22633239.080    92679470.21044
  21781969.660   114465072.28408  21781971.400    89193602.81746
  24539542.160   128956015.11105  24539548.960   100485164.67844
 15 03 04 00 25 30.0000000  0  7G16G18G19G21G22G27G31
  20701879.300   108789130.83208  20701878.540    84770762.91047
  21975924.880   115484351.32008  21975924.280    89987823.13345
  23811657.800   125131116.40506  23811657.400    97504755.32044
  22122081.700   116252334.27708  22122080.180    90586236.70145
  22617075.400   118853627.21907  22617073.820    92613276.90345
  21771615.540   114410660.91308  21771617.280    89151204.34646
  24558133.580   129053709.07705  24558140.360   100561288.87741
 15 03 04 00 26  0.0000000  0  7G16G18G19G21G22G27G31
  20694934.460   108752635.29608  20694933.640    84742324.83947
  21970049.760   115453477.77208  21970049.300    89963765.84945
  23796941.600   125053782.26006  23796941.100    97444494.99444
  22133580.960   116312762.90808  22133579.360    90633323.94745
  22600952.040   118768898.84807  22600950.380    92547254.84744
  21761287.240   114356385.26208  21761288.940    89108911.64146
  24576713.120   129151340.21105  24576719.820   100637364.23044
 15 03 04 00 26 30.0000000  0  7G16G18G19G21G22G27G31
  20688076.260   108716595.22208  20688075.420    84714241.66747
  21964260.200   115423053.78808  21964259.840    89940058.86645
  23782241.440   124976531.63506  23782240.740    97384299.76844
  22145117.040   116373385.29908  22145115.360    90680562.16445
  22584871.080   118684392.99607  22584869.380    92481406.19445
  21750984.900   114302246.12108  21750986.440    89066725.31846
  24595280.380   129248906.29205  24595286.780   100713388.92743
 15 03 04 00 27  0.0000000  0  7G16G18G19G21G22G27G31
  20681305.740   108681015.76008  20681304.840    84686517.40447
  21958556.940   115393083.68008  21958556.680    89916705.54345
  23767557.620   124899367.33806  23767556.920    97324171.80344
  22156690.480   116434203.68708  22156688.720    90727953.09745
  22568833.640   118600115.50107  22568831.880    92415735.47044
  21740709.200   114248246.88008  21740710.580    89024648.00246
  24613835.220   129346408.01005  24613842.220   100789363.32943
 15 03 04 00 27 30.0000000  0  7G16G18G19G21G22G27G31
  20674622.560   108645895.20508  20674621.660    84659150.73047
  21952939.640   115363564.95008  21952939.360    89893703.96645
  23752889.700   124822286.40706  23752888.920    97264108.77745
  22168300.320   116495213.30908  22168298.460    90775493.06046
  22552839.620   118516065.99107  22552837.720    92350242.39545
  21730459.580   114194384.72908  21730460.880    88982677.50546
  24632376.400   129443839.21305  24632384.160   100865282.92044
 15 03 04 00 28  0.0000000  0  7G16G18G19G21G22G27G31
  20668027.740   108611239.22608  20668026.920    84632146.07747
  21947409.460   115334503.60008  21947409.080    89871058.78945
  23738238.260   124745292.93506  23738237.620    97204113.91944
  22179946.800   116556415.67808  22179944.880    90823183.21246
  22536890.160   118432250.57407  22536888.020    92284931.73644
  21720236.840   114140663.88908  21720238.200    88940817.12446
  24650904.280   129541201.11805  24650912.840   100941148.53144
 15 03 04 00 28 30.0000000  0  7G16G18G19G21G22G27G31
  20661521.340   108577047.75808  20661520.540    84605503.37347
  21941966.100   115305898.75008  21941965.820    89848769.31245
  23723603.120   124668385.13706  23723602.520    97144185.79943
  22191629.120   116617807.12008  22191627.260    90871020.68545
  22520985.380   118348670.19407  22520983.260    92219804.21644
  21710040.580   114087082.66708  21710042.160    88899065.54546
  24669418.020   129638489.27905  24669427.360   101016956.77543
 15 03 04 00 29  0.0000000  0  7G16G18G19G21G22G27G31
  20655103.240   108543320.53108  20655102.480    84579222.42447
  21936609.560   115277749.93708  21936609.380    89826835.18845
  23708983.960   124591561.35806  23708983.400    97084323.16844
  22203346.740   116679384.16408  22203345.000    90919002.79545
  22505125.340   118265325.60707  22505123.320    92154860.45044
  21699870.600   114033639.88908  21699872.420    88857421.83246
  24687916.980   129735699.01405  24687926.960   101092703.88543
 15 03 04 00 29 30.0000000  0  6G16G18G19G21G22G27
  20648772.020   108510049.38508  20648771.160    84553296.85047
  21931338.120   115250048.16508  21931337.920    89805249.41445
  23694378.840   124514812.02205  23694378.400    97024518.53644
  22215097.540   116741135.48707  22215096.020    90967120.70745
  22489308.840   118182209.78007  22489306.900    92090094.90144
  21689725.220   113980325.97208  21689727.160    88815878.54746
 15 03 04 00 30  0.0000000  0  6G16G18G19G21G22G27
  20642533.320   108477264.46908  20642532.360    84527750.16747
  21926157.480   115222823.71808  21926157.260    89784035.58845
  23679793.500   124438166.04005  23679793.000    96964794.45944
  22226886.680   116803088.21707  22226885.300    91015395.54945
  22473541.940   118099354.33007  22473539.940    92025532.27145
  21679609.900   113927170.11908  21679611.940    88774458.43746
 15 03 04 00 30 30.0000000  0  6G16G18G19G21G22G27
  20636382.680   108444942.52008  20636381.620    84502564.23447
  21921063.060   115196052.15008  21921062.760    89763174.65245
  23665223.060   124361597.84205  23665222.640    96905130.94144
  22238708.920   116865215.04107  22238707.680    91063806.06845
  22457820.140   118016736.07807  22457818.200    91961154.46045
  21669519.920   113874147.08708  21669521.920    88733141.80546
 15 03 04 00 31  0.0000000  0  6G16G18G19G21G22G27
  20630322.700   108413097.01308  20630321.580    84477749.55547
  21916057.360   115169746.90608  21916057.000    89742677.07845
  23650669.580   124285119.80805  23650669.200    96845537.69444
  22250566.300   116927526.50807  22250565.220    91112360.45645
  22442146.380   117934369.82707  22442144.480    91896973.00745
  21659457.640   113821269.56208  21659459.620    88691938.56947
 15 03 04 00 31 30.0000000  0  6G16G18G19G21G22G27
  20624352.140   108381721.85808  20624351.080    84453301.38047
  21911138.900   115143900.68908  21911138.580    89722537.18545
  23636131.820   124208723.91305  23636131.440    96786008.48244
  22262456.960   116990012.64807  22262455.900    91161050.96045
  22426519.460   117852250.21307  22426517.720    91832983.75245
  21649421.560   113768529.60008  21649423.520    88650842.51446
 15 03 04 00 32  0.0000000  0  6G16G18G19G21G22G27
  20618472.340   108350823.50508  20618471.300    84429224.74247
  21906309.060   115118519.73808  21906308.720    89702759.83145
  23621610.860   124132415.96305  23621610.560    96726547.80644
  22274381.480   117052677.05707  22274380.540    91209880.36145
  22410940.900   117770385.10807  22410939.340    91769192.82145
  21639412.760   113715932.97508  21639414.780    88609858.15746
 15 03 04 00 32 30.0000000  0  6G16G18G19G21G22G27
  20612682.880   108320399.94208  20612681.860    84405518.07047
  21901567.540   115093602.38308  21901567.060    89683343.74145
  23607106.080   124056192.09205  23607105.520    96667152.58944
  22286338.800   117115513.99107  22286337.940    91258844.20245
  22395410.620   117688773.36907  22395409.060    91705599.31345
  21629430.640   113663476.58308  21629432.700    88568983.06346
 15 03 04 00 33  0.0000000  0  6G16G18G19G21G22G27
  20606985.300   108290459.13108  20606984.320    84382187.57147
  21896915.560   115069155.67408  21896914.920    89664294.37345
  23592618.340   123980058.69305  23592617.560    96607827.90045
  22298329.940   117178528.42207  22298329.200    91307946.34645
  22379930.280   117607424.07507  22379928.780    91642210.29845
  21619476.380   113611167.05608  21619478.480    88528222.40946
 15 03 04 00 33 30.0000000  0  6G16G18G19G21G22G27
  20601379.140   108260998.29808  20601378.100    84359231.07447
  21892352.500   115045176.17508  21892351.700    89645609.07245
  23578147.080   123904011.83005  23578146.240    96548570.67843
  22310353.740   117241714.24007  22310353.020    91357182.05145
  22364499.480   117526335.10907  22364498.080    91579024.14645
  21609549.340   113559000.55508  21609551.420    88487573.20446
 15 03 04 00 34  0.0000000  0  6G16G18G19G21G22G27
  20595864.540   108232018.84008  20595863.420    84336649.67947
  21887878.320   115021664.49708  21887877.560    89627288.30245
  23563692.300   123828051.23805  23563691.460    96489380.65345
  22322409.900   117305069.52607  22322409.160    91406549.79245
  22349118.720   117445509.10107  22349117.240    91516042.89845
  21599649.660   113506977.17308  21599651.560    88447035.52046
 15 03 04 00 34 30.0000000  0  6G16G18G19G21G22G27
  20590442.000   108203523.32908  20590440.860    84314445.38647
  21883493.620   114998623.33408  21883492.920    89609334.18045
  23549254.180   123752178.34706  23549253.280    96430258.94143
  22334498.300   117368593.68007  22334497.440    91456049.13845
  22333788.720   117364949.61507  22333787.140    91453269.29745
  21589777.500   113455098.25708  21589779.240    88406610.42546
 15 03 04 00 35  0.0000000  0  6G16G18G19G21G22G27
  20585112.100   108175514.91008  20585111.060    84292620.64447
  21879198.900   114976054.89108  21879198.320    89591748.38645
  23534833.020   123676394.72706  23534831.940    96371206.81044
  22346618.760   117432286.51207  22346617.880    91505679.91045
  22318510.200   117284661.03607  22318508.660    91390706.82445
  21579933.260   113403366.08208  21579934.960    88366299.65846
 15 03 04 00 35 30.0000000  0  6G16G18G19G21G22G27
  20579875.020   108147993.84208  20579874.060    84271175.65447
  21874994.080   114953958.80608  21874993.680    89574530.68545
  23520428.600   123600699.34906  23520427.340    96312223.43343
  22358770.820   117496145.27007  22358769.880    91555439.97745
  22303283.500   117204644.65007  22303281.940    91328356.44045
  21570116.740   113351779.67508  21570118.380    88326102.48847
 15 03 04 00 36  0.0000000  0  6G16G18G19G21G22G27
  20574730.780   108120960.72808  20574729.900    84250110.89447
  21870879.180   114932335.47108  21870878.920    89557681.34945
  23506040.880   123525091.22806  23506039.460    96253308.05344
  22370953.820   117560166.96707  22370952.900    91605327.00845
  22288108.940   117124901.65207  22288107.240    91266219.07445
  21560327.840   113300338.46308  21560329.460    88286018.42347
 15 03 04 00 36 30.0000000  0  6G16G18G19G21G22G27
  20569679.920   108094418.26708  20569679.060    84229428.45947
  21866854.740   114911186.95108  21866854.440    89541201.99545
  23491670.120   123449571.99906  23491668.820    96194461.93144
  22383167.780   117624351.79707  22383166.920    91655341.16545
  22272987.160   117045436.36907  22272985.460    91204298.13045
  21550566.860   113249044.18808  21550568.500    88246048.86446
 15 03 04 00 37  0.0000000  0  6G16G18G19G21G22G27
  20564722.920   108068369.01108  20564722.100    84209130.34447
  21862921.040   114890515.07608  21862920.680    89525094.06345
  23477316.520   123374143.01406  23477315.180    96135686.08344
  22395412.600   117688698.79707  22395411.820    91705481.68145
  22257918.880   116966252.46207  22257917.140    91142596.42745
  21540834.120   113197898.43108  21540835.840    88206195.05847
 15 03 04 00 37 30.0000000  0  6G16G18G19G21G22G27
  20559859.300   108042810.57108  20559858.520    84189214.68047
  21859077.540   114870317.37108  21859077.180    89509355.59845
  23462979.440   123298800.57206  23462977.900    96076977.70944
  22407687.240   117753202.25807  22407686.540    91755744.10845
  22242903.860   116887348.20508  22242902.060    91081112.64345
  21531128.960   113146897.87808  21531130.820    88166454.38447
 15 03 04 00 38  0.0000000  0  6G16G18G19G21G22G27
  20555089.920   108017747.54108  20555089.200    84169685.04047
  21855324.980   114850597.51908  21855324.660    89493989.50445
  23448659.440   123223548.05206  23448657.860    96018339.42445
  22419992.020   117817863.92707  22419991.340    91806129.81845
  22227943.320   116808729.76007  22227941.520    91019851.56145
  21521452.120   113096046.16408  21521453.980    88126829.66547
 15 03 04 00 38 30.0000000  0  6G16G18G19G21G22G27
  20550415.380   107993182.79408  20550414.660    84150543.67847
  21851663.720   114831357.70208  21851663.460    89478997.45145
  23434356.840   123148387.02406  23434355.400    95959772.42545
  22432326.840   117882683.55807  22432326.100    91856638.61245
  22213037.760   116730400.76307  22213036.000    90958816.01345
  21511804.020   113045345.10608  21511805.820    88087322.37247
 15 03 04 00 39  0.0000000  0  6G16G18G19G21G22G27
  20545835.560   107969115.67708  20545834.840    84131790.08148
  21848093.660   114812597.12008  21848093.400    89464378.83445
  23420071.300   123073315.43706  23420069.820    95901275.10944
  22444690.980   117947657.36807  22444690.120    91907267.56645
  22198187.440   116652361.96507  22198185.760    90898006.60345
  21502184.360   112994793.07308  21502185.980    88047931.18447
 15 03 04 00 39 30.0000000  0  6G16G18G19G21G22G27
  20541350.800   107945548.00408  20541350.100    84113425.65348
  21844615.080   114794317.07208  21844614.720    89450134.66345
  23405802.940   122998334.29506  23405801.400    95842848.26745
  22457084.240   118012784.14707  22457083.200    91958015.70145
  22183392.880   116574616.35107  22183391.200    90837425.63845
  21492593.240   112944391.07708  21492594.780    88008656.89747
 15 03 04 00 40  0.0000000  0  6G16G18G19G21G22G27
  20536961.920   107922484.24808  20536961.260    84095453.89448
  21841228.580   114776521.07608  21841228.220    89436267.67445
  23391552.140   122923446.39706  23391550.860    95784494.10844
  22469506.820   118078065.20407  22469505.660    92008884.03945
  22168655.140   116497169.35707  22168653.380    90777077.37245
  21483031.300   112894142.54608  21483032.860    87969502.21847
 15 03 04 00 40 30.0000000  0  6G16G18G19G21G22G27
  20532668.780   107899923.50508  20532668.140    84077874.10147
  21837933.880   114759207.71008  21837933.540    89422776.75645
  23377318.540   122848649.69905  23377317.560    95726211.01044
  22481958.040   118143496.73007  22481956.840    92059869.63744
  22153974.280   116420020.94807  22153972.420    90716961.77845
  21473498.160   112844045.60408  21473499.820    87930465.65047
 15 03 04 00 41  0.0000000  0  6G16G18G19G21G22G27
  20528471.060   107877864.28808  20528470.400    84060685.10348
  21834730.680   114742374.83008  21834730.360    89409660.24645
  23363101.900   122773941.71305  23363100.800    95667997.04244
  22494437.060   118209074.26507  22494435.740    92110969.01545
  22139350.060   116343170.62907  22139348.200    90657078.45745
  21463993.380   112794097.91608  21463995.200    87891545.40347
 15 03 04 00 41 30.0000000  0  6G16G18G19G21G22G27
  20524369.700   107856311.24308  20524368.980    84043890.52048
  21831619.800   114726027.05808  21831619.460    89396921.72745
  23348902.920   122699326.10305  23348901.960    95609855.03545
  22506944.260   118274799.62207  22506942.900    92162183.56745
  22124783.840   116266624.84707  22124781.960    90597432.43645
  21454517.680   112744303.47308  21454519.600    87852744.55047
 15 03 04 00 42  0.0000000  0  6G16G18G19G21G22G27
  20520364.180   107835261.81808  20520363.360    84027488.37348
  21828600.580   114710160.76108  21828600.140    89384558.39545
  23334720.900   122624799.11906  23334719.980    95551782.13044
  22519478.580   118340667.40307  22519477.100    92213509.11345
  22110275.320   116190382.20408  22110273.440    90538022.64646
  21445070.460   112694658.94008  21445072.500    87814060.51146
 15 03 04 00 42 30.0000000  0  6G16G18G19G21G22G27
  20516455.780   107814723.11308  20516454.920    84011484.18348
  21825674.240   114694782.59608  21825673.660    89372575.42445
  23320556.820   122550366.69105  23320555.640    95493782.84444
  22532040.680   118406681.36107  22532039.120    92264948.54645
  22095826.060   116114450.92508  22095824.180    90478855.45145
  21435653.120   112645170.51608  21435655.040    87775498.11247
 15 03 04 00 43  0.0000000  0  6G16G18G19G21G22G27
  20512644.100   107794692.73708  20512643.280    83995876.09748
  21822840.180   114679889.63608  21822839.580    89360970.53845
  23306410.200   122476025.56005  23306408.980    95435854.75344
  22544629.660   118472836.46907  22544627.980    92316497.98345
  22081435.760   116038829.52008  22081433.900    90419929.72345
  21426265.040   112595835.16108  21426266.780    87737054.98946
 15 03 04 00 43 30.0000000  0  6G16G18G19G21G22G27
  20508929.540   107775172.78408  20508928.800    83980665.74048
  21820098.720   114665483.15108  21820098.140    89349744.72045
  23292281.080   122401776.34405  23292279.840    95377998.25644
  22557245.280   118539131.69507  22557243.460    92368156.58445
  22067105.020   115963521.02208  22067103.180    90361247.81845
  21416906.260   112546653.80108  21416907.800    87698731.84746
 15 03 04 00 44  0.0000000  0  6G16G18G19G21G22G27
  20505312.520   107756165.32808  20505311.820    83965854.73847
  21817450.160   114651564.74308  21817449.640    89338899.22245
  23278169.700   122327620.26306  23278168.420    95320214.33543
  22569887.420   118605566.49207  22569885.680    92419923.95645
  22052834.580   115888529.46207  22052832.720    90302812.87545
  21407577.040   112497628.16408  21407578.440    87660530.05246
 15 03 04 00 44 30.0000000  0  6G16G18G19G21G22G27
  20501793.380   107737672.37208  20501792.720    83951444.64347
  21814894.820   114638135.99908  21814894.220    89328435.28845
  23264076.180   122253558.65706  23264074.860    95262504.03643
  22582555.980   118672139.87907  22582554.180    92471799.31745
  22038624.960   115813857.95907  22038623.260    90244627.32945
  21398277.640   112448759.57408  21398279.040    87622450.64646
 15 03 04 00 45  0.0000000  0  6G16G18G19G21G22G27
  20498372.260   107719694.20208  20498371.520    83937435.67747
  21812432.580   114625196.63508  21812431.900    89318352.68345
  23250000.460   122179590.70906  23249999.080    95204866.72344
  22595250.380   118738849.36207  22595248.580    92523780.72045
  22024476.500   115739507.70708  22024474.880    90186692.10145
  21389008.040   112400047.56808  21389009.480    87584493.23746
 15 03 04 00 45 30.0000000  0  6G16G18G19G21G22G27
  20495049.360   107702232.20008  20495048.520    83923828.92047
  21810063.520   114612746.95208  21810062.780    89308651.64845
  23235942.680   122105716.41106  23235941.340    95147302.35145
  22607970.280   118805693.63707  22607968.640    92575867.16045
  22010389.640   115665481.19207  22010388.080    90129009.14945
  21379768.380   112351492.73508  21379769.920    87546658.31047
 15 03 04 00 46  0.0000000  0  6G16G18G19G21G22G27
  20491825.280   107685289.34608  20491824.380    83910626.69047
  21807787.980   114600789.17908  21807787.280    89299333.91745
  23221903.000   122031938.08006  23221901.620    95089812.80744
  22620715.800   118872672.62107  22620714.240    92628058.56645
  21996365.360   115591783.07408  21996363.820    90071582.08346
  21370559.040   112303097.46608  21370560.740    87508947.72947
 15 03 04 00 46 30.0000000  0  6G16G18G19G21G22G27
  20488699.500   107668863.41608  20488698.640    83897827.26847
  21805605.660   114589321.53308  21805605.100    89290398.10145
  23207881.000   121958252.71706  23207879.420    95032395.64844
  22633486.060   118939781.87107  22633484.700    92680351.47145
  21982403.440   115518412.26908  21982401.740    90014410.06445
  21361379.580   112254859.20708  21361381.400    87471359.48847
 15 03 04 00 47  0.0000000  0  6G16G18G19G21G22G27
  20485672.140   107652954.67908  20485671.300    83885430.85047
  21803516.520   114578343.28108  21803516.060    89281843.63545
  23193876.680   121884659.34007  23193874.880    94975050.20144
  22646280.720   119007018.49107  22646279.420    92732743.63545
  21968504.000   115445369.74108  21968502.120    89957493.83745
  21352229.880   112206777.18608  21352231.780    87433893.00047
 15 03 04 00 47 30.0000000  0  6G16G18G19G21G22G27
  20482744.080   107637567.49408  20482743.200    83873440.82547
  21801521.180   114567857.89508  21801520.800    89273673.22145
  23179890.660   121811161.49107  23179888.660    94917779.20144
  22659100.000   119074384.08107  22659098.720    92785236.31045
  21954668.060   115372661.40108  21954666.160    89900838.02445
  21343110.660   112158855.31908  21343112.560    87396551.31047
 15 03 04 00 48  0.0000000  0  6G16G18G19G21G22G27
  20479916.040   107622705.60708  20479915.080    83861860.13847
  21799620.360   114557868.87708  21799619.980    89265889.58945
  23165923.220   121737762.48706  23165921.380    94860585.20344
  22671944.120   119141880.34007  22671943.020    92837830.78145
  21940896.840   115300292.98808  21940894.860    89844447.08046
  21334022.560   112111097.29608  21334024.420    87359337.28347
 15 03 04 00 48 30.0000000  0  6G16G18G19G21G22G27
  20477187.260   107608365.48508  20477186.260    83850686.01348
  21797813.060   114548371.23008  21797812.680    89258488.84045
  23151973.740   121664457.34407  23151971.940    94803464.33245
  22684811.800   119209500.54407  22684810.680    92890521.84544
  21927189.640   115228261.23208  21927187.600    89788318.47445
  21324964.720   112063498.36508  21324966.580    87322247.21547
 15 03 04 00 49  0.0000000  0  6G16G18G19G21G22G27
  20474558.560   107594551.26608  20474557.520    83839921.68648
  21796099.980   114539368.93908  21796099.620    89251474.08845
  23138042.800   121591249.46807  23138041.000    94746419.25544
  22697703.340   119277245.94707  22697702.120    92943310.46945
  21913547.540   115156572.36408  21913545.620    89732457.05945
  21315937.920   112016062.37108  21315939.780    87285284.11347
 15 03 04 00 49 30.0000000  0  6G16G18G19G21G22G27
  20472029.400   107581260.62408  20472028.360    83829565.34647
  21794480.680   114530859.23708  21794480.220    89244843.16845
  23124129.760   121518135.96006  23124128.120    94689447.72744
  22710617.740   119345111.55107  22710616.380    92996192.75144
  21899970.460   115085225.13608  21899968.700    89676861.84945
  21306941.620   111968786.48808  21306943.460    87248445.77847
 15 03 04 00 50  0.0000000  0  6G16G18G19G21G22G27
  20469600.500   107568496.79808  20469599.500    83819619.50347
  21792955.620   114522844.79008  21792955.080    89238598.16545
  23110235.260   121445119.43107  23110233.680    94632551.76745
  22723555.260   119413098.30107  22723553.820    93049169.43244
  21886459.220   115014223.85808  21886457.560    89621536.21345
  21297976.300   111921673.77008  21297978.120    87211734.57647
 15 03 04 00 50 30.0000000  0  6G16G18G19G21G22G27
  20467272.180   107556261.56408  20467271.280    83810085.55547
  21791524.940   114515326.72408  21791524.440    89232739.93945
  23096359.340   121372200.56707  23096357.560    94575731.92645
  22736515.740   119481205.88107  22736514.440    93102240.26544
  21873014.500   114943571.87708  21873012.940    89566482.76246
  21289042.280   111874725.36508  21289044.080    87175151.41847
 15 03 04 00 51  0.0000000  0  6G16G18G19G21G22G27
  20465044.680   107544555.93308  20465043.780    83800964.28247
  21790188.640   114508304.87708  21790188.200    89227268.38145
  23082502.100   121299379.87207  23082500.180    94518988.56244
  22749498.820   119549432.38007  22749497.720    93155403.76544
  21859636.740   114873271.11308  21859635.080    89511702.97746
  21280139.680   111827941.79208  21280141.440    87138696.69347
 15 03 04 00 51 30.0000000  0  6G16G18G19G21G22G27
  20462918.400   107533382.01708  20462917.420    83792257.33347
  21788947.140   114501781.01908  21788946.700    89222184.87746
  23068663.700   121226658.61806  23068661.840    94462322.68745
  22762504.440   119617777.43707  22762503.520    93208659.65645
  21846326.440   114803325.34307  21846324.700    89457199.80646
  21271268.880   111781325.02908  21271270.500    87102371.95547
 15 03 04 00 52  0.0000000  0  6G16G18G19G21G22G27
  20460893.560   107522741.12208  20460892.520    83783965.72248
  21787800.600   114495756.32308  21787800.320    89217490.31345
  23054844.200   121154037.53306  23054842.560    94405734.83345
  22775532.320   119686239.70607  22775531.660    93262006.86145
  21833084.120   114733737.03408  21833082.500    89402975.18646
  21262429.920   111734875.91008  21262431.420    87066177.84147
 15 03 04 00 52 30.0000000  0  6G16G18G19G21G22G27
  20458969.620   107512630.42908  20458968.480    83776087.25747
  21786748.400   114490226.90908  21786748.140    89213181.69145
  23041043.120   121081513.03506  23041041.600    94349222.28645
  22788581.600   119754813.96407  22788581.160    93315441.33845
  21819909.680   114664505.15208  21819908.160    89349028.30446
  21253622.280   111688591.35408  21253623.740    87030111.96647
 15 03 04 00 53  0.0000000  0  6G16G18G19G21G22G27
  20457146.700   107503050.92708  20457145.560    83768622.71147
  21785790.480   114485193.06008  21785790.180    89209259.23045
  23027260.500   121009085.39906  23027258.960    94292785.23244
  22801652.000   119823499.01407  22801651.500    93368962.16145
  21806803.580   114595631.98508  21806801.940    89295360.93045
  21244846.040   111642471.95408  21244847.580    86994174.77947
 15 03 04 00 53 30.0000000  0  6G16G18G19G21G22G27
  20455426.060   107494008.96408  20455424.940    83761577.01948
  21784927.940   114480660.82608  21784927.580    89205727.63745
  23013497.300   120936760.74006  23013496.040    94236428.40645
  22814744.140   119892298.75607  22814743.580    93422572.33945
  21793767.220   114527125.33208  21793765.440    89241979.15845
  21236102.380   111596524.02908  21236104.120    86958371.20347
 15 03 04 00 54  0.0000000  0  6G16G18G19G21G22G27
  20453807.080   107485501.05608  20453805.980    83754947.47648
  21784159.980   114476625.21408  21784159.500    89202583.01045
  22999752.940   120864534.51306  22999751.760    94180148.26644
  22827856.800   119961206.98507  22827856.160    93476267.06344
  21780800.080   114458982.59608  21780798.380    89188880.95546
  21227390.520   111550743.43408  21227392.420    86922698.03147
 15 03 04 00 54 30.0000000  0  6G16G18G19G21G22G27
  20452290.160   107477529.38808  20452289.080    83748735.78347
  21783487.060   114473088.82508  21783486.540    89199827.39745
  22986027.740   120792408.77506  22986026.420    94123946.43445
  22840990.080   120030223.69607  22840989.380    93530046.32444
  21767902.940   114391207.47608  21767901.220    89136069.19146
  21218711.000   111505132.32008  21218712.920    86887156.91347
 15 03 04 00 55  0.0000000  0  6G16G18G19G21G22G27
  20450874.880   107470092.11508  20450873.780    83742940.50547
  21782908.600   114470049.08108  21782908.100    89197458.77345
  22972321.260   120720381.07606  22972319.720    94067820.98945
  22854143.320   120099344.97307  22854142.660    93583907.06144
  21755075.840   114323799.88008  21755073.920    89083543.81645
  21210063.460   111459688.84408  21210065.300    86851746.41047
 15 03 04 00 55 30.0000000  0  6G16G18G19G21G22G27
  20449561.760   107463192.01108  20449560.800    83737563.79347
  21782424.940   114467507.41708  21782424.440    89195478.27945
  22958633.940   120648453.15306  22958632.320    94011773.28244
  22867316.500   120168570.85307  22867316.000    93637849.27144
  21742319.280   114256763.51608  21742317.320    89031307.72546
  21201448.300   111414415.28608  21201449.900    86816468.31547
 15 03 04 00 56  0.0000000  0  6G16G18G19G21G22G27
  20448351.540   107456832.59408  20448350.660    83732608.40447
  21782036.620   114465466.72408  21782036.160    89193888.14545
  22944966.200   120576628.23507  22944964.460    93955805.83544
  22880509.960   120237902.59307  22880509.420    93691874.02044
  21729634.300   114190103.53008  21729632.340    88979364.91446
  21192865.980   111369314.94008  21192867.500    86781325.20147
 15 03 04 00 56 30.0000000  0  6G16G18G19G21G22G27
  20447244.320   107451014.07108  20447243.460    83728074.48747
  21781743.640   114463927.13508  21781743.220    89192688.48045
  22931317.980   120504906.27906  22931316.260    93899918.61544
  22893723.260   120307338.38307  22893722.720    93745979.79944
  21717021.260   114123821.48708  21717019.180    88927716.60946
  21184316.680   111324388.11508  21184318.120    86746317.28947
 15 03 04 00 57  0.0000000  0  6G16G18G19G21G22G27
  20446240.000   107445736.20008  20446239.140    83723961.85848
  21781545.840   114462887.69708  21781545.460    89191878.54045
  22917689.220   120433286.51407  22917687.420    93844111.03344
  22906955.780   120376875.36107  22906955.300    93800164.46644
  21704480.400   114057918.74908  21704478.180    88876363.85346
  21175800.300   111279634.41008  21175801.740    86711444.27447
 15 03 04 00 57 30.0000000  0  6G16G18G19G21G22G27
  20445338.420   107440998.40708  20445337.540    83720270.07148
  21781442.960   114462346.90408  21781442.440    89191457.14345
  22904079.800   120361768.15107  22904077.840    93788382.47544
  22920207.160   120446511.37107  22920206.780    93854426.28545
  21692011.880   113992396.19708  21692009.560    88825307.35246
  21167316.700   111235053.32208  21167318.260    86676705.77447
 15 03 04 00 58  0.0000000  0  6G16G18G19G21G22G27
  20444539.920   107436802.31908  20444539.040    83717000.39048
  21781435.180   114462306.27208  21781434.680    89191425.50045
  22890489.900   120290352.49507  22890487.900    93732733.93444
  22933477.220   120516245.91007  22933476.900    93908764.85845
  21679616.380   113927256.86408  21679613.880    88774549.44946
  21158866.340   111190646.57208  21158867.980    86642103.12447
 15 03 04 00 58 30.0000000  0  6G16G18G19G21G22G27
  20443844.960   107433150.43208  20443844.040    83714154.76847
  21781522.820   114462766.91508  21781522.200    89191784.46345
  22876919.880   120219041.29107  22876917.800    93677166.77944
  22946766.020   120586078.61807  22946765.560    93963179.98044
  21667294.440   113862504.69008  21667292.000    88724093.23846
