     2.11           OBSERVATION DATA    M                   RINEX VERSION / TYPE
SPIDER V4,0,0,3554                      2015 03 16 02:15    PGM / RUN BY / DATE 
AKET                                                        MARKER NAME         
AKET                                                        MARKER NUMBER       
                                                            OBSERVER / AGENCY   
496661              LEICA GRX1200+GNSS  8.20/4.007          REC # / TYPE / VERS 
10271023            LEIAR25         NONE                    ANT # / TYPE        
  5151584.4739   350346.6892  3733756.9574                  APPROX POSITION XYZ 
        0.0480        0.0000        0.0000                  ANTENNA: DELTA H/E/N
     1     1                                                WAVELENGTH FACT L1/2
     4    C1    L1    P2    L2                              # / TYPES OF OBSERV 
    30.000                                                  INTERVAL            
  2015    03    04    00    00    0.0000000     GPS         TIME OF FIRST OBS   
  2015    03    04    23    59   30.0000000     GPS         TIME OF LAST OBS    
    16                                                      LEAP SECONDS        
    54                                                      # OF SATELLITES     
   G 1   754   754   754   754                              PRN / # OF OBS      
   G 2   858   858   858   858                              PRN / # OF OBS      
   G 3   792   792   791   791                              PRN / # OF OBS      
   G 4   790   789   787   787                              PRN / # OF OBS      
   G 5   594   594   591   591                              PRN / # OF OBS      
   G 6   731   730   729   729                              PRN / # OF OBS      
   G 7   576   576   576   576                              PRN / # OF OBS      
   G 9   736   736   736   736                              PRN / # OF OBS      
   G10   687   686   687   686                              PRN / # OF OBS      
   G11   706   705   704   704                              PRN / # OF OBS      
   G12   781   781   781   781                              PRN / # OF OBS      
   G13   756   756   751   751                              PRN / # OF OBS      
   G14   867   866   864   864                              PRN / # OF OBS      
   G15   648   647   646   646                              PRN / # OF OBS      
   G16   605   605   605   605                              PRN / # OF OBS      
   G17   864   863   862   862                              PRN / # OF OBS      
   G18   852   851   851   851                              PRN / # OF OBS      
   G19   691   691   691   691                              PRN / # OF OBS      
   G20   701   700   700   699                              PRN / # OF OBS      
   G21   636   636   636   636                              PRN / # OF OBS      
   G22   648   647   647   647                              PRN / # OF OBS      
   G23   668   668   666   666                              PRN / # OF OBS      
   G24   773   772   771   771                              PRN / # OF OBS      
   G25   797   797   796   796                              PRN / # OF OBS      
   G27   746   746   746   746                              PRN / # OF OBS      
   G28   830   830   830   830                              PRN / # OF OBS      
   G29   692   692   692   692                              PRN / # OF OBS      
   G30   624   624   623   623                              PRN / # OF OBS      
   G31   760   760   760   760                              PRN / # OF OBS      
   G32   693   693   692   692                              PRN / # OF OBS      
   R 1   642   642   634   634                              PRN / # OF OBS      
   R 2   933   933   932   931                              PRN / # OF OBS      
   R 3   886   886   886   886                              PRN / # OF OBS      
   R 4   789   789   789   781                              PRN / # OF OBS      
   R 5   611   611   611   611                              PRN / # OF OBS      
   R 6   731   731   731   731                              PRN / # OF OBS      
   R 7   729   729   724   724                              PRN / # OF OBS      
   R 8   618   618   618   618                              PRN / # OF OBS      
   R 9   830   830   819   786                              PRN / # OF OBS      
   R10   553   553   547   546                              PRN / # OF OBS      
   R11   609   609   607   607                              PRN / # OF OBS      
   R12   722   722   722   717                              PRN / # OF OBS      
   R13   712   712   712   712                              PRN / # OF OBS      
   R14   605   605   604   604                              PRN / # OF OBS      
   R15   932   932   930   928                              PRN / # OF OBS      
   R16   976   976   975   975                              PRN / # OF OBS      
   R17   878   878   878   878                              PRN / # OF OBS      
   R18   917   917   915   915                              PRN / # OF OBS      
   R19   744   744   743   743                              PRN / # OF OBS      
   R20   527   527   527   527                              PRN / # OF OBS      
   R21   739   739   737   737                              PRN / # OF OBS      
   R22   795   795   793   790                              PRN / # OF OBS      
   R23   732   732   732   730                              PRN / # OF OBS      
   R24   570   570   566   545                              PRN / # OF OBS      
BIT 2 OF LLI FLAGS DATA COLLECTED UNDER A/S CONDITION       COMMENT             
SNR is mapped to RINEX snr flag value [2-9]                 COMMENT             
Lx:     = 25dBHz -> 1; 26-27dBHz -> 2; 28-31dBHz -> 3       COMMENT             
       32-35dBHz -> 4; 36-38dBHz -> 5; 39-41dBHz -> 6       COMMENT             
       42-44dBHz -> 7; 45-48dBHz -> 8; >=49dBHz -> 9        COMMENT             
                                                            END OF HEADER       
 15 03 04 00 00  0.0000000  0  5G16G18G21G27G29
  21228178.080   111554843.93309  21228174.600    86925845.53048
  22293974.220   117155642.31409  22293971.520    91290124.99147
  21590399.180   113458323.84808  21590395.220    88409071.20648
  22415129.260   117792349.67709  22415128.900    91786271.60048
  24515165.060   128828044.65108  24515163.720   100385472.88346
 15 03 04 00 00 30.0000000  0  5G16G18G21G27G29
  21216933.020   111495751.41409  21216929.500    86879799.43248
  22284401.340   117105336.31709  22284398.600    91250925.53947
  21599656.700   113506972.67708  21599652.780    88446979.38648
  22403534.800   117731420.62008  22403534.540    91738794.44048
  24529602.340   128903912.24108  24529600.920   100444590.45846
 15 03 04 00 01  0.0000000  0  5G16G18G21G27G29
  21205752.900   111437000.39609  21205749.700    86834019.43448
  22274896.980   117055390.80409  22274894.320    91212006.99747
  21608965.360   113555890.02108  21608961.460    88485096.79448
  22391960.620   117670597.83809  22391960.440    91691400.10248
  24544042.200   128979792.73608  24544040.440   100503718.10345
 15 03 04 00 01 30.0000000  0  5G16G18G21G27G29
  21194640.080   111378602.93209  21194637.340    86788514.91648
  22265463.560   117005817.94209  22265460.840    91173378.81347
  21618326.720   113605084.34508  21618322.820    88523430.03148
  22380408.740   117609891.78109  22380408.400    91644096.69948
  24558486.560   129055696.73908  24558484.100   100562864.09245
 15 03 04 00 02  0.0000000  0  4G16G18G21G27
  21183589.740   111320533.40009  21183587.260    86743265.93748
  22256096.160   116956592.05709  22256093.400    91135020.99447
  21627735.220   113654526.01209  21627731.300    88561956.01248
  22368873.760   117549274.62709  22368873.280    91596862.58148
 15 03 04 00 02 30.0000000  0  4G16G18G21G27
  21172591.700   111262737.78109  21172589.080    86698230.39248
  22246784.480   116907658.92409  22246781.740    91096891.30947
  21637179.620   113704156.56408  21637175.720    88600629.16148
  22357345.040   117488690.43209  22357344.460    91549654.14048
 15 03 04 00 03  0.0000000  0  4G16G18G21G27
  21161702.300   111205494.72509  21161698.960    86653620.11048
  22237584.640   116859295.81609  22237582.060    91059180.26647
  21646715.600   113754257.37808  21646711.800    88639665.76648
  22345878.360   117428382.66209  22345877.820    91502633.47848
 15 03 04 00 03 30.0000000  0  4G16G18G21G27
  21150860.720   111148521.44609  21150857.160    86609225.36948
  22228436.520   116811221.93509  22228433.860    91021720.12947
  21656282.080   113804529.56208  21656278.280    88678838.90248
  22334413.080   117368132.69209  22334412.640    91455685.49048
 15 03 04 00 04  0.0000000  0  5G16G18G19G21G27
  21140086.180   111091901.25809  21140082.700    86565105.74348
  22219359.100   116763519.44209  22219356.300    90984549.37247
  24542792.360   128973247.56008  24542789.780   100498617.55547
  21665897.480   113855058.37109  21665893.560    88718211.98548
  22322967.900   117307988.54609  22322967.540    91408819.91248
 15 03 04 00 04 30.0000000  0  5G16G18G19G21G27
  21129394.800   111035718.66509  21129391.660    86521327.10148
  22210368.400   116716272.85509  22210365.500    90947733.88747
  24527600.200   128893423.85507  24527599.680   100436417.54845
  21675577.180   113905925.01709  21675573.060    88757848.33348
  22311558.640   117248033.05009  22311558.300    91362101.37048
 15 03 04 00 05  0.0000000  0  5G16G18G19G21G27
  21118754.240   110979802.70409  21118751.300    86477756.23248
  22201431.820   116669310.84209  22201428.880    90911140.14547
  24512404.100   128813572.39307  24512402.500   100374195.57244
  21685287.800   113956954.11009  21685283.520    88797611.25448
  22300152.340   117188092.98809  22300152.000    91315394.85148
 15 03 04 00 05 30.0000000  0  5G16G18G19G21G27
  21108185.860   110924264.83809  21108182.840    86434479.99448
  22192570.520   116622744.64309  22192567.680    90874854.83247
  24497224.280   128733802.55206  24497222.900   100312037.40446
  21695049.780   114008253.12209  21695045.400    88837584.51148
  22288769.880   117128277.85209  22288769.440    91268785.67448
 15 03 04 00 06  0.0000000  0  5G16G18G19G21G27
  21097689.680   110869106.53309  21097686.440    86391499.50648
  22183784.760   116576575.73309  22183781.960    90838879.09547
  24482060.240   128654113.85208  24482059.760   100249942.59144
  21704862.620   114059819.86108  21704858.260    88877766.38748
  22277411.120   117068587.33309  22277410.540    91222273.60648
 15 03 04 00 06 30.0000000  0  5G16G18G19G21G27
  21087293.820   110814475.95109  21087290.420    86348930.23448
  22175102.800   116530952.00409  22175099.940    90803328.16047
  24466938.960   128574652.10606  24466941.840   100188025.17945
  21714753.540   114111797.77408  21714749.400    88918268.66548
  22266103.900   117009167.38909  22266103.160    91175972.36348
 15 03 04 00 07  0.0000000  0  5G16G18G19G21G27
  21076923.540   110759979.66709  21076920.080    86306465.60848
  22166449.620   116485479.75909  22166446.760    90767895.27647
  24451786.260   128495022.11507  24451787.680   100125975.97046
  21724647.100   114163789.78409  21724643.220    88958781.91548
  22254772.940   116949622.69209  22254772.160    91129573.94148
 15 03 04 00 07 30.0000000  0  5G16G18G19G21G27
  21066628.580   110705878.71209  21066624.980    86264309.04048
  22157875.000   116440419.77909  22157872.100    90732783.63347
  24436650.480   128415482.30208  24436644.960   100063969.84345
  21734592.500   114216053.88608  21734588.820    88999507.18847
  22243467.500   116890212.32509  22243466.740    91083280.16748
 15 03 04 00 08  0.0000000  0  5G16G18G19G21G27
  21056409.140   110652174.72709  21056405.520    86222461.78548
  22149379.120   116395773.46009  22149376.220    90697994.31847
  24421532.360   128336032.97904  24421527.880   100002061.40944
  21744589.160   114268586.97309  21744585.540    89040442.05048
  22232187.520   116830935.91909  22232186.840    91037090.78648
 15 03 04 00 08 30.0000000  0  5G16G18G19G21G27
  21046273.440   110598910.98609  21046269.880    86180957.58148
  22140970.140   116351583.91709  22140967.140    90663560.92647
  24406438.560   128256714.64808  24406434.260    99940255.01545
  21754644.620   114321428.61409  21754640.980    89081617.35148
  22220940.940   116771834.96309  22220940.280    90991038.09348
 15 03 04 00 09  0.0000000  0  5G16G18G19G21G27
  21036206.920   110546011.31109  21036203.460    86139737.06148
  22132633.520   116307774.56509  22132630.400    90629423.79347
  24391355.200   128177449.53306  24391351.600    99878490.05646
  21764743.560   114374498.48409  21764739.880    89122970.48648
  22209712.820   116712831.13609  22209712.240    90945061.12248
 15 03 04 00 09 30.0000000  0  5G16G18G19G21G27
  21026216.700   110493512.62109  21026213.280    86098828.98748
  22124376.300   116264382.41809  22124373.080    90595611.74147
  24376287.900   128098272.08108  24376284.960    99816793.49045
  21774892.400   114427830.41808  21774888.700    89164527.83348
  22198509.800   116653959.63309  22198509.340    90899187.23248
 15 03 04 00 10  0.0000000  0  5G16G18G19G21G27
  21016296.840   110441383.18109  21016293.300    86058208.66548
  22116192.300   116221375.33109  22116189.120    90562099.75847
  24361231.360   128019148.96704  24361228.680    99755139.15644
  21785084.200   114481388.19709  21785080.500    89206261.16548
  22187325.620   116595186.85909  22187325.240    90853390.28248
 15 03 04 00 10 30.0000000  0  5G16G18G19G21G27
  21006452.640   110389651.50309  21006449.040    86017898.27948
  22108086.900   116178781.31109  22108083.740    90528909.63347
  24346190.180   127940106.56507  24346187.380    99693547.75045
  21795323.620   114535196.52508  21795319.900    89248189.72948
  22176165.240   116536539.25009  22176164.960    90807690.87448
 15 03 04 00 11  0.0000000  0  5G16G18G19G21G27
  20996683.440   110338314.33109  20996679.920    85977895.28848
  22100059.520   116136597.17609  22100056.380    90496038.89947
  24331162.900   127861139.44908  24331160.900    99632015.06946
  21805609.300   114589248.36508  21805605.560    89290308.04348
  22165027.740   116478011.86509  22165027.480    90762085.13248
 15 03 04 00 11 30.0000000  0  5G16G18G19G21G27
  20986987.260   110287360.61109  20986983.840    85938191.09248
  22092107.900   116094811.08909  22092104.740    90463478.33847
  24316147.800   127782234.60806  24316146.500    99570530.93346
  21815938.400   114643528.68708  21815934.720    89332604.39548
  22153910.720   116419591.48809  22153910.380    90716562.79048
 15 03 04 00 12  0.0000000  0  6G16G18G19G21G22G27
  20977367.760   110236809.79509  20977364.400    85898800.85248
  22084235.700   116053442.49109  22084232.560    90431243.09747
  24301147.860   127703409.33407  24301146.180    99509108.53946
  21826313.880   114698052.92508  21826310.300    89375090.81848
  22973917.660   120728753.83405  22973916.060    94074332.33443
  22142817.440   116361295.88709  22142817.020    90671137.67548
 15 03 04 00 12 30.0000000  0  6G16G18G19G21G22G27
  20967823.460   110186653.89709  20967819.980    85859718.33648
  22076441.300   116012482.87609  22076438.240    90399326.53747
  24286161.180   127624653.64108  24286160.000    99447740.66146
  21836733.560   114752809.43108  21836730.040    89417758.21948
  22956928.520   120639471.77505  22956924.100    94004753.41344
  22131745.940   116303114.87309  22131745.500    90625801.84448
 15 03 04 00 13  0.0000000  0  6G16G18G19G21G22G27
  20958354.260   110136892.98609  20958350.620    85820943.61748
  22068724.800   115971932.68709  22068721.800    90367729.02147
  24271187.460   127545965.92808  24271185.780    99386425.57646
  21847196.800   114807794.70908  21847193.360    89460603.89247
  22939969.340   120550350.89305  22939964.660    93935308.69543
  22120696.100   116245047.30909  22120695.580    90580554.42048
 15 03 04 00 13 30.0000000  0  6G16G18G19G21G22G27
  20948959.860   110087525.65909  20948956.200    85782475.56248
  22061085.800   115931789.87809  22061082.900    90336448.92547
  24256226.160   127467342.71206  24256223.800    99325160.76244
  21857702.620   114863003.53108  21857699.200    89503623.74148
  22923039.380   120461383.63106  22923034.580    93865983.63644
  22109667.100   116187089.70908  22109666.520    90535392.66448
 15 03 04 00 14  0.0000000  0  6G16G18G19G21G22G27
  20939642.940   110038565.19809  20939639.400    85744324.55348
  22053526.640   115892066.71609  22053523.760    90305495.83447
  24241279.320   127388794.99308  24241276.700    99263954.80645
  21868252.620   114918444.57308  21868249.260    89546824.54247
  22906141.260   120372583.53706  22906136.720    93796788.83144
  22098661.060   116129253.23809  22098660.580    90490325.29648
 15 03 04 00 14 30.0000000  0  6G16G18G19G21G22G27
  20930404.760   109990018.18709  20930401.220    85706495.72148
  22046048.660   115852769.84709  22046045.740    90274874.92447
  24226347.200   127310327.21007  24226344.440    99202811.20045
  21878847.480   114974121.13708  21878844.180    89590208.87948
  22889276.340   120283957.92106  22889271.860    93727730.00444
  22087679.080   116071542.70409  22087678.640    90445356.08048
 15 03 04 00 15  0.0000000  0  6G16G18G19G21G22G27
  20921241.800   109941866.37609  20921238.160    85668974.83248
  22038648.320   115813880.75009  22038645.420    90244571.75247
  24211427.160   127231919.89508  24211423.700    99141714.55846
  21889482.980   115030011.39808  21889479.840    89633759.72348
  22872441.400   120195489.62506  22872436.800    93658793.75544
  22076717.300   116013938.35808  22076716.900    90400469.57948
 15 03 04 00 15 30.0000000  0 13G16G18G19G21G22G27R01R02R15R16R17R18
                                R24
  20912157.960   109894130.80809  20912154.400    85631778.30248
  22031329.560   115775420.31509  22031326.600    90214602.59447
  24196521.840   127153591.25808  24196518.220    99080679.40045
  21900162.260   115086132.13208  21900159.300    89677490.16348
  22855640.440   120107200.13407  22855635.800    93589996.83945
  22065779.360   115956459.34008  22065779.100    90355680.76248
  22560526.660   120598954.31708  22560531.440    93799197.27105
  22003404.740   117414384.43809  22003408.160    91322311.21807
  20203851.180   107963256.37408  20203855.120    83971434.92408
  21462191.100   114647174.18408  21462194.260    89170040.24707
  20163100.480   107896825.00108  20163100.880    83919753.60208
  21299706.440   113699279.35609  21299709.540    88432782.61008
  23041608.660   123213831.39307  23041609.400    95832987.57505
 15 03 04 00 16  0.0000000  0 13G16G18G19G21G22G27R01R02R15R16R17R18
                                R24
  20903155.040   109846821.11709  20903151.600    85594913.60548
  22024094.060   115737397.43509  22024091.040    90184974.39647
  24181632.720   127075349.62108  24181628.720    99019711.97445
  21910886.600   115142489.30808  21910883.800    89721404.84148
  22838875.280   120019099.37007  22838870.740    93521346.97945
  22054866.820   115899113.59508  22054866.640    90310995.76648
  22563637.260   120615582.15808  22563641.760    93812130.07305
  21987994.180   117332150.92409  21987997.800    91258351.87208
  20216271.820   108029627.82208  20216275.680    84023057.13608
  21449345.360   114578553.00808  21449348.100    89116668.24607
  20167721.100   107921550.23508  20167721.560    83938984.36308
  21290689.940   113651148.28809  21290692.760    88395347.36608
  23056487.780   123293397.34907  23056488.600    95894872.17905
 15 03 04 00 16 30.0000000  0 13G16G18G19G21G22G27R01R02R15R16R17R18
                                R24
  20894226.920   109799903.98409  20894223.540    85558354.81248
  22016935.440   115699778.72709  22016932.480    90155661.15147
  24166753.760   126997159.63807  24166749.520    98958784.66045
  21921649.000   115199045.84408  21921646.240    89765474.86348
  22822139.920   119931155.26907  22822135.400    93452819.18845
  22043972.980   115841865.93709  22043972.740    90266387.23448
  22566883.380   120632933.46408  22566887.680    93825625.53905
  21972667.580   117250365.08409  21972671.260    91194740.71308
  20228819.620   108096678.87008  20228823.400    84075207.90608
  21436625.460   114510604.65308  21436628.020    89063819.53607
  20172371.300   107946434.36208  20172371.780    83958338.68008
  21281707.720   113603199.96009  21281710.220    88358054.24908
  23071358.300   123372918.83107  23071359.500    95956722.16805
 15 03 04 00 17  0.0000000  0 13G16G18G19G21G22G27R01R02R15R16R17R18
                                R24
  20885379.400   109753409.64209  20885376.000    85522125.46648
  22009859.280   115662593.74709  22009856.420    90126685.87447
  24151889.800   126919049.30108  24151885.780    98897919.59545
  21932454.480   115255828.11008  21932451.600    89809720.78148
  22805440.260   119843398.84107  22805435.840    93384437.62945
  22033103.140   115784744.81309  22033102.940    90221877.30448
  22570270.240   120651036.37308  22570274.260    93839705.59205
  21957431.120   117169059.79209  21957434.620    91131503.29708
  20241499.420   108164435.49708  20241503.180    84127907.48408
  21424037.280   114443360.86608  21424039.840    89011518.81307
  20177056.220   107971504.63708  20177056.740    83977837.78508
  21272764.780   113555462.05909  21272767.160    88320924.77708
  23086226.300   123452424.27007  23086227.600    96018559.70905
 15 03 04 00 17 30.0000000  0 13G16G18G19G21G22G27R01R02R15R16R17R18
                                R24
  20876611.720   109707334.93709  20876608.300    85486223.10248
  22002865.000   115625839.11209  22002862.240    90098045.92947
  24137039.860   126841013.61108  24137035.800    98837112.62746
  21943301.740   115312829.47708  21943298.640    89854137.42448
  22788775.820   119755827.36607  22788771.440    93316200.19745
  22022256.500   115727745.34809  22022256.200    90177462.16348
  22573796.780   120669885.66008  22573800.680    93854366.16105
  21942284.540   117088234.11709  21942287.900    91068638.92708
  20254309.520   108232888.54508  20254313.240    84181148.71808
  21411580.540   114376819.23708  21411583.120    88959764.23907
  20181774.980   107996755.49509  20181775.360    83997477.33108
  21263860.020   113507928.89209  21263862.540    88283954.58408
  23101090.360   123531907.84107  23101091.340    96080380.27405
 15 03 04 00 18  0.0000000  0 13G16G18G19G21G22G27R01R02R15R16R17R18
                                R24
  20867922.520   109661672.83809  20867919.100    85450642.24748
  21995951.120   115589507.15509  21995948.480    90069735.34447
  24122202.640   126763043.89808  24122198.780    98776357.09945
  21954188.560   115370039.01708  21954185.280    89898716.27748
  22772145.380   119668434.45508  22772140.900    93248101.90045
  22011431.380   115670858.70409  22011430.940    90133134.93548
  22577460.960   120689471.82908  22577464.620    93869599.85605
  21927226.880   117007883.04109  21927230.200    91006143.68608
  20267247.660   108302025.77808  20267251.360    84234922.09008
  21399254.120   114310973.80708  21399256.700    88908551.13108
  20186525.580   108022176.42609  20186525.740    84017249.17208
  21254991.660   113460590.46309  21254994.280    88247135.82208
  23115948.700   123611360.28708  23115949.100    96142176.61105
 15 03 04 00 18 30.0000000  0 13G16G18G19G21G22G27R01R02R15R16R17R18
                                R24
  20859314.440   109616436.91409  20859311.040    85415393.48048
  21989120.340   115553611.24309  21989117.640    90041764.51647
  24107380.080   126685151.31908  24107376.220    98715661.57346
  21965116.760   115427466.33408  21965113.320    89943464.84348
  22755551.680   119581234.23608  22755547.200    93180153.74346
  22000630.020   115614096.71409  22000629.380    90088904.83548
  22581264.880   120709806.00408  22581268.440    93885415.33205
  21912261.020   116928022.33109  21912264.360    90944029.84808
  20280315.480   108371855.36408  20280318.960    84289233.98708
  21387060.740   114245839.06908  21387063.380    88857890.79808
  20191310.000   108047778.12009  20191310.080    84037161.61508
  21246161.740   113413457.65609  21246164.680    88210477.00908
  23130803.260   123690793.28707  23130803.480    96203957.84405
 15 03 04 00 19  0.0000000  0 13G16G18G19G21G22G27R01R02R15R16R17R18
                                R24
  20850787.320   109571626.61509  20850784.020    85380476.36548
  21982372.400   115518150.41109  21982369.640    90014132.70747
  24092571.740   126607333.84707  24092567.960    98655024.63945
  21976085.540   115485107.50708  21976082.020    89988380.02948
  22738994.780   119494227.28108  22738990.320    93112356.18346
  21989851.980   115557457.31909  21989851.160    90044770.27048
  22585208.260   120730885.53708  22585211.860    93901810.55706
  21897387.300   116848653.95609  21897390.740    90882298.94708
  20293511.480   108442370.19908  20293514.700    84344078.84408
  21375000.560   114181415.55508  21375003.160    88807783.63708
  20196127.580   108073557.25809  20196127.500    84057212.04908
  21237369.880   113366527.64209  21237373.080    88173975.90608
  23145653.520   123770203.99107  23145653.740    96265721.70605
 15 03 04 00 19 30.0000000  0 13G16G18G19G21G22G27R01R02R15R16R17R18
                                R24
  20842340.200   109527237.02809  20842337.080    85345887.07548
  21975706.260   115483119.46409  21975703.520    89986835.88147
  24077776.540   126529584.83307  24077772.960    98594440.98946
  21987093.300   115542953.76808  21987089.780    90033455.03547
  22722473.860   119407409.48908  22722469.400    93044706.03846
  21979096.060   115500934.03909  21979095.000    90000726.18548
  22589289.640   120752702.87908  22589293.640    93918779.64106
  21882605.260   116769774.91109  21882608.680    90820948.60907
  20306834.420   108513563.04808  20306837.500    84399451.03308
  21363072.800   114117699.25708  21363075.320    88758226.52108
  20200976.740   108099505.80608  20200976.500    84077394.25608
  21228614.680   113319792.74309  21228617.860    88137626.56708
  23160498.300   123849585.35007  23160498.220    96327462.73405
 15 03 04 00 20  0.0000000  0 13G16G18G19G21G22G27R01R02R15R16R17R18
                                R24
  20833976.120   109483283.24609  20833972.980    85311637.37748
  21969124.560   115448532.43909  21969121.840    89959884.97547
  24062996.560   126451917.12208  24062993.560    98533920.81646
  21998142.100   115601015.69108  21998138.560    90078698.09248
  22705991.840   119320796.42808  22705987.440    92977215.42546
  21968364.740   115444540.10409  21968363.480    89956782.89448
  22593511.480   120775270.73608  22593515.680    93936332.39606
  21867918.180   116691402.74509  21867921.560    90759992.52807
  20320285.440   108585441.16408  20320288.480    84455356.20308
  21351280.380   114054706.36008  21351282.740    88709232.05508
  20205859.820   108125636.22308  20205859.640    84097717.91308
  21219898.420   113273265.53209  21219901.720    88101438.77208
  23175340.060   123928950.64407  23175339.900    96389191.28505
 15 03 04 00 20 30.0000000  0 13G16G18G19G21G22G27R01R02R15R16R17R18
                                R24
  20825692.580   109439752.12509  20825689.140    85277717.02748
  21962624.840   115414376.25109  21962622.080    89933269.77647
  24048229.640   126374316.21308  24048226.120    98473452.64345
  22009229.020   115659277.97508  22009225.480    90124097.25847
  22689546.460   119234376.02408  22689542.160    92909874.91246
  21957655.200   115388260.86609  21957653.820    89912928.96448
  22597870.800   120798573.27908  22597874.720    93954456.61705
  21853323.980   116613526.41809  21853327.500    90699422.09707
  20333861.420   108657986.92008  20333864.520    84511780.65108
  21339620.920   113992424.20808  21339623.300    88660790.37707
  20210773.780   108151932.06209  20210773.680    84118170.23008
  21211218.240   113226929.97109  21211221.620    88065400.02008
  23190175.880   124008284.16207  23190175.860    96450895.12005
 15 03 04 00 21  0.0000000  0 13G16G18G19G21G22G27R01R02R15R16R17R18
                                R24
  20817492.020   109396657.31809  20817488.360    85244136.66248
  21956209.600   115380664.14209  21956206.860    89907000.62147
  24033477.400   126296793.28007  24033473.980    98413045.16146
  22020355.880   115717749.93708  22020352.320    90169659.82448
  22673140.400   119148162.52508  22673136.260    92842695.62746
  21946969.740   115332108.20009  21946968.340    89869173.66748
  22602369.400   120822622.19708  22602373.500    93973161.34705
  21838825.720   116536161.71409  21838829.340    90639249.58907
  20347563.760   108731208.25208  20347566.920    84568730.54908
  21328097.260   113930867.52808  21328099.540    88612912.95407
  20215720.620   108178404.37208  20215720.580    84138759.79508
  21202576.200   113180797.39009  21202579.400    88029519.15108
  23205007.680   124087597.26407  23205007.880    96512583.04305
 15 03 04 00 21 30.0000000  0 13G16G18G19G21G22G27R01R02R15R16R17R18
                                R24
  20809373.500   109353994.06309  20809369.820    85210892.57048
  21949877.860   115347390.72109  21949875.180    89881073.31547
  24018738.900   126219341.57008  24018735.340    98352693.22446
  22031520.880   115776422.13808  22031517.200    90215378.42247
  22656772.840   119062151.57208  22656768.880    92775674.16547
  21936306.980   115276075.39409  21936305.620    89825511.76348
  22607006.120   120847409.26908  22607010.280    93992440.20606
  21824422.860   116459305.61409  21824426.520    90579472.66107
  20361390.580   108805094.76708  20361393.780    84626197.81608
  21316708.840   113870032.14408  21316711.020    88565596.55807
  20220698.980   108205045.01608  20220698.960    84159480.29708
  21193970.720   113134859.71209  21193973.600    87993789.86508
  23219834.340   124166883.10507  23219834.760    96574249.81605
 15 03 04 00 22  0.0000000  0 13G16G18G19G21G22G27R01R02R15R16R17R18
                                R24
  20801338.120   109311767.78309  20801334.520    85177988.96648
  21943630.460   115314560.27009  21943627.660    89855491.15247
  24004014.480   126141964.80608  24004010.920    98292399.71946
  22042724.480   115835297.21108  22042720.720    90261255.09847
  22640445.100   118976349.56308  22640441.100    92708815.52646
  21925667.700   115220166.37509  21925666.460    89781946.31048
  22611781.620   120872937.68708  22611785.840    94012295.65306
  21810116.880   116382966.02209  21810120.440    90520097.46507
  20375341.760   108879645.57908  20375345.020    84684181.74708
  21305456.720   113809924.17608  21305458.780    88518845.93808
  20225709.360   108231856.81508  20225709.480    84180333.91708
  21185402.340   113089120.15709  21185405.180    87958214.66608
  23234656.500   124246144.96307  23234657.480    96635897.88605
 15 03 04 00 22 30.0000000  0 13G16G18G19G21G22G27R01R02R15R16R17R18
                                R24
  20793385.160   109269974.50709  20793381.580    85145422.77948
  21937466.740   115282169.53809  21937463.980    89830251.64847
  23989303.580   126064657.96408  23989300.340    98232160.69746
  22053965.380   115894368.32408  22053961.540    90307284.53547
  22624156.720   118890753.63508  22624152.620    92642117.46046
  21915050.980   115164376.08909  21915050.060    89738473.37848
  22616694.860   120899201.37008  22616698.720    94032722.94706
  21795907.400   116307141.26809  21795910.900    90461122.69008
  20389415.600   108954852.34108  20389418.960    84742675.84508
  21294340.260   113750541.01908  21294342.060    88472659.03207
  20230750.520   108258833.26709  20230750.800    84201315.60408
  21176869.840   113043572.47309  21176872.700    87922788.72308
  23249473.300   124325377.32608  23249474.480    96697523.04105
 15 03 04 00 23  0.0000000  0 13G16G18G19G21G22G27R01R02R15R16R17R18
                                R24
  20785517.240   109228628.08809  20785513.600    85113204.80048
  21931389.160   115250231.49209  21931386.340    89805364.88847
  23974607.860   125987432.35108  23974604.480    98171984.95046
  22065245.200   115953644.15708  22065241.340    90353473.48947
  22607910.360   118805378.09608  22607906.140    92575591.11747
  21904459.120   115108716.53509  21904458.520    89695102.32148
  22621747.700   120926211.09408  22621751.600    94053730.53906
  21781797.380   116231847.31409  21781800.840    90402560.77107
  20403613.900   109030723.93308  20403617.360    84801687.06008
  21283362.120   113691897.22908  21283363.820    88427047.20907
  20235824.600   108285985.21009  20235824.800    84222433.78208
  21168375.260   112998227.95409  21168378.100    87887520.80508
  23264286.820   124404591.74407  23264287.740    96759134.26305
 15 03 04 00 23 30.0000000  0 13G16G18G19G21G22G27R01R02R15R16R17R18
                                R24
  20777732.040   109187716.73509  20777728.340    85081325.82048
  21925395.280   115218733.33809  21925392.380    89780820.89647
  23959925.300   125910274.76207  23959922.160    98111862.21146
  22076561.140   116013110.05408  22076557.280    90399810.54647
  22591703.800   118720211.89608  22591699.480    92509227.90146
  21893889.560   115053174.18409  21893889.280    89651822.60648
  22626937.320   120953952.49408  22626941.500    94075307.21506
  21767784.860   116157074.28408  21767788.240    90344404.01308
  20417933.220   109107241.78108  20417936.760    84861200.91908
  21272520.200   113633981.32908  21272521.820    88382001.51708
  20240928.680   108313297.85008  20240928.900    84243676.95208
  21159915.940   112953071.80909  21159918.920    87852399.39208
  23279094.140   124483773.94107  23279095.060    96820720.37105
 15 03 04 00 24  0.0000000  0 13G16G18G19G21G22G27R01R02R15R16R17R18
                                R24
  20770031.720   109147251.81909  20770027.980    85049794.72948
  21919487.260   115187686.54909  21919484.340    89756628.61847
  23945257.420   125833194.78508  23945254.200    98051799.93246
  22087914.780   116072774.09308  22087910.900    90446302.00348
  22575539.380   118635267.49208  22575535.020    92443037.53147
  21883344.240   114997759.16708  21883344.260    89608642.09048
  22632265.400   120982434.37508  22632269.480    94097459.81005
  21753872.560   116082836.19908  21753876.040    90286663.33907
  20432374.580   109184411.79508  20432378.160    84921222.02708
  21261816.780   113576806.07208  21261818.520    88337531.88608
  20246064.420   108340780.09308  20246064.680    84265052.01108
  21151493.740   112908113.28509  21151497.060    87817431.68108
  23293897.360   124562933.95307  23293898.700    96882289.27805
 15 03 04 00 24 30.0000000  0 13G16G18G19G21G22G27R01R02R15R16R17R18
                                R24
  20762416.620   109107234.77709  20762412.940    85018612.61248
  21913665.240   115157091.64509  21913662.240    89732788.44847
  23930603.900   125756191.43108  23930600.720    97991797.39846
  22099305.540   116132633.21608  22099301.680    90492945.46547
  22559417.560   118550546.96608  22559413.180    92377021.60047
  21872823.120   114942470.99909  21872823.360    89565560.41748
  22637731.740   121011655.33308  22637735.620    94120187.26105
  21740061.020   116009135.93509  21740064.660    90229340.95308
  20446937.180   109262229.82808  20446940.860    84981747.13508
  21251252.160   113520372.89008  21251254.240    88293639.39408
  20251231.500   108368430.32008  20251231.720    84286557.74008
  21143108.300   112863350.84509  21143111.780    87782616.47208
  23308696.200   124642070.64307  23308698.040    96943839.99305
 15 03 04 00 25  0.0000000  0 13G16G18G19G21G22G27R01R02R15R16R17R18
                                R24
  20754885.780   109067660.17609  20754882.140    84987775.26948
  21907928.200   115126943.11009  21907925.140    89709296.11147
  23915963.920   125679258.26307  23915961.140    97931849.55346
  22110731.860   116192679.22508  22110728.060    90539734.56147
  22543337.500   118466045.67608  22543333.040    92311176.50446
  21862324.960   114887303.08309  21862325.200    89522572.45748
  22643334.840   121041607.02808  22643338.620    94143483.02606
  21726349.800   115935970.60108  21726353.540    90172434.62507
  20461619.120   109340685.48808  20461622.900    85042768.17008
  21240825.560   113464677.49308  21240827.880    88250320.75008
  20256428.360   108396240.54108  20256428.680    84308187.91808
  21134758.180   112818776.77109  21134761.540    87747947.75808
  23323489.540   124721176.74007  23323491.360    97005366.91105
 15 03 04 00 25 30.0000000  0 13G16G18G19G21G22G27R01R02R15R16R17R18
                                R24
  20747440.640   109028535.71709  20747437.100    84957288.67648
  21902277.380   115097247.59609  21902274.160    89686156.76847
  23901338.480   125602400.44508  23901335.640    97871960.36746
  22122194.360   116252915.49708  22122190.680    90586671.91847
  22527300.820   118381772.03008  22527296.160    92245508.80046
  21851850.840   114832261.14509  21851850.940    89479682.64748
  22649075.600   121072294.13508  22649079.460    94167350.79706
  21712740.580   115863349.49709  21712744.180    90115951.57507
  20476420.820   109419780.74508  20476424.580    85104286.68508
  21230538.720   113409727.79408  21230541.080    88207582.10508
  20261655.940   108424215.39208  20261656.420    84329946.13308
  21126444.180   112774395.98709  21126447.500    87713429.39908
  23338278.500   124800258.14307  23338279.900    97066874.67705
 15 03 04 00 26  0.0000000  0 13G16G18G19G21G22G27R01R02R15R16R17R18
                                R24
  20740082.020   108989865.38809  20740078.440    84927155.95848
  21896713.360   115068008.86009  21896710.160    89663373.37247
  23886727.920   125525621.03008  23886724.660    97812132.29646
  22133693.340   116313343.45208  22133689.840    90633758.64048
  22511308.460   118297731.50308  22511303.680    92180022.74746
  21841401.320   114777348.21009  21841401.220    89436893.38148
  22654954.180   121103718.41008  22654958.220    94191791.92706
  21699234.760   115791279.44309  21699238.260    90059897.12408
  20491341.920   109499514.04808  20491345.600    85166301.44108
  21220392.720   113355528.94808  21220395.060    88165427.46008
  20266914.680   108452356.65708  20266915.240    84351833.78808
  21118166.720   112730210.45309  21118169.860    87679062.88508
  23353063.180   124879316.99807  23353064.180    97128364.86405
 15 03 04 00 26 30.0000000  0 13G16G18G19G21G22G27R01R02R15R16R17R18
                                R24
  20732809.140   108951645.76209  20732805.480    84897374.43148
  21891235.580   115039223.21809  21891232.340    89640943.01847
  23872131.200   125448914.94008  23872127.700    97752361.36646
  22145227.300   116373955.05808  22145224.000    90680988.45447
  22495359.820   118213921.03408  22495355.020    92114715.95546
  21830975.500   114722559.30009  21830975.240    89394200.73748
  22660969.280   121135873.30208  22660973.680    94216801.33305
  21685831.920   115719758.75709  21685835.340    90004269.95508
  20506380.620   109579875.94608  20506384.160    85228805.12208
  21210386.800   113302077.95008  21210388.940    88123854.48608
  20272203.400   108480658.07808  20272204.100    84373845.99808
  21109924.660   112686213.97109  21109927.660    87644843.42908
  23367842.540   124958347.74407  23367843.280    97189833.19105
 15 03 04 00 27  0.0000000  0 13G16G18G19G21G22G27R01R02R15R16R17R18
                                R24
  20725622.640   108913880.35809  20725618.940    84867946.84948
  21885844.440   115010893.18509  21885841.300    89618867.69447
  23857548.760   125372283.28008  23857544.860    97692648.42145
  22156796.400   116434750.85208  22156793.160    90728361.79948
  22479455.740   118130344.82408  22479451.000    92049591.69746
  21820573.700   114667896.14809  21820573.240    89351606.09448
  22667121.360   121168759.50808  22667125.540    94242379.51005
  21672532.960   115648792.72909  21672536.380    89949074.19108
  20521536.580   109660864.37908  20521540.120    85291796.08208
  21200521.460   113249378.61808  21200523.460    88082866.11707
  20277522.360   108509120.21209  20277522.940    84395983.20308
  21101718.120   112642407.45909  21101721.060    87610771.73408
  23382617.000   125037352.01708  23382617.320    97251280.97804
 15 03 04 00 27 30.0000000  0 13G16G18G19G21G22G27R01R02R15R16R17R18
                                R24
  20718523.400   108876573.90509  20718519.760    84838876.88648
  21880540.780   114983022.66009  21880537.760    89597150.42747
  23842981.120   125295729.41108  23842977.000    97632996.09246
  22168400.940   116495732.53009  22168397.760    90775879.98347
  22463597.400   118047008.89808  22463592.660    91984654.65946
  21810196.540   114613362.38809  21810195.780    89309112.27948
  22673410.700   121202379.00208  22673414.520    94268528.00005
  21659339.260   115578388.78009  21659342.700    89894315.60408
  20536809.640   109742478.65708  20536813.200    85355273.82708
  21190797.820   113197436.46708  21190799.600    88042466.68308
  20282871.820   108537745.58908  20282872.280    84418247.39108
  21093547.500   112598793.39409  21093550.320    87576849.70908
  23397386.900   125116332.96307  23397386.800    97312710.61904
 15 03 04 00 28  0.0000000  0 13G16G18G19G21G22G27R01R02R15R16R17R18
                                R24
  20711510.540   108839721.22109  20711506.880    84810160.51748
  21875323.660   114955606.57009  21875320.580    89575787.25047
  23828426.760   125219246.37408  23828422.780    97573398.99046
  22180039.100   116556890.61708  22180035.800    90823535.62147
  22447783.820   117963908.38408  22447779.100    91919901.06746
  21799842.620   114558951.21409  21799841.620    89266713.97948
  22679835.460   121236723.26408  22679839.080    94295240.19205
  21646250.180   115508543.32009  21646253.600    89839991.39608
  20552197.660   109824707.37508  20552201.180    85419229.45308
  21181215.000   113146246.82408  21181216.760    88002652.53508
  20288250.160   108566526.11108  20288250.660    84440632.22508
  21085411.480   112555364.05908  21085414.220    87543071.34308
  23412150.900   125195283.00807  23412150.880    97374116.22205
 15 03 04 00 28 30.0000000  0 13G16G18G19G21G22G27R01R02R15R16R17R18
                                R24
  20704585.740   108803331.36209  20704582.120    84781804.79148
  21870194.600   114928653.13109  21870191.400    89554784.59447
  23813887.460   125142841.62407  23813883.460    97513862.85646
  22191711.840   116618230.59109  22191708.380    90871333.00447
  22432016.920   117881053.28508  22432012.140    91855338.69346
  21789513.340   114504670.09809  21789512.280    89224417.02648
  22686396.980   121271798.33008  22686400.800    94322520.83006
  21633267.800   115439267.19709  21633271.340    89786110.02108
  20567701.300   109907554.17008  20567704.860    85483665.80508
  21171774.760   113095819.06908  21171776.660    87963430.95808
  20293658.720   108595468.17608  20293659.200    84463142.71808
  21077311.200   112512125.64708  21077314.140    87509441.51308
  23426910.320   125274209.53807  23426910.620    97435503.49405
 15 03 04 00 29  0.0000000  0 13G16G18G19G21G22G27R01R02R15R16R17R18
                                R24
  20697749.100   108767404.86809  20697745.580    84753810.12048
  21865153.580   114902162.49409  21865150.320    89534142.55647
  23799362.880   125066514.04708  23799358.900    97454386.88245
  22203418.640   116679749.71009  22203414.940    90919269.97347
  22416296.980   117798445.07408  22416292.200    91790968.69946
  21779208.620   114450518.56009  21779207.600    89182221.03948
  22693094.920   121307602.33708  22693098.900    94350368.39106
  21620392.760   115370563.71209  21620396.340    89732674.00608
  20583319.600   109991013.58108  20583323.120    85548578.65008
  21162477.340   113046154.29408  21162479.360    87924802.80608
  20299097.200   108624570.03009  20299097.620    84485777.49108
  21069246.600   112469076.93209  21069249.640    87475959.21408
  23441665.080   125353111.25207  23441666.080    97496871.45305
 15 03 04 00 29 30.0000000  0 13G16G18G19G21G22G27R01R02R15R16R17R18
                                R24
  20691000.600   108731941.94409  20690997.260    84726176.66748
  21860200.480   114876133.92009  21860197.260    89513860.56747
  23784852.600   124990262.39408  23784848.820    97394970.07347
  22215159.000   116741444.96409  22215154.940    90967344.19747
  22400624.300   117716085.04908  22400619.580    91726792.10446
  21768928.320   114396495.34009  21768927.300    89140125.02748
  22699928.680   121344132.37708  22699932.640    94378780.65905
  21607625.440   115302434.75009  21607629.000    89679684.84708
  20599051.660   110075080.52908  20599055.180    85613964.02208
  21153322.860   112997253.47208  21153325.120    87886768.81608
  20304565.140   108653829.22709  20304565.340    84508534.65108
  21061217.240   112426215.50009  21061220.360    87442622.57008
  23456415.000   125431987.00507  23456416.780    97558219.27305
 15 03 04 00 30  0.0000000  0 13G16G18G19G21G22G27R01R02R15R16R17R18
                                R24
  20684340.560   108696943.79109  20684337.340    84698905.38148
  21855335.560   114850568.63509  21855332.380    89493939.58447
  23770356.600   124914086.49808  23770352.420    97335612.26746
  22226932.520   116803314.47009  22226928.140    91015554.20147
  22384999.360   117633975.81709  22384994.700    91662810.92547
  21758672.460   114342600.63209  21758671.480    89098129.17348
  22706897.840   121381386.75908  22706901.740    94407756.30406
  21594966.480   115234883.75309  21594970.020    89627145.21208
  20614896.640   110159751.03608  20614900.160    85679818.82808
  21144311.760   112949118.41308  21144314.220    87849330.44808
  20310062.260   108683244.55208  20310062.260    84531413.23708
  21053222.840   112383540.46009  21053225.900    87409430.90208
  23471160.140   125510836.02607  23471161.940    97619546.30205
 15 03 04 00 30 30.0000000  0 13G16G18G19G21G22G27R01R02R15R16R17R18
                                R24
  20677769.920   108662414.98209  20677766.800    84671999.81748
  21850559.440   114825469.91509  21850556.240    89474382.15947
  23755875.460   124837988.61108  23755871.300    97276315.30045
  22238739.260   116865358.72909  22238734.660    91063900.36347
  22369423.000   117552121.90508  22369418.380    91599028.70546
  21748441.480   114288836.90809  21748440.620    89056235.37848
  22714002.540   121419366.38708  22714006.580    94437296.04406
  21582416.960   115167916.91809  21582420.420    89575059.92608
  20630854.060   110245022.49808  20630857.620    85746141.03708
  21135444.800   112901753.19808  21135447.280    87812490.85908
  20315588.800   108712817.80109  20315588.680    84554414.64908
  21045263.600   112341053.27509  21045266.540    87376385.30108
  23485900.780   125589660.58007  23485902.520    97680854.26305
 15 03 04 00 31  0.0000000  0 13G16G18G19G21G22G27R01R02R15R16R17R18
                                R24
  20671287.760   108628350.45409  20671284.540    84645456.03648
  21845871.080   114800832.50709  21845867.900    89455184.19447
  23741408.460   124761962.56507  23741404.160    97217074.12347
  22250577.680   116927569.68909  22250573.000    91112376.42847
  22353894.480   117470519.51708  22353889.920    91535442.47846
  21738234.260   114235198.37209  21738233.460    89014439.12748
  22721241.420   121458063.51808  22721245.520    94467393.83306
  21569976.380   115101531.49509  21569979.840    89523426.84508
  20646922.080   110330885.12208  20646925.720    85812923.04008
  21126721.220   112855153.90708  21126723.560    87776246.98507
  20321143.400   108742541.67609  20321143.280    84577533.21408
  21037338.180   112298746.90609  21037341.180    87343480.37008
  23500635.780   125668454.41607  23500637.380    97742138.38205
 15 03 04 00 31 30.0000000  0 13G16G18G19G21G22G27R01R02R15R16R17R18
                                R24
  20664896.500   108594763.61309  20664893.100    84619284.47748
  21841272.740   114776668.48209  21841269.620    89436355.11147
  23726956.940   124686019.46708  23726951.860    97157897.69746
  22262449.560   116989956.89708  22262444.920    91160989.82847
  22338416.520   117389182.74108  22338412.100    91472063.23146
  21728052.980   114181696.44809  21728052.240    88972749.33148
  22728616.380   121497487.85708  22728620.680    94498057.21206
  21557647.520   115035742.37609  21557651.020    89472257.55908
  20663102.020   110417346.16608  20663105.600    85880170.49408
  21118143.440   112809333.65108  21118145.820    87740609.01808
  20326728.060   108772426.61708  20326728.040    84600777.05108
  21029448.660   112256631.99809  21029451.540    87310724.35508
  23515367.020   125747228.37507  23515368.400    97803407.00305
 15 03 04 00 32  0.0000000  0 13G16G18G19G21G22G27R01R02R15R16R17R18
                                R24
  20658595.300   108561650.34409  20658591.880    84593481.92848
  21836763.560   114752973.40109  21836760.560    89417891.44247
  23712520.080   124610154.58808  23712516.120    97098782.39346
  22274353.580   117052513.22609  22274349.080    91209735.01547
  22322988.680   117308108.73409  22322984.280    91408888.72546
  21717896.780   114128326.27909  21717896.060    88931162.19048
  22736126.040   121537632.68108  22736130.420    94529281.00106
  21545430.060   114970547.96709  21545433.620    89421550.83208
  20679392.140   110504396.18708  20679395.720    85947876.03608
  21109710.840   112764289.19308  21109713.360    87705574.42908
  20332341.660   108802466.54709  20332341.700    84624141.44108
  21021594.000   112214702.73709  21021596.700    87278112.72808
  23530093.600   125825977.65806  23530094.740    97864656.39705
 15 03 04 00 32 30.0000000  0 13G16G18G19G21G22G27R01R02R15R16R17R18
                                R24
  20652383.900   108529009.28009  20652380.440    84568047.33748
  21832343.480   114729746.13109  21832340.560    89399792.28947
  23698097.620   124534364.65908  23698093.600    97039725.26247
  22286288.720   117115233.60308  22286284.460    91258608.03547
  22307610.720   117227296.96109  22307606.360    91345918.55247
  21707765.240   114075085.38909  21707764.640    88889675.79948
  22743769.740   121578493.60308  22743774.540    94561061.73505
  21533324.020   114905948.64009  21533327.580    89371306.95208
  20695791.260   110592028.13908  20695794.880    86016034.18208
  21101423.360   112720019.44008  21101426.060    87671142.40808
  20337983.580   108832657.69709  20337983.700    84647623.44008
  21013773.440   112172955.12509  21013775.920    87245642.38408
  23544814.900   125904699.15006  23544815.500    97925884.16404
 15 03 04 00 33  0.0000000  0 13G16G18G19G21G22G27R01R02R15R16R17R18
                                R24
  20646263.000   108496843.90109  20646259.440    84542983.40848
  21828012.980   114706989.09509  21828010.020    89382059.55647
  23683689.880   124458651.52607  23683685.280    96980728.01546
  22298255.100   117178118.43408  22298251.200    91307609.20047
  22292283.500   117146751.91609  22292279.200    91283156.22047
  21697658.700   114021975.82509  21697658.300    88848291.74148
  22751547.580   121620070.51308  22751552.320    94593399.33205
  21521330.540   114841949.96509  21521334.220    89321530.24408
  20712298.700   110680238.78308  20712302.360    86084642.40308
  21093281.800   112676527.94308  21093284.320    87637315.68808
  20343653.840   108863001.03308  20343654.220    84671223.81608
  21005987.180   112131390.50209  21005989.460    87213314.34608
  23559531.160   125983394.33807  23559531.620    97987091.52304
 15 03 04 00 33 30.0000000  0 13G16G18G19G21G22G27R01R02R15R16R17R18
                                R24
  20640233.740   108465159.92109  20640230.020    84518294.59648
  21823772.880   114684707.20309  21823769.780    89364697.05547
  23669297.240   124383019.50008  23669293.620    96921794.10346
  22310253.260   117241170.06308  22310249.720    91356740.33947
  22277008.240   117066479.92009  22277003.980    91220606.66147
  21687578.060   113969002.23509  21687577.840    88807013.62548
  22759459.920   121662366.65208  22759464.560    94626296.33905
  21509451.200   114778559.84809  21509454.860    89272226.85108
  20728914.640   110769029.05608  20728918.240    86153701.46008
  21085287.200   112633820.85408  21085289.440    87604099.06508
  20349353.100   108893500.29408  20349353.740    84694945.45608
  20998235.820   112090012.37009  20998237.980    87181131.36708
  23574243.580   126062067.68807  23574244.080    98048281.91804
 15 03 04 00 34  0.0000000  0 13G16G18G19G21G22G27R01R02R15R16R17R18
                                R24
  20634295.640   108433954.59509  20634291.780    84493978.76648
  21819622.580   114662896.83009  21819619.460    89347701.97247
  23654919.320   124307464.25308  23654915.480    96862919.86646
  22322282.080   117304382.40708  22322278.720    91405996.71547
  22261784.640   116986479.40908  22261780.360    91158268.65047
  21677522.560   113916160.46009  21677522.380    88765838.23048
  22767505.700   121705375.42308  22767510.080    94659747.63905
  21497685.780   114715777.12009  21497689.320    89223395.86308
  20745637.320   110858389.97208  20745640.940    86223204.35108
  21077438.980   112591895.57908  21077440.880    87571490.54508
  20355080.580   108924149.90808  20355081.360    84718784.05508
  20990518.340   112048815.47109  20990520.380    87149089.37208
  23588951.000   126140714.19007  23588951.800    98109451.43004
 15 03 04 00 34 30.0000000  0 13G16G18G19G21G22G27R01R02R15R16R17R18
                                R24
  20628449.080   108403230.64709  20628445.240    84470038.02948
  21815562.480   114641560.65809  21815559.320    89331076.40047
  23640556.340   124231987.12208  23640552.680    96804106.62046
  22334341.420   117367754.96308  22334338.060    91455377.91547
  22246613.380   116906753.93408  22246608.960    91096144.96147
  21667492.540   113863451.94409  21667492.220    88724766.68248
  22775684.740   121749096.31708  22775688.820    94693752.77505
  21486035.020   114653606.19009  21486038.380    89175040.71808
  20762466.120   110948317.84308  20762469.800    86293148.20508
  21069737.540   112550754.87008  21069739.340    87539492.21308
  20360836.260   108954950.20908  20360837.140    84742739.85308
  20982834.800   112007800.04409  20982836.900    87117188.50508
  23603653.580   126219335.23107  23603654.360    98170601.13304
 15 03 04 00 35  0.0000000  0 13G16G18G19G21G22G27R01R02R15R16R17R18
                                R24
  20622694.380   108372989.45709  20622690.600    84446473.47248
  21811592.600   114620698.95809  21811589.560    89314820.56448
  23626208.200   124156587.88608  23626204.860    96745354.01846
  22346430.840   117431285.70608  22346427.440    91504882.39547
  22231494.940   116827306.09308  22231490.420    91034237.61347
  21657488.080   113810877.08009  21657487.380    88683799.27848
  22783996.560   121793527.66008  22784000.140    94728310.49605
  21474499.600   114592050.69509  21474502.800    89127164.25408
  20779400.400   111038809.44508  20779404.160    86363530.52908
  21062183.240   112510400.57008  21062185.000    87508105.53408
  20366619.780   108985900.47808  20366620.820    84766812.29008
  20975185.040   111966965.62609  20975187.380    87085428.44208
  23618351.280   126297930.63307  23618352.400    98231730.85504
 15 03 04 00 35 30.0000000  0 13G16G18G19G21G22G27R01R02R15R16R17R18
                                R24
  20617030.980   108343228.54909  20617027.400    84423283.15048
  21807712.440   114600308.57209  21807709.380    89298931.97447
  23611874.280   124081262.75208  23611870.800    96686659.13646
  22358549.320   117494969.09308  22358545.900    91554505.80547
  22216429.040   116748134.34308  22216424.520    90972545.40447
  21647508.380   113758432.22809  21647507.300    88642933.17648
  22792440.000   121838663.53608  22792443.520    94763416.18705
  21463079.360   114531110.17609  21463082.440    89079766.10108
  20796438.520   111129855.57008  20796442.300    86434344.15508
  21054775.640   112470829.96108  21054777.440    87477328.39808
  20372430.460   109016995.86908  20372431.620    84790997.59208
  20967568.180   111926307.33809  20967570.840    87053805.34308
  23633043.280   126376496.36806  23633044.640    98292837.50805
 15 03 04 00 36  0.0000000  0 13G16G18G19G21G22G27R01R02R15R16R17R18
                                R24
  20611460.160   108313954.42109  20611456.780    84400472.13648
  21803923.160   114580395.63509  21803920.060    89283415.41448
  23597555.580   124006016.51608  23597552.280    96628025.73546
  22370697.440   117558808.00708  22370694.000    91604250.40347
  22201417.000   116669245.65109  22201412.500    90911073.74547
  21637554.300   113706122.61509  21637553.040    88602172.44048
  22801015.900   121884507.10908  22801019.620    94799072.31505
  21451775.780   114470792.47009  21451778.980    89032852.36108
  20813580.600   111221457.24208  20813584.380    86505589.85808
  21047515.980   112432049.92508  21047517.700    87447166.14108
  20378269.160   109048240.43208  20378270.400    84815298.92608
  20959985.100   111885829.43909  20959988.000    87022322.55808
  23647730.640   126455037.14807  23647732.180    98353924.72605
 15 03 04 00 36 30.0000000  0 12G16G18G19G21G22G27R01R02R15R16R17R18
  20605981.940   108285166.60609  20605978.680    84378040.07748
  21800224.560   114560958.92709  21800221.300    89268269.93847
  23583251.560   123930847.45908  23583248.260    96569452.45247
  22382874.660   117622799.43109  22382871.120    91654113.84647
  22186459.040   116590641.18509  22186454.500    90849823.55947
  21627625.620   113653946.80509  21627624.420    88561515.98748
  22809723.740   121931054.60908  22809727.680    94835275.95105
  21440589.300   114411099.34409  21440592.500    88986424.41308
  20830825.320   111313607.70108  20830829.140    86577262.41008
  21040404.200   112394059.96108  21040405.880    87417618.40008
  20384135.480   109079631.89708  20384136.700    84839714.50108
  20952435.420   111845529.35409  20952438.360    86990978.07408
 15 03 04 00 37  0.0000000  0 12G16G18G19G21G22G27R01R02R15R16R17R18
  20600597.760   108256872.91409  20600594.560    84355993.04248
  21796617.880   114542005.37809  21796614.540    89253500.96147
  23568963.300   123855762.12208  23568959.780    96510944.43446
  22395081.780   117686947.59408  22395078.120    91704099.42347
  22171556.840   116512329.66109  22171552.220    90788801.63247
  21617723.680   113601911.45109  21617722.620    88520968.96948
  22818564.100   121978310.72608  22818568.340    94872030.73705
  21429521.800   114352040.57109  21429524.900    88940489.83708
  20848173.420   111406310.34308  20848177.200    86649364.41708
  21033441.720   112356867.99508  21033443.420    87388691.30508
  20390030.520   109111175.70709  20390031.500    84864248.57008
  20944920.160   111805412.65209  20944923.020    86959776.20508
 15 03 04 00 37 30.0000000  0 12G16G18G19G21G22G27R01R02R15R16R17R18
  20595307.100   108229070.42609  20595303.900    84334328.76448
  21793102.440   114523531.84709  21793099.000    89239106.02447
  23554690.180   123780756.24708  23554687.140    96452498.37346
  22407317.500   117751246.24708  22407313.740    91754202.26847
  22156709.960   116434308.83309  22156705.320    90728006.21447
  21607847.720   113550012.74509  21607846.680    88480528.43748
