     2.11           OBSERVATION DATA    M                   RINEX VERSION / TYPE
SPIDER V4,0,0,3554                      2015 03 24 00:23    PGM / RUN BY / DATE 
CAEK                                                        MARKER NAME         
CAEK                                                        MARKER NUMBER       
                                                            OBSERVER / AGENCY   
496550              LEICA GRX1200+GNSS  8.10/4.007          REC # / TYPE / VERS 
                    LEIAR25         NONE                    ANT # / TYPE        
  5175865.2406   441308.6117  3689278.4577                  APPROX POSITION XYZ 
        0.0720        0.0000        0.0000                  ANTENNA: DELTA H/E/N
     1     1                                                WAVELENGTH FACT L1/2
     4    C1    L1    P2    L2                              # / TYPES OF OBSERV 
    30.000                                                  INTERVAL            
  2015    03    04    00    00    0.0000000     GPS         TIME OF FIRST OBS   
  2015    03    04    23    59   30.0000000     GPS         TIME OF LAST OBS    
    16                                                      LEAP SECONDS        
    54                                                      # OF SATELLITES     
   G 1   791   791   791   791                              PRN / # OF OBS      
   G 2   924   924   924   924                              PRN / # OF OBS      
   G 3   819   819   819   819                              PRN / # OF OBS      
   G 4   812   812   812   812                              PRN / # OF OBS      
   G 5   631   631   631   631                              PRN / # OF OBS      
   G 6   777   777   777   777                              PRN / # OF OBS      
   G 7   657   657   657   657                              PRN / # OF OBS      
   G 9   772   771   771   771                              PRN / # OF OBS      
   G10   727   727   727   727                              PRN / # OF OBS      
   G11   754   754   754   754                              PRN / # OF OBS      
   G12   816   816   816   816                              PRN / # OF OBS      
   G13   802   802   802   802                              PRN / # OF OBS      
   G14   935   935   935   935                              PRN / # OF OBS      
   G15   710   710   710   710                              PRN / # OF OBS      
   G16   676   676   676   676                              PRN / # OF OBS      
   G17   909   909   908   908                              PRN / # OF OBS      
   G18   922   921   921   921                              PRN / # OF OBS      
   G19   765   764   764   764                              PRN / # OF OBS      
   G20   724   724   724   724                              PRN / # OF OBS      
   G21   724   721   721   721                              PRN / # OF OBS      
   G22   655   655   655   655                              PRN / # OF OBS      
   G23   716   716   716   716                              PRN / # OF OBS      
   G24   830   830   830   830                              PRN / # OF OBS      
   G25   854   854   854   854                              PRN / # OF OBS      
   G27   816   816   816   816                              PRN / # OF OBS      
   G28   892   892   892   892                              PRN / # OF OBS      
   G29   760   760   760   760                              PRN / # OF OBS      
   G30   708   708   708   708                              PRN / # OF OBS      
   G31   817   816   816   816                              PRN / # OF OBS      
   G32   729   729   729   729                              PRN / # OF OBS      
   R 1   688   688   687   687                              PRN / # OF OBS      
   R 2   973   973   971   971                              PRN / # OF OBS      
   R 3   983   983   983   982                              PRN / # OF OBS      
   R 4   855   855   855   854                              PRN / # OF OBS      
   R 5   649   649   648   648                              PRN / # OF OBS      
   R 6   743   743   743   743                              PRN / # OF OBS      
   R 7   730   730   730   730                              PRN / # OF OBS      
   R 8   668   668   668   667                              PRN / # OF OBS      
   R 9   879   879   877   874                              PRN / # OF OBS      
   R10   580   580   580   580                              PRN / # OF OBS      
   R11   671   671   670   669                              PRN / # OF OBS      
   R12   767   767   767   767                              PRN / # OF OBS      
   R13   764   764   764   764                              PRN / # OF OBS      
   R14   701   700   696   695                              PRN / # OF OBS      
   R15   956   956   956   956                              PRN / # OF OBS      
   R16   992   992   992   992                              PRN / # OF OBS      
   R17   938   938   937   937                              PRN / # OF OBS      
   R18   995   995   995   995                              PRN / # OF OBS      
   R19   798   798   798   798                              PRN / # OF OBS      
   R20   555   555   555   555                              PRN / # OF OBS      
   R21   747   747   747   747                              PRN / # OF OBS      
   R22   799   799   799   793                              PRN / # OF OBS      
   R23   769   769   769   768                              PRN / # OF OBS      
   R24   619   619   618   618                              PRN / # OF OBS      
BIT 2 OF LLI FLAGS DATA COLLECTED UNDER A/S CONDITION       COMMENT             
SNR is mapped to RINEX snr flag value [2-9]                 COMMENT             
Lx:     = 25dBHz -> 1; 26-27dBHz -> 2; 28-31dBHz -> 3       COMMENT             
       32-35dBHz -> 4; 36-38dBHz -> 5; 39-41dBHz -> 6       COMMENT             
       42-44dBHz -> 7; 45-48dBHz -> 8; >=49dBHz -> 9        COMMENT             
                                                            END OF HEADER       
 15 03 04 00 00  0.0000000  0  7G16G18G21G22G27G29G31
  21288747.160   111873146.23209  21288744.040    87173872.59148
  22212781.680   116729101.99209  22212779.280    90957784.41247
  21577289.960   113389432.99208  21577286.480    88355392.91348
  23318964.200   122542090.81708  23318962.020    95487386.28146
  22501403.980   118245723.57608  22501403.940    92139554.01648
  24439179.880   128428736.51107  24439178.880   100074327.18045
  23542902.380   123718736.43908  23542902.080    96404185.73447
 15 03 04 00 00 30.0000000  0  7G16G18G21G22G27G29G31
  21277199.440   111812462.81409  21277196.360    87126586.82948
  22203362.780   116679605.76909  22203360.440    90919215.96247
  21586529.540   113437987.44408  21586526.080    88393227.55548
  23301401.080   122449796.88208  23301398.780    95415469.13346
  22489710.720   118184275.57909  22489710.780    92091672.49248
  24453381.060   128503364.51508  24453380.100   100132478.85746
  23560984.960   123813760.33408  23560984.740    96478230.08547
 15 03 04 00 01  0.0000000  0  7G16G18G21G22G27G29G31
  21265716.500   111752119.48909  21265713.400    87079566.06848
  22194014.000   116630477.95309  22194011.700    90880934.57647
  21595819.200   113486805.10708  21595815.820    88431267.28748
  23283856.080   122357597.98308  23283853.880    95343626.03846
  22478036.260   118122925.98009  22478036.260    92043867.64147
  24467586.060   128578012.21808  24467585.220   100190645.88247
  23579082.300   123908861.82008  23579082.160    96552334.87547
 15 03 04 00 01 30.0000000  0  7G16G18G21G22G27G29G31
  21254299.680   111692123.65009  21254296.560    87032816.07948
  22184736.780   116581725.95409  22184734.460    90842946.03247
  21605159.700   113535889.71108  21605156.360    88469515.03048
  23266330.780   122265502.23108  23266328.400    95271863.28246
  22466381.640   118061680.50209  22466381.560    91996143.90848
  24481795.900   128652685.69407  24481795.300   100248832.94346
  23597194.920   124004043.47708  23597194.760    96626502.16846
 15 03 04 00 02  0.0000000  0  7G16G18G21G22G27G29G31
  21242949.960   111632480.33709  21242946.800    86986340.78048
  22175532.000   116533354.70609  22175529.680    90805254.18147
  21614551.200   113585242.28708  21614547.840    88507971.58348
  23248826.140   122173515.16308  23248823.600    95200185.23247
  22454747.400   118000541.94508  22454747.280    91948503.50748
  24496010.900   128727387.77307  24496010.660   100307042.23845
  23615322.680   124099304.72608  23615322.700    96700731.43146
 15 03 04 00 02 30.0000000  0  7G16G18G21G22G27G29G31
  21231666.120   111573183.27909  21231662.960    86940135.28748
  22166398.420   116485357.63409  22166396.120    90767853.89847
  21623991.640   113634852.06608  21623988.280    88546628.54548
  23231341.080   122081631.01708  23231338.380    95128587.35246
  22443131.940   117939502.07809  22443131.800    91900939.97648
  24510229.960   128802109.85008  24510229.680   100365267.26845
  23633463.500   124194634.84808  23633463.740    96775014.36646
 15 03 04 00 03  0.0000000  0  7G16G18G21G22G27G29G31
  21220449.380   111514238.84709  21220446.200    86894204.57048
  22157337.240   116437740.65509  22157334.900    90730749.79047
  21633481.600   113684722.10509  21633478.260    88585488.31448
  23213876.900   121989856.72608  23213874.120    95057075.08746
  22431535.940   117878565.03909  22431535.840    91853456.60648
  24524453.860   128876855.94208  24524453.060   100423511.02445
  23651617.540   124290034.61708  23651618.040    96849351.54446
 15 03 04 00 03 30.0000000  0  7G16G18G21G22G27G29G31
  21209299.860   111455647.92909  21209296.700    86848549.31448
  22148348.540   116390504.59609  22148346.160    90693942.48947
  21643020.480   113734849.16909  21643017.100    88624548.35948
  23196433.960   121898193.82808  23196431.160    94985649.61246
  22419959.320   117817729.84309  22419959.280    91806052.57348
  24538682.180   128951625.34607  24538681.340   100481772.81345
  23669784.260   124385500.10608  23669784.720    96923739.97246
 15 03 04 00 04  0.0000000  0  7G16G18G21G22G27G29G31
  21198219.360   111397419.70009  21198216.220    86803176.68448
  22139434.080   116343658.44109  22139431.620    90657439.02447
  21652609.260   113785238.37409  21652605.880    88663812.67548
  23179013.900   121806651.67508  23179010.940    94914318.22446
  22408403.360   117757003.35208  22408403.420    91758733.25848
  24552916.100   129026424.97508  24552915.360   100540058.11345
  23687964.260   124481035.06608  23687964.600    96998182.49546
 15 03 04 00 04 30.0000000  0  6G16G18G21G22G27G31
  21187211.500   111339573.11809  21187208.400    86758101.43848
  22130597.320   116297221.03209  22130594.880    90621254.05747
  21662250.860   113835905.30108  21662247.480    88703293.38948
  23161620.540   121715249.95208  23161617.560    94843096.25847
  22396871.440   117696402.83409  22396871.440    91711512.10248
  23706160.140   124576653.76008  23706160.380    97072690.26846
 15 03 04 00 05  0.0000000  0  6G16G18G21G22G27G31
  21176267.300   111282061.20909  21176264.260    86713286.97548
  22121829.340   116251144.95009  22121826.860    90585350.64247
  21671935.500   113886798.51408  21671932.120    88742950.44348
  23144245.180   121623942.22708  23144242.020    94771947.51246
  22385354.120   117635878.99608  22385354.100    91664350.69648
  23724361.960   124672303.50108  23724362.240    97147222.22046
 15 03 04 00 05 30.0000000  0  6G16G18G21G22G27G31
  21165392.600   111224914.28809  21165389.520    86668756.91148
  22113135.840   116205460.25409  22113133.320    90549752.19947
  21681668.200   113937944.35009  21681664.820    88782804.33748
  23126893.440   121532759.05008  23126890.440    94700895.85246
  22373856.840   117575460.15109  22373856.680    91617271.09748
  23742574.480   124768009.71808  23742574.780    97221798.17646
 15 03 04 00 06  0.0000000  0  6G16G18G21G22G27G31
  21154587.320   111168132.32409  21154584.240    86624511.22948
  22104516.780   116160166.83609  22104514.200    90514458.65247
  21691448.300   113989339.06209  21691444.880    88822852.16248
  23109565.680   121441701.53509  23109562.600    94629942.07346
  22362379.220   117515144.42509  22362379.000    91570271.85148
  23760796.920   124863767.55808  23760797.220    97296414.33846
 15 03 04 00 06 30.0000000  0  6G16G18G21G22G27G31
  21143852.780   111111721.92709  21143849.660    86580555.08048
  22095973.360   116115270.92909  22095970.800    90479474.85547
  21701276.140   114040984.51609  21701272.660    88863095.37148
  23092262.980   121350776.10009  23092259.940    94559091.22446
  22350922.000   117454936.21209  22350921.720    91523356.38748
  23779029.420   124959578.42608  23779029.920    97371071.82046
 15 03 04 00 07  0.0000000  0  7G16G18G19G21G22G27G31
  21133188.880   111055682.76209  21133185.720    86536888.19848
  22087505.460   116070771.89509  22087502.880    90444800.31147
  24545742.980                                                  
  21711150.880   114092876.69308  21711147.400    88903530.83348
  23074985.720   121259983.70409  23074982.640    94488344.02946
  22339484.780   117394833.32309  22339484.480    91476522.99548
  23797270.940   125055436.85008  23797271.520    97445766.33146
 15 03 04 00 07 30.0000000  0  7G16G18G19G21G22G27G31
  21122585.600   110999962.17609  21122582.440    86493469.57048
  22079102.980   116026616.68009  22079100.340    90410393.67247
  24530688.580   128909641.85407  24530685.200   100449053.53944
  21721062.020   114144959.83809  21721058.500    88944115.10448
  23057723.680   121169271.81209  23057720.520    94417659.56946
  22328057.160   117334780.89809  22328056.840    91429728.92048
  23815510.540   125151284.94408  23815511.100    97520452.77546
 15 03 04 00 08  0.0000000  0  7G16G18G19G21G22G27G31
  21112068.280   110944693.35509  21112065.100    86450402.95448
  22070791.200   115982938.18709  22070788.580    90376358.51147
  24515660.640   128830671.81407  24515657.640   100387518.56544
  21731033.920   114197362.38709  21731030.360    88984948.25548
  23040502.540   121078774.34708  23040499.420    94347142.19346
  22316664.160   117274910.28909  22316663.880    91383076.51248
  23833772.520   125247250.84408  23833773.140    97595231.03246
 15 03 04 00 08 30.0000000  0  7G16G18G19G21G22G27G31
  21101617.520   110889774.44309  21101614.380    86407608.99848
  22062550.740   115939634.33509  22062548.080    90342615.27047
  24500639.940   128751737.32408  24500636.780   100326011.18345
  21741046.500   114249978.72409  21741042.920    89025947.99248
  23023302.780   120988389.93409  23023299.620    94276712.89746
  22305285.980   117215117.72309  22305285.680    91336484.93348
  23852036.640   125343228.06808  23852037.460    97670018.02946
 15 03 04 00 09  0.0000000  0  7G16G18G19G21G22G27G31
  21091239.120   110835235.88209  21091236.000    86365111.43348
  22054387.260   115896735.08409  22054384.580    90309187.30947
  24485631.420   128672866.63307  24485628.360   100264553.57946
  21751104.760   114302835.15809  21751101.180    89067134.83048
  23006130.480   120898149.32508  23006127.320    94206395.66247
  22293928.000   117155431.47709  22293927.760    91289976.20548
  23870307.740   125439241.55208  23870308.540    97744833.37446
 15 03 04 00 09 30.0000000  0  7G16G18G19G21G22G27G31
  21080934.500   110781084.82509  21080931.360    86322915.81248
  22046302.140   115854247.55709  22046299.520    90276080.16647
  24470635.760   128594064.78807  24470633.260   100203149.69246
  21761209.460   114355935.68909  21761205.920    89108511.86348
  22988987.040   120808060.68308  22988983.920    94136196.84347
  22282591.260   117095856.96309  22282591.140    91243554.53048
  23888586.120   125535293.42408  23888587.080    97819678.51246
 15 03 04 00 10  0.0000000  0  7G16G18G19G21G22G27G31
  21070702.520   110727315.54409  21070699.400    86281017.66948
  22038294.220   115812165.55409  22038291.560    90243289.01747
  24455651.820   128515324.04007  24455649.440   100141793.33546
  21771358.660   114409270.05509  21771355.120    89150071.10848
  22971871.500   120718118.39709  22971868.200    94066112.04747
  22271274.360   117036386.48109  22271274.240    91197213.91948
  23906869.840   125631373.59408  23906871.060    97894545.73946
 15 03 04 00 10 30.0000000  0  7G16G18G19G21G22G27G31
  21060543.880   110673931.50209  21060540.760    86239419.72248
  22030364.040   115770491.97709  22030361.200    90210816.11647
  24440679.680   128436645.65507  24440676.920   100080485.58845
  21781552.280   114462837.92409  21781548.740    89191812.30248
  22954784.620   120628326.87708  22954781.360    93996144.74247
  22259977.560   116977021.51409  22259977.500    91150955.53748
  23925158.540   125727480.07208  23925159.940    97969433.42246
 15 03 04 00 11  0.0000000  0  7G16G18G19G21G22G27G31
  21050459.240   110620936.06909  21050456.080    86198124.58448
  22022512.220   115729230.16609  22022509.280    90178664.08547
  24425719.800   128358031.21708  24425717.040   100019227.66945
  21791790.240   114516638.83509  21791786.700    89233735.08848
  22937727.300   120538690.43409  22937723.960    93926298.25947
  22248701.120   116917763.62709  22248701.080    91104780.58448
  23943452.080   125823611.09208  23943453.360    98044340.24246
 15 03 04 00 11 30.0000000  0  7G16G18G19G21G22G27G31
  21040448.300   110568327.89609  21040445.120    86157131.20948
  22014738.300   115688377.96509  22014735.280    90146831.22347
  24410771.540   128279476.87908  24410768.820    99958016.56246
  21802071.500   114570667.43709  21802068.000    89275835.29548
  22920699.220   120449207.61109  22920695.760    93856571.47247
  22237444.380   116858609.26709  22237444.320    91058686.30848
  23961749.040   125919760.42208  23961750.480    98119261.28546
 15 03 04 00 12  0.0000000  0  7G16G18G19G21G22G27G31
  21030512.320   110516113.73209  21030509.080    86116444.84948
  22007043.560   115647941.94909  22007040.580    90115322.66447
  24395835.540   128200987.30708  24395832.720    99896855.95645
  21812396.600   114624926.42909  21812393.160    89318115.02348
  22903701.840   120359886.08709  22903698.440    93786970.38847
  22226208.280   116799563.47809  22226208.280    91012676.64448
  23980049.880   126015929.99108  23980051.400    98194198.07346
 15 03 04 00 12 30.0000000  0  7G16G18G19G21G22G27G31
  21020651.460   110464294.23709  21020648.140    86076066.02248
  21999428.000   115607922.20509  21999425.060    90084138.47247
  24380911.720   128122561.20208  24380908.540    99835744.71645
  21822764.960   114679412.76008  21822761.560    89360571.90448
  22886735.320   120270726.90608  22886731.840    93717495.79047
  22214992.580   116740624.71609  22214992.520    90966750.36248
  23998353.740   126112115.01508  23998355.340    98269146.91246
 15 03 04 00 13  0.0000000  0  7G16G18G19G21G22G27G31
  21010866.680   110412874.67409  21010863.320    86035998.82848
  21991892.720   115568324.28609  21991889.860    90053282.97547
  24366000.160   128044201.88406  24365996.800    99774685.60345
  21833176.940   114734128.09809  21833173.520    89403207.22048
  22869800.880   120181736.15609  22869797.520    93648152.44947
  22203798.080   116681796.94309  22203797.900    90920910.55548
  24016660.600   126208316.00908  24016662.380    98344108.16746
 15 03 04 00 13 30.0000000  0  7G16G18G19G21G22G27G31
  21001157.720   110361853.58709  21001154.320    85996242.14548
  21984437.280   115529146.00509  21984434.480    90022754.46147
  24351100.560   127965905.90208  24351097.320    99713675.82545
  21843631.520   114789067.17109  21843628.100    89446016.87948
  22852898.300   120092913.12409  22852894.960    93578939.80847
  22192624.040   116623076.63809  22192623.820    90875154.49448
  24034969.380   126304527.02408  24034971.200    98419077.19446
 15 03 04 00 14  0.0000000  0  7G16G18G19G21G22G27G31
  20991523.900   110311227.56409  20991520.500    85956793.30848
  21977060.860   115490382.87109  21977058.060    89992549.44947
  24336212.300   127887667.49408  24336209.120    99652710.87546
  21854127.140   114844221.88409  21854123.700    89488994.57048
  22836027.160   120004254.71209  22836023.760    93509855.41647
  22181469.380   116564458.19109  22181469.020    90829477.80948
  24053278.340   126400739.23008  24053280.440    98494047.13846
 15 03 04 00 14 30.0000000  0  7G16G18G19G21G22G27G31
  20981967.340   110261007.62309  20981964.000    85917660.89048
  21969765.580   115452045.85309  21969762.760    89962676.47247
  24321336.540   127809495.54607  24321333.600    99591797.78746
  21864665.300   114899599.99209  21864661.820    89532146.33848
  22819189.480   119915772.54209  22819186.140    93440908.37447
  22170335.820   116505950.83109  22170335.360    90783887.67448
  24071588.720   126496958.51708  24071590.900    98569022.59746
 15 03 04 00 15  0.0000000  0 15G16G18G19G21G22G27G31R01R02R14R15R16
                                R17R18R24
  20972488.160   110211194.29809  20972484.820    85878845.31748
  21962551.400   115414135.16809  21962548.580    89933135.69947
  24306473.420   127731389.07108  24306470.400    99530935.63046
  21875245.340   114955198.40909  21875241.840    89575469.77448
  22802385.740   119827468.22209  22802382.220    93372099.88647
  22159223.180   116447553.60609  22159222.760    90738383.35548
  24089899.680   126593181.01708  24089902.020    98644000.52046
  22524552.640   120406661.83808  22524556.740    93649647.54806
  21928440.420   117014404.29909  21928443.860    91011236.17508
  22651692.600   120746197.10507  22651701.440    93913713.26205
  20217017.380   108033609.77608  20217021.300    84026158.68608
  21560354.580   115171545.25708  21560357.160    89577897.30307
  20188872.420   108034750.66408  20188872.960    84027039.16808
  21393384.900   114199467.24409  21393388.240    88821867.32508
  22982176.760   122896016.41707  22982177.060    95585788.41504
 15 03 04 00 15 30.0000000  0 15G16G18G19G21G22G27G31R01R02R14R15R16
                                R17R18R24
  20963085.880   110161784.96209  20963082.520    85840344.54648
  21955417.760   115376647.91509  21955415.000    89903924.88147
  24291621.940   127653342.87907  24291618.620    99470120.42146
  21885866.000   115011010.20209  21885862.480    89618959.48448
  22785615.340   119739339.49509  22785611.820    93303428.23947
  22148130.580   116389261.90709  22148130.160    90692961.26948
  24108209.860   126689399.00908  24108212.240    98718974.88846
  22527936.840   120424752.73008  22527941.020    93663718.23805
  21913165.980   116932897.22709  21913169.340    90947841.82307
  22676865.960   120880384.06606  22676874.740    94018080.43105
  20229088.420   108098113.74308  20229092.360    84076328.41608
  21547332.480   115101983.14908  21547334.920    89523793.43907
  20193096.240   108057353.51808  20193096.900    84044619.16908
  21384301.660   114150980.28909  21384305.040    88784155.28008
  22996695.600   122973654.51107  22996695.760    95646173.62005
 15 03 04 00 16  0.0000000  0 15G16G18G19G21G22G27G31R01R02R14R15R16
                                R17R18R24
  20953762.680   110112791.25009  20953759.320    85802167.62948
  21948366.720   115339594.92309  21948364.120    89875052.44247
  24276783.360   127575366.95508  24276780.380    99409360.12146
  21896528.720   115067043.31809  21896525.200    89662621.64448
  22768880.620   119651398.29809  22768877.120    93234902.71647
  22137059.900   116331085.68409  22137059.600    90647629.18248
  24126520.500   126785619.26808  24126522.900    98793950.99546
  22531461.440   120443593.91608  22531465.440    93678372.53506
  21897981.940   116851872.28809  21897985.440    90884822.47008
  22702065.140   121014708.36706  22702074.040    94122554.37705
  20241292.600   108163329.03408  20241296.540    84127051.38208
  21534440.340   115033115.40808  21534442.780    89470229.64507
  20197353.520   108080135.24708  20197354.200    84062338.29808
  21375255.440   114102690.88909  21375258.780    88746596.87608
  23011211.460   123051278.28406  23011212.320    95706547.59305
 15 03 04 00 16 30.0000000  0 15G16G18G19G21G22G27G31R01R02R14R15R16
                                R17R18R24
  20944517.200   110064205.90909  20944513.860    85764308.92648
  21941396.940   115302968.78709  21941394.340    89846512.63147
  24261956.580   127497451.85808  24261953.420    99348647.05845
  21907231.460   115123286.70409  21907227.980    89706447.65848
  22752180.440   119563638.54309  22752176.820    93166518.56247
  22126009.460   116273015.72709  22126009.280    90602379.89948
  24144829.360   126881829.81308  24144831.780    98868919.54646
  22535124.500   120463175.50208  22535128.980    93693602.66305
  21882887.180   116771324.12509  21882890.540    90822173.93007
  22727287.520   121149156.33206  22727296.580    94227124.49405
  20253627.520   108229243.10908  20253631.480    84178317.86808
  21521676.940   114964935.70208  21521679.420    89417200.98607
  20201642.160   108103084.98908  20201642.940    84080188.10608
  21366244.280   114054588.99509  21366247.640    88709184.32808
  23025722.800   123128878.05307  23025724.100    95766902.90405
 15 03 04 00 17  0.0000000  0 15G16G18G19G21G22G27G31R01R02R14R15R16
                                R17R18R24
  20935350.040   110016032.25209  20935346.740    85726771.01648
  21934508.920   115266772.06309  21934506.320    89818307.41247
  24247141.720   127419598.97307  24247138.320    99287982.48645
  21917974.160   115179739.78909  21917970.620    89750437.07348
  22735515.580   119476064.28609  22735512.080    93098278.97547
  22114979.580   116215053.53709  22114979.400    90557214.58348
  24163135.920   126978028.65008  24163138.620    98943878.91546
  22538926.220   120483498.14108  22538930.060    93709409.20405
  21867882.800   116691258.20609  21867886.460    90759900.50808
  22752532.480   121283724.69306  22752541.660    94331788.23905
  20266092.980   108295854.47608  20266096.880    84230126.67608
  21509043.200   114897448.33808  21509045.700    89364710.83507
  20205962.240   108126202.61308  20205963.040    84098168.47808
  21357268.320   114006674.93809  21357271.720    88671917.88308
  23040230.040   123206454.91808  23040231.660    95827240.44306
 15 03 04 00 17 30.0000000  0 15G16G18G19G21G22G27G31R01R02R14R15R16
                                R17R18R24
  20926262.800   109968278.49709  20926259.500    85689560.29148
  21927704.080   115231012.62709  21927701.500    89790442.93247
  24232339.620   127341814.45008  24232336.660    99227371.29946
  21928757.620   115236407.29409  21928754.060    89794593.55948
  22718887.580   119388684.05809  22718883.960    93030190.56247
  22103971.480   116157205.60209  22103971.280    90512138.29748
  24181441.020   127074219.37808  24181443.880    99018831.97046
  22542867.760   120504568.08108  22542871.760    93725796.94405
  21852970.800   116611685.09809  21852974.280    90698010.32507
  22777800.500   121418415.75006  22777809.880    94436547.40105
  20278689.360   108363165.54008  20278693.240    84282479.68208
  21496540.740   114830662.45208  21496543.260    89312766.25107
  20210314.840   108149494.16608  20210315.600    84116284.11608
  21348328.640   113958954.48709  21348331.960    88634801.99908
  23054734.300   123284014.70908  23054735.880    95887564.67705
 15 03 04 00 18  0.0000000  0 15G16G18G19G21G22G27G31R01R02R14R15R16
                                R17R18R24
  20917254.360   109920938.87009  20917251.060    85652672.27048
  21920981.280   115195683.99509  21920978.660    89762914.15347
  24217549.320   127264090.69908  24217546.400    99166807.39346
  21939580.060   115293279.51609  21939576.480    89838909.57048
  22702295.580   119301492.74909  22702292.060    92962249.35547
  22092983.680   116099464.32609  22092983.460    90467145.11548
  24199742.480   127170391.00008  24199745.480    99093770.11446
  22546947.520   120526376.84608  22546951.680    93742759.32705
  21838150.380   116532600.95909  21838154.020    90636500.48708
  22803089.260   121553216.86706  22803098.680    94541392.12305
  20291414.620   108431165.30808  20291418.500    84335368.36608
  21484168.680   114764573.17108  21484171.260    89261363.49107
  20214698.220   108172950.44908  20214698.980    84134527.88108
  21339423.640   113911418.88909  21339426.860    88597829.88208
  23069233.840   123361549.38907  23069234.900    95947869.47204
 15 03 04 00 18 30.0000000  0 15G16G18G19G21G22G27G31R01R02R14R15R16
                                R17R18R24
  20908326.220   109874021.28309  20908322.920    85616113.11348
  21914341.940   115160793.75209  21914339.280    89735726.97147
  24202771.480   127186433.17207  24202768.520    99106295.09846
  21950442.200   115350360.34709  21950438.600    89883388.13448
  22685741.140   119214498.80009  22685737.520    92894461.92447
  22082017.340   116041835.78309  22082017.040    90422239.78448
  24218040.920   127266547.15508  24218044.200    99168696.13446
  22551166.440   120548929.69108  22551170.680    93760300.42405
  21823423.600   116454015.78309  21823427.140    90575378.71008
  22828398.980   121688129.99806  22828408.600    94646323.92605
  20304269.220   108499856.16108  20304273.060    84388794.55708
  21471928.620   114699189.26608  21471931.220    89210509.34107
  20219113.300   108196576.41208  20219114.100    84152903.62008
  21330554.240   113864073.23209  21330557.380    88561005.50908
  23083729.500   123439064.98607  23083730.640    96008159.33705
 15 03 04 00 19  0.0000000  0 15G16G18G19G21G22G27G31R01R02R14R15R16
                                R17R18R24
  20899477.860   109827523.03709  20899474.600    85579880.71648
  21907785.360   115126338.73909  21907782.680    89708878.93247
  24188005.600   127108837.77608  24188002.680    99045831.21046
  21961342.900   115407643.70209  21961339.260    89928024.51448
  22669223.900   119127700.47809  22669220.340    92826826.95847
  22071071.660   115984315.83109  22071071.340    90377419.06248
  24236335.080   127362680.17308  24236338.520    99243604.18546
  22555523.560   120572221.59808  22555527.720    93778416.39005
  21808790.220   116375929.25009  21808793.800    90514644.79608
  22853728.120   121823145.83506  22853737.720    94751335.64505
  20317251.400   108569228.74608  20317255.220    84442750.99808
  21459820.340   114634509.03708  21459822.840    89160202.50307
  20223559.080   108220366.60708  20223559.880    84171407.10008
  21321719.460   113816912.42409  21321722.620    88524324.91808
  23098220.740   123516556.34007  23098222.060    96068430.38205
 15 03 04 00 19 30.0000000  0 15G16G18G19G21G22G27G31R01R02R14R15R16
                                R17R18R24
  20890710.500   109781450.30409  20890707.260    85543979.88548
  21901312.700   115092324.77109  21901310.060    89682374.55947
  24173252.280   127031308.75007  24173249.240    98985419.06245
  21972282.560   115465131.90809  21972278.920    89972820.51848
  22652745.240   119041104.80909  22652741.600    92759349.87347
  22060147.480   115926908.96209  22060147.160    90332686.47048
  24254625.020   127458791.67108  24254628.760    99318495.33046
  22560019.680   120596256.20908  22560024.020    93797109.99005
  21794251.780   116298349.54109  21794255.220    90454305.05308
  22879076.660   121958264.82106  22879086.240    94856427.52705
  20330361.920   108639287.13408  20330365.720    84497240.83408
  21447845.100   114570539.66308  21447847.640    89110448.55907
  20228036.160   108244324.32908  20228036.980    84190040.89408
  21312919.960   113769940.00409  21312923.220    88487790.84908
  23112708.360   123594027.85608  23112709.920    96128685.93505
 15 03 04 00 20  0.0000000  0 15G16G18G19G21G22G27G31R01R02R14R15R16
                                R17R18R24
  20882024.860   109735806.88709  20882021.620    85508413.58648
  21894924.460   115058754.47209  21894921.780    89656215.91747
  24158511.720   126953847.66708  24158508.500    98925059.83446
  21983261.040   115522824.18109  21983257.460    90017775.53547
  22636305.960   118954715.99309  22636302.280    92692033.97847
  22049245.160   115869617.10409  22049244.860    90288043.48448
  24272910.640   127554880.24708  24272914.660    99393368.66246
  22564655.040   120621034.51208  22564659.260    93816382.01605
  21779809.500   116221282.68409  21779813.020    90394364.21308
  22904443.980   122093484.06506  22904453.580    94961597.37205
  20343599.960   108710026.97108  20343603.760    84552260.69708
  21436003.760   114507285.75908  21436006.260    89061251.08007
  20232544.720   108268450.51508  20232545.540    84208805.69908
  21304155.920   113723156.99609  21304159.100    88451404.06908
  23127192.560   123671481.22508  23127194.100    96188927.45805
 15 03 04 00 20 30.0000000  0 15G16G18G19G21G22G27G31R01R02R14R15R16
                                R17R18R24
  20873419.380   109690584.81809  20873416.140    85473175.61548
  21888619.100   115025619.84409  21888616.460    89630396.74547
  24143782.540   126876445.05208  24143779.220    98864746.15446
  21994276.440   115580710.36809  21994272.860    90062881.64847
  22619904.680   118868527.07909  22619900.980    92624873.86547
  22038362.940   115812430.75709  22038362.620    90243482.72748
  24291189.560   127650933.45108  24291193.860    99468214.39146
  22569427.500   120646545.92808  22569431.900    93836224.23305
  21765462.160   116144722.74009  21765465.560    90334817.62308
  22929827.580   122228789.50406  22929837.140    95066834.25205
  20356963.140   108781435.82008  20356967.020    84607800.88408
  21424295.000   114444739.89408  21424297.600    89012604.31407
  20237082.660   108292734.04408  20237083.460    84227692.88708
  21295425.320   113676552.61209  21295428.440    88415156.24008
  23141671.520   123748906.06207  23141672.920    96249146.77205
 15 03 04 00 21  0.0000000  0 15G16G18G19G21G22G27G31R01R02R14R15R16
                                R17R18R24
  20864896.220   109645795.55709  20864893.020    85438274.89248
  21882398.780   114992931.87309  21882396.160    89604925.62047
  24129066.180   126799109.96908  24129062.760    98804485.14345
  22005330.080   115638797.58509  22005326.520    90108144.40948
  22603543.720   118782550.09509  22603540.000    92557878.87847
  22027502.600   115755359.58209  22027502.360    90199011.70048
  24309463.080   127746957.92608  24309467.360    99543037.75346
  22574338.740   120672799.71908  22574342.860    93856643.87305
  21751212.320   116068683.27409  21751215.920    90275675.87408
  22955228.220   122364186.42106  22955237.960    95172142.21405
  20370452.620   108853519.42508  20370456.500    84663865.86908
  21412721.120   114382914.48608  21412723.760    88964517.89807
  20241651.680   108317183.79108  20241652.460    84246709.34808
  21286729.940   113630135.90409  21286733.000    88379054.38508
  23156146.680   123826311.58707  23156148.000    96309351.01605
 15 03 04 00 21 30.0000000  0 15G16G18G19G21G22G27G31R01R02R14R15R16
                                R17R18R24
  20856455.040   109601437.21709  20856451.920    85403709.95848
  21876262.940   114960687.94509  21876260.320    89579800.50647
  24114362.060   126721838.36408  24114358.240    98744273.50545
  22016420.680   115697079.22109  22016417.220    90153558.66548
  22587222.800   118696783.48109  22587219.020    92491047.82047
  22016663.440   115698399.69609  22016663.240    90154627.39848
  24327729.780   127842946.54308  24327734.380    99617833.10546
  22579387.840   120699790.34908  22579391.880    93877636.60405
  21737060.020   115993164.06009  21737063.380    90216938.73008
  22980644.400   122499666.00906  22980654.380    95277514.44605
  20384066.940   108926270.24008  20384070.860    84720449.80608
  21401281.900   114321808.32508  21401284.560    88916990.90207
  20246250.860   108341794.53608  20246251.560    84265851.03908
  21278068.700   113583901.59309  21278071.760    88343094.39408
  23170617.480   123903693.81407  23170618.500    96369537.21904
 15 03 04 00 22  0.0000000  0 15G16G18G19G21G22G27G31R01R02R14R15R16
                                R17R18R24
  20848096.980   109557515.58909  20848093.880    85369485.32248
  21870212.480   114928892.57109  21870209.800    89555024.91647
  24099670.640   126644634.32008  24099666.940    98684114.57346
  22027548.880   115755558.26509  22027545.440    90199126.75147
  22570943.180   118611233.88209  22570939.400    92424385.85247
  22005846.280   115641555.38909  22005846.120    90110333.17148
  24345990.020   127938900.68408  24345994.880    99692601.58346
  22584575.520   120727521.27408  22584579.780    93899205.10705
  21723006.700   115918173.28109  21723010.160    90158612.63408
  23006076.020   122635228.07506  23006086.160    95382950.81605
  20397806.020   108999687.74208  20397809.960    84777552.27308
  21389978.540   114261427.71708  21389981.140    88870028.22107
  20250880.660   108366569.48308  20250881.360    84285120.44008
  21269442.220   113537853.24709  21269445.320    88307279.03408
  23185084.700   123981056.39607  23185085.760    96429708.10806
 15 03 04 00 22 30.0000000  0 15G16G18G19G21G22G27G31R01R02R14R15R16
                                R17R18R24
  20839821.660   109514028.87709  20839818.660    85335599.58148
  21864247.120   114897544.64209  21864244.440    89530597.97947
  24084991.520   126567494.80308  24084988.020    98624005.95546
  22038713.740   115814229.99509  22038710.280    90244844.97647
  22554704.740   118525900.59809  22554700.940    92357892.44747
  21995050.560   115584823.71009  21995050.420    90066126.68748
  24364242.540   128034814.31208  24364247.460    99767338.50346
  22589900.900   120755988.47108  22589905.080    93921346.29005
  21709052.580   115843711.42109  21709055.880    90100697.88008
  23031521.760   122770865.19506  23031532.160    95488445.50205
  20411668.700   109073765.67108  20411672.640    84835168.41308
  21378810.960   114201772.24208  21378813.520    88823629.53507
  20255540.300   108391504.38008  20255541.060    84304514.24408
  21260849.860   113491986.82209  21260852.980    88271605.17908
  23199547.680   124058396.15907  23199548.940    96489861.20805
 15 03 04 00 23  0.0000000  0 15G16G18G19G21G22G27G31R01R02R14R15R16
                                R17R18R24
  20831629.500   109470979.21209  20831626.580    85302054.39648
  21858367.120   114866645.28109  21858364.480    89506520.57747
  24070324.600   126490419.51108  24070320.900    98563947.30646
  22049914.700   115873091.39209  22049911.260    90290710.99847
  22538508.000   118440786.24709  22538504.140    92291569.63247
  21984276.360   115528204.87509  21984276.220    90022008.12548
  24382486.920   128130684.58608  24382492.040    99842041.60746
  22595363.740   120785190.71708  22595367.940    93944059.18506
  21695198.340   115769782.43709  21695201.680    90043197.60308
  23056980.880   122906573.24806  23056991.480    95593995.36905
  20425654.420   109148500.96308  20425658.300    84893295.81908
  21367779.600   114142844.44308  21367782.060    88777796.81507
  20260229.640   108416598.18608  20260230.440    84324031.65308
  21252291.440   113446301.58909  21252294.560    88236072.24208
  23214006.340   124135712.63307  23214007.480    96549996.29205
 15 03 04 00 23 30.0000000  0 15G16G18G19G21G22G27G31R01R02R14R15R16
                                R17R18R24
  20823522.040   109428374.39209  20823519.180    85268855.84848
  21852573.780   114836201.21509  21852571.100    89482797.95347
  24055670.940   126413414.63608  24055667.440    98503943.57046
  22061152.680   115932147.39109  22061149.200    90336728.65948
  22522354.480   118355899.24109  22522350.680    92225423.97547
  21973524.820   115471705.04309  21973524.640    89977982.29648
  24400723.560   128226514.53008  24400728.940    99916713.24846
  22600965.100   120815133.35908  22600969.240    93967347.92805
  21681445.760   115696396.28109  21681449.060    89986119.52508
  23082453.560   123042353.61406  23082464.320    95699601.41605
  20439763.440   109223894.93808  20439767.280    84951935.54008
  21356886.040   114084652.75208  21356888.380    88732536.61807
  20264949.660   108441856.10808  20264950.480    84343676.70208
  21243767.920   113400802.68009  21243771.160    88200684.23408
  23228461.540   124213011.59107  23228462.860    96610117.61905
 15 03 04 00 24  0.0000000  0 15G16G18G19G21G22G27G31R01R02R14R15R16
                                R17R18R24
  20815498.600   109386210.83309  20815495.680    85236001.13248
  21846866.380   114806208.83109  21846863.720    89459427.28747
  24041029.540   126336474.79407  24041026.260    98443990.53346
  22072426.360   115991391.00309  22072422.880    90382892.50947
  22506243.720   118271237.02009  22506239.940    92159453.47247
  21962794.980   115415319.29309  21962794.760    89934045.36248
  24418950.820   128322295.99908  24418956.300    99991347.13946
  22606703.660   120845809.86608  22606708.180    93991207.43105
  21667794.660   115623551.67009  21667798.080    89929462.65708
  23107938.000   123178196.73605  23107948.920    95805256.21305
  20453993.980   109299938.26608  20453997.740    85011080.32808
  21346129.800   114027194.59808  21346132.100    88687846.94207
  20269699.200   108467271.77108  20269699.960    84363444.43108
  21235278.200   113355483.98009  21235281.420    88165436.38408
  23242912.460   124290287.78907  23242914.020    96670221.29205
 15 03 04 00 24 30.0000000  0 15G16G18G19G21G22G27G31R01R02R14R15R16
                                R17R18R24
  20807559.000   109344487.93809  20807556.040    85203489.79648
  21841244.660   114776666.56409  21841241.940    89436407.35147
  24026399.980   126259597.00408  24026396.660    98384085.77646
  22083734.780   116050817.17509  22083731.260    90429198.60947
  22490175.760   118186799.62809  22490172.040    92093658.16347
  21952086.320   115359045.05509  21952086.060    89890195.32548
  24437167.980   128418023.36408  24437173.600   100065938.95446
  22612578.800   120877216.64708  22612583.300    94015634.93605
  21654245.240   115551249.35009  21654248.480    89873227.53408
  23133432.940   123314095.53306  23133444.080    95910954.28305
  20468344.860   109376624.74308  20468348.560    85070725.33808
  21335510.700   113970469.34708  21335512.940    88643727.30807
  20274477.580   108492841.61208  20274478.280    84383332.08308
  21226821.620   113310341.95509  21226824.720    88130325.93608
  23257358.600   124367538.06407  23257360.280    96730304.84005
 15 03 04 00 25  0.0000000  0 15G16G18G19G21G22G27G31R01R02R14R15R16
                                R17R18R24
  20799704.980   109303214.38209  20799701.960    85171328.59648
  21835710.240   114747582.90909  21835707.400    89413744.79347
  24011783.700   126182788.71808  24011780.660    98324235.21246
  22095079.060   116110431.79809  22095075.520    90475651.56147
  22474152.400   118102596.45009  22474148.680    92028045.36247
  21941400.320   115302889.84309  21941400.080    89846438.04348
  24455375.640   128513701.38808  24455381.740   100140492.25146
  22618591.760   120909359.50108  22618596.480    94040634.95005
  21640799.520   115479500.66509  21640802.960    89817423.06608
  23158938.960   123450052.84706  23158950.400    96016697.88805
  20482816.800   109453958.22008  20482820.500    85130873.59008
  21325030.680   113914486.94208  21325032.900    88600185.44807
  20279285.960   108518571.97608  20279286.640    84403344.59008
  21218399.340   113265383.10009  21218402.420    88095357.96108
  23271801.240   124444769.50807  23271802.740    96790373.77805
 15 03 04 00 25 30.0000000  0 15G16G18G19G21G22G27G31R01R02R14R15R16
                                R17R18R24
  20791935.720   109262386.31209  20791932.660    85139514.51548
  21830262.120   114718952.86409  21830259.220    89391435.68747
  23997179.460   126106043.52308  23997176.500    98264433.82946
  22106457.640   116170226.63709  22106454.120    90522244.93247
  22458172.980   118018624.26009  22458169.280    91962612.54647
  21930735.840   115246847.76709  21930735.600    89802768.90548
  24473572.300   128609321.28508  24473578.520   100215000.45546
  22624741.100   120942231.23108  22624745.620    94066201.88605
  21627457.100   115408303.13709  21627460.380    89762047.23108
  23184454.000   123586058.25805  23184465.620    96122478.85605
  20497407.960   109531928.86708  20497411.700    85191517.39308
  21314688.980   113859243.52008  21314691.220    88557218.35307
  20284122.980   108544455.77408  20284123.660    84423476.43208
  21210010.040   113220600.63409  21210013.160    88060527.17708
  23286239.440   124521976.30907  23286240.880    96850423.48705
 15 03 04 00 26  0.0000000  0 15G16G18G19G21G22G27G31R01R02R14R15R16
                                R17R18R24
  20784252.440   109222010.23209  20784249.300    85108052.64748
  21824901.500   114690782.57909  21824898.580    89369484.83847
  23982588.360   126029366.98708  23982585.460    98204685.92546
  22117871.240   116230205.59909  22117867.780    90568981.78647
  22442239.040   117934890.97709  22442235.280    91897365.90047
  21920093.960   115190924.33609  21920093.740    89759192.22548
  24491758.180   128704885.28308  24491764.500   100289465.20146
  22631027.600   120975836.00808  22631031.740    94092338.97005
  21614219.680   115337665.96209  21614223.060    89707107.26508
  23209978.260   123722112.85405  23209990.040    96228298.00705
  20512118.480   109610537.61008  20512122.320    85252657.49808
  21304487.060   113804746.72608  21304489.260    88514831.96807
  20288989.480   108570497.35608  20288990.140    84443731.00608
  21201654.580   113175998.93109  21201657.620    88025837.00508
  23300673.840   124599163.16407  23300675.460    96910457.67005
 15 03 04 00 26 30.0000000  0 15G16G18G19G21G22G27G31R01R02R14R15R16
                                R17R18R24
  20776654.580   109182083.01409  20776651.380    85076940.52748
  21819627.680   114663068.62209  21819624.800    89347889.56047
  23968009.400   125952754.24808  23968006.540    98144987.76946
  22129318.440   116290360.97209  22129314.940    90615856.09947
  22426350.060   117851393.84909  22426346.240    91832303.24847
  21909473.760   115135114.90309  21909473.540    89715704.36148
  24509931.880   128800385.27108  24509938.120   100363880.21145
  22637450.120   121010167.50308  22637454.380    94119041.21005
  21601087.000   115267587.73209  21601090.300    89652602.00808
  23235509.980   123858207.48006  23235521.900    96334148.23305
  20526946.700   109689775.33608  20526950.580    85314286.80208
  21294424.400   113750993.79208  21294426.620    88473024.13907
  20293884.300   108596690.87708  20293885.040    84464103.73608
  21193331.880   113131572.05509  21193334.940    87991282.79008
  23315103.540   124676324.90907  23315105.180    96970472.30905
 15 03 04 00 27  0.0000000  0 16G16G18G19G21G22G27G31R01R02R03R14R15
                                R16R17R18R24
  20769143.200   109142610.20109  20769139.900    85046182.49548
  21814441.520   114635815.43009  21814438.640    89326653.33147
  23953443.220   125876208.36408  23953440.160    98085341.62746
  22140799.720   116350695.26709  22140796.140    90662869.83747
  22410507.200   117768138.99809  22410503.180    91767429.39147
  21898875.980   115079423.15909  21898875.720    89672308.21548
  24528093.440   128895822.47208  24528099.820   100438246.33545
  22644009.080   121045228.20508  22644013.120    94146310.66006
  21588060.480   115198075.69309  21588063.760    89598537.12208
  23588026.820   126268546.79408  23588031.400    98208892.25306
  23261049.020   123994340.79306  23261061.200    96440028.56205
  20541892.660   109769641.92908  20541896.540    85376405.23908
  21284502.080   113697990.49208  21284504.320    88431799.35807
  20298808.040   108623038.94608  20298808.800    84484596.68708
  21185042.520   113087323.00809  21185045.720    87956866.89208
  23329529.240   124753465.15007  23329530.640    97030470.30805
 15 03 04 00 27 30.0000000  0 16G16G18G19G21G22G27G31R01R02R03R14R15
                                R16R17R18R24
  20761718.640   109103593.68109  20761715.260    85015780.01548
  21809343.180   114609023.93009  21809340.400    89305776.85847
  23938889.760   125799729.74908  23938886.680    98025747.95646
  22152314.780   116411207.28409  22152311.160    90710022.04847
  22394711.000   117685129.52509  22394706.980    91702746.73247
  21888300.740   115023849.85309  21888300.440    89629004.36148
  24546242.460   128991194.06907  24546249.320   100512561.42346
  22650704.160   121081017.08708  22650708.220    94174146.47605
  21575140.840   115129134.23209  21575144.040    89544916.02708
  23565242.600   126146586.93706  23565248.700    98114035.52106
  23286594.800   124130509.82306  23286607.320    96545936.63905
  20556955.660   109850133.80708  20556959.560    85439009.99708
  21274720.540   113645739.45008  21274722.760    88391159.65707
  20303760.560   108649541.17508  20303761.360    84505209.52808
  21176786.400   113043251.26309  21176789.440    87922588.88708
  23343950.980   124830584.23707  23343952.100    97090451.82404
 15 03 04 00 28  0.0000000  0 16G16G18G19G21G22G27G31R01R02R03R14R15
                                R16R17R18R24
  20754381.440   109065036.29009  20754378.020    84985735.29748
  21804333.260   114582697.00609  21804330.540    89285262.38847
  23924349.420   125723319.53907  23924346.200    97966207.58046
  22163863.400   116471895.58409  22163859.760    90757311.62848
  22378962.060   117602368.57509  22378958.000    91638257.73247
  21877748.280   114968396.20709  21877747.940    89585793.75048
  24564378.560   129086498.27308  24564385.960   100586823.93846
  22657535.400   121117533.71508  22657539.600    94202548.31906
  21562329.040   115060767.91109  21562332.160    89491742.25508
  23542453.300   126024597.88106  23542459.380    98019155.83806
  23312146.720   124266710.85206  23312159.300    96651869.59704
  20572135.080   109931247.64608  20572138.920    85502098.50908
  21265080.420   113594244.06808  21265082.640    88351107.70307
  20308741.920   108676197.73308  20308742.800    84525942.40608
  21168563.580   112999357.22509  21168566.460    87888449.08808
  23358368.860   124907682.76207  23358369.960    97150417.33704
 15 03 04 00 28 30.0000000  0 16G16G18G19G21G22G27G31R01R02R03R14R15
                                R16R17R18R24
  20747131.260   109026936.24009  20747127.820    84956046.95348
  21799411.280   114556831.90109  21799408.520    89265107.77747
  23909821.400   125646974.12108  23909818.020    97906717.67246
  22175444.540   116532754.74609  22175440.900    90804734.35047
  22363260.260   117519855.22509  22363256.220    91573961.65747
  21867217.920   114913058.75809  21867217.540    89542673.67048
  24582500.720   129181729.07408  24582508.280   100661029.54645
  22664501.720   121154772.83808  22664505.720    94231512.10606
  21549624.940   114992976.41009  21549628.040    89439015.56508
  23519658.460   125902579.45808  23519665.200    97924253.53807
  23337703.060   124402935.91206  23337715.840    96757821.20705
  20587429.500   110012975.97209  20587433.280    85565664.95208
  21255581.460   113543502.60408  21255583.740    88311642.12807
  20313751.260   108703003.94608  20313752.160    84546791.67608
  21160373.100   112955636.04909  21160376.160    87854443.76208
  23372782.100   124984756.98607  23372783.120    97210363.95205
 15 03 04 00 29  0.0000000  0 16G16G18G19G21G22G27G31R01R02R03R14R15
                                R16R17R18R24
  20739969.260   108989299.45009  20739965.780    84926719.58448
  21794578.260   114531434.08009  21794575.420    89245317.29047
  23895306.460   125570697.77307  23895303.040    97847281.60846
  22187058.660   116593787.40909  22187055.060    90852292.26447
  22347606.840   117437596.30509  22347602.800    91509863.85147
  21856710.600   114857842.41109  21856710.160    89499647.96148
  24600608.940   129276887.84307  24600616.700   100735179.08245
  22671603.880   121192738.01208  22671607.820    94261040.57505
  21537030.160   114925768.36809  21537033.380    89386742.68508
  23496859.920   125780540.50707  23496866.740    97829335.11106
  23363264.040   124539185.18306  23363277.180    96863791.67005
  20602838.880   110095318.80508  20602842.620    85629709.33908
  21246224.920   113493521.62008  21246227.120    88272768.03407
  20318789.260   108729963.64108  20318790.200    84567760.33508
  21152215.760   112912091.86509  21152218.860    87820576.07408
  23387191.540   125061811.17107  23387192.620    97270294.96505
 15 03 04 00 29 30.0000000  0 16G16G18G19G21G22G27G31R01R02R03R14R15
                                R16R17R18R24
  20732894.880   108952123.34009  20732891.400    84897751.19748
  21789833.480   114506499.95409  21789830.600    89225888.12748
  23880804.020   125494486.53908  23880800.400    97787896.25447
  22198704.680   116654987.76509  22198701.120    90899980.86247
  22332001.560   117355590.21809  22331997.520    91445963.06947
  21846225.560   114802743.10409  21846225.040    89456713.45948
  24618702.140   129371967.38608  24618710.220   100809267.00946
  22678840.820   121231423.31208  22678844.980    94291129.16405
  21524544.500   114859142.80909  21524547.820    89334922.85508
  23474057.600   125658480.68607  23474064.440    97734400.47806
  23388827.920   124675450.31306  23388841.240    96969774.45505
  20618361.720   110178268.17208  20618365.520    85694225.47508
  21237010.360   113444299.10008  21237012.700    88234483.87807
  20323855.060   108757071.54308  20323855.940    84588844.27508
  21144090.620   112868719.48409  21144093.540    87786842.02008
  23401596.600   125138841.32407  23401597.700    97330207.31305
 15 03 04 00 30  0.0000000  0 16G16G18G19G21G22G27G31R01R02R03R14R15
                                R16R17R18R24
  20725909.000   108915412.34509  20725905.560    84869145.22148
  21785177.720   114482033.82209  21785174.920    89206823.62347
  23866314.300   125418343.25107  23866310.880    97728563.90146
  22210382.860   116716357.13808  22210379.300    90947801.14247
  22316445.480   117273842.75509  22316441.420    91382263.79948
  21835763.420   114747764.25209  21835762.900    89413872.80848
  24636780.260   129466967.55407  24636788.480   100883292.79944
  22686212.740   121270830.20408  22686217.060    94321778.97305
  21512169.180   114793106.32009  21512172.600    89283561.17308
  23451252.660   125536406.78407  23451259.140    97639454.81806
  23414394.540   124811730.28206  23414408.260    97075768.70205
  20633997.940   110261823.33408  20634001.800    85759212.79508
  21227938.780   113395840.19008  21227941.180    88196793.62207
  20328948.980   108784329.75008  20328949.760    84610045.10308
  21135998.020   112825521.16409  21136000.940    87753243.33108
  23415997.640   125215850.03607  23415998.900    97390102.90505
 15 03 04 00 30 30.0000000  0 16G16G18G19G21G22G27G31R01R02R03R14R15
                                R16R17R18R24
  20719011.800   108879167.22009  20719008.380    84840902.26848
  21780610.900   114458035.04209  21780608.060    89188123.29447
  23851837.460   125342266.31808  23851833.880    97669283.16247
  22222092.560   116777892.12209  22222089.040    90995750.47647
  22300938.760   117192354.57309  22300934.680    91318766.55947
  21825323.940   114692904.45909  21825323.420    89371124.91948
  24654842.520   129561884.27608  24654850.220   100957253.44144
  22693718.960   121310955.50308  22693723.080    94352987.56405
  21499904.700   114727661.13909  21499908.160    89232659.39908
  23428445.500   125414321.25007  23428451.740    97544500.18906
  23439962.920   124948018.96205  23439976.760    97181769.89504
  20649746.320   110345977.77908  20649750.220    85824666.22108
  21219010.160   113348144.95508  21219012.500    88159697.33007
  20334070.560   108811736.18608  20334071.280    84631361.23208
  21127937.560   112782494.46009  21127940.700    87719778.13808
  23430394.360   125292835.68807  23430395.600    97449980.63605
 15 03 04 00 31  0.0000000  0 16G16G18G19G21G22G27G31R01R02R03R14R15
                                R16R17R18R24
  20712204.560   108843394.90109  20712201.160    84813027.73648
  21776134.280   114434510.31109  21776131.460    89169792.35347
  23837373.980   125266261.31608  23837370.680    97610058.62646
  22233834.540   116839596.71709  22233831.060    91043831.96847
  22285482.920   117111133.79809  22285478.820    91255477.70147
  21814908.280   114638169.89909  21814907.740    89328474.63748
  24672889.660   129656720.87908  24672897.360   101031151.98045
  22701360.360   121351803.67808  22701364.360    94384758.35905
  21487752.800   114662816.56009  21487756.200    89182224.76408
  23405638.140   125292233.80207  23405643.960    97449543.91007
  23465533.220   125084318.29806  23465547.240    97287779.30604
  20665607.260   110430733.81008  20665611.180    85890587.54908
  21210225.960   113301221.61308  21210228.320    88123201.39907
  20339220.760   108839295.80208  20339221.460    84652796.49108
  21119910.260   112739644.53709  21119913.540    87686450.45108
  23444787.920   125369804.23507  23444788.920    97509845.09804
 15 03 04 00 31 30.0000000  0 16G16G18G19G21G22G27G31R01R02R03R14R15
                                R16R17R18R24
  20705486.040   108808088.86309  20705482.660    84785516.54048
  21771746.340   114411451.64909  21771743.580    89151824.58347
  23822922.980   125190319.89408  23822919.400    97550883.42546
  22245606.800   116901460.46809  22245603.360    91092037.47947
  22270076.820   117030174.52409  22270072.720    91192392.59447
  21804514.840   114583552.04509  21804514.300    89285915.28348
  24690919.180   129751465.85007  24690927.000   101104978.95845
  22709135.000   121393363.80908  22709139.140    94417082.92005
  21475712.460   114598567.18109  21475715.860    89132253.05908
  23382829.520   125170139.55607  23382835.140    97354582.38606
  23491103.100   125220614.88606  23491117.380    97393786.67304
  20681578.340   110516078.38708  20681582.280    85956966.62708
  21201584.940   113255062.97408  21201587.260    88087300.23208
  20344397.780   108866998.78408  20344398.400    84674343.25708
  21111914.320   112696961.65609  21111917.480    87653252.67108
  23459176.400   125446746.38807  23459177.580    97569688.92304
 15 03 04 00 32  0.0000000  0 15G16G18G19G21G22G27R01R02R03R14R15R16
                                R17R18R24
  20698856.260   108773249.18209  20698852.900    84758368.74448
  21767447.060   114388858.72509  21767444.320    89134219.72547
  23808483.660   125114440.95808  23808480.260    97491757.06747
  22257408.820   116963480.44709  22257405.380    91140364.73347
  22254720.760   116949478.06609  22254716.660    91129512.28547
  21794143.460   114529050.22309  21794142.940    89243446.35748
  22717042.360   121435633.43708  22717046.500    94449959.33205
  21463784.160   114534915.53909  21463787.540    89082746.26708
  23360020.260   125048041.34807  23360025.640    97259617.74206
  23516671.440   125356904.05105  23516686.040    97499788.33705
  20697658.600   110602006.29808  20697662.540    86023799.42608
  21193087.280   113209669.94608  21193089.620    88051994.54908
  20349601.260   108894843.35708  20349601.840    84696000.15108
  21103949.420   112654444.25209  21103952.540    87620183.60208
  23473559.880   125523661.33007  23473560.860    97629511.66004
 15 03 04 00 32 30.0000000  0 15G16G18G19G21G22G27R01R02R03R14R15R16
                                R17R18R24
  20692317.880   108738889.89409  20692314.540    84731595.27148
