     2.11           OBSERVATION DATA    M                   RINEX VERSION / TYPE
SPIDER V4,0,0,3554                      2015 03 23 00:55    PGM / RUN BY / DATE 
CBCK                                                        MARKER NAME         
CBCK                                                        MARKER NUMBER       
                                                            OBSERVER / AGENCY   
496514              LEICA GRX1200+GNSS  8.10/4.007          REC # / TYPE / VERS 
10301041            LEIAR25         NONE                    ANT # / TYPE        
  5163537.3641   764112.0288  3655122.6807                  APPROX POSITION XYZ 
        0.0720        0.0000        0.0000                  ANTENNA: DELTA H/E/N
     1     1                                                WAVELENGTH FACT L1/2
     4    C1    L1    P2    L2                              # / TYPES OF OBSERV 
    30.000                                                  INTERVAL            
  2015    03    04    00    00    0.0000000     GPS         TIME OF FIRST OBS   
  2015    03    04    23    59   30.0000000     GPS         TIME OF LAST OBS    
    16                                                      LEAP SECONDS        
    54                                                      # OF SATELLITES     
   G 1   808   808   808   808                              PRN / # OF OBS      
   G 2   944   944   943   943                              PRN / # OF OBS      
   G 3   856   856   856   856                              PRN / # OF OBS      
   G 4   837   837   837   837                              PRN / # OF OBS      
   G 5   685   684   683   683                              PRN / # OF OBS      
   G 6   834   833   833   833                              PRN / # OF OBS      
   G 7   680   680   680   680                              PRN / # OF OBS      
   G 9   817   817   817   817                              PRN / # OF OBS      
   G10   719   719   719   719                              PRN / # OF OBS      
   G11   770   770   770   770                              PRN / # OF OBS      
   G12   840   839   839   838                              PRN / # OF OBS      
   G13   778   777   777   777                              PRN / # OF OBS      
   G14   943   943   943   943                              PRN / # OF OBS      
   G15   681   681   681   681                              PRN / # OF OBS      
   G16   661   661   661   661                              PRN / # OF OBS      
   G17   942   942   942   942                              PRN / # OF OBS      
   G18   897   897   896   896                              PRN / # OF OBS      
   G19   748   748   748   748                              PRN / # OF OBS      
   G20   733   733   733   733                              PRN / # OF OBS      
   G21   745   745   745   745                              PRN / # OF OBS      
   G22   672   671   671   671                              PRN / # OF OBS      
   G23   763   762   762   762                              PRN / # OF OBS      
   G24   820   819   820   819                              PRN / # OF OBS      
   G25   853   853   853   853                              PRN / # OF OBS      
   G27   802   802   802   802                              PRN / # OF OBS      
   G28   841   839   839   839                              PRN / # OF OBS      
   G29   775   775   774   774                              PRN / # OF OBS      
   G30   728   728   728   728                              PRN / # OF OBS      
   G31   875   875   875   875                              PRN / # OF OBS      
   G32   778   778   778   778                              PRN / # OF OBS      
   R 1   682   682   682   682                              PRN / # OF OBS      
   R 2   985   985   985   985                              PRN / # OF OBS      
   R 3   998   997   998   986                              PRN / # OF OBS      
   R 4   834   834   834   830                              PRN / # OF OBS      
   R 5   697   697   697   697                              PRN / # OF OBS      
   R 6   781   781   781   781                              PRN / # OF OBS      
   R 7   742   742   742   740                              PRN / # OF OBS      
   R 8   637   637   637   630                              PRN / # OF OBS      
   R 9   852   852   849   842                              PRN / # OF OBS      
   R10   592   592   592   592                              PRN / # OF OBS      
   R11   690   690   690   689                              PRN / # OF OBS      
   R12   780   780   780   780                              PRN / # OF OBS      
   R13   752   752   751   751                              PRN / # OF OBS      
   R14   771   771   771   771                              PRN / # OF OBS      
   R15   993   993   993   990                              PRN / # OF OBS      
   R16  1010  1010  1010  1010                              PRN / # OF OBS      
   R17   958   958   958   958                              PRN / # OF OBS      
   R18   998   996   992   991                              PRN / # OF OBS      
   R19   764   764   764   761                              PRN / # OF OBS      
   R20   610   610   610   610                              PRN / # OF OBS      
   R21   792   792   792   792                              PRN / # OF OBS      
   R22   827   827   827   820                              PRN / # OF OBS      
   R23   748   748   747   744                              PRN / # OF OBS      
   R24   643   643   643   643                              PRN / # OF OBS      
BIT 2 OF LLI FLAGS DATA COLLECTED UNDER A/S CONDITION       COMMENT             
SNR is mapped to RINEX snr flag value [2-9]                 COMMENT             
Lx:     = 25dBHz -> 1; 26-27dBHz -> 2; 28-31dBHz -> 3       COMMENT             
       32-35dBHz -> 4; 36-38dBHz -> 5; 39-41dBHz -> 6       COMMENT             
       42-44dBHz -> 7; 45-48dBHz -> 8; >=49dBHz -> 9        COMMENT             
                                                            END OF HEADER       
 15 03 04 00 00  0.0000000  0  7G16G18G21G22G27G29G31
  21442826.100   112682827.74309  21442822.760    87804795.59748
  21995788.940   115588808.72109  21995786.240    90069262.16847
  21482914.740   112893584.34808  21482911.420    87969062.65448
  23212665.180   121983516.01109  23212662.700    95052147.37147
  22767525.020   119644187.38308  22767525.020    93229249.54647
  24135843.180   126835072.19208  24135842.260    98832683.87547
  23629115.260   124171820.24808  23629115.080    96757256.00147
 15 03 04 00 00 30.0000000  0  7G16G18G21G22G27G29G31
  21430624.000   112618705.72909  21430620.780    87754830.40448
  21986371.900   115539322.00309  21986369.160    90030701.11747
  21491639.400   112939433.08209  21491636.140    88004788.94048
  23194807.760   121889675.33409  23194805.240    94979024.91647
  22755146.260   119579136.71208  22755146.360    93178560.74747
  24149607.280   126907402.55508  24149606.380    98889045.15447
  23646743.460   124264455.94508  23646743.320    96829439.40146
 15 03 04 00 01  0.0000000  0  7G16G18G21G22G27G29G31
  21418488.060   112554931.43609  21418484.960    87705136.16048
  21977028.160   115490220.43609  21977025.400    89992440.19747
  21500412.380   112985535.50609  21500409.120    88040712.90748
  23176971.500   121795945.83808  23176968.960    94905989.08847
  22742782.160   119514163.35908  22742782.380    93127932.18447
  24163380.060   126979778.47708  24163379.140    98945441.94847
  23664385.080   124357161.96709  23664384.940    96901677.58647
 15 03 04 00 01 30.0000000  0  7G16G18G21G22G27G29G31
  21406419.300   112491509.92109  21406416.220    87655716.80048
  21967758.680   115441508.98209  21967755.900    89954483.24447
  21509233.960   113031892.99609  21509230.640    88076835.62048
  23159157.440   121702333.23008  23159154.920    94833044.34447
  22730433.400   119449270.72308  22730433.760    93077366.52147
  24177162.180   127052203.58308  24177161.240    99001877.06347
  23682040.180   124449938.49909  23682040.000    96973970.70946
 15 03 04 00 02  0.0000000  0  7G16G18G21G22G27G29G31
  21394417.640   112428440.90909  21394414.560    87606572.12348
  21958563.260   115393187.06509  21958560.540    89916829.82347
  21518103.320   113078501.23709  21518099.880    88113153.72848
  23141365.680   121608837.61209  23141363.100    94760190.75947
  22718099.560   119384456.28008  22718099.980    93026861.80047
  24190953.200   127124675.23108  24190952.140    99058348.42646
  23699707.580   124542779.52909  23699707.380    97046314.08646
 15 03 04 00 02 30.0000000  0  7G16G18G21G22G27G29G31
  21382483.620   112365727.14209  21382480.500    87557704.26348
  21949442.320   115345256.98509  21949439.740    89879481.73347
  21527020.080   113125358.44709  21527016.520    88149665.84648
  23123596.800   121515462.14609  23123594.140    94687430.79147
  22705780.740   119319720.78308  22705781.160    92976418.58947
  24204753.140   127197194.06909  24204751.900    99114856.58446
  23717386.860   124635683.20908  23717386.760    97118706.25746
 15 03 04 00 03  0.0000000  0  7G16G18G21G22G27G29G31
  21370617.800   112303371.70809  21370614.640    87509115.61748
  21940396.440   115297721.25009  21940394.000    89842440.92847
  21535984.100   113172464.36909  21535980.540    88186371.75148
  23105851.480   121422210.38309  23105848.700    94614767.20847
  22693477.140   119255065.09408  22693477.520    92926037.55947
  24218562.160   127269760.59308  24218560.780    99171401.88146
  23735077.520   124728646.98008  23735077.500    97191145.25646
 15 03 04 00 03 30.0000000  0  7G16G18G21G22G27G29G31
  21358820.380   112241375.84809  21358817.240    87460807.16748
  21931425.840   115250580.84709  21931423.440    89805708.16847
  21544994.840   113219816.12009  21544991.320    88223269.21748
  23088130.060   121329084.09909  23088127.100    94542201.39447
  22681188.660   119190488.56409  22681188.940    92875718.21647
  24232380.120   127342374.46108  24232378.660    99227984.08946
  23752778.900   124821667.22508  23752778.940    97263628.25346
 15 03 04 00 04  0.0000000  0  7G16G18G21G22G27G29G31
  21347092.000   112179742.87109  21347088.920    87412781.47748
  21922531.060   115203838.73809  21922528.640    89769285.76647
  21554052.160   113267412.89209  21554048.660    88260357.61548
  23070433.180   121236086.66109  23070430.120    94469735.97247
  22668915.520   119125992.16309  22668915.560    92825461.29747
  24246207.220   127415036.55908  24246205.800    99284603.88945
  23770490.500   124914741.65108  23770490.680    97336153.43646
 15 03 04 00 04 30.0000000  0  7G16G18G21G22G27G29G31
  21335433.360   112118476.29109  21335430.320    87365041.29348
  21913712.720   115157498.18609  21913710.320    89733176.27847
  21563156.140   113315254.83409  21563152.640    88297637.05348
  23052761.580   121143222.24209  23052758.500    94397374.21647
  22656657.960   119061577.71709  22656657.760    92775268.24947
  24260043.780   127487748.40408  24260042.380    99341262.45745
  23788212.140   125007869.06208  23788212.480    97408719.92846
 15 03 04 00 05  0.0000000  0  7G16G18G21G22G27G29G31
  21323844.180   112057574.68909  21323841.180    87317585.50148
  21904970.420   115111557.12109  21904968.000    89697378.07047
  21572305.620   113363335.99409  21572302.200    88335102.88548
  23035115.100   121050489.80009  23035112.060    94325115.28347
  22644415.240   118997241.47709  22644414.880    92725136.15047
  24273889.040   127560505.91508  24273887.520    99397956.60144
  23805942.480   125101042.21008  23805943.060    97481322.03146
 15 03 04 00 05 30.0000000  0  7G16G18G21G22G27G29G31
  21312325.720   111997045.10509  21312322.840    87270419.60548
  21896305.500   115066022.23609  21896302.920    89661896.36247
  21581501.280   113411659.43509  21581497.940    88372757.51648
  23017495.060   120957896.54809  23017492.100    94252964.82247
  22632188.300   118932988.46309  22632187.860    92675068.89547
  24287743.920   127633314.20208  24287742.360    99454690.33844
  23823681.960   125194263.09708  23823682.620    97553961.31846
 15 03 04 00 06  0.0000000  0  7G16G18G21G22G27G29G31
  21300877.880   111936886.42809  21300875.060    87223542.71948
  21887717.660   115020892.11209  21887714.880    89626730.05847
  21590742.160   113460220.32709  21590738.860    88410597.16448
  22999901.540   120865442.40909  22999898.500    94180922.73447
  22619976.560   118868815.72509  22619976.200    92625064.17647
  24301607.800   127706170.13807  24301606.460    99511461.18044
  23841429.460   125287525.78808  23841430.260    97626633.18346
 15 03 04 00 06 30.0000000  0  7G16G18G21G22G27G29G31
  21289501.680   111877104.02009  21289498.820    87176959.03248
  21879207.740   114976171.60509  21879204.800    89591882.94347
  21600028.340   113509019.24609  21600025.040    88448622.30248
  22982335.420   120773132.43309  22982332.360    94108992.98547
  22607780.680   118804726.42909  22607780.500    92575124.50848
  24315481.340   127779076.62907  24315480.240    99568271.40045
  23859185.000   125380830.29108  23859185.940    97699337.60547
 15 03 04 00 07  0.0000000  0  7G16G18G21G22G27G29G31
  21278196.180   111817693.31109  21278193.320    87130664.98448
  21870774.700   114931855.67809  21870771.660    89557351.07247
  21609358.200   113558047.92809  21609354.860    88486826.46248
  22964796.080   120680963.23309  22964792.960    94037172.92447
  22595599.460   118740714.06709  22595599.440    92525244.76448
  24329363.280   127852026.97908  24329362.300    99625115.78445
  23876946.740   125474166.81508  23876947.720    97772066.96947
 15 03 04 00 07 30.0000000  0  7G16G18G21G22G27G29G31
  21266963.120   111758663.23209  21266960.360    87084667.54048
  21862420.220   114887952.71309  21862417.140    89523140.99847
  21618732.840   113607312.21409  21618729.560    88525214.22248
  22947285.180   120588943.80209  22947282.120    93965469.58747
  22583434.180   118676785.48309  22583434.240    92475430.32247
  24343255.020   127925028.09708  24343254.100    99681999.75046
  23894715.320   125567539.05208  23894716.260    97844824.15346
 15 03 04 00 08  0.0000000  0  7G16G18G21G22G27G29G31
  21255802.220   111700012.49609  21255799.480    87038965.67448
  21854143.980   114844460.98609  21854140.940    89489251.36547
  21628151.240   113656806.03009  21628147.940    88563780.83148
  22929802.720   120497073.46709  22929799.680    93893882.40547
  22571284.240   118612937.47809  22571284.380    92425678.66647
  24357155.920   127998076.83708  24357155.000    99738920.81746
  23912489.420   125660940.49708  23912490.340    97917604.08046
 15 03 04 00 08 30.0000000  0  7G16G18G21G22G27G29G31
  21244714.620   111641747.00909  21244711.900    86993564.00048
  21845947.080   114801385.98309  21845944.060    89455686.45647
  21637613.760   113706531.49809  21637610.340    88602527.95648
  22912349.920   120405358.52909  22912346.860    93822416.32847
  22559150.400   118549173.99109  22559150.520    92375992.85548
  24371066.520   128071176.72708  24371065.520    99795881.74446
  23930269.280   125754372.35808  23930270.120    97990407.71046
 15 03 04 00 09  0.0000000  0  7G16G18G21G22G27G29G31
  21233700.280   111583866.42509  21233697.580    86948462.25648
  21837829.240   114758726.73709  21837826.280    89422445.50448
  21647119.460   113756484.12909  21647116.020    88641452.07348
  22894926.700   120313798.78209  22894923.560    93751071.17547
  22547032.240   118485492.59109  22547032.280    92326371.00648
  24384986.220   128144324.55108  24384985.220    99852880.02347
  23948053.820   125847828.76308  23948054.740    98063230.45146
 15 03 04 00 09 30.0000000  0  7G16G18G21G22G27G29G31
  21222759.940   111526374.26609  21222757.220    86903663.18448
  21829791.160   114716486.57309  21829788.260    89389531.10948
  21656668.460   113806664.30209  21656664.940    88680553.49948
  22877533.800   120222398.70909  22877530.640    93679850.45047
  22534930.000   118421895.03009  22534930.080    92276814.48147
  24398915.420   128217522.76508  24398914.440    99909917.57247
  23965842.620   125941308.01908  23965843.720    98136070.97946
 15 03 04 00 10  0.0000000  0  7G16G18G21G22G27G29G31
  21211893.740   111469271.56609  21211890.940    86859167.58248
  21821832.860   114674665.90809  21821830.120    89356943.60248
  21666260.080   113857068.50609  21666256.500    88719829.50948
  22860171.480   120131159.31509  22860168.220    93608754.91847
  22522843.540   118358380.40909  22522843.580    92227322.58947
  24412853.920   128290770.00308  24412852.960    99966993.32047
  23983635.080   126034806.83708  23983636.300    98208926.73046
 15 03 04 00 10 30.0000000  0  7G16G18G21G22G27G29G31
  21201102.160   111412561.15709  21201099.260    86814977.65948
  21813954.860   114633266.82209  21813952.180    89324684.59548
  21675894.140   113907695.71409  21675890.520    88759279.28548
  22842840.440   120040084.31609  22842837.080    93537787.46947
  22510773.040   118294949.53009  22510773.060    92177895.95047
  24426801.860   128364066.80908  24426800.920   100024107.69646
  24001430.760   126128322.41108  24001432.040    98281795.54246
 15 03 04 00 11  0.0000000  0  7G16G18G21G22G27G29G31
  21190385.680   111356245.82509  21190382.760    86771095.58148
  21806157.600   114592291.91809  21806154.940    89292756.11548
  21685570.460   113958544.89909  21685566.800    88798902.02348
  22825541.400   119949177.31509  22825537.880    93466950.93947
  22498718.660   118231603.40609  22498718.640    92128535.35947
  24440759.360   128437413.99908  24440758.420   100081261.31546
  24019229.260   126221852.39408  24019230.760    98354675.54046
 15 03 04 00 11 30.0000000  0  7G16G18G21G22G27G29G31
  21179744.520   111300326.47509  21179741.560    86727522.06048
  21798441.020   114551741.11409  21798438.300    89261158.10647
  21695288.380   114009612.98609  21695284.780    88838695.34148
  22808274.480   119858439.00709  22808270.840    93396245.84647
  22486680.200   118168340.77509  22486680.140    92079239.82447
  24454726.180   128510810.34608  24454725.260   100138453.23946
  24037029.820   126315392.65108  24037031.320    98427563.56546
 15 03 04 00 12  0.0000000  0  7G16G18G21G22G27G29G31
  21169179.220   111244805.62709  21169176.220    86684259.07448
  21790805.560   114511616.62709  21790802.740    89229892.29048
  21705047.620   114060898.39609  21705044.080    88878658.00248
  22791040.300   119767872.70909  22791036.580    93325674.78847
  22474657.760   118105162.42909  22474657.760    92030009.97547
  24468702.360   128584256.18507  24468701.500   100195683.74545
  24054831.940   126408940.82208  24054833.460    98500457.75246
 15 03 04 00 12 30.0000000  0  7G16G18G21G22G27G29G31
  21158690.460   111189686.57409  21158687.400    86641309.17548
  21783251.760   114471921.00909  21783248.860    89198960.65448
  21714848.080   114112400.74709  21714844.680    88918789.70048
  22773839.480   119677481.98709  22773835.720    93255240.54147
  22462651.520   118042069.46408  22462651.580    91980846.65347
  24482688.200   128657752.75107  24482687.340   100252953.75545
  24072635.140   126502494.72608  24072636.820    98573356.36846
 15 03 04 00 13  0.0000000  0  7G16G18G21G22G27G29G31
  21148278.640   111134971.87809  21148275.520    86598674.35348
  21775780.100   114432656.92909  21775777.160    89168365.28948
  21724689.660   114164118.96409  21724686.320    88959089.60748
  22756672.620   119587270.14309  22756668.920    93184945.68447
  22450661.820   117979063.16509  22450661.760    91931750.86447
  24496683.800   128731300.71907  24496682.960   100310263.82545
  24090438.960   126596052.06608  24090440.800    98646257.65546
 15 03 04 00 13 30.0000000  0  7G16G18G21G22G27G29G31
  21137943.840   111080662.16909  21137940.740    86556355.11148
  21768390.480   114393824.14809  21768387.540    89138106.00448
  21734571.700   114216049.86109  21734568.380    88999555.24148
  22739540.040   119497238.44809  22739536.380    93114791.19847
  22438688.280   117916142.06409  22438688.180    91882721.45947
  24510688.980   128804898.57907  24510687.840   100367612.76244
  24108242.600   126689608.92908  24108244.660    98719158.55446
 15 03 04 00 14  0.0000000  0  7G16G18G21G22G27G29G31
  21127686.360   111026758.99509  21127683.280    86514352.64248
  21761082.920   114355422.94409  21761080.080    89108183.01148
  21744493.640   114268190.32309  21744490.400    89040184.16648
  22722442.120   119407388.62409  22722438.460    93044778.43647
  22426730.900   117853305.64409  22426730.680    91833758.04247
  24524703.560   128878545.35208  24524702.220   100424999.83644
  24126045.440   126783161.34608  24126047.680    98792055.97246
 15 03 04 00 14 30.0000000  0  7G16G18G21G22G27G29G31
  21117506.780   110973265.12709  21117503.700    86472669.11348
  21753857.940   114317455.89609  21753855.220    89078598.32147
  21754455.420   114320539.81409  21754452.160    89080975.97348
  22705379.460   119317723.97209  22705375.740    92974909.94847
  22414789.840   117790554.77709  22414789.580    91784861.28548
  24538727.700   128952241.93808  24538726.140   100482425.73244
  24143847.020   126876706.92908  24143849.400    98864948.06046
 15 03 04 00 15  0.0000000  0 15G16G18G21G22G27G29G31R01R02R14R15R16
                                R17R18R24
  21107405.560   110920183.15209  21107402.560    86431306.54348
  21746715.960   114279925.07909  21746713.280    89049353.55948
  21764456.820   114373097.31609  21764453.500    89121929.86248
  22688352.740   119228248.06209  22688348.960    92905188.54447
  22402865.300   117727890.65509  22402865.180    91736032.12348
  24552761.580   129025989.20908  24552759.860   100539891.14244
  24161646.900   126970243.72508  24161649.400    98937833.28246
  22314896.740   119285934.72608  22314900.940    92777967.32306
  21651373.820   115535936.51909  21651377.240    89861320.64008
  22661788.420   120800036.13207  22661797.400    93955590.70605
  20375493.480   108880467.75009  20375496.980    84684825.45208
  21773959.660   116312590.40908  21773961.880    90465360.21307
  20208596.420   108140572.84809  20208596.540    84109454.83908
  21661304.620   115629589.37309  21661307.460    89934170.49708
  22741325.800   121608474.54908  22741326.660    94584558.99605
 15 03 04 00 15 30.0000000  0 14G16G18G21G22G27G31R01R02R14R15R16R17
                                R18R24
  21097388.680   110867544.27109  21097385.720    86390289.24448
  21739662.900   114242861.29309  21739660.240    89020472.70948
  21774502.940   114425889.74309  21774499.500    89163066.81748
  22671367.920   119138992.34309  22671364.080    92835638.71347
  22390962.800   117665342.45109  22390962.760    91687293.27748
  24179450.100   127063797.81308  24179452.740    99010731.96746
  22319235.580   119309128.74508  22319239.880    92796007.12906
  21636314.840   115455578.98309  21636318.260    89798820.37408
  22686759.780   120933145.81406  22686768.660    94059119.68105
  20387530.260   108944788.35109  20387533.680    84734852.56808
  21761362.060   116245296.59008  21761364.400    90413020.59707
  20211383.180   108155485.54909  20211383.280    84121053.61508
  21651564.420   115577595.62009  21651567.320    89893730.94108
  22754925.780   121681199.86908  22754926.560    94641123.10605
 15 03 04 00 16  0.0000000  0 14G16G18G21G22G27G31R01R02R14R15R16R17
                                R18R24
  21087445.680   110815293.52709  21087442.720    86349574.38848
  21732688.060   114206208.59809  21732685.440    88991912.19248
  21784582.580   114478858.44609  21784579.060    89204341.12948
  22654414.560   119049902.04809  22654410.660    92766217.78147
  22379071.660   117602853.57309  22379071.540    91638600.67048
  24197245.160   127157309.26408  24197247.840    99083597.41346
  22323709.100   119333042.82908  22323713.460    92814606.99306
  21621345.060   115375697.75009  21621348.380    89736690.56308
  22711748.400   121066346.48006  22711757.280    94162719.33305
  20399691.700   109009775.43609  20399695.180    84785398.05008
  21748888.860   116178667.04008  21748891.280    90361197.62207
  20214195.000   108170532.10109  20214195.080    84132756.49308
  21641847.680   115525727.01509  21641850.560    89853388.72208
  22768520.580   121753897.75708  22768521.280    94697665.89305
 15 03 04 00 16 30.0000000  0 14G16G18G21G22G27G31R01R02R14R15R16R17
                                R18R24
  21077582.360   110763461.28609  21077579.380    86309185.63948
  21725797.220   114169997.02609  21725794.540    88963695.40348
  21794700.840   114532029.99109  21794697.280    89245773.50548
  22637498.660   118961008.58009  22637494.720    92696950.21447
  22367197.180   117540452.43609  22367196.860    91589976.42648
  24215037.020   127250803.77008  24215039.800    99156449.64846
  22328322.660   119357705.00808  22328326.980    92833788.72006
  21606470.660   115296325.55509  21606474.000    89674956.67308
  22736758.760   121199662.95006  22736767.740    94266409.22005
  20411982.700   109075454.48509  20411986.120    84836481.74008
  21736546.020   116112733.40408  21736548.380    90309915.90507
  20217036.920   108185740.14809  20217037.120    84144584.98008
  21632159.640   115474011.69909  21632162.500    89813165.70808
  22782115.700   121826597.05108  22782116.440    94754209.77205
 15 03 04 00 17  0.0000000  0 14G16G18G21G22G27G31R01R02R14R15R16R17
                                R18R24
  21067799.300   110712050.66509  21067796.320    86269125.43148
  21718990.720   114134228.77709  21718988.060    88935824.06148
  21804857.580   114585403.59909  21804854.000    89287363.33648
  22620620.900   118872315.70209  22620616.980    92627838.94647
  22355339.560   117478140.36209  22355339.140    91541421.57748
  24232825.260   127344278.86708  24232828.060    99229286.78846
  22333076.160   119383115.34708  22333080.600    92853552.31106
  21591692.620   115217467.52909  21591695.960    89613622.70008
  22761790.100   121333091.20706  22761799.300    94370185.98005
  20424402.800   109141823.64509  20424406.240    84888102.17708
  21724334.220   116047499.53008  21724336.420    90259178.43707
  20219908.960   108201109.53609  20219909.280    84156538.94208
  21622500.320   115422449.77709  21622503.200    89773062.01608
  22795711.320   121899298.69508  22795712.200    94810755.48206
 15 03 04 00 17 30.0000000  0 14G16G18G21G22G27G31R01R02R14R15R16R17
                                R18R24
  21058097.060   110661064.76009  21058094.060    86229396.16348
  21712269.000   114098906.45709  21712266.460    88908300.19248
  21815052.680   114638978.90109  21815049.080    89329110.31348
  22603781.900   118783826.76209  22603778.120    92558886.59847
  22343499.120   117415918.75009  22343498.700    91492937.21248
  24250609.460   127437733.09408  24250612.400    99302107.61645
  22337969.740   119409274.53508  22337974.240    92873898.34606
  21577011.940   115139128.91409  21577015.280    89552692.69608
  22786841.900   121466628.56007  22786851.400    94474047.74205
  20436951.460   109208879.92809  20436955.020    84940257.02608
  21712253.980   115982969.10108  21712256.320    90208988.12207
  20222811.380   108216641.26609  20222811.680    84168619.17408
  21612869.860   115371041.85509  21612872.780    89733078.09308
  22809307.560   121972003.38108  22809308.520    94867303.54306
 15 03 04 00 18  0.0000000  0 15G16G18G19G21G22G27G31R01R02R14R15R16
                                R17R18R24
  21048475.600   110610503.52109  21048472.600    86189997.81148
  21705632.000   114064029.15209  21705629.500    88881123.09548
  24533991.200   128926987.48107  24533988.740   100462584.60545
  21825285.380   114692751.89309  21825281.740    89371011.34948
  22586981.760   118695542.19709  22586978.160    92490093.51347
  22331675.500   117353785.78909  22331675.180    91444521.93648
  24268388.640   127531161.14008  24268391.780    99374908.02046
  22343002.900   119436179.62708  22343007.220    92894824.55205
  21562428.980   115061311.54409  21562432.320    89492168.12408
  22811912.940   121600268.08307  22811922.600    94577989.08305
  20449627.640   109276618.00509  20449631.320    84992942.17608
  21700305.580   115919142.91408  21700307.800    90159345.52407
  20225743.640   108232332.17009  20225743.740    84180823.21908
  21603267.660   115319785.01209  21603270.680    89693211.68308
  22822903.880   122044708.92607  22822904.980    94923852.28606
 15 03 04 00 18 30.0000000  0 15G16G18G19G21G22G27G31R01R02R14R15R16
                                R17R18R24
  21038928.580   110560333.60209  21038925.500    86150904.36848
  21699073.260   114029563.03209  21699070.760    88854266.38747
  24518945.740   128847923.12007  24518942.680   100400976.04745
  21835548.640   114746685.27009  21835544.880    89413037.35148
  22570214.280   118607429.14409  22570210.820    92421434.05747
  22319862.040   117291706.27809  22319861.860    91396148.29448
  24286155.720   127624525.21108  24286158.960    99447658.55645
  22348168.680   119463793.50508  22348172.900    92916302.01706
  21547937.740   114983983.38009  21547941.040    89432024.02808
  22836995.520   121733969.42807  22837005.240    94681978.48505
  20462424.080   109344998.08109  20462427.720    85046126.66308
  21688482.680   115855987.52708  21688484.980    90110224.66707
  20228698.700   108248145.37609  20228698.920    84193122.38208
  21593686.900   115268642.44309  21593690.020    89653434.14608
  22836493.620   122117379.40807  22836494.780    94980373.72406
 15 03 04 00 19  0.0000000  0 15G16G18G19G21G22G27G31R01R02R14R15R16
                                R17R18R24
  21029470.420   110510630.85409  21029467.300    86112174.96248
  21692607.120   113995583.28509  21692604.580    88827788.67848
  24503915.060   128768935.67808  24503911.780   100339427.45045
  21845856.160   114800851.45109  21845852.340    89455244.76948
  22553494.020   118519564.28109  22553490.640    92352968.00147
  22308072.980   117229754.65209  22308072.840    91347874.31648
  24303924.120   127717896.21908  24303927.520    99520414.51045
  22353481.000   119492190.72708  22353485.160    92938388.75305
  21533553.060   114907223.72009  21533556.300    89372322.10608
  22862102.800   121867802.72307  22862112.700    94786070.42005
  20475353.760   109414090.49408  20475357.460    85099865.18608
  21676799.900   115793580.79008  21676802.360    90061686.10707
  20231690.500   108264155.60009  20231690.980    84205574.78208
  21584141.600   115217688.75109  21584144.660    89613803.52808
  22850090.720   122190089.71507  22850091.940    95036926.15306
 15 03 04 00 19 30.0000000  0 15G16G18G19G21G22G27G31R01R02R14R15R16
                                R17R18R24
  21020093.660   110461355.72709  21020090.560    86073778.76148
  21686225.960   113962049.84409  21686223.380    88801658.74348
  24488891.040   128689983.64107  24488887.580   100277906.42245
  21856199.660   114855207.05209  21856195.840    89497599.77548
  22536813.600   118431908.80209  22536810.260    92284665.10048
  22296300.480   117167889.73409  22296300.380    91299667.90648
  24321685.540   127811229.88408  24321689.040    99593141.34746
  22358931.780   119521327.99208  22358935.860    92961051.07405
  21519267.700   114830994.16309  21519270.880    89313032.48408
  22887226.260   122001722.20507  22887236.320    94890229.43705
  20488408.800   109483852.64808  20488412.580    85154124.60308
  21665249.840   115731883.17208  21665252.260    90013699.07207
  20234711.100   108280319.70809  20234711.640    84218146.85808
  21574623.620   115166881.10409  21574626.600    89574286.48508
  22863687.420   122262797.75507  22863688.600    95093476.82205
 15 03 04 00 20  0.0000000  0 15G16G18G19G21G22G27G31R01R02R14R15R16
                                R17R18R24
  21010799.980   110412517.12409  21010796.900    86035722.70948
  21679931.140   113928970.29709  21679928.540    88775882.49948
  24473874.940   128611073.77707  24473871.680   100216418.27745
  21866579.980   114909756.42809  21866576.300    89540105.78648
  22520174.840   118344471.92209  22520171.420    92216532.53447
  22284545.880   117106118.55209  22284545.780    91251534.53748
  24339440.480   127904529.92208  24339444.160    99665841.96546
  22364522.140   119551211.19908  22364526.040    92984293.58806
  21505083.680   114755305.78409  21505086.920    89254163.79008
  22912366.180   122135730.13106  22912376.400    94994457.34105
  20501589.220   109554285.23308  20501593.180    85208905.47808
  21653834.420   115670904.29508  21653836.920    89966271.05907
  20237761.700   108296644.07409  20237762.080    84230843.60408
  21565134.100   115116225.76409  21565137.060    89534887.91308
  22877285.140   122335510.52107  22877286.140    95150031.17505
 15 03 04 00 20 30.0000000  0 15G16G18G19G21G22G27G31R01R02R14R15R16
                                R17R18R24
  21001590.160   110364119.39609  21001587.100    85998010.20848
  21673723.500   113896348.80809  21673720.860    88750463.18348
  24458867.360   128532208.68508  24458864.160   100154965.02845
  21876997.580   114964501.75009  21876994.040    89582764.47348
  22503578.700   118257258.87609  22503575.220    92148574.39047
  22272809.680   117044443.98509  22272809.520    91203476.45648
  24357188.940   127997796.20508  24357192.900    99738516.25846
  22370252.300   119581841.87608  22370256.160    93008117.46406
  21491002.320   114680165.05809  21491005.540    89195721.03908
  22937522.280   122269824.56007  22937532.640    95098752.46405
  20514895.140   109625388.15008  20514899.120    85264207.72808
  21642554.380   115610648.94708  21642557.040    89919405.81207
  20240842.480   108313130.31109  20240842.820    84243666.24508
  21555673.420   115065724.39109  21555676.500    89495609.09808
  22890884.240   122408230.24508  22890885.080    95206590.94405
 15 03 04 00 21  0.0000000  0 15G16G18G19G21G22G27G31R01R02R14R15R16
                                R17R18R24
  20992462.660   110316154.24109  20992459.600    85960634.76348
  21667601.320   113864176.39609  21667598.660    88725393.79648
  24443866.240   128453377.69308  24443863.220   100093538.33845
  21887450.040   115019430.37909  21887446.680    89625566.00548
  22487023.700   118170261.84709  22487020.100    92080784.56547
  22261089.960   116982855.96209  22261089.660    91155485.80648
  24374928.520   128091015.43708  24374932.660    99811153.87946
  22376120.120   119613208.87008  22376123.960    93032514.02306
  21477022.400   114605565.28609  21477025.560    89137699.02908
  22962691.760   122403990.57007  22962702.340    95203103.26605
  20528323.740   109697146.85908  20528327.760    85320020.01808
  21631408.380   115551109.23208  21631411.120    89873097.14607
  20243951.540   108329767.32709  20243951.940    84256606.14608
  21546239.540   115015365.95809  21546242.680    89456441.45908
  22904482.560   122480945.94208  22904483.380    95263147.57005
 15 03 04 00 21 30.0000000  0 15G16G18G19G21G22G27G31R01R02R14R15R16
                                R17R18R24
  20983418.900   110268629.42609  20983415.920    85923602.45048
  21661565.900   113832459.93909  21661563.200    88700679.69648
  24428872.680   128374586.31108  24428869.380   100032142.48745
  21897937.940   115074545.35909  21897934.740    89668512.73748
  22470511.380   118083488.78109  22470507.640    92013169.24647
  22249387.740   116921360.27309  22249387.400    91107567.12048
  24392659.640   128184190.14008  24392663.940    99883756.79546
  22382126.440   119645316.12708  22382130.280    93057486.34105
  21463145.620   114531515.88909  21463148.660    89080105.07608
  22987874.840   122538229.20606  22987885.640    95307510.57605
  20541875.480   109769563.43308  20541879.500    85376343.98908
  21620397.920   115492293.46508  21620400.760    89827351.55207
  20247089.760   108346559.92309  20247090.180    84269667.06108
  21536833.260   114965155.10109  21536836.500    89417388.59708
  22918081.200   122553663.67408  22918082.060    95319705.76805
 15 03 04 00 22  0.0000000  0 15G16G18G19G21G22G27G31R01R02R14R15R16
                                R17R18R24
  20974459.360   110221546.91309  20974456.460    85886914.77948
  21655617.320   113801199.98509  21655614.640    88676321.32548
  24413886.700   128295834.81108  24413883.400    99970777.69546
  21908461.140   115129845.88109  21908458.120    89711604.04948
  22454042.200   117996942.44109  22454038.320    91945730.60548
  22237703.120   116859957.40909  22237702.840    91059720.75548
  24410381.840   128277317.84308  24410386.240    99956323.11946
  22388271.080   119678162.79808  22388274.900    93083033.76806
  21449372.640   114458021.05009  21449375.760    89022942.46708
  23013070.880   122672536.25207  23013081.720    95411971.11405
  20555549.560   109842633.33008  20555553.560    85433176.11008
  21609523.380   115434203.90708  21609526.140    89782170.77807
  20250256.920   108363507.61609  20250257.260    84282848.60408
  21527454.580   114915091.42509  21527457.940    89378450.20508
  22931680.140   122626383.22708  22931681.080    95376265.38905
 15 03 04 00 22 30.0000000  0 15G16G18G19G21G22G27G31R01R02R14R15R16
                                R17R18R24
  20965584.060   110174906.79609  20965581.120    85850571.83348
  21649755.740   113770397.11409  21649753.020    88652319.10648
  24398908.060   128217121.97908  24398904.780    99909443.06146
  21919019.180   115185329.14209  21919016.220    89754837.75148
  22437616.280   117910623.87709  22437612.340    91878469.44048
  22226035.840   116798646.37509  22226035.720    91011945.94748
  24428094.300   128370394.25008  24428098.740   100028849.44346
  22394553.620   119711746.50008  22394557.460    93109154.42306
  21435704.040   114385082.98709  21435707.180    88966212.89408
  23038278.660   122806905.75006  23038289.560    95516480.11704
  20569345.080   109916352.03809  20569349.060    85490512.85808
  21598785.040   115376841.73208  21598787.720    89737555.74307
  20253452.500   108380608.24109  20253452.880    84296149.09408
  21518103.140   114865172.88309  21518106.420    89339624.70208
  22945279.200   122699103.40008  22945280.180    95432825.49905
 15 03 04 00 23  0.0000000  0 15G16G18G19G21G22G27G31R01R02R14R15R16
                                R17R18R24
  20956793.980   110128714.43809  20956790.980    85814577.79248
  21643982.020   113740055.56409  21643979.180    88628676.34648
  24383937.380   128138450.67208  24383934.280    99848140.78245
  21929612.080   115240995.32308  21929609.100    89798213.99848
  22421234.780   117824538.83709  22421230.860    91811390.24148
  22214386.720   116737430.63209  22214386.720    90964245.39748
  24445797.060   128463419.69808  24445801.640   100101336.08345
  22400974.340   119746068.86908  22400978.160    93135849.62005
  21422141.120   114312708.81509  21422144.240    88909921.89808
  23063498.060   122941337.02507  23063509.080    95621037.12605
  20583262.060   109990719.60108  20583265.940    85548354.28508
  21588184.020   115320212.54508  21588186.680    89693510.81807
  20256677.120   108397864.24909  20256677.620    84309570.43308
  21508779.400   114815402.05709  21508782.540    89300914.09408
  22958878.940   122771827.12408  22958879.820    95489388.39305
 15 03 04 00 23 30.0000000  0 16G16G18G19G21G22G27G31R01R02R03R14R15
                                R16R17R18R24
  20948088.600   110082967.22309  20948085.600    85778930.62048
  21638295.300   113710171.44909  21638292.400    88605390.04748
  24368973.800   128059816.61208  24368970.720    99786867.54246
  21940238.760   115296838.99609  21940235.740    89841728.55448
  22404897.300   117738685.20709  22404893.460    91744491.37647
  22202754.960   116676305.94309  22202755.000    90916615.78448
  24463488.680   128556386.80108  24463493.440   100173777.22846
  22407532.160   119781124.40808  22407535.940    93163115.06406
  21408683.740   114240897.78509  21408686.800    88854068.90808
  23579877.340   126224935.93707  23579883.620    98174971.08206
  23088727.280   123075820.52307  23088738.600    95725634.67906
  20597298.620   110065726.59308  20597302.480    85606693.04108
  21577719.780   115264313.98108  21577722.340    89650034.15207
  20259929.840   108415270.45909  20259930.360    84323108.59308
  21499482.300   114765773.46309  21499485.300    89262314.11208
  22972478.420   122844549.52108  22972479.180    95545950.27005
 15 03 04 00 24  0.0000000  0 16G16G18G19G21G22G27G31R01R02R03R14R15
                                R16R17R18R24
  20939469.560   110037673.64509  20939466.520    85743636.92248
  21632697.160   113680753.06909  21632694.220    88582466.65548
  24354018.520   127981226.50008  24354015.460    99725628.53546
  21950900.280   115352865.27209  21950897.120    89885385.38748
  22388605.660   117653072.43709  22388601.900    91677780.18448
  22191141.920   116615279.52909  22191142.000    90869062.75148
  24481169.860   128649299.27008  24481174.740   100246175.80845
  22414228.160   119816918.40308  22414232.040    93190954.85206
  21395333.880   114169660.67609  21395336.920    88798662.29808
  23556728.480   126101017.40408  23556734.600    98078590.76706
  23113966.820   123210359.01106  23113978.380    95830274.88005
  20611455.380   110141375.71909  20611459.200    85665531.22708
  21567394.040   115209155.48508  21567396.720    89607133.11907
  20263211.740   108432832.96209  20263212.280    84336768.31308
  21490213.060   114716293.35009  21490215.920    89223829.61508
  22986079.000   122917277.79508  22986079.760    95602516.71605
 15 03 04 00 24 30.0000000  0 16G16G18G19G21G22G27G31R01R02R03R14R15
                                R16R17R18R24
  20930936.520   109992831.93309  20930933.420    85708695.33048
  21627187.100   113651797.54309  21627184.160    88559903.93048
  24339070.780   127902676.07708  24339067.720    99664420.47746
  21961595.440   115409067.91609  21961592.060    89929179.64448
  22372359.600   117567699.23809  22372355.840    91611255.66748
  22179546.820   116554347.69509  22179546.940    90821583.42848
  24498839.420   128742150.42908  24498844.320   100318526.63345
  22421061.400   119853445.81008  22421065.320    93219365.06406
  21382091.420   114098996.90509  21382094.520    88743701.62108
  23533572.240   125977061.98908  23533578.360    97982181.80107
  23139215.120   123344944.23306  23139226.980    95934951.55705
  20625730.860   110217659.44608  20625734.640    85724862.97308
  21557206.420   115154734.95408  21557208.960    89564806.02507
  20266522.040   108450547.18509  20266522.560    84350546.05708
  21480970.800   114666956.97809  21480973.480    89185456.90008
  22999679.800   122990007.63608  22999680.620    95659084.36404
 15 03 04 00 25  0.0000000  0 16G16G18G19G21G22G27G31R01R02R03R14R15
                                R16R17R18R24
  20922489.520   109948442.66409  20922486.400    85674106.29848
  21621765.160   113623305.06609  21621762.180    88537702.01448
  24324130.460   127824164.64108  24324127.460    99603242.79245
  21972323.760   115465444.77209  21972320.220    89973109.66248
  22356159.360   117482566.77609  22356155.620    91544918.73248
  22167969.720   116493509.87609  22167969.740    90774177.36448
  24516496.640   128834936.63808  24516501.600   100390826.85745
  22428031.220   119890703.82208  22428035.200    93248343.52606
  21368956.960   114028909.42209  21368960.160    88689189.16608
  23510409.520   125853072.51707  23510415.700    97885746.38107
  23164471.220   123479571.27806  23164483.340    96039660.99405
  20640124.260   110294573.27609  20640128.080    85784684.80908
  21547157.260   115101053.86508  21547159.760    89523054.06407
  20269860.380   108468411.43509  20269860.980    84364440.47708
  21471755.080   114617762.66009  21471757.660    89147194.68008
  23013280.680   123062737.96408  23013281.520    95715652.38405
 15 03 04 00 25 30.0000000  0 16G16G18G19G21G22G27G31R01R02R03R14R15
                                R16R17R18R24
  20914129.120   109904508.31309  20914125.940    85639871.74148
  21616431.620   113595276.82709  21616428.540    88515861.84948
  24309197.640   127745692.17408  24309194.620    99542095.48046
  21983084.860   115521993.93309  21983081.140    90017173.94347
  22340005.500   117397678.08909  22340001.780    91478771.74648
  22156410.680   116432766.58209  22156410.580    90726844.95448
  24534141.040   128927655.40608  24534146.080   100463074.52745
  22435137.520   119928691.35408  22435141.500    93277889.39006
  21355931.280   113959402.03709  21355934.500    88635127.89308
  23487241.140   125729052.98607  23487247.180    97789287.47107
  23189734.380   123614235.79106  23189746.600    96144399.77605
  20654634.940   110372113.63808  20654638.780    85844993.95008
  21537246.960   115048114.54908  21537249.400    89481879.04007
  20273226.740   108486425.24809  20273227.340    84378451.21908
  21462565.860   114568710.03809  21462568.340    89109042.65308
  23026881.840   123135469.51108  23026882.720    95772221.34005
 15 03 04 00 26  0.0000000  0 16G16G18G19G21G22G27G31R01R02R03R14R15
                                R16R17R18R24
  20905856.340   109861034.15609  20905853.120    85605995.78748
  21611187.300   113567717.60609  21611184.220    88494387.16348
  24294273.040   127667262.85608  24294270.020    99480981.76946
  21993879.200   115578718.08909  21993875.420    90061374.58648
  22323899.240   117313039.73309  22323895.560    91412819.84748
  22144870.520   116372122.08009  22144870.360    90679589.52048
  24551772.700   129020307.45708  24551777.960   100535270.21746
  22442380.820   119967410.92708  22442384.780    93308004.64106
  21343015.760   113890482.53909  21343018.920    88581523.87008
  23464068.600   125605011.55407  23464074.540    97692811.58307
  23215004.460   123748937.11706  23215016.580    96249167.24805
  20669262.760   110450280.05609  20669266.560    85905790.02708
  21527476.600   114995923.10608  21527478.920    89441285.68807
  20276621.620   108504591.93909  20276622.300    84392580.88208
  21453403.800   114519802.29709  21453406.360    89071003.32008
  23040483.880   123208205.64108  23040484.800    95828793.87705
 15 03 04 00 26 30.0000000  0 16G16G18G19G21G22G27G31R01R02R03R14R15
                                R16R17R18R24
  20897671.440   109818021.77209  20897668.160    85572479.65048
  21606032.380   113540628.47809  21606029.360    88473278.77548
  24279356.560   127588876.52208  24279353.400    99419901.57046
  22004706.240   115635614.29509  22004702.400    90105709.29048
  22307840.960   117228653.57509  22307837.320    91347064.46248
  22133349.180   116311576.51809  22133349.040    90632411.19048
  24569390.940   129112889.73908  24569396.500   100607411.53146
  22449760.740   120006860.70408  22449764.680    93338687.81906
  21330210.980   113822154.13209  21330214.120    88528379.59108
  23440892.440   125480951.63406  23440898.480    97596321.26606
  23240280.560   123883671.02406  23240292.680    96353960.14705
  20684006.880   110529067.99208  20684010.620    85967069.49708
  21517846.680   114944481.36708  21517849.000    89401275.45007
  20280044.960   108522910.60409  20280045.640    84406828.72408
  21444268.620   114471038.33909  21444271.260    89033075.83008
  23054086.800   123280946.16108  23054087.700    95885369.82505
 15 03 04 00 27  0.0000000  0 16G16G18G19G21G22G27G31R01R02R03R14R15
                                R16R17R18R24
  20889574.280   109775470.75709  20889570.980    85539323.01848
  21600966.540   113514007.74809  21600963.560    88452535.36948
  24264447.700   127510530.29308  24264444.400    99358852.60446
  22015565.280   115692679.12709  22015561.560    90150175.38548
  22291830.740   117144519.68509  22291827.100    91281505.65248
  22121846.100   116251127.64509  22121846.060    90585308.19548
  24586994.880   129205397.23608  24587000.880   100679494.58346
  22457276.560   120047036.77208  22457280.520    93369935.89506
  21317517.120   113754417.85209  21317520.240    88475695.85508
  23417713.240   125356874.60707  23417719.040    97499817.56406
  23265561.260   124018429.72606  23265573.260    96458772.27204
  20698866.100   110608471.21708  20698869.820    86028827.53008
  21508356.980   114893788.80108  21508359.200    89361847.90607
  20283496.140   108541378.01709  20283496.800    84421192.27208
  21435159.740   114422415.16009  21435162.460    88995257.83908
  23067690.100   123353688.70807  23067690.940    95941947.36105
 15 03 04 00 27 30.0000000  0 16G16G18G19G21G22G27G31R01R02R03R14R15
                                R16R17R18R24
  20881565.280   109733383.49309  20881562.020    85506527.74048
  21595990.040   113487856.71109  21595987.180    88432157.94648
  24249546.640   127432225.03408  24249543.340    99297835.58245
  22026456.300   115749911.89709  22026452.600    90194772.34848
  22275869.260   117060641.52809  22275865.560    91216146.09748
  22110361.700   116190776.81309  22110361.700    90538281.59748
  24604584.200   129297827.65908  24604590.700   100751517.54546
  22464928.120   120087938.27008  22464931.980    93401748.19406
  21304935.240   113687278.44709  21304938.220    88423476.34008
  23394531.820   125232785.31907  23394537.420    97403304.34206
  23290845.980   124153210.78907  23290858.060    96563601.84105
  20713839.880   110688486.44508  20713843.640    86091061.56508
  21499008.080   114843848.27908  21499010.300    89323005.28807
  20286975.220   108559994.48509  20286975.720    84435671.74908
  21426077.320   114373932.79109  21426080.120    88957549.35508
  23081293.860   123426434.08607  23081294.740    95998527.07105
 15 03 04 00 28  0.0000000  0 16G16G18G19G21G22G27G31R01R02R03R14R15
                                R16R17R18R24
  20873644.680   109691760.85309  20873641.400    85474094.51648
  21591103.140   113462176.10909  21591100.260    88412147.10448
  24234653.220   127353959.82808  24234649.880    99236849.76245
  22037378.600   115807309.23109  22037375.040    90239497.52948
  22259956.740   116977020.20309  22259952.860    91150986.66848
  22098895.860   116130523.29109  22098895.820    90491330.82248
  24622158.240   129390177.27408  24622165.020   100823477.61546
  22472714.800   120129562.39208  22472718.640    93434122.51806
  21292465.680   113620738.28509  21292468.640    88371722.91008
  23371348.720   125108686.57807  23371354.040    97306783.67906
  23316133.780   124288008.30306  23316145.940    96668444.22104
  20728927.120   110769108.22608  20728930.920    86153767.37408
  21489800.160   114794660.93208  21489802.360    89284748.46607
  20290481.860   108578758.38409  20290482.160    84450265.89708
  21417020.980   114325589.63809  21417023.840    88919949.15008
  23094897.800   123499181.02007  23094898.820    96055107.97605
 15 03 04 00 28 30.0000000  0 16G16G18G19G21G22G27G31R01R02R03R14R15
                                R16R17R18R24
  20865813.740   109650609.16509  20865810.440    85442028.26948
  21586306.820   113436971.15709  21586303.880    88392506.90348
  24219768.280   127275739.18708  24219764.920    99175898.67146
  22048332.720   115864873.86209  22048329.200    90284353.07848
  22244094.420   116893662.77609  22244090.360    91086032.87748
  22087449.440   116070371.81609  22087449.300    90444459.56548
  24639717.320   129482447.94608  24639724.240   100895376.14946
  22480637.140   120171911.88008  22480641.000    93467061.01106
  21280109.860   113554805.15309  21280112.780    88320441.61608
  23348165.500   124984586.72907  23348170.420    97210262.14106
  23341424.560   124422822.24806  23341436.820    96773299.26905
  20744128.060   110850337.17309  20744131.800    86216945.42508
  21480734.360   114746233.04808  21480736.580    89247082.34407
  20294016.660   108597673.54209  20294016.820    84464977.69108
  21407991.380   114277389.19909  21407994.200    88882459.95708
  23108502.900   123571934.10707  23108504.060    96111693.66005
 15 03 04 00 29  0.0000000  0 16G16G18G19G21G22G27G31R01R02R03R14R15
                                R16R17R18R24
  20858072.100   109609926.27509  20858068.740    85410327.32448
  21581600.500   113412239.06309  21581597.480    88373235.15848
  24204891.160   127197559.32008  24204887.780    99114979.32945
  22059317.660   115922600.35809  22059314.260    90329334.75948
  22228282.000   116810567.89309  22228277.880    91021283.66948
  22076021.860   116010319.22609  22076021.620    90397665.36148
  24657260.080   129574632.81308  24657267.140   100967207.86746
  22488694.220   120214981.67308  22488698.080    93500559.75506
  21267867.820   113489479.29509  21267870.800    88269632.65308
  23324982.180   124860486.18308  23324986.880    97113740.02506
  23366716.960   124557644.71706  23366729.300    96878160.96304
  20759441.100   110932164.91108  20759444.780    86280589.19408
  21471810.300   114698562.70008  21471812.600    89210005.41607
  20297578.840   108616735.68809  20297579.080    84479803.81008
  21398987.760   114229327.41609  21398990.660    88845078.59508
  23122108.480   123644689.39607  23122109.700    96168281.07606
 15 03 04 00 29 30.0000000  0 16G16G18G19G21G22G27G31R01R02R03R14R15
                                R16R17R18R24
  20850420.100   109569714.65909  20850416.760    85378993.60848
  21576984.360   113387981.13809  21576981.360    88354332.90048
  24190022.020   127119421.14708  24190018.540    99054092.47745
  22070333.280   115980488.01909  22070329.880    90374442.01948
  22212520.180   116727738.93609  22212516.000    90956741.67148
  22064613.380   115950366.63909  22064613.000    90350949.09948
  24674786.240   129666730.16608  24674793.340   101038971.38946
  22496885.860   120258770.70508  22496889.700    93534617.91006
  21255740.340   113424764.73509  21255743.320    88219299.14008
  23301799.540   124736389.72808  23301804.100    97017221.08206
  23392010.460   124692472.48106  23392022.800    96983026.88004
  20774865.560   111014588.53308  20774869.200    86344696.42408
  21463028.620   114651652.79808  21463030.780    89173519.95307
  20301168.480   108635944.93509  20301168.760    84494744.34608
  21390010.120   114181404.31409  21390013.160    88807805.11808
  23135714.740   123717448.17507  23135715.940    96224871.21906
 15 03 04 00 30  0.0000000  0 16G16G18G19G21G22G27G31R01R02R03R14R15
                                R16R17R18R24
  20842857.840   109529974.84609  20842854.560    85348027.52648
  21572458.440   113364197.62309  21572455.560    88335800.31348
  24175160.580   127041323.76308  24175157.120    98993237.43145
  22081379.080   116038534.30009  22081375.800    90419672.87747
  22196809.280   116645177.64609  22196805.040    90892408.23848
  22053223.840   115890513.56609  22053223.360    90304310.35948
  24692295.040   129758736.24908  24692302.220   101110663.83446
  22505211.480   120303276.11308  22505215.380    93569233.24406
  21243727.900   113360663.92609  21243730.880    88169442.98408
  23278618.220   124612300.25607  23278622.720    96920707.53706
  23417303.820   124827299.96605  23417316.280    97087892.36604
  20790400.600   111097603.11108  20790404.320    86409263.29808
  21454389.480   114605504.22908  21454391.640    89137626.63607
  20304785.320   108655299.60109  20304785.600    84509797.97108
  21381058.200   114133618.22909  21381061.200    88770638.19908
  23149321.420   123790209.09308  23149322.600    96281463.02706
 15 03 04 00 30 30.0000000  0 15G16G18G19G21G22G27R01R02R03R14R15R16
                                R17R18R24
  20835385.280   109490706.35509  20835382.040    85317428.69748
  21568022.380   113340886.49309  21568019.600    88317635.80348
  24160306.340   126963264.18108  24160302.780    98932411.82345
  22092454.200   116096734.61609  22092450.980    90465023.76347
  22181149.160   116562883.37309  22181144.940    90828282.87348
  22041852.640   115830757.45209  22041852.160    90257747.15748
  22513670.200   120348493.13708  22513674.160    93604402.04006
  21231830.620   113297177.62109  21231833.580    88120064.78008
  23255438.420   124488218.93007  23255442.700    96824200.29406
  23442595.760   124962120.28605  23442608.500    97192752.34504
  20806044.740   111181200.75408  20806048.560    86474283.63408
  21445892.500   114560115.56008  21445894.840    89102324.32907
  20308428.680   108674796.56709  20308429.080    84524962.27808
  21372131.320   114085965.46509  21372134.140    88733574.95908
  23162928.000   123862969.27008  23162929.180    96338054.24506
 15 03 04 00 31  0.0000000  0 15G16G18G19G21G22G27R01R02R03R14R15R16
                                R17R18R24
  20828004.660   109451921.10009  20828001.480    85287206.42948
  21563678.400   113318059.22609  21563675.640    88299848.34648
  24145461.300   126885253.13208  24145457.620    98871624.03645
  22103560.400   116155097.95409  22103557.160    90510501.69347
  22165542.340   116480869.13509  22165538.140    90764375.72248
  22030501.920   115771109.47509  22030501.540    90211268.23548
  22522263.840   120394430.93208  22522267.760    93640131.46105
  21220051.140   113234320.09309  21220054.100    88071175.62908
  23232262.920   124364160.50907  23232267.020    96727710.89306
  23467887.560   125096939.89005  23467900.720    97297611.63104
  20821799.360   111265388.72808  20821803.300    86539763.14508
  21437540.280   114515499.84208  21437542.900    89067623.21307
  20312100.600   108694446.04709  20312100.940    84540245.20908
  21363231.260   114038456.35609  21363233.900    88696623.46708
  23176536.580   123935739.87808  23176537.700    96394653.59006
 15 03 04 00 31 30.0000000  0 15G16G18G19G21G22G27R01R02R03R14R15R16
                                R17R18R24
  20820715.020   109413614.12009  20820711.900    85257356.84048
  21559425.280   113295709.25309  21559422.560    88282432.79748
  24130624.120   126807283.40908  24130620.400    98810868.46145
  22114695.900   116213615.43109  22114692.660    90556099.72047
  22149987.980   116399130.44309  22149983.800    90700683.27648
  22019170.440   115711562.73509  22019170.200    90164868.18448
  22530990.500   120441079.93108  22530994.340    93676414.03706
  21208388.680   113172087.25209  21208391.760    88022772.34208
  23209091.120   124240121.73508  23209095.080    96631236.75207
  23493177.200   125231747.32905  23493190.600    97402461.63303
  20837662.340   111350155.38709  20837666.280    86605692.73308
  21429331.640   114471651.21708  21429334.420    89033518.74407
  20315799.580   108714239.99809  20315799.700    84555640.51308
  21354356.520   113991082.75409  21354359.100    88659777.35908
  23190145.620   124008513.14808  23190146.640    96451255.00605
 15 03 04 00 32  0.0000000  0 15G16G18G19G21G22G27R01R02R03R14R15R16
                                R17R18R24
  20813517.000   109375788.76309  20813514.000    85227882.54548
  21555263.480   113273839.34809  21555260.860    88265391.33548
  24115795.300   126729357.61508  24115791.620    98750147.11245
  22125860.900   116272287.46009  22125857.580    90601818.18747
  22134486.840   116317671.76009  22134482.740    90637209.02448
  22007858.760   115652119.93109  22007858.640    90118549.13448
  22539850.240   120488440.65308  22539854.120    93713250.14706
  21196844.380   113110484.82409  21196847.460    87974859.37008
  23185924.020   124116108.69908  23185927.980    96534782.62807
  23518464.260   125366540.88706  23518477.780    97507301.05105
  20853633.260   111435498.71309  20853637.220    86672070.82208
  21421267.340   114428573.68108  21421270.020    89000014.00207
  20319525.860   108734180.20409  20319525.900    84571149.56408
  21345507.480   113943846.52209  21345510.180    88623038.09008
