     2.11           OBSERVATION DATA    M                   RINEX VERSION / TYPE
SPIDER V4,0,0,3554                      2015 03 24 00:30    PGM / RUN BY / DATE 
CBEJ                                                        MARKER NAME         
CBEJ                                                        MARKER NUMBER       
                                                            OBSERVER / AGENCY   
496519              LEICA GRX1200+GNSS  8.10/4.007          REC # / TYPE / VERS 
                    LEIAR25         NONE                    ANT # / TYPE        
  5095766.4657   453329.2088  3797108.6657                  APPROX POSITION XYZ 
        0.0730        0.0000        0.0000                  ANTENNA: DELTA H/E/N
     1     1                                                WAVELENGTH FACT L1/2
     4    C1    L1    P2    L2                              # / TYPES OF OBSERV 
    30.000                                                  INTERVAL            
  2015    03    04    00    00    0.0000000     GPS         TIME OF FIRST OBS   
  2015    03    04    23    59   30.0000000     GPS         TIME OF LAST OBS    
    16                                                      LEAP SECONDS        
    54                                                      # OF SATELLITES     
   G 1   811   811   811   811                              PRN / # OF OBS      
   G 2   863   862   862   862                              PRN / # OF OBS      
   G 3   831   830   830   830                              PRN / # OF OBS      
   G 4   831   831   831   831                              PRN / # OF OBS      
   G 5   637   637   637   637                              PRN / # OF OBS      
   G 6   684   683   680   679                              PRN / # OF OBS      
   G 7   649   649   648   648                              PRN / # OF OBS      
   G 9   785   785   784   784                              PRN / # OF OBS      
   G10   742   742   742   742                              PRN / # OF OBS      
   G11   775   775   775   775                              PRN / # OF OBS      
   G12   820   819   818   817                              PRN / # OF OBS      
   G13   800   799   799   799                              PRN / # OF OBS      
   G14   858   857   857   857                              PRN / # OF OBS      
   G15   711   711   711   711                              PRN / # OF OBS      
   G16   668   668   668   668                              PRN / # OF OBS      
   G17   856   856   856   856                              PRN / # OF OBS      
   G18   849   848   847   846                              PRN / # OF OBS      
   G19   758   758   758   758                              PRN / # OF OBS      
   G20   755   755   754   754                              PRN / # OF OBS      
   G21   672   670   663   663                              PRN / # OF OBS      
   G22   703   703   701   701                              PRN / # OF OBS      
   G23   724   724   715   715                              PRN / # OF OBS      
   G24   822   822   822   822                              PRN / # OF OBS      
   G25   843   843   843   843                              PRN / # OF OBS      
   G27   809   808   808   808                              PRN / # OF OBS      
   G28   797   797   796   796                              PRN / # OF OBS      
   G29   748   748   746   746                              PRN / # OF OBS      
   G30   666   663   652   651                              PRN / # OF OBS      
   G31   756   754   744   744                              PRN / # OF OBS      
   G32   741   741   739   739                              PRN / # OF OBS      
   R 1   598   598   581   580                              PRN / # OF OBS      
   R 2   882   882   873   873                              PRN / # OF OBS      
   R 3   877   877   876   862                              PRN / # OF OBS      
   R 4   766   766   762   761                              PRN / # OF OBS      
   R 5   645   645   641   640                              PRN / # OF OBS      
   R 6   754   754   749   749                              PRN / # OF OBS      
   R 7   755   755   755   755                              PRN / # OF OBS      
   R 8   667   667   667   664                              PRN / # OF OBS      
   R 9   712   712   685   674                              PRN / # OF OBS      
   R10   563   563   553   551                              PRN / # OF OBS      
   R11   657   657   621   616                              PRN / # OF OBS      
   R12   754   754   754   753                              PRN / # OF OBS      
   R13   740   740   738   738                              PRN / # OF OBS      
   R14   693   692   692   691                              PRN / # OF OBS      
   R15   873   873   871   867                              PRN / # OF OBS      
   R16   927   927   926   922                              PRN / # OF OBS      
   R17   939   939   931   930                              PRN / # OF OBS      
   R18   984   984   984   984                              PRN / # OF OBS      
   R19   791   791   791   791                              PRN / # OF OBS      
   R20   508   508   508   508                              PRN / # OF OBS      
   R21   678   678   676   673                              PRN / # OF OBS      
   R22   731   731   731   728                              PRN / # OF OBS      
   R23   685   685   669   666                              PRN / # OF OBS      
   R24   590   590   558   557                              PRN / # OF OBS      
BIT 2 OF LLI FLAGS DATA COLLECTED UNDER A/S CONDITION       COMMENT             
SNR is mapped to RINEX snr flag value [2-9]                 COMMENT             
Lx:     = 25dBHz -> 1; 26-27dBHz -> 2; 28-31dBHz -> 3       COMMENT             
       32-35dBHz -> 4; 36-38dBHz -> 5; 39-41dBHz -> 6       COMMENT             
       42-44dBHz -> 7; 45-48dBHz -> 8; >=49dBHz -> 9        COMMENT             
                                                            END OF HEADER       
 15 03 04 00 00  0.0000000  0  7G16G18G21G22G27G29G31
  21235921.760   111595533.15809  21235918.900    86957565.52248
  22261211.220   116983553.50809  22261208.860    91156043.12147
  21525734.720   113118503.99907  21525731.160    88144280.33444
  23433495.220   123143977.69708  23433493.020    95956390.97546
  22473114.620   118097047.62408  22473115.440    92023696.05248
  24398219.840   128213478.91808  24398219.040    99906613.61147
  23664802.500   124359335.91008  23664801.980    96903354.38146
 15 03 04 00 00 30.0000000  0  7G16G18G21G22G27G29G31
  21224689.680   111536509.77109  21224687.000    86911573.26948
  22251314.560   116931547.53309  22251312.140    91115519.00947
  21534583.720   113165005.07506  21534579.660    88180514.96745
  23415681.280   123050365.29208  23415678.780    95883446.40746
  22461089.880   118033858.66508  22461090.440    91974457.92748
  24412769.260   128289936.49908  24412768.700    99966190.93546
  23683107.500   124455527.89408  23683107.280    96978308.95946
 15 03 04 00 01  0.0000000  0  7G16G18G21G22G27G29G31
  21213526.400   111477845.81909  21213523.520    86865861.11848
  22241487.800   116879908.85309  22241485.060    91075281.12646
  21543485.460   113211785.21706  21543481.360    88216967.04645
  23397884.220   122956843.10208  23397881.280    95810572.10346
  22449086.440   117970780.86408  22449087.220    91925306.42248
  24427324.100   128366423.44308  24427323.560   100025791.13346
  23701426.040   124551791.39408  23701425.920    97053319.27246
 15 03 04 00 01 30.0000000  0  7G16G18G21G22G27G29G31
  21202430.520   111419535.11509  21202427.340    86820424.22148
  22231730.020   116828631.43109  22231727.080    91035324.75547
  21552437.900   113258834.80805  21552434.560    88253629.02645
  23380103.500   122863405.69109  23380099.980    95737763.88046
  22437102.800   117907806.45009  22437103.520    91876235.47348
  24441883.020   128442932.09808  24441882.560   100085408.22245
  23719756.040   124648115.54008  23719756.340    97128376.83347
 15 03 04 00 02  0.0000000  0  7G16G18G21G22G27G29G31
  21191404.620   111361594.01109  21191401.560    86775275.29848
  22222044.280   116777731.51709  22222041.400    90995662.52347
  21561445.360   113306157.14306  21561441.480    88290498.55944
  23362342.240   122770069.87408  23362338.580    95665034.82846
  22425141.720   117844949.59709  22425142.040    91827256.14648
  24456448.980   128519476.49008  24456448.400   100145053.16445
  23738099.560   124744510.99908  23738100.660    97203489.96347
 15 03 04 00 02 30.0000000  0  7G16G18G21G22G27G29G31
  21180447.460   111304014.05909  21180444.560    86730407.79748
  22212428.740   116727200.46309  22212425.900    90956287.71647
  21570503.380   113353757.27306  21570499.760    88327589.53046
  23344598.460   122676827.79808  23344595.380    95592378.76746
  22413201.120   117782200.02509  22413201.080    91778360.39048
  24471019.840   128596046.04908  24471018.880   100204717.69745
  23756454.140   124840964.95808  23756455.800    97278648.67546
 15 03 04 00 03  0.0000000  0  7G16G18G21G22G27G29G31
  21169561.540   111246807.33009  21169558.580    86685831.14248
  22202885.460   116677050.02509  22202882.740    90917209.48047
  21579614.700   113401635.14507  21579610.740    88364896.96145
  23326874.980   122583692.13208  23326872.480    95519805.62146
  22401282.600   117719567.75808  22401282.520    91729556.07347
  24485597.180   128672650.32708  24485596.120   100264409.31846
  23774821.020   124937483.98408  23774822.260    97353858.07646
 15 03 04 00 03 30.0000000  0  7G16G18G21G22G27G29G31
  21158745.200   111189967.08509  21158741.980    86641540.06248
  22193412.960   116627273.50608  22193410.560    90878422.59547
  21588776.760   113449779.95307  21588772.280    88402412.41046
  23309171.100   122490656.70609  23309168.380    95447310.62746
  22389384.600   117657044.21608  22389384.580    91680836.44848
  24500179.560   128749280.97308  24500178.560   100324121.46746
  23793198.080   125034056.59608  23793198.380    97429109.23146
 15 03 04 00 04  0.0000000  0  7G16G18G21G22G27G29G31
  21147997.660   111133490.63809  21147994.580    86597532.44948
  22184010.960   116577867.98808  22184008.880    90839924.79247
  21597987.900   113498184.97306  21597983.100    88440130.61046
  23291485.840   122397719.05709  23291482.620    95374891.81746
  22377506.620   117594624.49809  22377506.520    91632197.74348
  24514766.200   128825932.93009  24514764.840   100383850.20546
  23811583.940   125130674.63008  23811583.380    97504395.76946
 15 03 04 00 04 30.0000000  0  7G16G18G21G22G27G29G31
  21137321.760   111077390.85209  21137319.160    86553818.34648
  22174682.220   116528846.36109  22174680.400    90801726.13847
  21607250.140   113546859.87607  21607245.180    88478059.09945
  23273821.440   122304892.87808  23273817.880    95302559.84846
  22365650.540   117532319.84109  22365650.380    91583648.68948
  24529358.880   128902617.05108  24529357.180   100443604.01446
  23829980.220   125227346.39908  23829978.900    97579724.14846
 15 03 04 00 05  0.0000000  0  7G16G18G21G22G27G29G31
  21126718.220   111021669.04409  21126715.820    86510398.76848
  22165426.920   116480209.62309  22165425.100    90763827.39447
  21616563.160   113595801.51607  21616558.400    88516195.43446
  23256178.340   122212180.02408  23256174.780    95230316.18946
  22353816.040   117470129.40208  22353815.900    91535188.65648
  24543957.340   128979332.08208  24543955.440   100503381.92646
  23848386.080   125324067.59708  23848384.000    97655091.02245
 15 03 04 00 05 30.0000000  0  7G16G18G21G22G27G29G31
  21116187.120   110966327.08009  21116184.600    86467275.18848
  22156245.420   116431959.41909  22156243.320    90726229.88347
  21625926.500   113645007.86907  21625922.240    88554538.03246
  23238557.440   122119582.62108  23238554.040    95158162.47947
  22342003.080   117408053.20508  22342003.560    91486817.60248
  24558561.600   129056077.86808  24558559.560   100563183.78246
  23866800.940   125420835.15508  23866798.540    97730494.01746
 15 03 04 00 06  0.0000000  0  6G16G18G21G22G27G31
  21105732.980   110911391.08608  21105730.360    86424467.92148
  22147142.500   116384121.87509  22147139.920    90688953.92847
  21635344.420   113694501.45107  21635340.760    88593104.42746
  23220963.920   122027127.90508  23220960.600    95086119.94747
  22330216.680   117346115.49408  22330217.980    91438554.45048
  23885228.760   125517670.48708  23885226.760    97805949.82346
 15 03 04 00 06 30.0000000  0  6G16G18G21G22G27G31
  21095347.540   110856816.17909  21095344.900    86381942.02548
  22138109.300   116336651.86509  22138106.640    90651964.34147
  21644807.880   113744232.64208  21644804.420    88631856.00646
  23203388.860   121934770.94309  23203386.000    95014153.57547
  22318447.260   117284269.43908  22318449.200    91390362.72348
  23903659.720   125614523.52308  23903658.600    97881419.43946
 15 03 04 00 07  0.0000000  0  6G16G18G21G22G27G31
  21085034.980   110802622.79309  21085032.300    86339713.42348
  22129149.920   116289569.61709  22129147.300    90615276.88247
  21654319.980   113794218.33408  21654316.280    88670805.90146
  23185836.700   121842533.38809  23185834.120    94942280.24447
  22306698.680   117222533.66108  22306700.060    91342256.94247
  23922096.540   125711409.70808  23922096.480    97956914.87546
 15 03 04 00 07 30.0000000  0  7G16G18G19G21G22G27G31
  21074795.280   110748812.23109  21074792.600    86297783.10448
  22120264.560   116242876.08809  22120261.960    90578892.32348
  24530326.040   128907725.20306  24530324.000   100447572.28645
  21663880.380   113844456.82008  21663876.340    88709952.78747
  23168307.440   121750416.77108  23168304.340    94870501.15447
  22294971.540   117160907.33108  22294972.340    91294236.46748
  23940538.560   125808325.09808  23940539.680    98032433.06646
 15 03 04 00 08  0.0000000  0  7G16G18G19G21G22G27G31
  21064613.840   110695309.45409  21064611.320    86256092.61848
  22111438.880   116196496.04109  22111436.280    90542752.05547
  24514886.940   128826589.00606  24514883.800   100384349.35944
  21673473.600   113894868.31508  21673469.040    88749234.47946
  23150786.940   121658346.75509  23150782.700    94798758.40346
  22283251.020   117099313.71009  22283251.400    91246241.46147
  23958971.000   125905189.68708  23958973.100    98107911.64146
 15 03 04 00 08 30.0000000  0  7G16G18G19G21G22G27G31
  21054519.700   110642264.13009  21054517.200    86214758.61248
  22102701.360   116150579.06009  22102698.860    90506972.62047
  24499472.700   128745583.32806  24499467.580   100321228.14444
  21683127.420   113945598.91408  21683122.720    88788764.82746
  23133304.080   121566473.60008  23133299.580    94727169.05546
  22271564.960   117037900.63309  22271564.800    91198387.17147
  23977421.520   126002148.63908  23977424.320    98183463.73145
 15 03 04 00 09  0.0000000  0  7G16G18G19G21G22G27G31
  21044499.760   110589607.52609  21044497.160    86173727.52948
  22094038.720   116105056.02509  22094036.280    90471500.13647
  24484069.960   128664637.39207  24484062.680   100258153.48943
  21692827.900   113996575.76608  21692823.320    88828487.05146
  23115845.720   121474728.85509  23115841.640    94655679.73147
  22259899.520   116976597.39408  22259899.480    91150618.43648
  23995876.140   126099127.73607  23995879.160    98259031.52246
 15 03 04 00 09 30.0000000  0  7G16G18G19G21G22G27G31
  21034557.380   110537359.03709  21034554.860    86133014.42248
  22085454.660   116059946.39109  22085452.000    90436349.76747
  24468681.640   128583768.68107  24468672.700   100195139.06043
  21702578.140   114047815.21007  21702574.140    88868413.87246
  23098415.640   121383133.03209  23098412.000    94584306.43747
  22248258.360   116915421.68409  22248258.420    91102949.07648
  24014337.540   126196141.35508  24014340.100    98334626.18445
 15 03 04 00 10  0.0000000  0  7G16G18G19G21G22G27G31
  21024693.200   110485521.79509  21024690.620    86092621.76148
  22076949.780   116015252.87409  22076946.760    90401523.70947
  24453307.360   128502978.34107  24453298.000   100132185.60444
  21712377.940   114099315.91607  21712374.680    88908544.29747
  23081014.340   121291689.34309  23081010.840    94513051.68347
  22236641.600   116854374.79309  22236641.840    91055380.10148
  24032805.400   126293188.43108  24032807.080    98410246.89545
 15 03 04 00 10 30.0000000  0  7G16G18G19G21G22G27G31
  21014906.100   110434089.58909  21014903.360    86052544.73148
  22068522.800   115970968.83409  22068519.320    90367016.73747
  24437945.900   128422258.21606  24437937.900   100069286.84444
  21722225.700   114151067.93108  21722223.140    88948870.53246
  23063641.120   121200392.56909  23063637.260    94441911.43047
  22225047.640   116793448.65608  22225048.100    91007905.18548
  24051277.360   126390257.29208  24051278.120    98485884.58245
 15 03 04 00 11  0.0000000  0  7G16G18G19G21G22G27G31
  21005195.380   110383059.73109  21005192.760    86012781.22448
  22060173.120   115927091.66609  22060169.760    90332826.77147
  24422596.940   128341603.79807  24422591.820   100006439.26444
  21732120.360   114203064.80507  21732118.200    88989387.59546
  23046295.520   121109241.02509  23046291.660    94370884.34747
  22213475.880   116732638.85409  22213476.080    90960520.93848
  24069751.980   126487340.26508  24069751.840    98561533.25045
 15 03 04 00 11 30.0000000  0  7G16G18G19G21G22G27G31
  20995559.920   110332426.10909  20995557.560    85973326.45148
  22051899.300   115883614.58708  22051896.420    90298948.49747
  24407259.180   128261006.54407  24407256.320    99943636.24044
  21742059.560   114255296.62007  21742057.560    89030087.68446
  23028976.260   121018228.57708  23028972.800    94299965.61247
  22201924.780   116671937.20409  22201924.620    90913220.97748
  24088227.300   126584426.34608  24088226.420    98637184.33145
 15 03 04 00 12  0.0000000  0  7G16G18G19G21G22G27G31
  20986005.240   110282216.17109  20986003.040    85934201.83348
  22043706.960   115840564.90309  22043704.300    90265403.30147
  24391937.180   128180492.04606  24391935.180    99880897.72945
  21752047.760   114307786.74207  21752045.620    89070989.06546
  23011688.880   120927383.56009  23011685.860    94229177.35847
  22190399.120   116611369.60909  22190398.880    90866025.44548
  24106707.620   126681538.26108  24106706.460    98712855.51745
 15 03 04 00 12 30.0000000  0  7G16G18G19G21G22G27G31
  20976527.860   110232411.21009  20976525.420    85895392.77648
  22035592.640   115797923.41509  22035589.680    90232176.22647
  24376626.660   128100039.76005  24376625.660    99818207.64645
  21762081.180   114360512.89007  21762078.560    89112074.36145
  22994430.060   120836687.73809  22994427.140    94158505.36747
  22178895.160   116550915.16909  22178894.400    90818918.12048
  24125188.440   126778651.95508  24125187.380    98788528.08545
 15 03 04 00 13  0.0000000  0  7G16G18G19G21G22G27G31
  20967126.220   110183004.13309  20967123.460    85856893.76648
  22027554.740   115755683.51109  22027551.860    90199262.04447
  24361326.700   128019640.90205  24361326.060    99755559.21645
  21772157.820   114413464.41208  21772154.580    89153335.31645
  22977198.300   120746134.88509  22977194.680    94087944.79746
  22167411.320   116490565.69009  22167409.900    90771892.57648
  24143667.480   126875755.65208  24143666.460    98864192.81545
 15 03 04 00 13 30.0000000  0  7G16G18G19G21G22G27G31
  20957804.380   110134016.71109  20957801.380    85818721.75248
  22019597.240   115713866.33209  22019594.400    90166677.23447
  24346041.000   127939315.13606  24346039.500    99692967.82545
  21782280.780   114466659.32308  21782277.400    89194785.90846
  22959997.900   120655747.56608  22959993.880    94017513.20146
  22155951.100   116430340.97909  22155949.660    90724964.24448
  24162147.940   126972866.63408  24162147.120    98939863.23446
 15 03 04 00 14  0.0000000  0  7G16G18G19G21G22G27G31
  20948558.100   110085426.27509  20948554.940    85780859.08548
  22011715.540   115672448.24709  22011712.900    90134403.39547
  24330764.960   127859037.64807  24330762.020    99630414.02745
  21792444.920   114520070.43108  21792441.480    89236404.93946
  22942824.800   120565503.44909  22942821.180    93947193.15147
  22144509.920   116370216.32309  22144508.440    90678113.90248
  24180624.520   127069956.97208  24180624.040    99015517.55146
 15 03 04 00 14 30.0000000  0  7G16G18G19G21G22G27G31
  20939391.020   110037252.81909  20939387.860    85743321.33748
  22003913.660   115631449.22509  22003911.200    90102456.12647
  24315501.540   127778826.51307  24315498.260    99567911.87244
  21802653.360   114573714.49308  21802649.720    89278205.49946
  22925683.260   120475423.18609  22925679.560    93877000.81247
  22133091.060   116310209.98209  22133089.660    90631355.75348
  24199100.040   127167041.58708  24199100.000    99091167.37446
 15 03 04 00 15  0.0000000  0 15G16G18G19G21G22G27G31R01R02R14R15R16
                                R17R18R24
  20930302.220   109989491.61709  20930299.060    85706104.83148
  21996190.640   115590864.35209  21996188.180    90070831.58247
  24300249.640   127698675.48207  24300246.000    99505456.61145
  21812904.620   114627583.25208  21812900.580    89320181.15946
  22908572.360   120385503.15509  22908568.360    93806933.34347
  22121693.160   116250315.87909  22121692.280    90584685.03748
  24217572.640   127264111.40908  24217573.020    99166805.66146
  22434235.860   119923853.09706                                
  21953166.940   117146338.71008  21953169.600    91113843.19307
  22779857.080   121429393.20906  22779863.340    94445090.09205
  20274351.700   108339989.11208  20274356.480    84264458.77708
  21488046.660   114785288.95908  21488050.320    89277474.36508
  20107154.700   107597465.44209  20107155.020    83686921.58008
  21371630.500   114083300.46609  21371632.980    88731501.89808
  22899947.320   122456287.27004  22899947.980    95243792.38504
 15 03 04 00 15 30.0000000  0 15G16G18G19G21G22G27G31R01R02R14R15R16
                                R17R18R24
  20921294.800   109942157.20809  20921291.480    85669220.87248
  21988549.060   115550708.07209  21988546.520    90039540.99747
  24285011.540   127618596.75807  24285007.780    99443057.61245
  21823200.440   114681687.03708  21823195.960    89362339.95546
  22891494.460   120295758.38908  22891490.360    93737002.41947
  22110319.240   116190546.65809  22110318.840    90538111.65448
  24236044.100   127361175.94808  24236044.680    99242439.78645
  22437194.600   119939668.35707                                
  21937371.660   117062053.80609  21937375.240    91048288.23707
  22805217.560   121564577.73506  22805223.640    94550233.17204
  20287049.820   108407843.05909  20287054.260    84317234.05208
  21475520.820   114718378.27908  21475524.600    89225432.73508
  20111185.820   107619036.04608  20111186.260    83703698.73608
  21362015.080   114031973.45908  21362017.760    88691580.91708
  22914766.500   122535530.35605  22914766.580    95305425.86003
 15 03 04 00 16  0.0000000  0 15G16G18G19G21G22G27G31R01R02R14R15R16
                                R17R18R24
  20912366.540   109895238.49609  20912363.140    85632660.83948
  21980986.700   115510968.57209  21980984.320    90008575.17547
  24269785.040   127538577.65007  24269781.680    99380705.09345
  21833537.840   114736011.17407  21833533.440    89404670.44146
  22874447.620   120206178.06709  22874443.540    93667199.64646
  22098966.840   116130889.66709  22098966.780    90491625.70348
  24254511.380   127458219.33708  24254512.000    99318057.41046
  22440293.080   119956229.39407  22440295.380    93299298.73603
  21921662.840   116978230.15509  21921666.700    90983092.11607
  22830598.240   121699870.42106  22830604.440    94655460.35805
  20299876.800   108476383.92209  20299880.480    84370543.55608
  21463125.280   114652162.68308  21463129.220    89173931.73508
  20115251.440   107640791.86408  20115251.860    83720619.92508
  21352435.240   113980837.40808  21352438.320    88651808.44108
  22929582.840   122614758.35305                                
 15 03 04 00 16 30.0000000  0 15G16G18G19G21G22G27G31R01R02R14R15R16
                                R17R18R24
  20903522.620   109848762.70209  20903519.240    85596445.93848
  21973508.860   115471673.02709  21973506.560    89977955.31547
  24254574.920   127458643.40007  24254571.800    99318418.68545
  21843921.260   114790579.13606  21843917.660    89447190.93146
  22857437.340   120116790.68708  22857433.680    93597547.21147
  22087640.740   116071370.29909  22087640.600    90445247.00848
  24272978.600   127555264.18708  24272979.480    99393676.16246
  22443535.560   119973561.40207  22443538.560    93312779.22803
  21906046.200   116894897.58809  21906050.020    90918277.99207
  22856003.020   121835292.74306  22856010.620    94760788.37505
  20312836.360   108545634.14508  20312839.240    84424404.81808
  21450865.480   114586670.91408  21450869.280    89122993.69808
  20119356.100   107662757.21308  20119356.480    83737704.10208
  21342895.840   113929917.48508  21342899.140    88612204.09208
  22944400.860   122693996.69004                                
 15 03 04 00 17  0.0000000  0 15G16G18G19G21G22G27G31R01R02R14R15R16
                                R17R18R24
  20894758.180   109802704.82609  20894754.840    85560556.66348
  21966110.640   115432795.79109  21966108.440    89947661.38647
  24239376.140   127378767.05308  24239372.260    99256177.46145
  21854345.100   114845362.19506  21854342.940    89489878.97446
  22840459.380   120027571.96909  22840455.880    93528026.19647
  22076335.840   116011961.94708  22076335.480    90398954.81848
  24291440.020   127652280.17708  24291441.560    99469272.40246
  22446916.820   119991636.35607  22446919.600    93326837.56103
  21890517.380   116812032.96709  21890520.920    90853827.77807
  22881426.060   121970812.72906  22881435.340    94866192.37305
  20325922.800   108615563.46008  20325925.460    84478794.26108
  21438736.540   114521878.39508  21438739.880    89072599.51407
  20123494.360   107684903.19408  20123494.880    83754928.76008
  21333391.760   113879185.43508  21333394.960    88572745.85208
  22959215.580   122773217.69305                                
 15 03 04 00 17 30.0000000  0 15G16G18G19G21G22G27G31R01R02R14R15R16
                                R17R18R24
  20886074.400   109757071.34109  20886071.180    85524998.10148
  21958793.240   115394343.15409  21958791.160    89917698.29247
  24224188.980   127298953.28508  24224183.280    99193985.02544
  21864811.040   114900363.35707  21864809.480    89532736.96646
  22823515.040   119938528.82409  22823512.020    93458641.98347
  22065052.540   115952669.35108  22065052.680    90352752.81548
  24309896.300   127749269.33508  24309898.460    99544847.70245
  22450437.840   120010458.86807  22450440.620    93341477.29003
  21875078.120   116729645.12309  21875081.240    90789748.39007
  22906867.580   122106431.07506  22906877.820    94971672.82405
  20339136.240   108686172.39508  20339139.460    84533712.30708
  21426739.660   114457792.48608  21426742.720    89022754.92907
  20127667.360   107707234.18008  20127667.860    83772297.29108
  21323924.020   113828645.36609  21323926.840    88533436.94208
  22974028.100   122852425.54904                                
 15 03 04 00 18  0.0000000  0 14G16G18G19G21G22G27G31R01R02R14R15R16
                                R17R18
  20877473.920   109711875.66009  20877470.660    85489780.69648
  21951559.140   115356327.91509  21951557.060    89888076.03847
  24209014.900   127219213.82907  24209007.680    99131850.45045
  21875320.860   114955592.12907  21875319.160    89575772.35347
  22806606.840   119849675.37909  22806604.380    93389405.57147
  22053793.340   115893504.31508  22053794.120    90306650.18848
  24328349.140   127846239.95008  24328351.680    99620408.51746
  22454100.820   120030040.19407  22454104.080    93356707.20803
  21859731.220   116647749.85609  21859733.980    90726052.12007
  22932329.080   122242154.73906  22932339.280    95077235.16405
  20352478.280   108757469.42508  20352482.200    84589165.52308
  21414877.780   114394427.84608  21414880.340    88973471.33007
  20131877.100   107729760.62708  20131877.560    83789817.83508
  21314494.240   113778308.31208  21314496.600    88494285.90808
 15 03 04 00 18 30.0000000  0 14G16G18G19G21G22G27G31R01R02R14R15R16
                                R17R18
  20868956.560   109667116.52609  20868953.220    85454903.44948
  21944408.080   115318748.61809  21944405.740    89858793.48747
  24193853.600   127139545.17107  24193845.800    99069771.06844
  21885873.200   115011043.37107  21885871.140    89618981.13846
  22789734.440   119761010.91709  22789731.680    93320316.43347
  22042557.980   115834463.80509  22042559.140    90260644.61048
  24346797.500   127943186.44908  24346800.200    99695950.52845
  22457905.040   120050376.28307  22457908.600    93372524.18303
  21844476.780   116566347.86709  21844479.440    90662739.50108
  22957809.300   122377976.38706  22957819.560    95182873.72605
  20365947.940   108829447.59408  20365952.000    84645148.52708
  21403150.880   114331783.86008  21403152.760    88924748.23207
  20136122.560   107752478.12209  20136122.960    83807487.00708
  21305101.840   113728170.10609  21305103.960    88455289.57008
 15 03 04 00 19  0.0000000  0 14G16G18G19G21G22G27G31R01R02R14R15R16
                                R17R18
  20860521.520   109622790.74609  20860518.320    85420363.87248
  21937339.300   115281601.71009  21937336.840    89829847.87546
  24178704.720   127059942.64807  24178697.660    99007743.18544
  21896466.720   115066710.58507  21896464.240    89662358.18546
  22772897.720   119672533.35409  22772894.020    93251372.95746
  22031345.820   115775543.28309  22031347.220    90214732.53548
  24365239.880   128040100.88008  24365242.580    99771467.53146
  22461849.560   120071461.77507  22461853.720    93388924.05204
  21829314.420   116485438.56109  21829317.380    90599810.05108
  22983306.320   122513886.43706  22983316.920    95288580.98305
  20379543.560   108902097.00108  20379547.380    84701653.58808
  21391558.440   114269858.25008  21391559.760    88876583.85307
  20140402.680   107775380.86808  20140402.960    83825300.26208
  21295745.760   113678225.36309  21295748.120    88416443.67508
 15 03 04 00 19 30.0000000  0 15G16G18G19G21G22G27G31R01R02R14R15R16
                                R17R18R24
  20852168.400   109578895.73709  20852165.480    85386159.97948
  21930352.240   115244884.36209  21930349.620    89801236.98746
  24163567.980   126980401.94707  24163562.280    98945763.48245
  21907100.180   115122587.40607  21907097.100    89705898.59245
  22756096.440   119584240.96209  22756092.140    93182573.77947
  22020155.940   115716738.66609  22020156.920    90168910.79348
  24383675.060   128136976.07208  24383677.800    99846953.92445
  22465933.380   120093291.51906  22465938.240    93405902.75804
  21814244.080   116405021.31809  21814247.260    90537263.31507
  23008818.300   122649876.46706  23008828.840    95394350.42305
  20393263.860   108975412.74008  20393267.740    84758676.94308
  21380099.920   114208649.28808  21380101.120    88828976.88607
  20144716.000   107798463.29108  20144716.520    83843253.24508
  21286424.860   113628468.91709  21286427.040    88377744.24208
  23033260.740   123169204.73304                                
 15 03 04 00 20  0.0000000  0 15G16G18G19G21G22G27G31R01R02R14R15R16
                                R17R18R24
  20843898.460   109535437.35609  20843895.640    85352296.31448
  21923447.800   115208601.41609  21923445.160    89772964.59947
  24148444.320   126900926.98208  24148440.040    98883835.02045
  21917773.740   115178675.24508  21917770.300    89749603.42245
  22739331.540   119496140.05609  22739327.160    93113923.80247
  22008988.960   115658054.05609  22008988.860    90123182.58747
  24402103.140   128233812.88108  24402105.760    99922410.37345
  22470157.100   120115868.87006  22470161.680    93423462.92503
  21799267.580   116325104.31709  21799270.560    90475105.71207
  23034345.040   122785945.82806  23034355.200    95500181.55404
  20407108.220   109049392.55208  20407112.180    84816216.77508
  21368776.860   114148163.68408  21368778.500    88781932.53807
  20149063.320   107821728.56808  20149064.300    83861348.42508
  21277139.700   113578904.09409  21277141.560    88339193.86308
  23048064.800   123248367.95603                                
 15 03 04 00 20 30.0000000  0 14G16G18G19G21G22G27G31R01R02R14R15R16
                                R17R18
  20835712.020   109492416.71909  20835709.060    85318773.74548
  21916626.160   115172754.09209  21916623.720    89745031.60948
  24133332.980   126821517.30907  24133329.720    98821957.34646
  21928487.220   115234973.11307  21928483.600    89793471.90546
  22722603.340   119408232.85109  22722599.520    93045424.72647
  21997844.560   115599489.15309  21997843.880    90077547.61848
  24420523.400   128330608.01708  24420525.960    99997834.31746
  22474520.260   120139192.49307                                
  21784385.420   116245691.03609  21784388.360    90413339.87407
  23059885.780   122922089.77306  23059895.180    95606070.67305
  20421076.200   109124033.22808  20421080.140    84874270.60808
  21357589.600   114088403.20508  21357591.740    88735452.15908
  20153444.740   107845174.84908  20153445.960    83879584.40609
  21267890.300   113529529.42409  21267892.420    88300791.36908
 15 03 04 00 21  0.0000000  0 15G16G18G19G21G22G27G31R01R02R14R15R16
                                R17R18R24
  20827613.920   109449859.72809  20827610.720    85285612.45248
  21909892.300   115137367.89209  21909890.060    89717457.95347
  24118237.880   126742196.72907  24118235.840    98760149.08545
  21939244.660   115291502.62507  21939241.020    89837520.90045
  22705916.840   119320545.83909  22705913.480    92977097.22547
  21986727.440   115541068.17509  21986726.840    90032024.79847
  24438939.760   128427382.57208  24438942.300   100073242.22645
  22479027.520   120163286.53607                                
  21769603.020   116166809.72009  21769606.160    90351987.79107
  23085444.400   123058328.27406  23085453.260    95712033.28205
  20435171.320   109199355.02908  20435175.320    84932854.21408
  21346543.180   114029394.87808  21346545.440    88689556.81207
  20157864.680   107868825.72709  20157865.780    83897979.54708
  21258680.860   113480368.81009  21258683.400    88262555.34708
  23077677.320   123406704.94904                                
 15 03 04 00 21 30.0000000  0 15G16G18G19G21G22G27G31R01R02R14R15R16
                                R17R18R24
  20819598.380   109407737.09309  20819595.080    85252789.62648
  21903240.700   115102412.96709  21903238.340    89690220.36148
  24103153.980   126662933.73307  24103152.340    98698385.77645
  21950039.540   115348229.89507  21950035.740    89881723.98644
  22689266.760   119233050.16809  22689263.360    92908918.85047
  21975631.600   115482759.98808  21975631.100    89986589.85848
  24457345.620   128524102.13608  24457348.180   100148607.27845
  22483672.400   120188117.77107  22483676.900    93479662.58403
  21754914.920   116088432.53308  21754918.380    90291027.78007
  23111014.180   123194625.02106  23111023.240    95818041.17705
  20449387.620   109275322.64708  20449391.560    84991940.09908
  21335632.000   113971109.58308  21335634.180    88644223.81507
  20162316.760   107892648.25109  20162317.600    83916508.18708
  21249505.120   113431389.33908  21249506.940    88224460.26107
  23092478.040   123485845.98905                                
 15 03 04 00 22  0.0000000  0 15G16G18G19G21G22G27G31R01R02R14R15R16
                                R17R18R24
  20811667.240   109366058.66109  20811664.020    85220312.92349
  21896673.040   115067898.00509  21896670.400    89663325.62048
  24088082.980   126583736.72007  24088080.800    98636673.91445
  21960873.220   115405162.01107  21960869.520    89926086.67445
  22672655.100   119145756.61209  22672651.900    92840897.95047
  21964558.760   115424573.03508  21964558.300    89941249.39148
  24475742.080   128620772.28408  24475744.540   100223933.76345
  22488456.660   120213693.80207  22488461.620    93499555.01504
  21740323.640   116010571.90708  21740327.140    90230469.54507
  23136595.820   123330983.90706  23136604.800    95924097.38004
  20463725.300   109351939.57508  20463729.700    85051531.06208
  21324857.900   113913557.78908  21324859.900    88599461.33407
  20166802.200   107916649.84208  20166802.860    83935176.09308
  21240364.220   113382598.96908  21240366.640    88186512.18407
  23107276.460   123564974.17704                                
 15 03 04 00 22 30.0000000  0 14G16G18G19G21G22G27G31R01R02R14R15R16
                                R17R18
  20803819.760   109324820.37909  20803816.640    85188179.20148
  21890188.540   115033819.74909  21890185.560    89636771.18447
  24073023.860   126504600.53707  24073021.540    98575009.41545
  21971744.680   115462292.10806  21971740.940    89970603.61444
  22656081.400   119058662.27909  22656078.620    92773032.28447
  21953508.280   115366502.27909  21953508.060    89895999.45748
  24494127.680   128717384.81508  24494129.880   100299215.31745
  22493379.300   120240008.48607  22493384.300    93520022.02304
  21725828.980   115933226.09909  21725832.500    90170311.70607
  23162187.280   123467395.37906  23162195.600    96030194.43104
  20478183.000   109429197.31209  20478187.100    85111620.35908
  21314220.460   113856736.67608  21314222.300    88555267.15107
  20171319.580   107940824.01808  20171320.500    83953978.20008
  21231257.880   113333991.38409  21231261.320    88148706.30408
 15 03 04 00 23  0.0000000  0 14G16G18G19G21G22G27G31R01R02R14R15R16
                                R17R18
  20796058.620   109284035.76809  20796055.500    85156398.98548
  21883789.400   115000190.88209  21883786.280    89610566.88547
  24057978.860   126425536.36008  24057976.560    98513401.02545
  21982655.400   115519628.59207  21982651.220    90015281.44843
  22639548.600   118971781.15809  22639545.560    92705332.75847
  21942482.540   115308559.34309  21942482.320    89850849.15148
  24512504.020   128813948.28308  24512506.040   100374458.62245
  22498442.100   120267072.35606  22498446.520    93541071.71204
  21711433.720   115856410.75409  21711437.020    90110566.47708
  23187789.580   123603866.92706  23187797.600    96136338.17005
  20492762.460   109507104.29408  20492766.060    85172214.60508
  21303722.660   113800660.41508  21303724.620    88511652.28008
  20175871.080   107965181.36208  20175872.180    83972922.81008
  21222188.320   113285577.65509  21222192.080    88111051.20408
 15 03 04 00 23 30.0000000  0 14G16G18G19G21G22G27G31R01R02R14R15R16
                                R17R18
  20788383.940   109243705.51709  20788380.720    85124972.81748
  21877475.440   114967011.16109  21877472.380    89584712.55948
  24042947.560   126346543.45308  24042944.400    98451848.16145
  21993605.120   115577169.41406  21993601.220    90060118.40041
  22623056.740   118885114.70609  22623052.640    92637800.53447
  21931480.660   115250743.51909  21931480.500    89805797.86848
  24530870.300   128910458.78908  24530872.320   100449660.63545
  22503644.980   120294883.67806  22503649.020    93562702.77804
  21697138.620   115780128.75809  21697141.760    90051236.10008
  23213401.660   123740392.87005  23213410.180    96242524.20405
  20507462.260   109585654.59808  20507465.960    85233309.26608
  21293364.640   113745330.13208  21293366.760    88468617.64507
  20180456.500   107989719.96208  20180457.740    83992008.39408
  21213155.120   113237355.88209  21213159.040    88073545.40608
 15 03 04 00 24  0.0000000  0 14G16G18G19G21G22G27G31R01R02R14R15R16
                                R17R18
  20780796.100   109203831.41709  20780792.940    85093902.09448
  21871247.280   114934282.44809  21871244.240    89559209.66748
  24027929.600   126267622.01408  24027925.640    98390350.96946
  22004593.300   115634913.11807  22004589.500    90105113.49641
  22606606.040   118798665.84108  22606601.220    92570437.86047
  21920502.900   115193055.33709  21920502.620    89760846.03348
  24549225.940   129006913.50108  24549228.100   100524819.15245
  22508987.640   120323441.35006  22508991.520    93584914.35204
  21682944.400   115704384.37509  21682947.480    89992323.83208
  23239023.200   123876969.18206  23239031.900    96348749.37204
  20522281.740   109664844.35608  20522285.260    85294901.26708
  21283147.020   113690748.74108  21283148.900    88426165.42807
  20185075.700   108014438.98408  20185077.140    84011234.29608
  21204157.860   113189325.57809  21204161.780    88036188.56208
 15 03 04 00 24 30.0000000  0 14G16G18G19G21G22G27G31R01R02R14R15R16
                                R17R18
  20773294.640   109164411.26209  20773291.620    85063185.09048
  21865104.480   114902001.71909  21865101.200    89534055.89147
  24012924.140   126188767.51608  24012919.980    98328905.94945
  22015618.820   115692853.05006  22015616.080    90150261.38743
  22590196.120   118712433.03208  22590191.720    92503243.51047
  21909548.820   115135490.74909  21909547.960    89715990.54748
  24567569.560   129103305.39008  24567571.960   100599928.68845
  22514469.000   120352740.53506  22514472.500    93607702.66304
  21668850.860   115629176.89109  21668853.640    89933829.16808
  23264652.860   124013587.37306  23264661.980    96455007.02405
  20537219.280   109744665.70908  20537222.420    85356984.50208
  21273069.200   113636913.89708  21273070.980    88384293.89207
  20189727.980   108039333.34509  20189729.280    84030596.56008
  21195195.140   113141481.84709  21195199.020    87998976.76308
 15 03 04 00 25  0.0000000  0 14G16G18G19G21G22G27G31R01R02R14R15R16
                                R17R18
  20765881.940   109125456.69309  20765878.840    85032830.88148
  21859049.080   114870180.54009  21859045.860    89509260.21747
  23997932.960   126109990.49307  23997929.360    98267521.31146
  22026683.000   115750998.17106  22026680.940    90195569.26044
  22573829.700   118626428.63509  22573825.980    92436227.13647
  21898620.020   115078060.35309  21898618.980    89671239.61948
  24585902.680   129199642.10608  24585905.240   100674995.23645
  22520090.600   120382790.04306  22520094.240    93631074.57604
  21654860.580   115554520.77409  21654863.120    89875763.35907
  23290291.640   124150253.29705  23290301.740    96561301.83005
  20552276.080   109825125.47208  20552279.580    85419564.32108
  21263133.580   113583838.50108  21263135.540    88343013.02208
  20194414.880   108064412.42809  20194415.600    84050102.51708
  21186269.320   113093834.22909  21186272.900    87961917.56108
 15 03 04 00 25 30.0000000  0 15G16G18G19G21G22G27G31R01R02R14R15R16
                                R17R18R24
  20758557.280   109086964.15209  20758553.920    85002836.68948
  21853080.080   114838814.38409  21853077.220    89484819.05448
  23982955.140   126031285.03908  23982952.220    98206192.43446
  22037784.940   115809340.67806  22037783.520    90241030.91943
  22557506.580   118540649.84809  22557503.220    92369386.58248
  21887715.680   115020758.70209  21887714.680    89626589.00348
  24604223.620   129295915.22208  24604226.440   100750012.20546
  22525850.700   120413583.10506  22525854.660    93655024.76604
  21640973.000   115480414.00809  21640975.620    89818124.81107
  23315937.780   124286957.08705  23315948.700    96667626.02205
  20567450.480   109906214.14408  20567454.500    85482633.26808
  21253339.300   113531518.93008  21253341.400    88302320.04307
  20199134.960   108089669.54709  20199135.120    84069746.96208
  21177378.740   113046376.54109  21177382.160    87925006.01207
  23210795.900   124118557.49705                                
 15 03 04 00 26  0.0000000  0 15G16G18G19G21G22G27G31R01R02R14R15R16
                                R17R18R24
  20751319.060   109048926.16409  20751315.500    84973196.69648
  21847196.100   114807895.58709  21847193.740    89460726.47348
  23967989.740   125952642.85208  23967987.380    98144912.83545
  22048922.820   115867870.45106  22048921.360    90286638.55345
  22541225.280   118455090.68209  22541222.060    92302717.14647
  21876834.260   114963577.47908  21876832.940    89582032.23248
  24622530.140   129392112.87708  24622533.540   100824970.34945
  22531748.240   120445109.93406  22531751.880    93679545.62303
  21627187.200   115406851.78609  21627190.120    89760909.75407
  23341588.340   124423685.62605  23341599.980    96773969.42705
  20582740.060   109987918.39708  20582744.440    85546181.00008
  21243685.320   113479948.66008  21243686.940    88262209.81007
  20203886.280   108115094.92009  20203886.400    84089522.26008
  21168521.860   112999099.04409  21168524.860    87888234.66208
  23225576.940   124197599.22104                                
 15 03 04 00 26 30.0000000  0 15G16G18G19G21G22G27G31R01R02R14R15R16
                                R17R18R24
  20744168.580   109011349.75509  20744164.980    84943916.39148
  21841398.620   114777430.94609  21841396.760    89436987.78748
  23953037.720   125874069.36008  23953035.300    98083686.75946
  22060096.840   115926590.14907  22060094.820    90332394.16644
  22524987.060   118369758.66409  22524983.880    92236224.69647
  21865976.700   114906522.29008  21865975.700    89537573.66848
  24640822.780   129488237.66508  24640826.920   100899871.70345
  22537784.080   120477374.58706  22537787.300    93704640.32203
  21613505.220   115333843.05109  21613508.200    89704125.20007
  23367243.780   124560440.28806  23367256.060    96880333.11705
  20598145.320   110070239.48708  20598149.540    85610208.47608
  21234173.020   113429135.18308  21234174.520    88222688.22908
  20208669.820   108140693.10908  20208670.160    84109431.95908
  21159699.820   112952006.36809  21159702.340    87851607.05508
  23240354.920   124276627.81203                                
 15 03 04 00 27  0.0000000  0 14G16G18G19G21G22G27G31R01R02R14R15R16
                                R17R18
  20737106.620   108974238.55709  20737103.000    84914998.57549
  21835688.260   114747423.11409  21835686.460    89413605.08848
  23938099.360   125795565.83808  23938095.720    98022515.23945
  22071306.920   115985500.50807  22071304.620    90378298.33245
  22508793.180   118284658.00509  22508789.580    92169912.56047
  21855143.600   114849595.01609  21855143.420    89493214.76648
  24659101.260   129584288.64108  24659106.260   100974715.55845
  22543958.020   120510377.79207  22543960.720    93730309.51904
  21599928.080   115261393.23309  21599931.160    89647775.40608
  23392903.540   124697217.91905  23392915.900    96986714.60604
  20613665.720   110153175.33108  20613669.960    85674714.08908
  21224803.180   113379082.34608  21224804.540    88183758.25408
  20213485.800   108166464.85909  20213486.300    84129476.65308
  21150912.820   112905099.67409  21150914.660    87815124.11608
 15 03 04 00 27 30.0000000  0 14G16G18G19G21G22G27G31R01R02R14R15R16
                                R17R18
  20730133.340   108937594.01809  20730129.800    84886444.39348
  21830064.960   114717872.78609  21830063.040    89390578.89147
  23923174.440   125717132.43908  23923169.540    97961398.37546
  22082552.860   116044599.89507  22082550.180    90424349.79844
  22492643.840   118199791.49709  22492639.780    92103782.88147
  21844335.300   114792796.11209  21844335.360    89448955.90248
  24677365.060   129680262.87308  24677370.860   101049499.61345
  22550269.620   120544118.18307  22550272.740    93756552.04705
  21586456.540   115189506.43909  21586459.860    89591863.51808
  23418566.740   124834015.11005  23418578.940    97093111.29004
  20629300.300   110236721.85008  20629304.980    85739694.70908
  21215575.980   113329792.18308  21215577.440    88145421.46608
  20218334.240   108192409.37809  20218334.680    84149655.72108
  21142160.460   112858378.23709  21142162.440    87778785.25008
 15 03 04 00 28  0.0000000  0 14G16G18G19G21G22G27G31R01R02R14R15R16
                                R17R18
  20723249.560   108901420.35909  20723246.120    84858257.11748
  21824529.640   114688784.34609  21824527.620    89367912.61347
  23908262.800   125638771.85907  23908257.880    97900338.25945
  22093835.020   116103888.37507  22093832.180    90470548.63844
  22476539.780   118115163.73909  22476535.660    92037839.23447
  21833551.900   114736128.34509  21833551.960    89404799.18848
  24695614.140   129776160.19108  24695620.680   101124223.73445
  22556719.380   120578596.84107  22556723.100    93783368.79405
  21573091.800   115118188.80109  21573095.360    89536394.27308
  23444233.560   124970829.82605  23444246.260    97199521.56804
  20645048.740   110320877.17708  20645053.260    85805148.81108
  21206492.180   113281269.50808  21206494.000    88107681.63508
  20223215.180   108218528.33508  20223215.840    84169970.48008
  21133443.180   112811844.02509  21133445.640    87742591.98408
 15 03 04 00 28 30.0000000  0 13G16G18G19G21G22G27R01R02R14R15R16R17
                                R18
  20716454.160   108865711.22309  20716450.900    84830431.81548
  21819080.920   114660150.61409  21819078.780    89345600.62447
  23893363.180   125560476.07408  23893358.700    97839328.60545
  22105151.460   116163356.00606  22105148.500    90516887.05044
  22460479.880   118030769.35609  22460476.160    91972077.42147
  21822792.120   114679583.82209  21822791.980    89360738.53148
  22563305.540   120613804.11407  22563309.520    93810752.20304
  21559832.780   115047435.54909  21559836.260    89481363.98408
  23469901.680   125107649.38505  23469914.140    97305935.56804
  20660909.140   110405629.21308  20660913.260    85871067.00708
  21197550.720   113233507.93308  21197552.780    88070533.73908
  20228126.920   108244812.54008  20228127.980    84190413.75308
  21124759.140   112765487.78709  21124761.840    87706537.15908
 15 03 04 00 29  0.0000000  0 13G16G18G19G21G22G27R01R02R14R15R16R17
                                R18
  20709750.020   108830481.51609  20709746.900    84802980.09948
  21813721.500   114631986.16209  21813719.280    89323654.31048
  23878478.400   125482258.50508  23878473.920    97778379.87146
  22116504.280   116223014.48506  22116500.840    90563374.20944
  22444467.320   117946624.22309  22444463.820    91906509.83147
  21812058.440   114623176.56609  21812058.060    89316784.83348
  22570030.420   120649752.64407  22570034.600    93838712.18804
  21546682.860   114977264.53809  21546685.960    89426786.54607
  23495572.660   125244483.40505  23495584.380    97412360.75804
  20676882.840   110490987.01908  20676887.140    85937456.38608
  21188754.660   113186523.06108  21188757.040    88033989.96808
  20233072.000   108271275.01308  20233073.160    84210995.69108
  21116110.900   112719322.93509  21116113.660    87670631.17508
 15 03 04 00 29 30.0000000  0 15G16G18G19G21G22G27R01R02R03R14R15R16
                                R17R18R24
  20703135.920   108795725.06809  20703132.860    84775897.16149
  21808450.060   114604283.99309  21808447.640    89302068.23147
  23863607.260   125404111.54808  23863602.820    97717486.19746
  22127891.580   116282854.64605  22127887.940    90610002.89845
  22428501.240   117862723.20109  22428497.680    91841132.46948
  21801349.400   114566899.02209  21801348.460    89272932.25748
  22576892.340   120686433.12507  22576896.340    93867241.50904
  21533641.060   114907671.33009  21533643.840    89372658.55607
  23582969.040   126241478.49007  23582975.140    98187837.00307
  23521244.260   125381319.99206  23521255.980    97518787.90405
  20692967.600   110576939.07808  20692971.980    86004307.95608
  21180102.860   113140309.24408  21180105.800    87998045.92608
  20238048.720   108297906.91508  20238049.800    84231709.39508
  21107496.800   112673340.84408  21107500.140    87634867.34408
  23328982.000   124750553.41304  23328986.280    97028230.86703
 15 03 04 00 30  0.0000000  0 15G16G18G19G21G22G27R01R02R03R14R15R16
                                R17R18R24
  20696610.760   108761436.33209  20696607.860    84749178.65749
  21803265.440   114577038.56809  21803262.740    89280838.06747
  23848748.580   125326028.38708  23848744.660    97656642.21246
  22139312.000   116342867.75005  22139308.200    90656766.39844
  22412580.960   117779062.19109  22412577.360    91775942.11647
  21790663.660   114510744.79309  21790662.420    89229175.72348
  22583889.640   120723836.96007  22583893.780    93896333.39303
  21520706.860   114838652.46809  21520709.600    89318977.27007
  23559932.140   126118162.89107  23559937.660    98091925.49506
  23546914.000   125518147.90905  23546926.320    97625208.32204
  20709161.480   110663474.47108  20709165.640    86071613.23308
  21171594.920   113094861.46508  21171598.200    87962697.66107
  20243055.660   108324700.25208  20243056.540    84252548.64208
  21098915.100   112627533.82409  21098919.200    87599239.61608
  23343744.300   124829495.38904                                
 15 03 04 00 30 30.0000000  0 13G16G18G19G22G27R01R02R03R15R16R17R18
                                R24
  20690179.060   108727639.10809  20690176.420    84722843.16048
  21798171.780   114550272.50209  21798169.080    89259981.40047
  23833906.300   125248030.62608  23833902.820    97595864.77346
  22396710.840   117695665.02509  22396707.480    91710957.33847
  21780005.480   114454735.65309  21780004.580    89185532.25648
  22591026.200   120761984.62408  22591029.820    93926003.81904
  21507885.180   114770233.78009  21507887.960    89265762.76007
  23536892.960   125994839.57306  23536899.240    97996007.94107
  20725467.760   110750610.13808  20725471.740    86139385.37308
  21163235.100   113050203.13808  21163238.080    87927963.37607
  20248096.820   108351676.49108  20248097.580    84273530.16608
  21090370.560   112581922.90009  21090374.220    87563764.53208
  23358506.660   124908439.32704  23358508.120                  
 15 03 04 00 31  0.0000000  0 14G16G18G19G21G22G27R01R02R03R15R16R17
                                R18R24
  20683833.040   108694291.90309  20683830.580    84696858.32348
  21793161.540   114523944.10709  21793158.960    89239465.78247
  23819072.060   125170075.75808  23819068.800    97535120.72246
  22162256.520   116463456.92505  22162251.180    90750722.53244
  22380883.320   117612491.49509  22380880.040    91646146.83547
  21769366.880   114398829.43809  21769366.160    89141968.98148
  22598293.480   120800831.46808  22598296.860    93956217.99004
  21495168.540   114702375.57909  21495171.220    89212984.19907
  23513845.080   125871469.00306  23513852.580    97900053.58406
  20741877.640   110838299.17408  20741881.840    86207587.94208
  21155015.520   113006293.23408  21155017.620    87893811.21607
  20253164.020   108378791.36108  20253164.640    84294619.51708
  21081854.680   112536464.31409  21081857.460    87528407.90608
  23373261.900   124987342.13104  23373263.660    97212379.80202
 15 03 04 00 31 30.0000000  0 13G16G18G19G21G22G27R01R02R03R15R16R17
                                R18
  20677583.020   108661448.26309  20677580.720    84671265.88248
  21788244.660   114498105.65709  21788242.140    89219331.93548
  23804255.880   125092215.15608  23804253.040    97474450.14447
  22173778.360   116524009.36905  22173773.280    90797906.26744
  22365108.880   117529595.80909  22365105.460    91581552.85347
  21758757.660   114343077.90209  21758756.620    89098526.24048
  22605701.000   120840427.76108  22605704.400    93987015.11304
  21482567.340   114635133.55409  21482570.120    89160684.86808
  23490799.700   125748107.63507  23490806.560    97804106.37606
  20758400.260   110926589.64308  20758404.820    86276258.27908
  21146946.000   112963185.56808  21146947.240    87860283.02107
  20258266.960   108406096.31608  20258267.200    84315856.67908
  21073376.940   112491209.58609  21073379.660    87493209.80108
 15 03 04 00 32  0.0000000  0 13G16G18G19G21G22G27R01R02R03R15R16R17
                                R18
  20671425.180   108629088.38509  20671423.000    84646050.40749
  21783417.300   114472737.11809  21783414.780    89199564.25547
  23789453.860   125014428.49708  23789451.420    97413837.21246
  22185334.020   116584737.34405  22185329.380    90845226.83343
  22349383.920   117446959.55109  22349380.260    91517161.00547
  21748174.000   114287460.55909  21748172.980    89055188.08248
  22613244.320   120880751.03908  22613247.420    94018377.64305
  21470078.200   114568490.22709  21470081.100    89108851.20108
  23467753.360   125624737.93207  23467758.260    97708152.73105
  20775030.720   111015456.08508  20775034.740    86345376.59008
  21139022.640   112920860.83608  21139023.620    87827363.76907
  20263401.060   108433569.40508  20263401.200    84337224.61508
  21064933.520   112446137.09209  21064935.940    87458153.46608
 15 03 04 00 32 30.0000000  0 14G16G18G19G21G22G27R01R02R03R15R16R17
                                R18R24
  20665360.560   108597217.54309  20665358.360    84621215.99149
  21778680.380   114447843.99909  21778677.720    89180167.04847
  23774666.460   124936719.16908  23774663.260    97353284.56445
  22196923.400   116645642.27005  22196919.320    90892685.24344
  22333709.540   117364588.80909  22333705.620    91452976.08347
  21737616.560   114231981.74109  21737615.940    89011957.84248
  22620923.860   120921803.51408  22620927.060    94050307.35305
  21457702.800   114502452.81209  21457705.540    89057488.77108
  23444706.840   125501368.12207  23444710.040    97612198.97905
  20791768.700   111104898.21608  20791772.280    86414942.67008
  21131246.600   112879324.61608  21131247.840    87795057.83607
  20268566.920   108461213.70708  20268567.160    84358725.75708
  21056524.560   112401249.78609  21056526.860    87423241.17708
  23417531.580   125224061.71304  23417530.840    97396492.60802
 15 03 04 00 33  0.0000000  0 14G16G18G19G21G22G27R01R02R03R15R16R17
                                R18R24
  20659389.500   108565837.91609  20659387.320    84596764.34649
  21774034.200   114423427.53909  21774031.140    89161141.27347
  23759893.640   124859087.91708  23759889.300    97292792.71745
  22208546.640   116706723.48605  22208542.740    90940280.99643
  22318086.120   117282486.81809  22318082.400    91389000.56448
  21727085.560   114176642.19509  21727085.020    88968836.13248
  22628739.300   120963583.83407  22628743.300    94082803.19505
  21445441.860   114437025.61009  21445444.240    89006600.96408
  23421660.760   125378002.57007  23421664.080    97516248.48806
  20808613.240   111194911.41308  20808617.160    86484952.95908
  21123618.580   112838579.06808  21123620.480    87763366.86708
  20273764.660   108489028.95308  20273765.200    84380359.85608
  21048150.240   112356547.75109  21048152.900    87388472.95508
  23432282.340   125302951.80003  23432284.920    97457851.64703
 15 03 04 00 33 30.0000000  0 14G16G18G19G21G22G27R01R02R03R15R16R17
                                R18R24
  20653511.340   108534946.11909  20653508.960    84572692.80849
  21769477.760   114399483.57409  21769474.700    89142483.65547
  23745134.580   124781530.00508  23745129.440    97232358.04145
