     2.11           OBSERVATION DATA    M                   RINEX VERSION / TYPE
SPIDER V4,0,0,3554                      2015 03 24 02:09    PGM / RUN BY / DATE 
CFKZ                                                        MARKER NAME         
CFKZ                                                        MARKER NUMBER       
                                                            OBSERVER / AGENCY   
496632              LEICA GRX1200+GNSS  8.10/4.007          REC # / TYPE / VERS 
10301036            LEIAR25         NONE                    ANT # / TYPE        
  5212138.8290   540257.5452  3624418.8863                  APPROX POSITION XYZ 
        0.0720        0.0000        0.0000                  ANTENNA: DELTA H/E/N
     1     1                                                WAVELENGTH FACT L1/2
     4    C1    L1    P2    L2                              # / TYPES OF OBSERV 
    30.000                                                  INTERVAL            
  2015    03    04    00    00    0.0000000     GPS         TIME OF FIRST OBS   
  2015    03    04    23    59   30.0000000     GPS         TIME OF LAST OBS    
    16                                                      LEAP SECONDS        
    54                                                      # OF SATELLITES     
   G 1   820   820   820   820                              PRN / # OF OBS      
   G 2   940   940   940   940                              PRN / # OF OBS      
   G 3   855   854   854   854                              PRN / # OF OBS      
   G 4   844   844   844   844                              PRN / # OF OBS      
   G 5   642   641   641   641                              PRN / # OF OBS      
   G 6   805   805   805   805                              PRN / # OF OBS      
   G 7   669   669   669   669                              PRN / # OF OBS      
   G 9   808   808   808   808                              PRN / # OF OBS      
   G10   736   736   735   735                              PRN / # OF OBS      
   G11   782   782   782   782                              PRN / # OF OBS      
   G12   835   835   834   834                              PRN / # OF OBS      
   G13   785   785   785   785                              PRN / # OF OBS      
   G14   939   938   938   938                              PRN / # OF OBS      
   G15   683   683   683   683                              PRN / # OF OBS      
   G16   673   673   673   673                              PRN / # OF OBS      
   G17   936   936   936   936                              PRN / # OF OBS      
   G18   913   913   913   913                              PRN / # OF OBS      
   G19   762   761   761   761                              PRN / # OF OBS      
   G20   748   748   748   748                              PRN / # OF OBS      
   G21   719   718   717   717                              PRN / # OF OBS      
   G22   662   662   662   662                              PRN / # OF OBS      
   G23   752   752   751   751                              PRN / # OF OBS      
   G24   831   831   831   831                              PRN / # OF OBS      
   G25   859   859   859   859                              PRN / # OF OBS      
   G27   815   815   815   815                              PRN / # OF OBS      
   G28   858   858   857   857                              PRN / # OF OBS      
   G29   760   760   760   760                              PRN / # OF OBS      
   G30   716   716   716   716                              PRN / # OF OBS      
   G31   851   851   851   851                              PRN / # OF OBS      
   G32   766   766   766   766                              PRN / # OF OBS      
   R 1   678   678   675   675                              PRN / # OF OBS      
   R 2   967   967   967   967                              PRN / # OF OBS      
   R 3   982   982   982   977                              PRN / # OF OBS      
   R 4   839   839   839   836                              PRN / # OF OBS      
   R 5   685   685   684   684                              PRN / # OF OBS      
   R 6   779   779   779   779                              PRN / # OF OBS      
   R 7   753   753   753   753                              PRN / # OF OBS      
   R 8   659   659   659   658                              PRN / # OF OBS      
   R 9   856   856   846   840                              PRN / # OF OBS      
   R10   583   583   583   583                              PRN / # OF OBS      
   R11   677   677   677   675                              PRN / # OF OBS      
   R12   775   775   775   774                              PRN / # OF OBS      
   R13   768   768   768   768                              PRN / # OF OBS      
   R14   700   699   692   689                              PRN / # OF OBS      
   R15   984   984   984   981                              PRN / # OF OBS      
   R16  1008  1008  1008  1008                              PRN / # OF OBS      
   R17   945   945   944   944                              PRN / # OF OBS      
   R18  1000  1000   997   996                              PRN / # OF OBS      
   R19   790   790   790   790                              PRN / # OF OBS      
   R20   581   581   581   581                              PRN / # OF OBS      
   R21   774   774   774   774                              PRN / # OF OBS      
   R22   822   822   822   819                              PRN / # OF OBS      
   R23   768   768   765   763                              PRN / # OF OBS      
   R24   625   625   625   625                              PRN / # OF OBS      
BIT 2 OF LLI FLAGS DATA COLLECTED UNDER A/S CONDITION       COMMENT             
SNR is mapped to RINEX snr flag value [2-9]                 COMMENT             
Lx:     = 25dBHz -> 1; 26-27dBHz -> 2; 28-31dBHz -> 3       COMMENT             
       32-35dBHz -> 4; 36-38dBHz -> 5; 39-41dBHz -> 6       COMMENT             
       42-44dBHz -> 7; 45-48dBHz -> 8; >=49dBHz -> 9        COMMENT             
                                                            END OF HEADER       
 15 03 04 00 00  0.0000000  0  7G16G18G21G22G27G29G31
  21364796.820   112272781.31109  21364793.560    87485286.53248
  22117733.140   116229644.46909  22117730.260    90568617.41947
  21571935.920   113361297.20609  21571932.560    88333469.53848
  23226575.000   122056585.56308  23226573.040    95109077.11847
  22601961.980   118774169.93209  22601961.920    92551325.43047
  24361254.440   128019232.06508  24361252.940    99755235.23545
  23509535.300   123543388.99909  23509534.620    96267549.69646
 15 03 04 00 00 30.0000000  0  7G16G18G21G22G27G29G31
  21352877.360   112210144.00009  21352874.080    87436478.24248
  22108554.020   116181408.19609  22108551.160    90531030.74447
  21581203.840   113410000.77508  21581200.560    88371420.36948
  23209040.980   121964444.73008  23209038.900    95037279.29546
  22590207.900   118712401.87009  22590207.840    92503194.50747
  24375140.520   128092204.03208  24375138.720    99812096.48145
  23527358.420   123637048.54209  23527357.720    96340530.89247
 15 03 04 00 01  0.0000000  0  7G16G18G21G22G27G29G31
  21341022.340   112147845.31509  21341019.000    87387933.82248
  22099447.260   116133551.95709  22099444.440    90493740.19347
  21590520.920   113458962.18709  21590517.580    88409572.12148
  23191527.560   121872412.31908  23191525.380    94965565.92347
  22578471.120   118650724.59809  22578470.980    92455134.34147
  24389032.160   128165204.90108  24389030.160    99868980.25746
  23545197.480   123730792.02409  23545196.860    96413577.47447
 15 03 04 00 01 30.0000000  0  7G16G18G21G22G27G29G31
  21329232.520   112085889.49009  21329229.200    87339656.55848
  22090413.660   116086079.96609  22090410.860    90456749.05947
  21599887.180   113508182.05008  21599883.780    88447925.25548
  23174035.720   121780493.26508  23174033.460    94893940.88847
  22566752.080   118589140.70909  22566751.940    92407146.91948
  24402929.680   128238237.58608  24402928.060    99925888.79046
  23563052.360   123824618.81908  23563051.820    96486688.99547
 15 03 04 00 02  0.0000000  0  7G16G18G21G22G27G29G31
  21317507.620   112024274.81409  21317504.280    87291645.13048
  22081452.780   116038990.27909  22081450.060    90420055.81947
  21609301.460   113557654.56209  21609298.040    88486475.26448
  23156565.180   121688686.28409  23156562.980    94822403.19446
  22555050.000   118527646.14509  22555049.940    92359229.10947
  24416832.580   128311298.00008  24416831.160    99982818.95046
  23580921.660   123918521.59209  23580921.340    96559859.68547
 15 03 04 00 02 30.0000000  0  7G16G18G21G22G27G29G31
  21305848.780   111963007.69309  21305845.500    87243904.52948
  22072565.740   115992288.85509  22072563.060    90383665.12647
  21618764.220   113607381.54708  21618760.760    88525223.55448
  23139117.380   121596998.20908  23139115.100    94750958.12547
  22543365.740   118466245.22809  22543365.760    92311384.27048
  24430741.320   128384390.45407  24430740.360   100039774.05745
  23598805.700   124012502.11008  23598805.580    96633090.94347
 15 03 04 00 03  0.0000000  0  7G16G18G21G22G27G29G31
  21294256.140   111902088.49509  21294252.880    87196435.03048
  22063752.560   115945975.62609  22063749.900    90347576.92247
  21628274.980   113657360.08709  21628271.340    88564167.87548
  23121692.380   121505430.01008  23121690.020    94679606.47647
  22531698.980   118404936.21609  22531699.100    92263611.00848
  24444655.780   128457512.89908  24444655.280   100096752.56546
  23616703.520   124106555.21108  23616703.720    96706378.76247
 15 03 04 00 03 30.0000000  0  7G16G18G21G22G27G29G31
  21282729.100   111841513.94309  21282725.860    87149234.08248
  22055012.640   115900047.09109  22055009.960    90311788.47047
  21637832.200   113707582.67409  21637828.380    88603302.35848
  23104289.620   121413978.93408  23104287.360    94608346.07047
  22520048.720   118343713.73109  22520048.840    92215905.19648
  24458575.500   128530660.35708  24458574.740   100153750.54646
  23634613.580   124200672.74908  23634614.040    96779716.76447
 15 03 04 00 04  0.0000000  0  7G16G18G21G22G27G29G31
  21271269.540   111781293.69609  21271266.280    87102309.22348
  22046347.740   115854512.61609  22046345.000    90276307.08947
  21647436.840   113758054.90909  21647432.940    88642631.37048
  23086911.040   121322654.80008  23086908.880    94537184.59147
  22508416.320   118282585.15908  22508416.460    92168272.58748
  24472501.260   128603840.23107  24472500.260   100210773.82245
  23652536.660   124294858.83408  23652537.380    96853108.17646
 15 03 04 00 04 30.0000000  0  7G16G18G21G22G27G29G31
  21259877.260   111721426.88609  21259873.940    87055659.76748
  22037757.600   115809371.14909  22037754.920    90241131.94547
  21657088.160   113808772.44409  21657084.180    88682151.52648
  23069556.600   121231457.44008  23069554.520    94466121.87347
  22496801.300   118221547.84109  22496801.340    92120711.08548
  24486432.780   128677049.64908  24486431.660   100267820.06046
  23670471.820   124389107.87208  23670472.680    96926548.62046
 15 03 04 00 05  0.0000000  0  7G16G18G21G22G27G29G31
  21248552.200   111661913.15009  21248548.820    87009285.43148
  22029242.060   115764621.79209  22029239.420    90206262.33947
  21666785.180   113859730.44709  21666781.140    88721859.05448
  23052226.360   121140386.95809  23052224.260    94395158.03947
  22485203.120   118160599.07709  22485203.120    92073218.55148
  24500369.520   128750285.70408  24500368.060   100324887.10845
  23688417.900   124483413.78208  23688418.760    97000033.38246
 15 03 04 00 05 30.0000000  0  7G16G18G21G22G27G29G31
  21237296.540   111602764.18409  21237293.200    86963195.33648
  22020803.300   115720275.89909  22020800.640    90171707.12247
  21676529.380   113910936.57408  21676525.380    88761759.92648
  23034922.540   121049455.25609  23034920.360    94324302.33447
  22473623.640   118099748.51509  22473623.580    92025802.53248
  24514312.780   128823558.10108  24514310.740   100381982.41744
  23706376.180   124577783.20908  23706376.940    97073567.62746
 15 03 04 00 06  0.0000000  0  7G16G18G21G22G27G29G31
  21226109.420   111543975.55609  21226106.140    86917386.02748
  22012440.440   115676328.83109  22012437.680    90137462.68847
  21686319.200   113962382.65109  21686315.260    88801847.77248
  23017644.560   120958659.00909  23017642.140    94253552.15247
  22462061.600   118038989.75608  22462061.480    91978458.09848
  24528261.660   128896860.48308  24528259.520   100439101.16245
  23724344.780   124672206.93708  23724345.480    97147144.18146
 15 03 04 00 06 30.0000000  0  7G16G18G21G22G27G29G31
  21214991.540   111485550.74409  21214988.280    86871860.20648
  22004154.060   115632783.61209  22004151.260    90103531.37747
  21696154.400   114014067.36509  21696150.520    88842121.56948
  23000393.060   120868001.46209  23000390.280    94182910.05747
  22450517.260   117978324.10509  22450517.160    91931186.22148
  24542216.140   128970193.98507  24542214.560   100496244.12946
  23742323.400   124766683.12408  23742324.040    97220761.57746
 15 03 04 00 07  0.0000000  0  7G16G18G21G22G27G29G31
  21203943.180   111427491.16209  21203939.880    86826618.97448
  21995944.320   115589641.25309  21995941.520    90069913.98547
  21706034.600   114065988.37608  21706030.740    88882579.49848
  22983168.460   120777485.22309  22983165.420    94112378.06247
  22438990.540   117917750.96909  22438990.380    91883986.36947
  24556176.440   129043557.82007  24556175.360   100553410.69745
  23760311.300   124861208.04308  23760311.920    97294416.96346
 15 03 04 00 07 30.0000000  0  6G16G18G21G22G27G31
  21192969.360   111369823.29409  21192966.040    86781682.97048
  21987816.180   115546927.74409  21987813.420    90036630.74847
  21715964.260   114118169.07109  21715960.360    88923239.77448
  22965975.780   120687136.89109  22965972.480    94041976.91447
  22427486.080   117857294.69509  22427485.880    91836877.57448
  23778312.480   124955802.88308  23778313.060    97368126.79146
 15 03 04 00 08  0.0000000  0  6G16G18G21G22G27G31
  21182061.540   111312502.25509  21182058.240    86737017.23448
  21979761.000   115504597.82409  21979758.320    90003646.42547
  21725933.880   114170559.75609  21725930.040    88964063.68748
  22948806.500   120596912.23609  22948803.120    93971672.12547
  22415994.940   117796908.38809  22415994.740    91789823.40948
  23796317.380   125050417.60708  23796318.020    97441852.11546
 15 03 04 00 08 30.0000000  0  6G16G18G21G22G27G31
  21171224.440   111255552.74709  21171221.180    86692640.99448
  21971783.480   115462675.85509  21971780.800    89970979.97647
  21735947.400   114223181.32509  21735943.640    89005067.49848
  22931665.480   120506836.41609  22931662.100    93901483.32247
  22404521.440   117736614.86809  22404521.180    91742841.44347
  23814329.880   125145072.26808  23814330.660    97515608.54747
 15 03 04 00 09  0.0000000  0  6G16G18G21G22G27G31
  21160458.360   111198976.49709  21160455.140    86648555.60448
  21963883.780   115421162.99509  21963881.160    89938632.31847
  21746004.460   114276031.31609  21746000.720    89046249.30748
  22914553.120   120416911.40609  22914549.740    93831412.01947
  22393065.480   117676413.61009  22393065.120    91695931.37648
  23832349.220   125239763.06708  23832350.180    97589393.11346
 15 03 04 00 09 30.0000000  0  6G16G18G21G22G27G31
  21149764.140   111142777.84409  21149760.960    86604764.44648
  21956062.720   115380063.45209  21956060.100    89906606.71047
  21756105.220   114329110.89509  21756101.500    89087610.01848
  22897470.520   120327142.52509  22897467.060    93761462.35447
  22381627.540   117616307.12909  22381627.240    91649095.20048
  23850375.220   125334489.12608  23850376.380    97663205.14846
 15 03 04 00 10  0.0000000  0  6G16G18G21G22G27G31
  21139141.840   111086957.09709  21139138.680    86561267.75648
  21948320.240   115339376.94209  21948317.640    89874902.96147
  21766248.860   114382415.77609  21766245.060    89129146.27448
  22880417.700   120237530.11109  22880414.160    93691634.60747
  22370207.320   117556293.79609  22370207.180    91602331.58748
  23868407.200   125429246.46908  23868408.540    97737041.54246
 15 03 04 00 10 30.0000000  0  7G16G18G19G21G22G27G31
  21128591.880   111031516.48309  21128588.660    86518067.28648
  21940656.680   115299105.02209  21940654.160    89843522.29747
  24546198.740                                                  
  21776435.020   114435944.33709  21776431.180    89170856.84148
  22863395.260   120148077.29709  22863391.740    93621931.23247
  22358804.860   117496373.71609  22358804.700    91555640.64048
  23886444.500   125524031.73608  23886446.020    97810899.67846
 15 03 04 00 11  0.0000000  0  7G16G18G19G21G22G27G31
  21118112.480   110976446.67009  21118109.160    86475155.73948
  21933070.220   115259238.27909  21933067.720    89812457.30947
  24531364.520   128913209.14807  24531365.780   100451830.28646
  21786661.180   114489683.38808  21786657.400    89212731.42748
  22846401.580   120058775.67609  22846398.140    93552345.67247
  22347418.040   117436535.70009  22347417.860    91509013.64148
  23904484.440   125618830.42408  23904486.080    97884768.25946
 15 03 04 00 11 30.0000000  0  7G16G18G19G21G22G27G31
  21107713.720   110921800.77609  21107710.360    86432574.52348
  21925570.840   115219828.85009  21925568.260    89781748.69147
  24516551.660   128835365.23008  24516552.360   100391172.85145
  21796936.660   114543682.01509  21796933.040    89254808.25948
  22829446.760   119969678.16509  22829443.440    93482919.14547
  22336056.520   117376830.67708  22336056.360    91462490.28048
  23922536.180   125713690.69308  23922537.940    97958684.81346
 15 03 04 00 12  0.0000000  0  7G16G18G19G21G22G27G31
  21097380.860   110867501.19009  21097377.520    86390263.16448
  21918143.760   115180798.89209  21918141.060    89751335.76047
  24501741.440   128757533.79607  24501739.820   100330524.90144
  21807246.040   114597858.49309  21807242.560    89297023.68648
  22812516.260   119880708.03709  22812512.960    93413591.90147
  22324705.200   117317179.22509  22324705.140    91416008.66948
  23940583.960   125808530.04408  23940585.700    98032585.03946
 15 03 04 00 12 30.0000000  0  7G16G18G19G21G22G27G31
  21087125.400   110813608.19009  21087122.020    86348268.61848
  21910800.280   115142207.98709  21910797.460    89721264.93947
  24486943.980   128679772.75507  24486942.420   100269932.05446
  21817600.020   114652269.37209  21817596.620    89339421.77348
  22795621.560   119791925.86809  22795618.260    93344411.10147
  22313375.140   117257639.38909  22313375.100    91369613.99648
  23958638.220   125903403.30108  23958639.980    98106511.65946
 15 03 04 00 13  0.0000000  0  7G16G18G19G21G22G27G31
  21076943.540   110760102.03109  21076940.140    86306575.51548
  21903536.580   115104036.58409  21903533.760    89691521.01947
  24472156.320   128602060.86508  24472154.580   100209377.41045
  21827994.200   114706891.27009  21827990.880    89381984.29148
  22778759.060   119703312.73009  22778755.640    93275362.01947
  22302062.260   117198190.03709  22302062.220    91323289.86748
  23976694.220   125998285.82308  23976696.020    98180445.47546
 15 03 04 00 13 30.0000000  0  7G16G18G19G21G22G27G31
  21066838.380   110706998.96509  21066834.960    86265196.51748
  21896355.660   115066300.09609  21896352.760    89662115.99247
  24457380.040   128524411.69907  24457377.440   100148871.64044
  21838430.940   114761736.53809  21838427.620    89424720.88048
  22761931.920   119614885.54709  22761928.320    93206457.82347
  22290769.300   117138845.36009  22290769.280    91277047.26648
  23994754.260   126093189.40108  23994756.120    98254395.69146
 15 03 04 00 14  0.0000000  0  7G16G18G19G21G22G27G31
  21056806.840   110654282.75109  21056803.400    86224118.95848
  21889254.120   115028981.10609  21889251.100    89633036.28147
  24442612.640   128446807.01208  24442609.900   100088400.48446
  21848906.140   114816784.26908  21848902.880    89467615.21248
  22745137.080   119526628.27209  22745133.340    93137686.01347
  22279492.740   117079586.82409  22279492.680    91230871.82248
  24012814.180   126188092.27308  24012816.040    98328345.31946
 15 03 04 00 14 30.0000000  0  7G16G18G19G21G22G27G31
  21046852.820   110601973.92309  21046849.320    86183358.83648
  21882235.800   114992099.93809  21882232.800    89604297.73047
  24427856.800   128369264.86707  24427854.720   100027978.22046
  21859423.080   114872051.64009  21859419.900    89510680.68448
  22728378.600   119438562.07209  22728374.660    93069063.09247
  22268236.140   117020433.13609  22268236.100    91184778.03348
  24030876.900   126283009.74308  24030878.860    98402306.29446
 15 03 04 00 15  0.0000000  0 15G16G18G19G21G22G27G31R01R02R14R15R16
                                R17R18R24
  21036974.180   110550061.26709  21036970.640    86142907.43248
  21875298.560   114955644.96309  21875295.620    89575891.29647
  24413110.820   128291772.54308  24413107.840    99967594.57445
  21869979.000   114927523.77609  21869975.820    89553905.71848
  22711654.520   119350676.70709  22711650.480    93000581.08647
  22256997.060   116961371.54309  22256997.060    91138756.03948
  24048939.560   126377926.15108  24048941.520    98476266.42746
  22501437.200   120283095.71108  22501440.880    93553545.16105
  21825966.180   116467590.23009  21825969.680    90585943.85607
  22590321.560   120419046.93907  22590330.500    93659261.40905
  20239544.660   108153987.70208  20239548.360    84119787.07108
  21665592.700   115733713.77608  21665595.340    90015125.67407
  20235532.720   108284443.25609  20235533.620    84221244.13408
  21491284.520   114722072.26209  21491287.340    89228337.38808
  22944997.420   122697201.26407  22944997.940    95431156.20605
 15 03 04 00 15 30.0000000  0 15G16G18G19G21G22G27G31R01R02R14R15R16
                                R17R18R24
  21027171.820   110498549.72509  21027168.280    86102768.58348
  21868443.320   114919620.82309  21868440.420    89547820.54147
  24398374.780   128214332.31707  24398371.760    99907251.61346
  21880574.080   114983201.28209  21880570.880    89597290.78848
  22694965.860   119262977.44809  22694961.780    92932244.09947
  22245776.080   116902404.98509  22245776.080    91092808.10248
  24067002.000   126472841.27808  24067004.060    98550225.54146
  22505339.120   120303953.95908  22505342.780    93569768.26905
  21811019.820   116387833.74708  21811023.500    90523911.06508
  22615333.980   120552376.24007  22615342.920    93762961.46205
  20251288.820   108216744.63009  20251292.500    84168597.99508
  21652459.840   115663560.53208  21652462.700    89960562.11407
  20239383.720   108305050.82009  20239384.700    84237272.23608
  21482247.580   114673832.57209  21482250.920    89190817.67508
  22959068.620   122772446.08308  22959069.520    95489679.97005
 15 03 04 00 16  0.0000000  0 15G16G18G19G21G22G27G31R01R02R14R15R16
                                R17R18R24
  21017447.920   110447450.50909  21017444.400    86062951.01248
  21861671.980   114884037.73009  21861669.120    89520093.48047
  24383650.160   128136953.70108  24383647.440    99846956.73346
  21891209.740   115039091.67109  21891206.480    89640841.73248
  22678314.820   119175475.74809  22678310.720    92864061.05847
  22234574.980   116843542.87809  22234574.940    91046941.54148
  24085065.320   126567761.38108  24085067.660    98624188.42746
  22509381.120   120325560.69008  22509384.820    93586573.52805
  21796166.440   116308573.54809  21796170.240    90462264.29708
  22640373.200   120685848.21306  22640382.280    93866772.44306
  20263166.660   108280216.18208  20263170.320    84217964.73808
  21639456.200   115594097.31108  21639459.100    89906535.16907
  20243266.000   108325825.38809  20243266.980    84253430.23008
  21473244.920   114625775.78909  21473247.960    89153440.17108
  22973137.440   122847678.26808  22973138.540    95548193.85305
 15 03 04 00 16 30.0000000  0 15G16G18G19G21G22G27G31R01R02R14R15R16
                                R17R18R24
  21007800.140   110396751.51109  21007796.720    86023445.31348
  21854982.240   114848883.34209  21854979.420    89492700.47547
  24368934.720   128059622.38108  24368931.300    99786698.51845
  21901882.880   115095178.98009  21901879.480    89684546.13148
  22661699.220   119088160.57209  22661695.140    92796023.33947
  22223391.100   116784771.12109  22223391.080    91001145.40648
  24103126.360   126662669.47108  24103128.920    98698141.85546
  22513560.200   120347901.05608  22513563.940    93603949.32405
  21781404.200   116229799.25409  21781407.980    90400995.46408
  22665435.620   120819444.16206  22665444.960    93970679.84605
  20275174.860   108344384.84508  20275178.540    84267873.66808
  21626579.480   115525312.76108  21626582.380    89853036.13107
  20247176.560   108346751.23109  20247177.440    84269705.88808
  21464273.660   114577886.93209  21464277.100    89116193.35708
  22987201.220   122922883.36608  22987202.980    95606686.68605
 15 03 04 00 17  0.0000000  0 15G16G18G19G21G22G27G31R01R02R14R15R16
                                R17R18R24
  20998232.260   110346472.39009  20998228.940    85984266.78448
  21848377.640   114814176.42909  21848374.940    89465656.15247
  24354231.100   127982355.73408  24354227.940    99726490.89546
  21912596.480   115151478.95209  21912592.920    89728416.23548
  22645122.920   119001052.29209  22645118.920    92728146.84347
  22212227.820   116726107.59409  22212227.720    90955433.58548
  24121187.860   126757580.16408  24121190.800    98772097.41046
  22517879.820   120370991.93008  22517883.260    93621908.92205
  21766737.100   116151532.87309  21766740.840    90340121.62507
  22690523.980   120953177.29806  22690533.480    94074693.90805
  20287316.280   108409265.74108  20287320.140    84318336.54508
  21613833.760   115457227.81108  21613836.560    89800081.16507
  20251118.380   108367844.84508  20251119.220    84286112.04508
  21455337.060   114530182.77309  21455340.220    89079090.14308
  23001263.120   122998079.12707  23001265.560    95665172.23305
 15 03 04 00 17 30.0000000  0 15G16G18G19G21G22G27G31R01R02R14R15R16
                                R17R18R24
  20988741.220   110296597.03309  20988737.960    85945402.87748
  21841855.120   114779900.47309  21841852.420    89438947.62947
  24339536.620   127905135.77808  24339533.640    99666319.58545
  21923346.880   115207971.92609  21923343.240    89772436.74248
  22628583.000   118914135.05109  22628579.020    92660419.20947
  22201081.740   116667534.26409  22201081.560    90909792.05648
  24139245.880   126852472.58108  24139249.060    98846038.74546
  22522336.360   120394814.77608  22522339.700    93640437.83305
  21752162.480   116073760.06009  21752166.180    90279631.73008
  22715633.920   121087025.08406  22715643.500    94178797.14705
  20299586.840   108474836.48408  20299590.860    84369335.99308
  21601216.100   115389826.73308  21601218.820    89747658.11507
  20255088.120   108389087.55209  20255088.820    84302634.14608
  21446431.480   114482644.29709  21446434.520    89042115.77108
  23015319.540   123073246.60607  23015322.080    95723635.78305
 15 03 04 00 18  0.0000000  0 15G16G18G19G21G22G27G31R01R02R14R15R16
                                R17R18R24
  20979329.880   110247140.49309  20979326.680    85906865.32048
  21835417.300   114746069.64809  21835414.500    89412585.98247
  24324853.220   127827975.46708  24324849.840    99606194.72845
  21934136.040   115264668.98009  21934132.300    89816616.26048
  22612082.460   118827424.48509  22612078.460    92592852.61447
  22189955.360   116609064.41209  22189955.040    90864231.14748
  24157302.260   126947356.50608  24157305.740    98919973.45146
  22526932.120   120419382.13208  22526935.700    93659545.76906
  21737683.740   115996498.14509  21737687.260    90219539.16408
  22740767.060   121220996.03007  22740776.660    94282996.15305
  20311988.440   108541107.17608  20311992.620    84420879.83108
  21588729.600   115323125.82208  21588732.220    89695779.61408
  20259088.040   108410491.37809  20259088.600    84319281.56008
  21437559.260   114435283.87009  21437562.680    89005279.91208
  23029373.340   123148398.96507  23029375.420    95782087.60105
 15 03 04 00 18 30.0000000  0 15G16G18G19G21G22G27G31R01R02R14R15R16
                                R17R18R24
  20969996.580   110198094.02809  20969993.480    85868647.30848
  21829062.500   114712674.82809  21829059.540    89386564.06747
  24310179.320   127750863.77308  24310176.120    99546107.74946
  21944961.520   115321557.33209  21944957.760    89860944.83447
  22595619.680   118740912.32409  22595615.720    92525440.62447
  22178846.560   116550687.39709  22178846.240    90818742.59548
  24175354.540   127042218.84008  24175358.080    98993891.37746
  22531664.980   120444682.06908  22531668.800    93679223.49806
  21723299.360   115919740.04109  21723302.680    90159838.44208
  22765920.560   121355075.00006  22765930.140    94387279.18105
  20324518.360   108608063.26108  20324522.600    84472956.75308
  21576372.560   115257116.85809  21576375.100    89644439.34807
  20263115.800   108432044.28609  20263116.240    84336044.93708
  21428718.060   114388089.54409  21428721.140    88968573.23508
  23043422.540   123223525.30307  23043424.220    95840519.19705
 15 03 04 00 19  0.0000000  0 15G16G18G19G21G22G27G31R01R02R14R15R16
                                R17R18R24
  20960743.860   110149471.11109  20960740.880    85830759.32848
  21822793.200   114679728.85809  21822790.120    89360891.89147
  24295516.720   127673812.31208  24295513.400    99486067.73245
  21955825.260   115378647.01009  21955821.600    89905430.29848
  22579197.360   118654612.94109  22579193.440    92458194.43847
  22167757.640   116492415.11809  22167757.340    90773335.65748
  24193404.360   127137068.08408  24193408.000    99067799.09745
  22536537.140   120470725.87508  22536541.020    93699479.83106
  21709012.320   115843501.77009  21709015.660    90100542.03808
  22791095.660   121489269.05106  22791105.100    94491651.71005
  20337178.000   108675711.76408  20337182.100    84525572.23108
  21564147.820   115191814.41308  21564150.260    89593648.52508
  20267173.480   108453757.33109  20267173.880    84352932.85708
  21419910.120   114341072.55509  21419913.700    88932004.50908
  23057469.060   123298637.04807  23057470.140    95898939.41205
 15 03 04 00 19 30.0000000  0 15G16G18G19G21G22G27G31R01R02R14R15R16
                                R17R18R24
  20951570.200   110101263.49409  20951567.300    85793194.96648
  21816607.680   114647223.07709  21816604.560    89335562.72347
  24280863.980   127596811.13908  24280860.660    99426066.85746
  21966724.960   115435925.86408  21966721.420    89950063.16948
  22562814.140   118568518.90709  22562810.240    92391108.27347
  22156686.780   116434237.70009  22156686.520    90728002.63148
  24211449.240   127231891.32108  24211453.060    99141686.67446
  22541546.360   120497502.31108  22541550.540    93720305.95306
  21694821.440   115767776.76609  21694824.880    90041644.87908
  22816289.600   121623563.97006  22816299.020    94596102.67705
  20349965.220   108744042.14408  20349969.200    84578718.06108
  21552054.040   115127211.09308  21552056.520    89543401.52107
  20271258.960   108475619.15609  20271259.300    84369936.50908
  21411133.340   114294221.73109  21411136.900    88895564.98808
  23071510.780   123373723.85707  23071511.880    95957340.24805
 15 03 04 00 20  0.0000000  0 15G16G18G19G21G22G27G31R01R02R14R15R16
                                R17R18R24
  20942478.140   110053484.35409  20942475.220    85755964.46348
  21810508.100   114615169.30309  21810505.020    89310585.77847
  24266222.580   127519871.05108  24266219.540    99366113.64946
  21977662.260   115493402.53308  21977658.860    89994850.17448
  22546472.540   118482643.69209  22546468.640    92324192.60847
  22145636.140   116376166.35009  22145635.900    90682752.23448
  24229490.640   127326696.40408  24229494.380    99215560.06545
  22546694.420   120525021.77508  22546698.920    93741709.99206
  21680729.640   115692580.45309  21680733.060    89983158.90508
  22841503.560   121757966.17706  22841513.140    94700637.07405
  20362880.900   108813059.47308  20362884.840    84632398.19108
  21540093.680   115063320.89008  21540096.240    89493709.14108
  20275374.240   108497640.29709  20275374.500    84387064.06308
  21402389.720   114247547.59809  21402393.020    88859262.89008
  23085549.960   123448797.03407  23085551.100    96015730.47905
 15 03 04 00 20 30.0000000  0 15G16G18G19G21G22G27G31R01R02R14R15R16
                                R17R18R24
  20933466.220   110006126.31309  20933463.300    85719062.10848
  21804493.000   114583560.06509  21804490.020    89285955.22247
  24251591.240   127442982.96108  24251588.360    99306200.90745
  21988635.380   115551067.29309  21988632.120    90039783.75547
  22530171.340   118396980.87509  22530167.440    92257442.41647
  22134603.960   116318192.09209  22134603.780    90637577.53548
  24247526.320   127421471.43108  24247530.080    99289409.99445
  22551979.460   120553274.05708  22551984.000    93763684.01706
  21666735.920   115617907.47109  21666739.260    89925079.93008
  22866735.040   121892462.21806  22866744.840    94805244.42205
  20375922.880   108882751.94508  20375926.820    84686603.42908
  21528265.420   115000136.89708  21528268.340    89444566.08108
  20279517.300   108519810.20909  20279517.420    84404307.34208
  21393677.260   114201039.79609  21393680.680    88823090.19308
  23099584.800   123523846.80207  23099586.200    96074102.51505
 15 03 04 00 21  0.0000000  0 15G16G18G19G21G22G27G31R01R02R14R15R16
                                R17R18R24
  20924535.540   109959195.30209  20924532.620    85682492.50348
  21798563.460   114552400.66009  21798560.600    89261675.18947
  24236970.380   127366150.40408  24236967.560    99246331.44046
  21999644.640   115608921.79709  21999641.580    90084865.18248
  22513911.760   118311536.90209  22513907.940    92190862.75447
  22123591.060   116260319.07809  22123590.900    90592481.69748
  24265556.500   127516217.39508  24265560.260    99363237.30045
  22557402.160   120582262.67208  22557407.120    93786230.67705
  21652841.680   115543765.59209  21652844.980    89867414.06408
  22891984.080   122027051.51706  22891994.260    94909924.28105
  20389091.200   108953119.59308  20389095.200    84741333.79908
  21516570.680   114937665.93808  21516573.780    89395977.53008
  20283688.620   108542132.19108  20283688.800    84421668.88208
  21384996.620   114154701.70509  21384999.780    88787049.49208
  23113615.800   123598876.74907  23113617.540    96132459.10105
 15 03 04 00 21 30.0000000  0 15G16G18G19G21G22G27G31R01R02R14R15R16
                                R17R18R24
  20915686.500   109912693.03909  20915683.540    85646256.97848
  21792719.660   114521691.99909  21792716.980    89237746.38247
  24222360.140   127289372.82708  24222357.380    99186504.82646
  22010689.420   115666962.93908  22010686.480    90130092.03448
  22497694.060   118226313.73509  22497690.460    92124455.16747
  22112597.320   116202546.89109  22112597.240    90547464.43848
  24283580.460   127610930.63908  24283584.300    99437039.07645
  22562962.320   120611985.48808  22562967.460    93809348.45805
  21639047.520   115470158.07409  21639050.780    89810163.82208
  22917249.740   122161729.05606  22917260.260    95014672.74605
  20402385.200   109024158.44008  20402389.180    84796586.21008
  21505009.860   114875910.21408  21505012.920    89347945.30908
  20287887.960   108564604.67409  20287888.340    84439147.46908
  21376347.400   114108531.61309  21376350.500    88751139.44408
  23127642.640   123673886.61407  23127644.700    96190800.09105
 15 03 04 00 22  0.0000000  0 15G16G18G19G21G22G27G31R01R02R14R15R16
                                R17R18R24
  20906919.920   109866623.87709  20906916.900    85610358.93148
  21786962.200   114491437.04409  21786959.700    89214171.09747
  24207760.780   127212652.81708  24207757.640    99126723.05045
  22021770.020   115725192.25508  22021767.140    90175465.52347
  22481519.380   118141316.55509  22481515.960    92058223.67047
  22101623.340   116144878.34809  22101623.300    90502527.90948
  24301598.160   127705611.37508  24301602.260    99510815.63846
  22568660.240   120642444.35308  22568665.340    93833038.70305
  21625354.840   115397091.67809  21625358.240    89753334.44008
  22942531.620   122296492.87207  22942542.380    95119488.31406
  20415804.480   109095866.51209  20415808.460    84852359.12608
  21493583.900   114814874.73608  21493586.860    89300473.27207
  20292115.820   108587229.47608  20292116.340    84456744.54208
  21367730.060   114062531.61609  21367733.260    88715361.71808
  23141666.320   123748878.64107  23141668.500    96249127.20105
 15 03 04 00 22 30.0000000  0 15G16G18G19G21G22G27G31R01R02R14R15R16
                                R17R18R24
  20898234.860   109820983.10009  20898231.740    85574794.69648
  21781290.320   114461631.59709  21781287.860    89190946.10047
  24193171.220   127135984.30908  24193168.180    99066981.42946
  22032885.040   115783602.06608  22032882.080    90220979.66447
  22465387.140   118056541.63709  22465383.700    91992165.36047
  22090667.980   116087307.58709  22090667.920    90457667.59448
  24319607.800   127800250.36808  24319612.240    99584559.60145
  22574494.460   120673632.13108  22574499.360    93857295.88205
  21611763.020   115324563.70409  21611766.460    89696923.84308
  22967827.740   122431332.58506  22967838.760    95224362.91205
  20429347.260   109168234.54608  20429351.180    84908645.35008
  21482292.080   114754555.91908  21482294.980    89253558.63308
  20296370.860   108609999.36508  20296371.380    84474454.45708
  21359143.220   114016694.56909  21359146.280    88679710.67208
  23155685.620   123823846.63807  23155687.300    96307435.65005
 15 03 04 00 23  0.0000000  0 15G16G18G19G21G22G27G31R01R02R14R15R16
                                R17R18R24
  20889632.620   109775777.83509  20889629.440    85539569.82048
  21775705.240   114432281.69309  21775702.700    89168076.05747
  24178592.420   127059371.93308  24178589.080    99007283.50845
  22044034.780   115842194.28008  22044031.660    90266635.93447
  22449298.740   117971996.51909  22449295.200    91926286.11347
  22079732.240   116029839.75409  22079732.100    90412887.47748
  24337610.000   127894849.67708  24337614.440    99658272.77346
  22580466.020   120705552.44108  22580470.620    93882122.83505
  21598273.900   115252583.13809  21598277.320    89640938.98308
  22993138.200   122566249.05506  22993149.380    95329297.15505
  20443013.880   109241264.51508  20443017.760    84965446.40608
  21471135.780   114694961.29308  21471138.560    89207207.27507
  20300653.820   108632918.38108  20300654.340    84492280.37108
  21350587.740   113971024.75309  21350590.540    88644189.71608
  23169701.560   123898795.33907  23169702.600    96365729.09005
 15 03 04 00 23 30.0000000  0 15G16G18G19G21G22G27G31R01R02R14R15R16
                                R17R18R24
  20881113.200   109731008.13309  20881110.000    85504684.33648
  21770206.660   114403386.20009  21770204.020    89145560.11347
  24164023.940   126982814.00908  24164020.540    98947628.04846
  22055218.820   115900966.10208  22055215.560    90312432.15147
  22433254.240   117887681.82209  22433250.620    91860586.41247
  22068815.780   115972473.15409  22068815.580    90368186.25248
  24355603.640   127989404.60508  24355608.300    99731951.26845
  22586574.180   120738202.62708  22586578.400    93907517.44705
  21584887.740   115181151.93009  21584891.180    89585381.42008
  23018461.820   122701235.65506  23018473.140    95434285.95705
  20456803.080   109314949.84608  20456807.000    85022757.18908
  21460115.240   114636091.43908  21460117.960    89161419.60108
  20304964.120   108655983.91808  20304964.760    84510220.23608
  21342063.080   113925519.34409  21342066.120    88608796.67808
  23183713.480   123973722.53507  23183714.180    96424005.76505
 15 03 04 00 24  0.0000000  0 15G16G18G19G21G22G27G31R01R02R14R15R16
                                R17R18R24
  20872677.080   109686675.89409  20872673.800    85470139.74148
  21764794.940   114374946.86209  21764792.220    89123399.60447
  24149465.900   126906310.64808  24149462.560    98888015.09146
  22066436.720   115959915.93709  22066433.440    90358367.08147
  22417254.180   117803600.42409  22417250.420    91795068.51347
  22057918.700   115915208.36009  22057918.460    90323564.35148
  24373588.240   128083912.13208  24373593.340    99805592.81246
  22592818.640   120771581.41708  22592822.180    93933478.79705
  21571605.260   115110274.24509  21571608.560    89530254.35708
  23043797.900   122836288.40406  23043809.300    95539326.17505
  20470714.200   109389286.64308  20470718.200    85080574.64008
  21449230.980   114577949.27808  21449233.560    89116197.94108
  20309301.700   108679195.19608  20309302.380    84528273.45408
  21333569.060   113880177.70509  21333572.200    88573530.97508
  23197721.340   124048628.67907  23197722.100    96482266.08705
 15 03 04 00 24 30.0000000  0 16G16G18G19G21G22G27G31R01R02R03R14R15
                                R16R17R18R24
  20864325.840   109642789.61909  20864322.500    85435942.64748
  21759471.380   114346971.08209  21759468.580    89101600.33247
  24134919.180   126829867.76708  24134915.580    98828449.24746
  22077689.280   116019047.81908  22077685.840    90404443.87847
  22401300.220   117719761.33009  22401296.220    91729739.40347
  22047042.220   115858051.84309  22047041.920    90279026.80848
  24391564.560   128178375.77208  24391569.820    99879200.14746
  22599200.220   120805694.49908  22599203.740    93960011.15705
  21558428.300   115039959.93909  21558431.480    89475565.49007
  23591132.780   126285194.87307  23591142.720    98221839.09106
  23069146.880   122971409.13306  23069158.300    95644419.26805
  20484747.800   109464277.95208  20484751.860    85138901.17208
  21438484.540   114520543.33208  21438486.980    89071548.86507
  20313667.660   108702557.89109  20313668.260    84546444.43708
  21325106.760   113835005.49309  21325109.480    88538397.03108
  23211726.040   124123519.84707  23211727.460    96540514.75005
 15 03 04 00 25  0.0000000  0 16G16G18G19G21G22G27G31R01R02R03R14R15
                                R16R17R18R24
  20856058.480   109599344.05209  20856055.100    85402088.96548
  21754234.920   114319453.29309  21754232.060    89080157.91847
  24120382.820   126753478.85608  24120379.460    98768925.48146
  22088974.860   116078353.67108  22088971.440    90450656.21247
  22385391.500   117636159.93309  22385387.280    91664595.52247
  22036185.080   115800997.07709  22036184.780    90234568.58148
  24409530.700   128272786.06308  24409536.220    99952765.77046
  22605717.580   120840533.19708  22605720.760    93987107.95105
  21545356.480   114970206.11509  21545359.580    89421312.54608
  23568357.800   126163283.69906  23568367.180    98127020.16406
  23094506.520   123106586.70506  23094518.060    95749556.56305
  20498902.000   109539913.45608  20498906.020    85197728.74908
  21427875.120   114463869.34608  21427877.460    89027469.08607
  20318060.420   108726064.23108  20318060.980    84564727.14208
  21316674.760   113789994.97309  21316677.420    88503388.88808
  23225726.820   124198389.04707  23225728.480    96598746.28405
 15 03 04 00 25 30.0000000  0 16G16G18G19G21G22G27G31R01R02R03R14R15
                                R16R17R18R24
  20847876.460   109556346.56409  20847872.940    85368584.41848
  21749086.700   114292399.58509  21749083.860    89059077.12547
  24105857.540   126677148.62508  24105854.240    98709447.43446
  22100294.060   116137836.41608  22100290.600    90497006.40147
  22369529.480   117552804.18409  22369525.120    91599643.04647
  22025348.300   115744049.42409  22025348.000    90190193.79748
  24427487.180   128367145.14608  24427493.040   100026291.34746
  22612371.340   120876101.56108  22612375.120    94014772.22205
  21532391.380   114901021.54709  21532394.400    89367502.36107
  23545576.760   126041337.13306  23545585.680    98032173.65506
  23119876.900   123241821.93006  23119888.660    95854738.65905
  20513177.060   109616194.67809  20513181.020    85257058.57308
  21417404.120   114407934.78008  21417406.440    88983964.43407
  20322480.860   108749718.58309  20322481.400    84583124.96908
  21308273.860   113745150.68409  21308276.900    88468510.04308
  23239724.220   124273241.82006  23239726.420    96656965.14705
 15 03 04 00 26  0.0000000  0 16G16G18G19G21G22G27G31R01R02R03R14R15
                                R16R17R18R24
  20839779.020   109513793.82509  20839775.420    85335426.44248
  21744026.020   114265806.20809  21744023.320    89038355.03547
  24091342.500   126600872.74408  24091339.540    98650011.73446
  22111645.740   116197490.10708  22111642.380    90543489.78747
  22353713.820   117469692.09109  22353709.400    91534880.41547
  22014531.040   115687204.48109  22014530.760    90145899.05748
  24445432.520   128461445.40208  24445438.700   100099770.98946
  22619160.400   120912393.59708  22619164.000    94042999.39706
  21519532.800   114832405.32209  21519535.920    89314134.24308
  23522788.760   125919354.57106  23522797.420    97937299.23306
  23145256.360   123377105.74606  23145268.440    95959958.56105
  20527571.300   109693112.52309  20527575.180    85316883.53708
  21407071.040   114352737.14808  21407073.420    88941032.97007
  20326927.900   108773515.30809  20326928.440    84601633.53908
  21299903.040   113700466.88709  21299906.180    88433755.99008
  23253717.700   124348072.89606  23253720.300    96715167.05505
 15 03 04 00 26 30.0000000  0 16G16G18G19G21G22G27G31R01R02R03R14R15
                                R16R17R18R24
  20831766.580   109471688.22409  20831762.980    85302616.88448
  21739053.300   114239675.07309  21739050.800    89017993.13447
  24076838.120   126524651.79708  24076835.080    98590618.81946
  22123029.500   116257312.51208  22123026.320    90590104.63347
  22337944.940   117386826.32209  22337940.560    91470309.76047
  22003733.520   115630463.05409  22003733.260    90101684.98048
  24463366.380   128555685.04908  24463372.840   100173203.74146
  22626084.620   120949408.40908  22626088.240    94071788.68005
  21506781.480   114764361.56509  21506784.560    89261211.35108
  23499995.140   125797340.40107  23500003.700    97842400.18906
  23170644.240   123512434.49806  23170656.640    96065213.34505
  20542083.980   109770663.36909  20542087.760    85377200.83308
  21396876.460   114298279.35808  21396878.980    88898676.91108
  20331401.440   108797454.13309  20331402.020    84620252.63908
  21291562.180   113655943.21809  21291565.000    88399126.52608
  23267707.440   124422882.70606  23267710.160    96773352.42305
 15 03 04 00 27  0.0000000  0 16G16G18G19G21G22G27G31R01R02R03R14R15
                                R16R17R18R24
  20823839.880   109430033.29209  20823836.340    85270158.49248
  21734169.060   114214008.49709  21734166.640    88997993.22847
  24062344.220   126448486.66908  24062341.100    98531269.44646
  22134445.420   116317304.10908  22134442.320    90636851.32647
  22322223.700   117304210.97209  22322219.420    91405934.21347
  21992956.000   115573826.81009  21992955.740    90057552.87148
  24481288.440   128649862.70708  24481295.140   100246588.15345
  22633144.260   120987146.25208  22633148.580    94101140.29406
  21494138.380   114696895.30209  21494141.360    89208737.62408
  23477196.620   125675299.77207  23477204.460    97747480.43206
  23196039.960   123647804.74606  23196052.700    96170500.44905
  20556714.640   109848845.06809  20556718.360    85438008.78508
  21386821.000   114244565.01808  21386823.600    88856899.09308
  20335901.600   108821535.71909  20335902.280    84638982.76208
  21283251.560   113611580.58809  21283254.280    88364622.24808
  23281693.620   124497672.91906  23281696.400    96831522.59505
 15 03 04 00 27 30.0000000  0 16G16G18G19G21G22G27G31R01R02R03R14R15
                                R16R17R18R24
  20815998.560   109388827.12909  20815995.100    85238049.79648
  21729372.700   114188803.47909  21729370.360    88978352.98447
  24047860.580   126372374.06508  24047857.260    98471960.93846
  22145892.580   116377459.86708  22145889.540    90683725.93447
  22306549.920   117221845.24609  22306545.620    91341753.18547
  21982197.880   115517292.61309  21982197.620    90013500.26448
  24499197.540   128743971.81108  24499204.360   100319919.21046
  22640338.320   121025602.08008  22640342.380    94131050.46605
  21481603.500   114630007.00809  21481606.600    89156713.42808
  23454392.920   125553233.09907  23454400.220    97652540.52506
  23221442.260   123783209.66106  23221455.180    96275814.46906
  20571461.920   109927650.11908  20571465.700    85499301.58508
  21376904.520   114191592.82308  21376907.060    88815698.47408
  20340427.680   108845755.82408  20340428.360    84657820.62708
  21274970.280   113567374.51609  21274973.260    88330239.78908
  23295675.760   124572440.02607  23295678.400    96889674.73405
 15 03 04 00 28  0.0000000  0 16G16G18G19G21G22G27G31R01R02R03R14R15
                                R16R17R18R24
  20808244.540   109348079.77609  20808241.200    85206298.61148
  21724666.080   114164070.02409  21724663.700    88959080.17948
  24033388.300   126296322.03308  24033384.940    98412699.70046
  22157372.160   116437785.51708  22157369.060    90730732.94447
  22290925.660   117139739.40509  22290921.280    91277774.65948
  21971460.700   115460868.86909  21971460.460    89969533.71248
  24517094.520   128838017.76208  24517101.480   100393201.13146
  22647667.760   121064782.56308  22647671.340    94161524.21405
  21469178.920   114563708.35709  21469182.280    89105147.83508
  23431586.960   125431152.81107  23431593.980    97557589.92906
  23246851.700   123918652.58905  23246864.880    96381158.02105
  20586326.560   110007082.46308  20586330.440    85561082.26508
  21367128.940   114139373.43208  21367131.480    88775083.39008
  20344981.040   108870121.94908  20344981.620    84676772.06508
  21266719.760   113523332.61809  21266722.960    88295985.04208
  23309655.020   124647191.87907  23309657.240    96947815.07605
 15 03 04 00 28 30.0000000  0 16G16G18G19G21G22G27G31R01R02R03R14R15
                                R16R17R18R24
  20800577.060   109307787.22509  20800573.780    85174901.82048
  21720048.160   114139802.98509  21720045.800    88940170.82247
  24018926.620   126220324.83708  24018922.960    98353481.13546
  22168882.580   116498273.37108  22168879.460    90777866.32147
  22275350.280   117057890.25709  22275345.840    91213996.15847
  21960743.380   115404549.83909  21960743.220    89925648.78248
  24534977.760   128931992.12408  24534984.800   100466427.31345
  22655131.440   121104680.12408  22655135.340    94192555.66506
  21456864.400   114497996.69209  21456867.940    89054038.80608
  23408777.800   125309056.36707  23408784.140    97462626.80306
  23272266.260   124054123.24005  23272279.740    96486523.13805
  20601306.800   110087132.35008  20601310.760    85623343.24708
  21357493.460   114087902.81808  21357495.960    88735050.69408
  20349560.400   108894627.25709  20349560.880    84695831.75108
  21258498.660   113479447.77009  21258501.860    88261852.37808
  23323630.280   124721922.63707  23323632.300    97005938.97805
 15 03 04 00 29  0.0000000  0 16G16G18G19G21G22G27G31R01R02R03R14R15
                                R16R17R18R24
  20792996.700   109267952.32709  20792993.440    85143861.64048
  21715519.420   114116004.65309  21715517.120    88921626.68047
  24004475.580   126144383.52608  24004471.700    98294306.11646
  22180423.820   116558922.92908  22180420.760    90825125.71847
  22259824.360   116976301.44609  22259819.920    91150420.52247
  21950046.400   115348337.34709  21950046.220    89881846.85348
  24552846.960   129025892.84508  24552854.300   100539596.12645
  22662729.140   121145294.90708  22662733.260    94224144.91605
  21444661.000   114432877.41409  21444664.700    89003390.52108
  23385966.580   125186949.48507  23385972.760    97367655.52006
  23297685.400   124189618.67106  23297699.360    96591907.51305
  20616402.080   110167796.58909  20616406.040    85686082.06008
  21347998.700   114037184.29108  21348001.160    88695602.97208
  20354165.920   108919272.33809  20354166.340    84715000.15608
  21250307.120   113435720.87709  21250310.080    88227842.59308
  23337601.700   124796633.34207  23337603.600    97064047.30205
 15 03 04 00 29 30.0000000  0 16G16G18G19G21G22G27G31R01R02R03R14R15
                                R16R17R18R24
  20785505.020   109228583.54809  20785501.780    85113184.66848
  21711081.280   114092682.33009  21711078.920    88903453.46847
  23990036.320   126068504.98608  23990032.560    98235180.09046
  22191996.740   116619739.43608  22191993.820    90872515.19247
  22244349.740   116894982.35509  22244345.380    91087055.05248
  21939371.100   115292238.27209  21939370.880    89838133.31148
  24570702.960   129119724.39108  24570710.440   100612711.23146
  22670462.060   121186632.09508  22670466.520    94256296.07006
  21432570.600   114368360.60609  21432574.160    88953210.82908
  23363155.500   125064842.95607  23363161.620    97272684.48707
  23323109.840   124325141.53305  23323124.020    96697313.27305
  20631612.880   110249078.42008  20631616.900    85749301.22408
  21338646.540   113987227.12108  21338649.000    88656747.38708
  20358798.600   108944063.32008  20358799.120    84734282.02208
  21242146.240   113392157.94609  21242149.120    88193960.29708
  23351570.740   124871331.34407  23351572.460    97122145.78005
 15 03 04 00 30  0.0000000  0 16G16G18G19G21G22G27G31R01R02R03R14R15
                                R16R17R18R24
  20778099.800   109189669.41709  20778096.640    85082861.98048
  21706731.520   114069824.33409  21706729.060    88885642.06748
  23975606.700   125992676.33808  23975602.700    98176092.84146
  22203598.620   116680708.30508  22203595.780    90920023.39847
  22228924.500   116813922.79909  22228920.240    91023891.81648
  21928715.020   115236240.13609  21928714.760    89794498.41448
  24588542.640   129213470.72108  24588550.360   100685759.80246
  22678327.480   121228676.74608  22678331.840    94288997.52405
  21420591.340   114304436.65109  21420594.780    88903492.23208
  23340342.780   124942727.55407  23340349.200    97177706.57007
  23348536.220   124460674.60606  23348550.600    96802726.94005
  20646936.020   110330960.86708  20646940.100    85812987.52208
  21329434.860   113938020.15608  21329437.380    88618475.32208
  20363455.960   108968986.05909  20363456.520    84753666.37708
  21234013.440   113348744.96609  21234016.200    88160194.67108
  23365534.920   124946003.14907  23365536.440    97180223.80605
 15 03 04 00 30 30.0000000  0 16G16G18G19G21G22G27G31R01R02R03R14R15
                                R16R17R18R24
  20770783.760   109151223.70109  20770780.640    85052904.27648
  21702472.440   114047442.90909  21702470.040    88868202.00448
  23961188.540   125916908.65808  23961184.640    98117053.15746
  22215231.420   116741839.07108  22215228.500    90967657.76147
  22213551.300   116733136.40409  22213547.100    90960941.42648
  21918080.360   115180354.49509  21918080.000    89750951.18348
  24606367.760   129307140.67708  24606375.560   100758749.02245
  22686327.000   121271438.91008  22686331.160    94322256.98005
  21408726.040   114241120.75009  21408729.340    88854246.57108
  23317531.200   124820618.77707  23317537.900    97082733.81206
  23373965.860   124596224.86906  23373980.400    96908154.03005
  20662372.820   110413450.57408  20662376.920    85877146.13508
  21320366.180   113889576.60708  21320368.680    88580796.99707
  20368140.100   108994051.79609  20368140.680    84773161.95108
  21225910.800   113305492.67009  21225913.760    88126554.05008
  23379496.260   125020660.19507  23379497.560    97238290.39305
 15 03 04 00 31  0.0000000  0 16G16G18G19G21G22G27G31R01R02R03R14R15
                                R16R17R18R24
  20763556.420   109113243.91009  20763553.280    85023309.64348
  21698303.560   114025535.14009  21698301.140    88851131.03748
  23946781.240   125841198.23008  23946777.500    98058058.09346
  22226894.060   116803126.27708  22226891.120    91015414.02947
  22198229.880   116652621.75609  22198225.600    90898202.79748
  21907466.440   115124578.03709  21907465.960    89707489.03548
  24624177.080   129400727.76708  24624184.840   100831673.87945
  22694459.700   121314913.07408  22694463.740    94356070.26305
  21396974.620   114178412.59809  21396977.760    88805473.59108
  23294720.880   124698516.83807  23294727.420    96987766.22607
  23399397.300   124731784.58206  23399412.080    97013588.50105
  20677921.960   110496540.27608  20677926.020    85941771.43008
  21311440.120   113841895.01808  21311442.660    88543711.31007
  20372850.100   109019255.90909  20372850.680    84792765.14208
  21217837.460   113262396.53709  21217840.580    88093034.84608
  23393454.180   125095298.97607  23393455.360    97296342.76905
 15 03 04 00 31 30.0000000  0 16G16G18G19G21G22G27G31R01R02R03R14R15
                                R16R17R18R24
  20756417.980   109075731.19409  20756414.820    84994078.96648
  21694224.820   114004100.66209  21694222.280    88834428.86548
  23932384.680   125765544.00408  23932380.940    97999106.77946
  22238585.940   116864567.07708  22238582.980    91063289.96947
  22182960.460   116572380.57309  22182956.140    90835677.24548
  21896873.140   115068909.86709  21896872.620    89664111.25948
  24641969.760   129494227.92008  24641977.620   100904530.82045
  22702725.060   121359096.12207  22702729.700    94390434.84406
  21385337.420   114116314.38909  21385340.720    88757175.01308
  23271912.480   124576424.61307  23271918.680    96892806.16407
  23424829.380   124867348.13406  23424844.240    97119025.93905
  20693582.420   110580224.65509  20693586.380    86006859.25808
  21302656.840   113794975.99708  21302659.420    88507218.75807
  20377585.640   109044596.39709  20377586.180    84812474.42408
  21209793.060   113219454.55909  21209796.200    88059635.55908
  23407408.380   125169917.97807  23407409.500    97354379.73905
 15 03 04 00 32  0.0000000  0 16G16G18G19G21G22G27G31R01R02R03R14R15
                                R16R17R18R24
  20749369.300   109038689.87509  20749366.080    84965215.60148
  21690236.880   113983143.18909  21690234.240    88818098.39147
  23917999.340   125689949.37508  23917995.800    97940201.94846
  22250307.300   116926162.80008  22250304.200    91111286.62547
  22167744.080   116492418.28209  22167739.740    90773369.02147
  21886301.140   115013353.45309  21886300.560    89620820.56548
  24659746.020   129587641.97408  24659754.020   100977320.87946
  22711123.160   121403989.66508  22711128.320    94425351.97906
  21373815.820   114054832.86009  21373819.100    88709356.06408
  23249107.060   124454349.05107  23249113.460    96797859.19006
  23450262.160   125002914.58406  23450276.980    97224465.69005
  20709354.000   110664502.72108  20709357.860    86072408.82908
  21294017.240   113748824.63108  21294019.740    88471323.24208
  20382347.100   109070075.84308  20382347.660    84832291.75608
