     2.11           OBSERVATION DATA    M                   RINEX VERSION / TYPE
SPIDER V4,0,0,3554                      2015 03 15 01:13    PGM / RUN BY / DATE 
CKHR                                                        MARKER NAME         
CKHR                                                        MARKER NUMBER       
                                                            OBSERVER / AGENCY   
496547              LEICA GRX1200+GNSS  8.10/4.007          REC # / TYPE / VERS 
10301042            LEIAR25         NONE                    ANT # / TYPE        
  5141838.0877   498328.5776  3730203.3049                  APPROX POSITION XYZ 
        0.0720        0.0000        0.0000                  ANTENNA: DELTA H/E/N
     1     1                                                WAVELENGTH FACT L1/2
     4    C1    L1    P2    L2                              # / TYPES OF OBSERV 
    30.000                                                  INTERVAL            
  2015    03    04    00    00    0.0000000     GPS         TIME OF FIRST OBS   
  2015    03    04    04    16   30.0000000     GPS         TIME OF LAST OBS    
    16                                                      LEAP SECONDS        
    29                                                      # OF SATELLITES     
   G 1   230   230   229   229                              PRN / # OF OBS      
   G 3   110   110   109   109                              PRN / # OF OBS      
   G 4   384   384   384   384                              PRN / # OF OBS      
   G11   291   291   291   291                              PRN / # OF OBS      
   G14   236   236   236   236                              PRN / # OF OBS      
   G16   455   455   455   455                              PRN / # OF OBS      
   G18   406   406   406   406                              PRN / # OF OBS      
   G19   496   496   496   496                              PRN / # OF OBS      
   G21   280   280   280   280                              PRN / # OF OBS      
   G22   514   514   514   514                              PRN / # OF OBS      
   G27   514   514   514   514                              PRN / # OF OBS      
   G28    73    73    73    73                              PRN / # OF OBS      
   G29    14    14    14    14                              PRN / # OF OBS      
   G31    61    61    61    61                              PRN / # OF OBS      
   G32   288   288   288   288                              PRN / # OF OBS      
   R 1   114   114   114   114                              PRN / # OF OBS      
   R 2   329   329   329   329                              PRN / # OF OBS      
   R 3   459   459   459   459                              PRN / # OF OBS      
   R 4   307   307   307   307                              PRN / # OF OBS      
   R 5   133   133   133   133                              PRN / # OF OBS      
   R 9   272   272   272   266                              PRN / # OF OBS      
   R14    34    34    34    34                              PRN / # OF OBS      
   R15   172   172   172   172                              PRN / # OF OBS      
   R16   295   295   295   295                              PRN / # OF OBS      
   R17   361   361   361   361                              PRN / # OF OBS      
   R18   484   484   484   484                              PRN / # OF OBS      
   R19   330   330   329   329                              PRN / # OF OBS      
   R20    68    68    68    68                              PRN / # OF OBS      
   R24    52    52    52    52                              PRN / # OF OBS      
BIT 2 OF LLI FLAGS DATA COLLECTED UNDER A/S CONDITION       COMMENT             
SNR is mapped to RINEX snr flag value [2-9]                 COMMENT             
Lx:     = 25dBHz -> 1; 26-27dBHz -> 2; 28-31dBHz -> 3       COMMENT             
       32-35dBHz -> 4; 36-38dBHz -> 5; 39-41dBHz -> 6       COMMENT             
       42-44dBHz -> 7; 45-48dBHz -> 8; >=49dBHz -> 9        COMMENT             
                                                            END OF HEADER       
 15 03 04 00 00  0.0000000  0  7G16G18G21G22G27G29G31
  21289441.060   111876786.88409  21289437.760    87176721.96048
  22196812.520   116645168.26909  22196809.880    90892374.92747
  21538380.840   113184963.93109  21538377.320    88196063.99348
  23348956.880   122699721.45808  23348954.320    95610227.24946
  22531025.580   118401392.63309  22531025.340    92260838.73647
  24372737.200   128079579.82808  24372735.880    99802254.02445
  23606877.020   124054931.51908  23606876.600    96666155.78046
 15 03 04 00 00 30.0000000  0  7G16G18G21G22G27G29G31
  21277914.480   111816214.48109  21277911.160    87129522.70348
  22187188.320   116594592.91409  22187185.720    90852965.58847
  21547377.380   113232240.84509  21547373.800    88232903.14948
  23331234.120   122606588.68708  23331231.660    95537656.43346
  22519077.560   118338606.01508  22519077.480    92211914.11448
  24387019.640   128154633.93408  24387018.420    99860737.68846
  23624986.420   124150095.76008  23624985.860    96740309.50146
 15 03 04 00 01  0.0000000  0  7G16G18G21G22G27G29G31
  21266454.960   111755994.41809  21266451.660    87082597.99148
  22177635.200   116544391.10009  22177632.620    90813847.33547
  21556425.540   113279789.04409  21556421.900    88269953.69448
  23313530.060   122513554.24008  23313527.760    95465162.22946
  22507149.180   118275922.55709  22507149.320    92163069.89347
  24401307.900   128229718.68808  24401306.540    99919245.27045
  23643110.340   124245336.66508  23643109.720    96814522.95746
 15 03 04 00 01 30.0000000  0  7G16G18G21G22G27G29G31
  21255062.640   111696127.33009  21255059.340    87035948.31748
  22168153.200   116494563.45309  22168150.700    90775020.62147
  21565524.740   113327605.48109  21565521.040    88307213.24948
  23295844.980   122420619.47708  23295842.680    95392745.68546
  22495240.300   118213341.17508  22495240.460    92114305.20348
  24415601.700   128304833.35308  24415600.500    99977776.14746
  23661248.040   124340650.06008  23661247.420    96888792.89846
 15 03 04 00 02  0.0000000  0  7G16G18G21G22G27G29G31
  21243738.160   111636616.73309  21243734.880    86989576.43548
  22158743.100   116445113.43009  22158740.680    90736488.15447
  21574674.920   113375689.73609  21574671.140    88344681.49848
  23278179.700   122327788.47908  23278177.260    95320409.98647
  22483351.140   118150863.24409  22483351.300    92065621.13548
  24429901.300   128379979.10107  24429900.340   100036331.18346
  23679399.220   124436033.82208  23679398.680    96963117.67046
 15 03 04 00 02 30.0000000  0  7G16G18G21G22G27G29G31
  21232481.480   111577462.53309  21232478.200    86943482.26448
  22149404.800   116396040.61909  22149402.400    90698249.64547
  21583875.180   113424037.20309  21583871.380    88382354.85548
  23260534.260   122235061.54708  23260531.680    95248155.39447
  22471481.300   118088486.74809  22471481.360    92017016.08048
  24444206.440   128455153.69808  24444205.600   100094908.74646
  23697562.920   124531483.37508  23697562.560    97037493.70146
 15 03 04 00 03  0.0000000  0  7G16G18G21G22G27G29G31
  21221292.940   111518666.66909  21221289.680    86897667.31348
  22140138.620   116347346.52209  22140136.080    90660306.21747
  21593125.260   113472646.55209  21593121.480    88420232.26548
  23242909.120   122142441.26808  23242906.320    95175983.88546
  22459630.700   118026211.43309  22459630.700    91968489.88048
  24458517.080   128530356.55508  24458516.500   100153508.32646
  23715738.440   124626995.11408  23715738.260    97111918.17346
 15 03 04 00 03 30.0000000  0  7G16G18G21G22G27G29G31
  21210173.140   111460232.33809  21210169.960    86852134.08248
  22130945.180   116299034.33009  22130942.480    90622660.36647
  21602424.960   113521516.89209  21602421.200    88458313.04548
  23225304.960   122049931.39009  23225302.000    95103898.42846
  22447799.600   117964038.69809  22447799.580    91920043.61248
  24472833.580   128605589.29308  24472832.840   100212131.21245
  23733925.520   124722567.46908  23733925.420    97186389.87446
 15 03 04 00 04  0.0000000  0  7G16G18G21G22G27G29G31
  21199122.440   111402160.69609  21199119.240    86806883.46448
  22121824.560   116251104.91409  22121821.920    90585312.79047
  21611773.820   113570645.31209  21611770.000    88496594.93548
  23207722.180   121957533.28609  23207718.840    95031900.04046
  22435987.860   117901967.33109  22435987.760    91871676.34548
  24487155.540   128680850.66008  24487154.440   100270776.47646
  23752123.280   124818196.09808  23752123.240    97260905.39846
 15 03 04 00 04 30.0000000  0  7G16G18G21G22G27G29G31
  21188142.220   111344459.11609  21188138.980    86761921.19648
  22112778.180   116203565.61409  22112775.540    90548269.19247
  21621172.560   113620035.84009  21621168.640    88535081.04748
  23190162.160   121865255.04509  23190158.560    94959995.04046
  22424196.540   117840003.12109  22424196.220    91823392.55848
  24501483.880   128756146.12808  24501482.680   100329448.16246
  23770332.300   124913883.73508  23770332.100    97335466.90246
 15 03 04 00 05  0.0000000  0  7G16G18G21G22G27G29G31
  21177231.820   111287124.29409  21177228.500    86717244.72348
  22103805.340   116156412.66209  22103802.600    90511526.65447
  21630619.660   113669680.74409  21630615.720    88573765.38748
  23172624.320   121773093.88609  23172620.680    94888181.29946
  22412424.460   117778140.43609  22412424.040    91775187.90448
  24515817.440   128831469.65407  24515815.880   100388141.87545
  23788550.900   125009621.36708  23788550.460    97410067.36146
 15 03 04 00 05 30.0000000  0  7G16G18G21G22G27G29G31
  21166392.540   111230163.49509  21166389.180    86672859.69248
  22094907.280   116109653.12509  22094904.420    90475090.67447
  21640115.740   113719583.33009  21640111.840    88612650.50948
  23155110.180   121681057.32309  23155106.620    94816464.61646
  22400672.680   117716384.65709  22400672.340    91727066.54048
  24530157.260   128906826.77308  24530156.060   100446861.61246
  23806779.440   125105411.33008  23806778.760    97484708.59046
 15 03 04 00 06  0.0000000  0  7G16G18G21G22G27G29G31
  21155624.040   111173574.50909  21155620.640    86628764.38848
  22086083.520   116063284.65209  22086080.580    90438959.44547
  21649659.780   113769737.71509  21649655.940    88651731.85448
  23137619.580   121589144.27509  23137616.100    94744844.18647
  22388940.500   117654731.72209  22388940.180    91679025.31248
  24544502.760   128982213.02108  24544501.860   100505604.09546
  23825016.500   125201246.67908  23825015.780    97559385.15846
 15 03 04 00 06 30.0000000  0  7G16G18G21G22G27G29G31
  21144927.100   111117361.43409  21144923.660    86584961.99848
  22077334.940   116017311.04809  22077331.980    90403135.87047
  21659251.620   113820143.28709  21659247.840    88691008.92148
  23120153.280   121497358.67709  23120149.900    94673323.07047
  22377228.220   117593183.57709  22377227.940    91631065.74748
  24558854.140   129057630.38708  24558853.300   100564370.84545
  23843261.920   125297126.24408  23843261.320    97634096.18246
 15 03 04 00 07  0.0000000  0  6G16G18G21G22G27G31
  21134307.500   111061554.73609  21134304.040    86541476.26848
  22068667.280   115971762.41609  22068664.500    90367643.47047
  21668896.340   113870826.80609  21668892.620    88730502.56848
  23102717.240   121405732.19709  23102714.060    94601925.94146
  22365541.280   117531768.85809  22365541.160    91583210.14248
  23861520.540   125393075.39308  23861520.160    97708861.41046
 15 03 04 00 07 30.0000000  0  6G16G18G21G22G27G31
  21123754.600   111006098.90209  21123751.160    86498263.93548
  22060069.880   115926582.92609  22060067.220    90332438.69847
  21678582.820   113921729.77509  21678579.160    88770167.21448
  23085301.080   121314209.52209  23085297.840    94530609.68646
  22353868.700   117470429.93009  22353868.820    91535413.61648
  23879780.860   125489033.41308  23879780.740    97783633.55146
 15 03 04 00 08  0.0000000  0  6G16G18G21G22G27G31
  21113274.320   110951024.78209  21113270.920    86455349.04348
  22051548.560   115881803.11609  22051546.020    90297545.37047
  21688316.080   113972878.23609  21688312.420    88810023.16448
  23067910.700   121222822.20309  23067907.380    94459398.90146
  22342216.160   117409195.79209  22342216.360    91487698.73648
  23898047.800   125585026.06308  23898048.040    97858432.66746
 15 03 04 00 08 30.0000000  0  6G16G18G21G22G27G31
  21102866.480   110896331.58909  21102863.160    86412730.97548
  22043103.160   115837422.03009  22043100.500    90262962.72547
  21698095.200   114024267.72509  21698091.560    88850066.91748
  23050545.980   121131569.96809  23050542.500    94388293.36347
  22330583.140   117348063.82709  22330583.220    91440063.46448
  23916320.280   125681047.98908  23916320.960    97933254.56846
 15 03 04 00 09  0.0000000  0  7G16G18G19G21G22G27G31
  21092532.840   110842028.63009  21092529.660    86370416.99348
  22034735.300   115793448.47609  22034732.460    90228697.63947
  24535968.480   128937386.63108  24535965.040   100470676.54346
  21707921.140   114075903.40609  21707917.480    88890302.50948
  23033208.640   121040462.34309  23033205.140    94317300.52446
  22318971.020   117287041.24709  22318970.880    91392513.44448
  23934599.060   125777103.05108  23934600.160    98008102.27746
 15 03 04 00 09 30.0000000  0  7G16G18G19G21G22G27G31
  21082258.780   110788038.76609  21082255.720    86328346.97648
  22026430.380   115749805.28309  22026427.320    90194689.98547
  24520761.560   128857472.78408  24520757.220   100408406.11146
  21717778.640   114127705.03909  21717774.920    88930667.41548
  23015884.360   120949423.30509  23015880.760    94246361.09147
  22307364.740   117226049.16409  22307364.420    91344987.16648
  23952868.500   125873108.94408  23952869.900    98082911.66346
 15 03 04 00 10  0.0000000  0  7G16G18G19G21G22G27G31
  21072073.080   110734512.99009  21072070.060    86286638.59148
  22018217.000   115706643.02309  22018213.760    90161057.09047
  24505579.840   128777691.95208  24505575.420   100346239.29545
  21727695.620   114179819.11809  21727691.840    88971275.79348
  22998601.800   120858603.88509  22998598.100    94175592.80447
  22295792.600   117165236.69809  22295792.260    91297600.85548
  23971156.640   125969212.44408  23971158.040    98157797.10646
 15 03 04 00 10 30.0000000  0  7G16G18G19G21G22G27G31
  21061961.940   110681378.57509  21061958.880    86245235.15748
  22010081.120   115663888.40109  22010077.780    90127741.82147
  24490409.240   128697969.24108  24490404.560   100284117.77345
  21737657.420   114232169.13309  21737653.720    89012068.01248
  22981347.340   120767932.32609  22981343.700    94104939.71947
  22284240.340   117104529.11409  22284240.020    91250296.28448
  23989448.580   126065335.32208  23989449.820    98232697.65146
 15 03 04 00 11  0.0000000  0  7G16G18G19G21G22G27G31
  21051927.940   110628649.16309  21051924.760    86204147.30148
  22002025.280   115621555.05509  22002021.960    90094754.82247
  24475251.900   128618316.48208  24475246.760   100222050.78545
  21747665.960   114284764.91508  21747662.420    89053051.72148
  22964123.920   120677423.22109  22964120.240    94034413.22347
  22272710.240   117043938.28009  22272709.900    91203082.66548
  24007745.860   126161486.10408  24007747.060    98307619.87546
 15 03 04 00 11 30.0000000  0  7G16G18G19G21G22G27G31
  21041968.640   110576312.09709  21041965.340    86163365.17648
  21994046.860   115579629.51509  21994043.880    90062085.59747
  24460104.700   128538718.57808  24460099.540   100160026.48546
  21757718.160   114337589.84009  21757714.800    89094213.99748
  22946929.040   120587063.77909  22946925.340    93964003.35147
  22261199.500   116983449.47909  22261199.200    91155948.56948
  24026045.120   126257647.27308  24026046.340    98382550.19346
 15 03 04 00 12  0.0000000  0  7G16G18G19G21G22G27G31
  21032085.680   110524376.55609  21032082.340    86122895.92748
  21986147.820   115538120.83509  21986145.120    90029741.18847
  24444969.000   128459182.68608  24444964.200   100098050.57646
  21767815.040   114390649.09209  21767811.680    89135558.86248
  22929764.600   120496864.15109  22929761.020    93893718.02247
  22249709.660   116923070.21509  22249709.340    91108899.80248
  24044347.240   126353823.17708  24044348.480    98457491.99246
 15 03 04 00 12 30.0000000  0  7G16G18G19G21G22G27G31
  21022278.460   110472839.32409  21022275.160    86082737.05348
  21978327.560   115497025.24209  21978324.960    89997718.67247
  24429844.340   128379703.69008  24429840.140   100036118.92845
  21777955.260   114443935.75309  21777951.820    89177080.93048
  22912630.100   120406821.43309  22912626.500    93823554.96447
  22238239.620   116862795.08109  22238239.300    91061932.18248
  24062650.520   126450005.21608  24062651.900    98532438.52346
 15 03 04 00 13  0.0000000  0  7G16G18G19G21G22G27G31
  21012548.160   110421706.22109  21012544.880    86042893.07548
  21970587.100   115456348.80509  21970584.500    89966022.79447
  24414731.260   128300285.57708  24414727.120    99974234.73546
  21788139.200   114497452.09109  21788135.680    89218781.96848
  22895526.740   120316942.32309  22895523.080    93753519.39047
  22226790.280   116802628.64009  22226790.000    91015049.27048
  24080955.280   126546194.43708  24080956.680    98607390.64646
 15 03 04 00 13 30.0000000  0  7G16G18G19G21G22G27G31
  21002895.140   110370978.98309  21002891.840    86003365.36148
  21962926.560   115416092.62909  21962923.940    89934654.36447
  24399629.740   128220927.96708  24399626.140    99912397.72246
  21798366.380   114551196.05609  21798362.840    89260660.37948
  22878454.920   120227229.32209  22878451.260    93683613.23347
  22215361.580   116742570.64009  22215361.360    90968250.84448
  24099260.840   126642388.13408  24099262.320    98682346.24046
 15 03 04 00 14  0.0000000  0  7G16G18G19G21G22G27G31
  20993319.280   110320657.49909  20993316.000    85964153.82748
  21955345.740   115376255.52209  21955343.060    89903612.46647
  24384539.580   128141628.55708  24384535.920    99850605.98645
  21808635.960   114605162.88509  21808632.360    89302712.44548
  22861414.660   120137682.55309  22861410.980    93613836.59447
  22203953.120   116682618.85709  22203952.960    90921535.18948
  24117566.220   126738580.78908  24117567.780    98757300.99446
 15 03 04 00 14 30.0000000  0  7G16G18G19G21G22G27G31
  20983823.440   110270756.48109  20983820.180    85925269.92348
  21947847.520   115336852.10709  21947844.720    89872908.53947
  24369462.620   128062399.88508  24369459.100    99788869.46945
  21818950.080   114659364.02509  21818946.400    89344947.09948
  22844408.940   120048317.40409  22844405.280    93544201.49847
  22192567.340   116622786.19209  22192567.220    90874912.35648
  24135873.200   126834781.98808  24135874.820    98832262.38846
 15 03 04 00 15  0.0000000  0 15G16G18G19G21G22G27G31R01R02R14R15R16
                                R17R18R24
  20974403.800   110221255.57309  20974400.500    85886697.78748
  21940428.000   115297861.80109  21940425.080    89842526.51247
  24354394.940   127983220.14008  24354391.820    99727171.02445
  21829304.200   114713775.58409  21829300.500    89387345.71748
  22827434.020   119959114.60109  22827430.360    93474692.89447
  22181200.080   116563050.91909  22181199.960    90828365.42748
  24154177.080   126930966.99908  24154178.800    98907211.15546
  22451947.580   120018544.42108  22451951.320    93347780.95906
  21893265.240   116826702.73409  21893267.520    90865240.65707
  22706175.000   121036624.95706  22706183.560    94139603.36405
  20264612.160   108287947.03908  20264616.680    84223972.46908
  21563061.080   115186010.53908  21563063.360    89589131.26307
  20155772.760   107857624.88809  20155773.160    83889273.70808
  21426003.940   114373568.16609  21426007.000    88957284.14608
  22908151.280   122500171.13307  22908152.700    95277908.21105
 15 03 04 00 15 30.0000000  0 15G16G18G19G21G22G27G31R01R02R14R15R16
                                R17R18R24
  20965063.640   110172172.35409  20965060.220    85848451.12348
  21933090.380   115259301.91509  21933087.400    89812479.87547
  24339339.520   127904104.34307  24339336.240    99665522.36246
  21839700.880   114768410.83209  21839697.240    89429918.63548
  22810493.380   119870092.08509  22810489.780    93405324.77847
  22169854.400   116503428.59009  22169854.080    90781906.49048
  24172480.260   127027148.27808  24172482.060    98982157.00346
  22455306.940   120036501.89008  22455310.580    93361747.87306
  21877800.440   116744179.84909  21877803.300    90801056.22407
  22731403.540   121171106.62406  22731412.200    94244199.76305
  20276946.140   108353855.11809  20276950.540    84275234.28208
  21550310.900   115117901.12008  21550313.200    89536157.27907
  20159686.260   107878566.94009  20159686.680    83905561.96208
  21416587.860   114323304.65709  21416590.940    88918190.34508
  22922654.680   122577726.91808  22922655.920    95338229.35505
 15 03 04 00 16  0.0000000  0 15G16G18G19G21G22G27G31R01R02R14R15R16
                                R17R18R24
  20955802.300   110123503.92909  20955798.840    85810527.67548
  21925833.860   115221168.77609  21925830.920    89782765.76447
  24324295.780   127825048.17308  24324292.100    99603920.17645
  21850138.880   114823263.23409  21850135.280    89472660.76148
  22793586.620   119781247.26509  22793583.100    93336095.10847
  22158529.360   116443914.74809  22158528.860    90735532.09748
  24190781.120   127123318.17108  24190783.060    99057093.91646
  22458806.080   120055206.57408  22458809.700    93376295.98606
  21862424.680   116662132.85909  21862428.360    90737241.98807
  22756654.900   121305709.36506  22756663.760    94348890.29805
  20289410.800   108420460.79908  20289414.900    84327038.68608
  21537690.520   115050485.20608  21537692.900    89483722.69008
  20163632.980   107899686.84009  20163633.420    83921988.53808
  21407206.740   114273227.75109  21407209.900    88879241.66308
  22937155.560   122655269.30607  22937156.380    95398540.13005
 15 03 04 00 16 30.0000000  0 15G16G18G19G21G22G27G31R01R02R14R15R16
                                R17R18R24
  20946620.400   110075253.26209  20946616.980    85772929.75348
  21918659.020   115183465.22109  21918656.100    89753386.38447
  24309263.340   127746052.23308  24309259.680    99542364.99045
  21860618.120   114878332.00109  21860614.580    89515571.48848
  22776714.520   119692584.21508  22776711.060    93267007.10747
  22147225.080   116384510.46409  22147224.560    90689243.06848
  24209079.480   127219474.97008  24209081.640    99132020.61546
  22462444.940   120074659.06208  22462448.620    93391425.71305
  21847139.280   116580566.98209  21847143.160    90673801.88608
  22781928.300   121440429.90206  22781937.600    94453672.42605
  20302005.600   108487761.83908  20302009.320    84379383.90608
  21525200.700   114983766.81108  21525203.200    89431830.62508
  20167612.940   107920984.22508  20167613.360    83938553.17708
  21397860.620   114223337.84809  21397863.720    88840438.44308
  22951654.200   122732799.26107  22951654.780    95458841.13705
 15 03 04 00 17  0.0000000  0 15G16G18G19G21G22G27G31R01R02R14R15R16
                                R17R18R24
  20937518.300   110027422.04209  20937514.960    85735658.67048
  21911566.100   115146192.14209  21911563.160    89724342.45447
  24294242.400   127667116.45608  24294239.180    99480856.64946
  21871138.160   114933614.96709  21871134.620    89558649.13448
  22759877.540   119604105.43809  22759874.080    93198062.69747
  22135941.660   116325215.62809  22135941.100    90643039.32348
  24227374.700   127315614.88708  24227377.020    99206934.14446
  22466223.300   120094858.25308  22466227.260    93407136.20105
  21831944.780   116499485.97909  21831948.540    90610738.91708
  22807222.960   121575263.30106  22807232.440    94558542.32305
  20314729.960   108555755.09609  20314733.280    84432267.52308
  21512841.900   114917748.52808  21512844.460    89380483.08808
  20171625.640   107942457.34408  20171626.180    83955254.48308
  21388549.340   114173633.64609  21388552.320    88801779.62508
  22966150.380   122810316.10708  22966150.660    95519132.01104
 15 03 04 00 17 30.0000000  0 15G16G18G19G21G22G27G31R01R02R14R15R16
                                R17R18R24
  20928497.020   109980015.01209  20928493.720    85698718.11748
  21904556.040   115109354.02609  21904553.040    89695637.43647
  24279233.300   127588243.40308  24279229.780    99419397.19146
  21881699.200   114989113.38609  21881695.660    89601894.63948
  22743076.620   119515816.02309  22743073.040    93129265.78147
  22124679.600   116266033.34809  22124679.040    90596923.29348
  24245666.840   127411738.16708  24245669.200    99281834.69146
  22470141.920   120115806.85908  22470145.900    93423429.57205
  21816842.500   116418896.93508  21816846.180    90548058.53008
  22832538.660   121710208.34606  22832548.040    94663499.04305
  20327583.600   108624439.34109  20327586.540    84485688.57108
  21500615.160   114852435.89108  21500617.800    89329684.39608
  20175671.640   107964108.77809  20175672.280    83972094.47508
  21379273.220   114124117.53509  21379276.220    88763267.11308
  22980644.440   122887822.09208  22980644.720    95579414.45205
 15 03 04 00 18  0.0000000  0 15G16G18G19G21G22G27G31R01R02R14R15R16
                                R17R18R24
  20919556.640   109933032.83709  20919553.380    85662108.63248
  21897628.780   115072950.82409  21897625.780    89667271.34447
  24264235.980   127509432.13607  24264232.100    99357985.83246
  21892300.580   115044824.03509  21892297.080    89645305.52848
  22726311.940   119427717.20809  22726308.340    93060617.41647
  22113438.700   116206962.46109  22113438.200    90550894.07048
  24263954.900   127507840.35108  24263957.480    99356718.75046
  22474200.420   120137503.03308  22474204.380    93440304.40305
  21801832.680   116338802.46709  21801836.520    90485762.92908
  22857874.380   121845259.06106  22857883.580    94768537.96005
  20340565.580   108693810.07209  20340568.320    84539643.54508
  21488520.860   114787830.60308  21488523.560    89279435.84007
  20179750.540   107985935.94609  20179751.200    83989071.16808
  21370031.980   114074787.36109  21370035.100    88724899.24408
  22995136.220   122965315.79208  22995136.700    95639687.34005
 15 03 04 00 18 30.0000000  0 15G16G18G19G21G22G27G31R01R02R14R15R16
                                R17R18R24
  20910697.440   109886477.65609  20910694.300    85625831.88048
  21890784.640   115036984.39709  21890781.620    89639245.57947
  24249250.200   127430682.31308  24249246.920    99296622.45546
  21902942.000   115100745.09309  21902938.480    89688880.37648
  22709584.000   119339811.75309  22709580.440    92992119.72647
  22102219.120   116148003.37809  22102218.600    90504951.95148
  24282238.560   127603919.21608  24282241.380    99431584.61745
  22478398.700   120159946.08208  22478402.420    93457760.13105
  21786916.400   116259206.84109  21786919.980    90423855.23808
  22883229.120   121980411.43106  22883238.380    94873655.86805
  20353675.280   108763863.75709  20353677.920    84594129.71108
  21476559.500   114723935.44708  21476562.140    89229739.60707
  20183862.140   108007937.98008  20183862.780    84006183.85308
  21360825.480   114025642.35609  21360828.600    88686675.37208
  23009625.820   123042797.30708  23009626.300    95699950.70705
 15 03 04 00 19  0.0000000  0 15G16G18G19G21G22G27G31R01R02R14R15R16
                                R17R18R24
  20901919.540   109840349.65109  20901916.400    85589887.98648
  21884023.580   115001454.48409  21884020.520    89611559.95147
  24234276.120   127351992.73608  24234272.820    99235305.93246
  21913622.840   115156873.36409  21913619.360    89732616.68448
  22692893.060   119252100.77308  22692889.460    92923773.58147
  22091020.560   116089154.81109  22091020.080    90459095.95148
  24300517.000   127699970.07908  24300520.060    99506428.64745
  22482736.500   120183133.94908  22482739.760    93475795.19405
  21772094.140   116180112.68309  21772097.440    90362337.59108
  22908601.760   122115659.17206  22908611.020    94978847.94005
  20366911.480   108834593.93808  20366914.080    84649142.04908
  21464731.340   114660751.57208  21464733.940    89180596.60907
  20188005.980   108030112.39008  20188006.600    84023430.60708
  21351653.320   113976680.47609  21351656.340    88648593.92808
  23024112.580   123120264.55807  23024113.160    95760203.00505
 15 03 04 00 19 30.0000000  0 15G16G18G19G21G22G27G31R01R02R14R15R16
                                R17R18R24
  20893223.840   109794653.10009  20893220.580    85554280.29248
  21877346.320   114966364.99409  21877343.240    89584217.50847
  24219313.900   127273365.77608  24219310.900    99174038.30646
  21924343.220   115213209.30509  21924339.720    89776514.82148
  22676240.140   119164589.47109  22676236.560    92855583.07347
  22079843.560   116030419.51109  22079843.160    90413328.22248
  24318790.140   127795992.60408  24318793.320    99581250.57746
  22487213.960   120207068.30108  22487217.320    93494410.84905
  21757366.980   116101526.25009  21757370.200    90301214.85808
  22933992.140   122251000.82906  22934001.200    95084113.07404
  20380274.480   108906002.70908  20380277.260    84704682.18608
  21453037.300   114598284.21608  21453039.880    89132010.90208
  20192182.260   108052460.61508  20192182.900    84040812.56608
  21342515.760   113927903.42409  21342518.860    88610656.26008
  23038596.940   123197719.92107  23038597.760    95820446.02205
 15 03 04 00 20  0.0000000  0 15G16G18G19G21G22G27G31R01R02R14R15R16
                                R17R18R24
  20884610.520   109749389.13309  20884607.100    85519009.65048
  21870752.860   114931715.93309  21870749.780    89557218.26247
  24204363.600   127194800.63708  24204360.000    99112818.68046
  21935102.420   115269749.52909  21935098.880    89820572.12747
  22659625.560   119077279.35609  22659621.940    92787549.23247
  22068688.000   115971796.76009  22068687.660    90367648.17548
  24337057.140   127891982.73408  24337060.340    99656047.23245
  22491830.600   120231747.49108  22491834.120    93513605.76705
  21742735.600   116023450.87209  21742738.780    90240489.59507
  22959399.100   122386430.73106  22959408.040    95189446.82305
  20393763.060   108978082.94008  20393766.100    84760744.56308
  21441477.740   114536535.26008  21441480.320    89083983.94107
  20196390.660   108074980.95608  20196391.360    84058328.38108
  21333412.480   113879309.58009  21333415.420    88572861.06108
  23053078.980   123275162.40007  23053079.940    95880679.01305
 15 03 04 00 20 30.0000000  0 15G16G18G19G21G22G27G31R01R02R14R15R16
                                R17R18R24
  20876079.500   109704557.93909  20876076.060    85484076.25048
  21864243.260   114897507.52109  21864240.100    89530562.37247
  24189424.680   127116295.69308  24189420.680    99051646.06746
  21945900.200   115326492.06809  21945896.620    89864787.09448
  22643049.560   118990171.48108  22643045.880    92719673.02548
  22057553.560   115913285.23009  22057553.240    90322054.79948
  24355317.140   127987936.27908  24355320.700    99730815.31146
  22496585.920   120257169.17407  22496589.820    93533378.19305
  21728200.560   115945888.99909  21728203.700    90180163.72507
  22984821.340   122521943.33206  22984830.520    95294844.79305
  20407376.440   109050830.48408  20407379.780    84817325.97108
  21430052.800   114475505.45208  21430055.380    89036516.32107
  20200630.760   108097670.66709  20200631.480    84075975.93008
  21324343.060   113830896.49109  21324345.900    88535206.45508
  23067558.360   123352589.93507  23067559.480    95940900.40305
 15 03 04 00 21  0.0000000  0 15G16G18G19G21G22G27G31R01R02R14R15R16
                                R17R18R24
  20867631.880   109660165.67509  20867628.560    85449484.89048
  21857818.540   114863745.40809  21857815.380    89504254.25947
  24174497.800   127037854.89808  24174494.360    98990523.48446
  21956736.840   115383438.76109  21956733.200    89909161.13548
  22626513.440   118903272.78209  22626509.620    92651959.84747
  22046441.200   115854889.36809  22046440.840    90276551.54348
  24373570.440   128083854.55308  24373574.300    99805555.87646
  22501480.900   120283337.23808  22501485.100    93553731.12705
  21713763.320   115868848.71509  21713766.680    90120243.58007
  23010259.020   122657538.28406  23010268.420    95400306.83105
  20421114.840   109124245.58208  20421118.460    84874426.58808
  21418763.860   114415201.81208  21418766.360    88989613.50807
  20204903.200   108120533.26308  20204903.900    84093757.94708
  21315308.180   113782667.85909  21315310.940    88497695.33008
  23082035.720   123430006.20608  23082036.900    96001113.04505
 15 03 04 00 21 30.0000000  0 15G16G18G19G21G22G27G31R01R02R14R15R16
                                R17R18R24
  20859267.700   109616211.84409  20859264.400    85415235.15748
  21851478.420   114830428.43809  21851475.400    89478293.00547
  24159582.740   126959475.65808  24159579.300    98929448.75146
  21967611.300   115440584.45008  21967607.600    89953690.23948
  22610017.020   118816583.06909  22610013.060    92584409.44847
  22035350.440   115796606.74209  22035350.020    90231136.52248
  24391816.000   128179731.82608  24391820.040    99880264.45746
  22506514.900   120310247.57408  22506519.520    93574661.41405
  21699424.000   115792331.29409  21699427.480    90060730.08307
  23035710.920   122793208.46706  23035720.300    95505827.39805
  20434977.060   109198322.06808  20434980.980    84932041.61208
  21407610.880   114355624.44208  21407613.340    88943275.56408
  20209207.260   108143565.01308  20209207.860    84111671.54108
  21306307.120   113734619.97409  21306309.920    88460324.78708
  23096510.540   123507408.78807  23096511.580    96061315.04505
 15 03 04 00 22  0.0000000  0 15G16G18G19G21G22G27G31R01R02R14R15R16
                                R17R18R24
  20850987.620   109572699.67509  20850984.260    85381329.56748
  21845223.320   114797558.60409  21845220.420    89452680.15947
  24144679.620   126881159.52308  24144676.100    98868423.25546
  21978523.740   115497929.55709  21978520.000    89998374.73547
  22593561.080   118730106.39709  22593557.040    92517025.10047
  22024281.500   115738439.12709  22024281.100    90185811.12248
  24410053.700   128275566.92008  24410057.680    99954940.11845
  22511688.200   120337900.95908  22511692.920    93596169.62706
  21685183.720   115716342.41309  21685187.000    90001627.63807
  23061176.300   122928950.97706  23061185.820    95611404.14705
  20448962.580   109273056.78608  20448966.760    84990168.58408
  21396594.540   114296777.07208  21396597.000    88897505.37908
  20213543.060   108166766.57308  20213543.580    84129717.18208
  21297340.140   113686753.83909  21297342.920    88423095.57608
  23110982.880   123584798.72807  23110983.880    96121507.18505
 15 03 04 00 22 30.0000000  0 15G16G18G19G21G22G27G31R01R02R14R15R16
                                R17R18R24
  20842791.760   109529630.15809  20842788.400    85347768.90548
  21839053.600   114765137.53109  21839050.780    89427417.00647
  24129788.300   126802906.20608  24129784.780    98807446.74946
  21989473.780   115555472.19509  21989470.040    90043213.15148
  22577145.920   118643844.84009  22577141.980    92449808.34747
  22013234.420   115680386.41709  22013234.060    90140575.26848
  24428282.820   128371356.60308  24428286.660   100029580.37445
  22517000.500   120366296.24808  22517004.880    93618254.88305
  21671043.060   115640885.27209  21671046.080    89942938.79107
  23086654.480   123064761.28206  23086664.260    95717033.60305
  20463070.720   109348446.27008  20463075.000    85048804.82208
  21385715.280   114238661.97608  21385717.700    88852304.76108
  20217910.340   108190136.55608  20217910.800    84147893.83108
  21288406.960   113639068.26409  21288409.800    88386006.85408
  23125452.640   123662175.64407  23125453.600    96181689.22305
 15 03 04 00 23  0.0000000  0 15G16G18G19G21G22G27G31R01R02R14R15R16
                                R17R18R24
  20834680.680   109487006.47309  20834677.380    85314555.64648
  21832969.780   114733167.49309  21832967.040    89402505.31047
  24114909.000   126724716.66808  24114905.600    98746519.85846
  22000461.060   115613210.44509  22000457.340    90088203.98248
  22560772.400   118557802.12109  22560768.560    92382762.12047
  22002209.420   115622449.97109  22002209.100    90095430.00548
  24446502.940   128467098.96308  24446506.580   100104183.61445
  22522451.540   120395433.29608  22522455.300    93640917.05505
  21657002.980   115565965.02709  21657005.940    89884667.56807
  23112144.940   123200636.27606  23112154.960    95822713.36805
  20477301.140   109424488.51308  20477305.280    85107948.75608
  21374973.720   114181282.75208  21374976.200    88807676.47807
  20222309.000   108213675.09408  20222309.540    84166201.58108
  21279507.680   113591563.74609  21279510.700    88349058.88908
  23139920.180   123739540.24507  23139921.160    96241861.68405
 15 03 04 00 23 30.0000000  0 15G16G18G19G21G22G27G31R01R02R14R15R16
                                R17R18R24
  20826654.320   109444827.98509  20826651.120    85281689.30148
  21826971.560   114701646.78109  21826968.760    89377943.74747
  24100041.480   126646588.64408  24100037.860    98685640.92246
  22011484.840   115671140.85208  22011481.140    90133344.56348
  22544440.540   118471978.20109  22544436.720    92315886.41547
  21991206.140   115564627.52109  21991205.800    90050373.57648
  24464713.100   128562789.10208  24464716.820   100178746.25545
  22528040.560   120425308.92408  22528044.320    93664153.67906
  21643063.760   115491583.14309  21643066.880    89826814.99507
  23137646.240   123336568.90906  23137656.240    95928437.91305
  20491652.400   109501176.17809  20491656.260    85167594.68008
  21364369.900   114124639.20908  21364372.380    88763620.40508
  20226738.560   108237378.86209  20226739.180    84184637.84908
  21270641.760   113544236.90109  21270644.880    88312249.15808
  23154384.960   123816889.55307  23154385.900    96302022.24605
 15 03 04 00 24  0.0000000  0 15G16G18G19G21G22G27G31R01R02R14R15R16
                                R17R18R24
  20818713.200   109403097.44609  20818710.120    85249172.01148
  21821059.480   114670578.15509  21821056.600    89353734.44747
  24085185.860   126568523.12708  24085182.440    98624810.72946
  22022544.980   115729262.79808  22022541.440    90178634.38748
  22528151.120   118386376.91009  22528147.120    92249184.15047
  21980224.840   115506920.55709  21980224.420    90005407.12148
  24482912.900   128658425.14908  24482916.900   100253266.89346
  22533767.500   120455922.90908  22533771.500    93687964.55606
  21629226.420   115417744.68509  21629229.640    89769385.10608
  23163157.840   123472556.05405  23163167.720    96034204.87105
  20506123.900   109578506.28908  20506127.520    85227740.27008
  21353904.520   114068735.16608  21353907.060    88720139.50008
  20231199.060   108261248.01908  20231199.700    84203202.74508
  21261809.260   113497088.12209  21261812.360    88275577.91708
  23168847.060   123894224.89807  23168847.980    96362171.96605
 15 03 04 00 24 30.0000000  0 15G16G18G19G21G22G27G31R01R02R14R15R16
                                R17R18R24
  20810858.520   109361820.95509  20810855.480    85217008.52048
  21815234.400   114639966.80609  21815231.460    89329881.47047
  24070342.780   126490523.85708  24070339.840    98564032.14746
  22033641.860   115787577.94708  22033638.480    90224074.75948
  22511905.380   118301004.92309  22511901.240    92182660.61647
  21969266.320   115449333.26409  21969265.860    89960533.91648
  24501102.500   128754008.31108  24501107.160   100327746.39346
  22539633.060   120487278.61108  22539637.400    93712352.31606
  21615492.340   115344457.22909  21615495.520    89712383.80008
  23188679.460   123608597.50306  23188689.240    96140013.97805
  20520715.600   109656479.50708  20520719.160    85288386.08108
  21343578.780   114013576.73008  21343581.380    88677238.51208
  20235691.200   108285285.85108  20235691.820    84221898.82208
  21253010.740   113450120.79009  21253013.620    88239047.79808
  23183307.120   123971549.90407  23183308.180    96422313.62005
 15 03 04 00 25  0.0000000  0 15G16G18G19G21G22G27G31R01R02R14R15R16
                                R17R18R24
  20803089.060   109320992.19409  20803085.980    85185193.90248
  21809495.060   114609806.21009  21809492.060    89306379.71147
  24055511.260   126412583.46008  24055508.420    98503299.37745
  22044773.820   115846077.24609  22044770.560    90269658.62748
  22495702.240   118215856.69209  22495697.920    92116311.39247
  21958329.180   115391858.19009  21958328.700    89915748.15848
  24519280.000   128849528.07608  24519285.280   100402176.57846
  22545635.660   120519366.51708  22545640.240    93737309.56606
  21601860.800   115271717.02109  21601864.000    89655808.10907
  23214209.040   123744680.82306  23214218.980    96245855.67705
  20535425.340   109735084.35108  20535428.960    85349523.15808
  21333391.660   113959158.54608  21333394.220    88634913.25708
  20240213.160   108309483.48908  20240213.720    84240719.21308
  21244244.580   113403326.17909  21244247.380    88202652.01508
  23197763.720   124048856.43707  23197764.780    96482440.88905
 15 03 04 00 25 30.0000000  0 15G16G18G19G21G22G27G31R01R02R14R15R16
                                R17R18R24
  20795406.140   109280618.42609  20795403.020    85153733.83048
  21803842.580   114580102.53009  21803839.640    89283234.01747
  24040691.940   126334706.52008  24040689.000    98442616.11746
  22055941.440   115904763.60909  22055938.260    90315388.25048
  22479543.160   118130940.13309  22479538.720    92050142.70047
  21947414.420   115334500.71509  21947414.020    89871054.03948
  24537445.880   128944986.75008  24537451.440   100476559.22746
  22551776.160   120552190.73108  22551780.620    93762839.53506
  21588333.460   115199532.83109  21588336.820    89599664.89808
  23239746.740   123880806.97706  23239756.940    96351730.63305
  20550253.580   109814322.31508  20550257.220    85411152.66808
  21323344.540   113905487.99908  21323346.920    88593169.48508
  20244765.760   108333845.26408  20244766.320    84259667.26208
  21235511.620   113356708.93909  21235514.380    88166394.19908
  23212217.900   124126150.04307  23212219.060    96542558.10205
 15 03 04 00 26  0.0000000  0 15G16G18G19G21G22G27G31R01R02R14R15R16
                                R17R18R24
  20787809.720   109240698.97209  20787806.540    85122627.76048
  21798276.880   114550854.79209  21798274.040    89260443.58848
  24025884.460   126256891.59908  24025881.200    98381981.15546
  22067144.100   115963633.79009  22067140.880    90361261.11648
  22463428.200   118046255.98509  22463423.820    91984155.08947
  21936521.740   115277259.16409  21936521.280    89826450.24348
  24555599.060   129040379.12008  24555604.980   100550890.22645
  22558053.960   120585748.07908  22558058.260    93788939.71306
  21574910.660   115127906.65709  21574914.520    89543955.68308
  23265291.160   124016969.69505  23265301.820    96457633.98105
  20565199.220   109894186.93408  20565202.820    85473269.55408
  21313437.340   113852565.38108  21313439.580    88552007.46608
  20249348.440   108358368.24108  20249349.020    84278740.68908
  21226811.280   113310266.15509  21226814.060    88130272.05208
  23226669.160   124203427.95407  23226670.480    96602663.12305
 15 03 04 00 26 30.0000000  0 15G16G18G19G21G22G27G31R01R02R14R15R16
                                R17R18R24
  20780301.620   109201243.44309  20780298.400    85091883.19648
  21792799.800   114522072.32109  21792796.980    89238015.70747
  24011090.160   126179146.53908  24011086.580    98321400.64046
  22078382.720   116022692.87209  22078379.440    90407281.17347
  22447359.420   117961814.25209  22447355.100    91918356.37747
  21925652.640   115220141.65609  21925652.200    89781943.11648
  24573740.540   129135710.30008  24573746.700   100625173.61345
  22564470.200   120620045.24108  22564474.380    93815615.31306
  21561594.680   115056849.94909  21561598.500    89488689.42408
  23290842.940   124153172.97205  23290854.220    96563568.79304
  20580262.840   109974681.99908  20580266.400    85535876.80708
  21303671.980   113800400.83008  21303674.200    88511435.04907
  20253962.620   108383059.61008  20253963.260    84297945.08708
  21218144.920   113264005.00309  21218147.760    88094291.17308
  23241119.080   124280698.10607  23241120.500    96662762.10805
 15 03 04 00 27  0.0000000  0 15G16G18G19G21G22G27G31R01R02R14R15R16
                                R17R18R24
  20772880.180   109162243.50509  20772876.980    85061493.64248
  21787409.480   114493745.70409  21787406.660    89215943.03748
  23996307.000   126101460.63808  23996303.440    98260866.23946
  22089655.160   116081929.53109  22089651.700    90453439.59947
  22431335.300   117877607.19609  22431331.100    91852740.54248
  21914805.160   115163138.12309  21914804.800    89737524.78548
  24591867.820   129230967.45308  24591874.060   100699399.38545
  22571022.540   120655070.63608  22571026.420    93842857.29705
  21548384.260   114986356.02709  21548387.660    89433860.82908
  23316399.660   124289401.17606  23316411.200    96669523.04404
  20595441.820   110055793.31008  20595445.360    85598963.35908
  21294046.900   113748985.94608  21294049.160    88471445.69508
  20258606.120   108407907.94909  20258606.840    84317271.56708
  21209510.520   113217914.44109  21209513.440    88058442.97008
  23255565.620   124357949.99107  23255567.040    96722846.88805
 15 03 04 00 27 30.0000000  0 16G16G18G19G21G22G27G31R01R02R03R14R15
                                R16R17R18R24
  20765547.540   109123710.56309  20765544.440    85031467.98348
  21782107.900   114465885.41609  21782105.060    89194233.74947
  23981536.880   126023843.91108  23981533.480    98200385.71246
  22100962.960   116141352.13709  22100959.380    90499742.92548
  22415358.300   117793647.47109  22415354.080    91787317.44147
  21903981.400   115106258.88909  21903980.960    89693203.31048
  24609982.160   129326157.79708  24609988.740   100773573.22044
  22577712.480   120690832.91607  22577716.100    93870672.42505
  21535281.920   114916438.90109  21535285.080    89379480.89908
  23583394.480   126243761.58406  23583401.560    98189614.73406
  23341962.400   124425661.14306  23341974.180    96775502.03305
  20610737.240   110137526.92709  20610740.800    85662533.91708
  21284564.500   113698332.97208  21284566.800    88432048.94808
  20263280.700   108432922.62208  20263281.360    84336727.42708
  21200909.840   113172003.63809  21200912.840    88022734.59908
  23270010.660   124435193.63007  23270011.940    96782925.29305
 15 03 04 00 28  0.0000000  0 16G16G18G19G21G22G27G31R01R02R03R14R15
                                R16R17R18R24
  20758302.660   109085638.81409  20758299.640    85001801.69348
  21776893.900   114438485.75909  21776891.000    89172883.37448
  23966778.560   125946288.87108  23966775.080    98139953.22746
  22112304.260   116200950.63209  22112300.620    90546183.31048
  22399427.360   117709929.55609  22399423.100    91722082.73747
  21893179.920   115049496.53909  21893179.400    89648972.91148
  24628081.680   129421270.25708  24628088.620   100847686.30146
  22584538.220   120727322.79208  22584542.020    93899053.43905
  21522286.820   114847094.40009  21522289.920    89325546.31608
  23560441.060   126120892.53307  23560447.540    98094050.63906
  23367528.760   124561940.46505  23367540.800    96881495.96905
  20626146.860   110219870.66608  20626150.440    85726579.00108
  21275223.760   113648436.44708  21275226.100    88393240.53808
  20267984.740   108458095.03408  20267985.420    84356305.97708
  21192341.320   113126264.34409  21192344.320    87987159.59508
  23284452.680   124512420.79407  23284453.700    96842990.86905
 15 03 04 00 28 30.0000000  0 16G16G18G19G21G22G27G31R01R02R03R14R15
                                R16R17R18R24
  20751146.360   109048031.95409  20751143.260    84972497.65548
  21771768.080   114411549.46609  21771765.120    89151894.08047
  23952032.560   125868797.44008  23952029.180    98079570.31046
  22123678.960   116260725.12409  22123675.300    90592760.83847
  22383543.280   117626458.06009  22383538.940    91657040.10347
  21882401.040   114992853.20309  21882400.560    89604835.26348
  24646166.400   129516304.41607  24646173.400   100921738.38044
  22591500.240   120764540.64508  22591504.340    93928000.66405
  21509399.940   114778327.82209  21509402.900    89272061.24308
  23537482.160   125997994.44207  23537488.760    97998464.06806
  23393098.240   124698236.69805  23393110.640    96987502.94804
  20641670.220   110302822.64808  20641673.940    85791097.17608
  21266025.320   113599300.17308  21266027.720    88355023.44608
  20272718.440   108483426.16908  20272719.120    84376007.98308
  21183805.120   113080697.36409  21183808.040    87951718.63908
  23298891.880   124589633.38307  23298892.760    96903045.09305
 15 03 04 00 29  0.0000000  0 16G16G18G19G21G22G27G31R01R02R03R14R15
                                R16R17R18R24
  20744079.120   109010892.83209  20744075.860    84943558.08948
  21766730.880   114385078.94609  21766727.840    89131267.72147
  23937299.040   125791370.90808  23937295.500    98019237.99546
  22135087.020   116320675.20209  22135083.420    90639475.18747
  22367706.720   117543236.75409  22367702.340    91592192.35348
  21871645.160   114936330.82909  21871644.700    89560791.87248
  24664236.040   129611258.70208  24664243.040   100995728.40845
  22598598.840   120802486.81308  22598603.000    93957514.38405
  21496622.300   114710144.70909  21496625.660    89219029.97608
  23514519.120   125875072.99507  23514525.400    97902859.14106
  23418670.440   124834546.95606  23418683.040    97093520.90404
  20657306.720   110386379.68408  20657310.620    85856085.95508
  21256969.820   113550927.53708  21256972.240    88317400.30108
  20277481.960   108508916.77808  20277482.600    84395834.02408
  21175301.380   113035303.82509  21175304.220    87916412.57808
  23313328.540   124666832.47607  23313329.460    96963088.85005
 15 03 04 00 29 30.0000000  0 16G16G18G19G21G22G27G31R01R02R03R14R15
                                R16R17R18R24
  20737101.560   108974224.88909  20737098.140    84914985.66648
  21761782.780   114359076.70209  21761779.740    89111006.25548
  23922577.880   125714011.22408  23922573.960    97958957.79546
  22146528.540   116380801.14209  22146524.980    90686326.56447
  22351918.480   117460270.04909  22351914.200    91527543.04247
  21860912.680   114879931.36409  21860912.220    89516844.26348
  24682290.260   129706132.07007  24682297.180   101069655.32645
  22605833.980   120841161.59908  22605838.020    93987594.80206
  21483954.940   114642550.23609  21483958.400    89166456.54708
  23491552.880   125752133.95007  23491558.660    97807240.52705
  23444245.080   124970868.91506  23444257.580    97199548.02005
  20673056.020   110470539.95608  20673060.100    85921543.89008
  21248058.120   113503322.61308  21248060.520    88280374.24608
  20282275.540   108534567.78908  20282276.040    84415784.81308
  21166830.320   112990084.74409  21166833.180    87881242.20308
  23327763.020   124744020.33807  23327764.120    97023123.82305
 15 03 04 00 30  0.0000000  0 16G16G18G19G21G22G27G31R01R02R03R14R15
                                R16R17R18R24
  20730213.460   108938027.19609  20730209.940    84886779.66348
  21756923.620   114333541.71009  21756920.560    89091108.86248
  23907868.920   125636716.17408  23907865.040    97898727.92546
  22158002.860   116441098.94509  22157999.280    90733311.85847
  22336178.800   117377558.40809  22336174.580    91463092.44547
  21850203.300   114823652.96809  21850202.780    89472990.97648
  24700327.940   129800919.21707  24700334.840   101143514.81745
  22613204.660   120880560.97108  22613208.620    94018238.75606
  21471398.200   114575545.63909  21471401.720    89114341.86008
  23468583.640   125629178.72207  23468589.100    97711609.30006
  23469820.760   125107196.30305  23469833.240    97305579.26804
  20688917.000   110555297.21808  20688921.300    85987466.16608
  21239290.080   113456484.99708  21239292.440    88243944.97208
  20287098.380   108560375.91608  20287098.920    84435857.80308
  21158391.380   112945036.99709  21158394.280    87846205.08108
  23342194.960   124821194.03307  23342195.960    97083147.76605
 15 03 04 00 30 30.0000000  0 15G16G18G19G21G22G27R01R02R03R14R15R16
                                R17R18R24
  20723414.360   108902297.63209  20723410.820    84858938.45148
  21752152.780   114308470.50809  21752149.680    89071572.87648
  23893171.500   125559481.19108  23893167.700    97838544.84246
  22169508.680   116501562.41109  22169505.140    90780426.24348
  22320487.280   117295099.68909  22320483.160    91398838.95147
  21839516.140   114767491.44809  21839515.600    89429228.78148
  22620709.680   120920678.90208  22620713.600    94049441.60806
  21458951.980   114509130.18409  21458955.300    89062685.44508
  23445611.120   125506206.80707  23445615.960    97615965.04106
  23495395.700   125243520.17205  23495408.620    97411607.61704
  20704888.060   110640642.01908  20704892.520    86053845.42908
  21230665.180   113410411.81108  21230667.420    88208110.27408
  20291949.660   108586336.24008  20291950.300    84456049.17008
  21149983.480   112900155.28309  21149986.400    87811297.10208
  23356623.400   124898349.02707  23356624.120    97143157.17505
 15 03 04 00 31  0.0000000  0 15G16G18G19G21G22G27R01R02R03R14R15R16
                                R17R18R24
  20716706.320   108867046.75109  20716702.780    84831470.23848
  21747472.100   114283873.39509  21747469.000    89052406.31647
  23878487.420   125482315.74608  23878483.740    97778415.93646
  22181047.460   116562199.15909  22181044.000    90827675.65547
  22304846.300   117212905.58409  22304842.140    91334791.64648
  21828852.980   114711456.58209  21828852.500    89385565.27148
  22628350.460   120961523.43908  22628354.440    94081209.57506
  21446618.720   114443316.96409  21446622.020    89011497.41208
  23422637.900   125383231.63106  23422642.940    97520318.31906
  23520971.000   125379845.95606  23520984.220    97517637.58205
  20720970.340   110726580.36108  20720974.820    86120686.34908
  21222185.580   113365114.90108  21222187.700    88172879.33808
  20296831.000   108612457.42109  20296831.680    84476365.64608
  21141608.360   112855448.51609  21141611.260    87776525.21108
  23371050.060   124975494.99007  23371050.680    97203159.56304
 15 03 04 00 31 30.0000000  0 15G16G18G19G21G22G27R01R02R03R14R15R16
                                R17R18R24
  20710089.620   108832275.66909  20710086.040    84804375.88048
  21742881.540   114259750.09709  21742878.380    89033608.96048
  23863816.220   125405218.74508  23863812.800    97718340.42046
  22192618.620   116623006.38908  22192615.280    90875057.89947
  22289256.040   117130977.89409  22289251.880    91270951.94547
  21818213.740   114655547.58909  21818213.300    89341999.82948
  22636126.480   121003091.54308  22636130.580    94113540.30405
  21434398.620   114378108.28809  21434401.980    88960779.58008
  23399664.640   125260256.16906  23399669.180    97424671.24906
  23546545.700   125516168.15406  23546558.820    97623664.84104
  20737162.760   110813106.90809  20737167.140    86187984.75808
  21213851.340   113320594.70308  21213853.340    88138252.52108
  20301742.080   108638737.49508  20301742.680    84496805.69308
  21133265.600   112810914.82009  21133268.600    87741887.90608
  23385474.700   125052630.29507  23385475.520    97263153.69804
 15 03 04 00 32  0.0000000  0 14G16G18G19G21G22G27R01R02R03R15R16R17
                                R18R24
  20703563.800   108797982.32409  20703560.220    84777653.79748
  21738380.640   114236098.19709  21738377.500    89015178.91847
  23849157.540   125328187.48708  23849154.060    97658316.09047
  22204221.320   116683979.14908  22204217.980    90922569.13347
  22273716.200   117049315.80509  22273712.260    91207319.18748
  21807597.960   114599761.73009  21807597.600    89298530.34548
  22644037.000   121045378.53908  22644041.080    94146430.21205
  21422291.920   114313504.63309  21422295.180    88910532.32008
  23376691.420   125137281.02306  23376695.960    97329024.52105
  20753463.960   110900214.26109  20753468.120    86255734.89208
  21205662.160   113276850.02208  21205664.320    88104228.88208
  20306682.120   108665172.59308  20306682.700    84517366.32308
  21124954.540   112766550.59609  21124957.660    87707382.42808
  23399896.760   125129752.09807  23399897.820    97323137.32504
 15 03 04 00 32 30.0000000  0 14G16G18G19G21G22G27R01R02R03R15R16R17
                                R18R24
  20697128.400   108764164.37409  20697124.880    84751302.14848
  21733969.020   114212915.46609  21733966.020    88997114.47947
  23834510.720   125251217.74908  23834506.820    97598339.67946
  22215854.480   116745111.34709  22215851.040    90970204.61047
  22258226.480   116967917.75909  22258222.780    91143892.20047
  21797005.000   114544095.59709  21797004.660    89255154.16348
  22652081.100   121088378.76408  22652085.060    94179874.87205
  21410298.420   114249505.27809  21410301.580    88860755.07508
  23353718.200   125014306.62607  23353722.920    97233378.31606
  20769872.320   110987894.36009  20769876.180    86323930.48108
  21197617.740   113233878.63908  21197620.080    88070806.71608
  20311650.200   108691758.04408  20311650.840    84538043.89608
  21116674.340   112722350.90309  21116677.480    87673004.91008
  23414315.660   125206856.49807  23414316.800    97383107.40304
 15 03 04 00 33  0.0000000  0 14G16G18G19G21G22G27R01R02R03R15R16R17
                                R18R24
  20690785.320   108730831.66509  20690781.920    84725328.61348
  21729648.300   114190210.65209  21729645.420    88979422.43448
  23819877.120   125174317.61508  23819873.100    97538417.56946
  22227519.300   116806409.79409  22227515.680    91017969.63747
  22242789.020   116886794.55509  22242785.460    91080679.35948
  21786436.460   114488557.59209  21786436.140    89211877.81248
  22660259.880   121132098.59808  22660263.780    94213879.20905
  21398420.280   114186122.21809  21398423.660    88811457.19608
  23330747.480   124891345.07107  23330751.860    97137742.00705
  20786388.420   111076150.32709  20786391.980    86392573.97808
  21189719.940   113191690.44708  21189722.440    88037993.67808
  20316647.780   108718501.38308  20316648.480    84558844.27308
  21108426.500   112678323.52809  21108429.660    87638761.42708
  23428732.880   125283951.48607  23428733.980    97443070.13204
 15 03 04 00 33 30.0000000  0 14G16G18G19G21G22G27R01R02R03R15R16R17
                                R18R24
  20684534.240   108697982.22009  20684530.900    84699731.64348
  21725418.000   114167980.95609  21725415.220    88962100.60548
  23805256.180   125097483.88608  23805252.220    97478547.17146
  22239214.720   116867869.19109  22239211.040    91065860.06447
  22227403.760   116805944.81209  22227400.180    91017679.60848
