     2.11           OBSERVATION DATA    M                   RINEX VERSION / TYPE
SPIDER V4,0,0,3554                      2015 03 19 01:04    PGM / RUN BY / DATE 
CNGR                                                        MARKER NAME         
CNGR                                                        MARKER NUMBER       
                                                            OBSERVER / AGENCY   
496521              LEICA GRX1200+GNSS  8.10/4.007          REC # / TYPE / VERS 
10321004            LEIAR25         NONE                    ANT # / TYPE        
  5218738.7445   688113.1521  3590185.5476                  APPROX POSITION XYZ 
        0.0720        0.0000        0.0000                  ANTENNA: DELTA H/E/N
     1     1                                                WAVELENGTH FACT L1/2
     4    C1    L1    P2    L2                              # / TYPES OF OBSERV 
    30.000                                                  INTERVAL            
  2015    03    04    00    00    0.0000000     GPS         TIME OF FIRST OBS   
  2015    03    04    23    59   30.0000000     GPS         TIME OF LAST OBS    
    16                                                      LEAP SECONDS        
    54                                                      # OF SATELLITES     
   G 1   814   814   814   814                              PRN / # OF OBS      
   G 2   924   924   924   924                              PRN / # OF OBS      
   G 3   861   861   861   861                              PRN / # OF OBS      
   G 4   843   843   843   843                              PRN / # OF OBS      
   G 5   609   609   609   609                              PRN / # OF OBS      
   G 6   823   823   823   823                              PRN / # OF OBS      
   G 7   667   666   666   666                              PRN / # OF OBS      
   G 9   817   817   817   817                              PRN / # OF OBS      
   G10   711   710   710   710                              PRN / # OF OBS      
   G11   776   776   776   776                              PRN / # OF OBS      
   G12   819   819   819   819                              PRN / # OF OBS      
   G13   792   792   791   791                              PRN / # OF OBS      
   G14   936   936   936   936                              PRN / # OF OBS      
   G15   697   696   696   696                              PRN / # OF OBS      
   G16   666   666   666   666                              PRN / # OF OBS      
   G17   935   934   934   934                              PRN / # OF OBS      
   G18   902   900   901   900                              PRN / # OF OBS      
   G19   754   754   754   754                              PRN / # OF OBS      
   G20   726   726   726   726                              PRN / # OF OBS      
   G21   735   735   735   735                              PRN / # OF OBS      
   G22   670   669   669   668                              PRN / # OF OBS      
   G23   761   761   761   761                              PRN / # OF OBS      
   G24   826   826   826   826                              PRN / # OF OBS      
   G25   860   860   860   860                              PRN / # OF OBS      
   G27   810   810   810   810                              PRN / # OF OBS      
   G28   855   855   855   855                              PRN / # OF OBS      
   G29   769   769   769   769                              PRN / # OF OBS      
   G30   717   717   717   717                              PRN / # OF OBS      
   G31   864   864   864   864                              PRN / # OF OBS      
   G32   777   777   777   777                              PRN / # OF OBS      
   R 1   675   675   675   675                              PRN / # OF OBS      
   R 2   972   972   971   971                              PRN / # OF OBS      
   R 3   989   989   987   979                              PRN / # OF OBS      
   R 4   834   834   833   829                              PRN / # OF OBS      
   R 5   694   694   694   694                              PRN / # OF OBS      
   R 6   784   784   784   783                              PRN / # OF OBS      
   R 7   746   746   745   737                              PRN / # OF OBS      
   R 8   646   646   646   644                              PRN / # OF OBS      
   R 9   850   850   834   831                              PRN / # OF OBS      
   R10   589   589   589   589                              PRN / # OF OBS      
   R11   685   685   684   683                              PRN / # OF OBS      
   R12   778   778   778   778                              PRN / # OF OBS      
   R13   736   736   736   736                              PRN / # OF OBS      
   R14   717   715   713   713                              PRN / # OF OBS      
   R15   987   987   987   985                              PRN / # OF OBS      
   R16  1010  1010  1010  1010                              PRN / # OF OBS      
   R17   951   951   950   950                              PRN / # OF OBS      
   R18  1003   999   995   991                              PRN / # OF OBS      
   R19   775   775   775   773                              PRN / # OF OBS      
   R20   576   576   576   576                              PRN / # OF OBS      
   R21   779   779   778   778                              PRN / # OF OBS      
   R22   821   821   819   815                              PRN / # OF OBS      
   R23   762   762   757   756                              PRN / # OF OBS      
   R24   638   638   638   638                              PRN / # OF OBS      
BIT 2 OF LLI FLAGS DATA COLLECTED UNDER A/S CONDITION       COMMENT             
SNR is mapped to RINEX snr flag value [2-9]                 COMMENT             
Lx:     = 25dBHz -> 1; 26-27dBHz -> 2; 28-31dBHz -> 3       COMMENT             
       32-35dBHz -> 4; 36-38dBHz -> 5; 39-41dBHz -> 6       COMMENT             
       42-44dBHz -> 7; 45-48dBHz -> 8; >=49dBHz -> 9        COMMENT             
                                                            END OF HEADER       
 15 03 04 00 00  0.0000000  0  7G16G18G21G22G27G29G31
  21445960.600   112699304.26509  21445957.720    87817638.61748
  22009668.780   115661764.79109  22009666.660    90126102.94848
  21537836.400   113182102.25209  21537832.840    88193835.90548
  23158709.700   121699989.07208  23158707.020    94831201.18647
  22730818.360   119451308.67808  22730818.580    93078957.06047
  24227645.360   127317115.26008  24227644.520    99208128.55646
  23530177.580   123651860.90308  23530177.260    96352073.93947
 15 03 04 00 00 30.0000000  0  7G16G18G21G22G27G29G31
  21433689.940   112634822.29209  21433687.140    87767392.93648
  22000573.800   115613970.23309  22000571.660    90088860.47647
  21546928.400   113229881.38608  21546924.960    88231066.39948
  23141084.420   121607367.93409  23141081.620    94759029.07047
  22718802.220   119388163.71508  22718802.320    93029753.21147
  24241267.400   127388699.15108  24241266.520    99263908.23346
  23547748.720   123744196.69508  23547748.360    96424023.59546
 15 03 04 00 01  0.0000000  0  7G16G18G21G22G27G29G31
  21421483.600   112570677.77709  21421480.800    87717410.19848
  21991552.400   115566562.21709  21991550.160    90051919.18747
  21556067.820   113277909.82209  21556064.500    88268491.14448
  23123481.000   121514862.09209  23123478.220    94686946.77747
  22706800.880   119325096.34008  22706800.880    92980609.82647
  24254896.560   127460320.88108  24254895.880    99319717.30646
  23565335.080   123836612.55208  23565334.820    96496035.64146
 15 03 04 00 01 30.0000000  0  7G16G18G21G22G27G29G31
  21409342.240   112506874.22809  21409339.320    87667693.15248
  21982605.160   115519544.03009  21982602.880    90015281.65947
  21565254.600   113326187.36009  21565251.460    88306109.99748
  23105900.360   121422475.69609  23105897.600    94614957.55447
  22694814.700   119262108.24708  22694814.640    92931528.21447
  24268533.300   127531982.56508  24268532.860    99375557.53046
  23582936.420   123929107.09909  23582936.220    96568109.00546
 15 03 04 00 02  0.0000000  0  7G16G18G21G22G27G29G31
  21397266.040   112443412.89109  21397262.960    87618242.75748
  21973732.280   115472916.67109  21973729.920    89978948.68147
  21574488.280   113374711.19909  21574485.280    88343920.79048
  23088342.800   121330210.43509  23088340.000    94543062.72547
  22682843.420   119199198.39109  22682843.340    92882507.57447
  24282177.500   127603683.07308  24282176.860    99431428.07846
  23600551.900   124021675.82808  23600551.680    96640240.17346
 15 03 04 00 02 30.0000000  0  7G16G18G21G22G27G29G31
  21385255.460   112380296.42009  21385252.300    87569061.09348
  21964934.160   115426682.31709  21964931.720    89942921.93647
  21583768.560   113423479.38909  21583765.520    88381921.96748
  23070808.840   121238069.30709  23070806.020    94471264.60647
  22670887.120   119136367.39309  22670887.000    92833548.38347
  24295829.160   127675422.97208  24295828.380    99487329.25146
  23618181.160   124114316.82809  23618180.940    96712427.62346
 15 03 04 00 03  0.0000000  0  7G16G18G21G22G27G29G31
  21373311.260   112317529.03709  21373308.040    87520151.45448
  21956211.500   115380844.56809  21956209.060    89907204.24347
  21593095.540   113472492.79009  21593092.440    88420114.22348
  23053299.340   121146057.09409  23053296.540    94399566.95647
  22658946.140   119073617.18808  22658946.100    92784652.15648
  24309488.540   127747204.04508  24309487.800    99543262.51246
  23635823.880   124207028.64908  23635823.820    96784670.26247
 15 03 04 00 03 30.0000000  0  7G16G18G21G22G27G29G31
  21361433.740   112255112.35009  21361430.540    87471515.08348
  21947564.600   115335404.76809  21947562.080    89871796.62947
  21602468.720   113521748.78909  21602465.560    88458495.51948
  23035814.700   121054175.85009  23035811.860    94327971.34747
  22647020.440   119010947.44208  22647020.540    92735818.60448
  24323155.760   127819026.18908  24323155.080    99599227.75946
  23653479.440   124299808.01108  23653479.500    96856965.51346
 15 03 04 00 04  0.0000000  0  7G16G18G21G22G27G29G31
  21349622.880   112193045.92809  21349619.680    87423151.64348
  21938993.300   115290362.12509  21938990.680    89836698.49447
  21611887.180   113571242.87809  21611883.940    88497062.33648
  23018354.860   120962425.30809  23018352.080    94256477.58247
  22635109.580   118948355.32708  22635109.640    92687045.54848
  24336830.240   127890886.67308  24336829.540    99655222.91546
  23671146.700   124392648.91908  23671146.860    96929308.73446
 15 03 04 00 04 30.0000000  0  7G16G18G21G22G27G29G31
  21337879.640   112131334.70109  21337876.420    87375064.97348
  21930498.460   115245721.25809  21930495.700    89801913.42147
  21621351.220   113620976.48409  21621347.900    88535815.79348
  23000920.960   120870810.96409  23000918.200    94185089.95047
  22623214.060   118885843.92608  22623214.060    92638335.39747
  24350512.500   127962788.44108  24350511.720    99711250.24045
  23688825.680   124485551.46208  23688825.900    97001699.94746
 15 03 04 00 05  0.0000000  0  7G16G18G21G22G27G29G31
  21326203.800   112069977.85809  21326200.560    87327254.45648
  21922079.800   115201480.76709  21922076.900    89767440.34447
  21630859.840   113670944.31709  21630856.460    88574751.77548
  22983512.980   120779332.53909  22983510.180    94113808.21547
  22611333.320   118823410.12708  22611333.240    92589685.71647
  24364202.180   128034728.04808  24364201.340    99767307.08746
  23706515.160   124578509.13508  23706515.540    97074134.11846
 15 03 04 00 05 30.0000000  0  7G16G18G21G22G27G29G31
  21314596.380   112008980.62209  21314593.180    87279724.16148
  21913738.220   115157645.41309  21913735.340    89733282.97047
  21640413.260   113721147.54109  21640409.800    88613871.17748
  22966131.900   120687995.31409  22966129.040    94042636.51447
  22599467.940   118761057.05508  22599467.780    92541098.93947
  24377899.820   128106708.83308  24377898.980    99823395.95546
  23724215.160   124671522.03608  23724215.720    97146611.34346
 15 03 04 00 06  0.0000000  0  7G16G18G21G22G27G29G31
  21303057.720   111948344.82309  21303054.580    87232475.48848
  21905474.080   115114216.72809  21905471.020    89699442.45748
  21650011.100   113771584.17909  21650007.600    88653172.43948
  22948778.240   120596802.14809  22948775.380    93971577.03747
  22587617.820   118698784.60408  22587617.680    92492574.96148
  24391605.280   128178730.60808  24391604.280    99879516.82146
  23741925.080   124764587.10008  23741925.640    97219129.18646
 15 03 04 00 06 30.0000000  0  7G16G18G21G22G27G29G31
  21291588.640   111888074.54509  21291585.520    87185511.64848
  21897288.060   115071198.28809  21897284.800    89665921.61547
  21659653.220   113822253.54409  21659649.660    88692655.06048
  22931452.840   120505756.92409  22931449.780    93900632.83447
  22575783.400   118636594.65108  22575783.280    92444115.28948
  24405318.840   128250795.06608  24405317.720    99935670.91146
  23759644.720   124857703.13108  23759645.460    97291686.71946
 15 03 04 00 07  0.0000000  0  7G16G18G21G22G27G29G31
  21280188.900   111828168.70109  21280185.780    87138831.78448
  21889179.700   115028588.46609  21889176.300    89632719.18148
  21669338.680   113873150.77409  21669335.100    88732315.24448
  22914155.620   120414859.65909  22914152.480    93829803.94147
  22563964.020   118574484.05808  22563964.020    92395717.45448
  24419039.760   128322898.92508  24419038.560    99991855.72246
  23777372.900   124950863.77708  23777373.720    97364279.02746
 15 03 04 00 07 30.0000000  0  7G16G18G21G22G27G29G31
  21268859.560   111768632.61009  21268856.420    87092440.03248
  21881149.920   114986392.02409  21881146.520    89599838.85747
  21679067.900   113924278.08909  21679064.320    88772154.70048
  22896887.580   120324115.73309  22896884.380    93759094.51347
  22552160.340   118512456.00008  22552160.540    92347383.92548
  24432768.740   128395045.71608  24432767.740   100048073.95246
  23795109.600   125044069.04408  23795110.520    97436906.08146
 15 03 04 00 08  0.0000000  0  7G16G18G21G22G27G29G31
  21257600.320   111709464.76009  21257597.160    87046335.22748
  21873198.340   114944606.97709  21873195.060    89567279.11147
  21688839.680   113975629.06609  21688836.080    88812168.44248
  22879648.500   120233524.22909  22879645.320    93688503.84747
  22540371.760   118450506.95608  22540372.100    92299111.97048
  24446505.220   128467231.93208  24446504.360   100104322.92046
  23812853.560   125137312.23108  23812854.500    97509562.67046
 15 03 04 00 08 30.0000000  0  7G16G18G21G22G27G29G31
  21246412.160   111650670.35909  21246408.940    87000521.40648
  21865325.920   114903238.11109  21865322.780    89535043.65347
  21698654.300   114027205.16609  21698650.660    88852357.60748
  22862439.460   120143090.82009  22862436.280    93618036.37347
  22528598.880   118388640.18308  22528599.280    92250904.13348
  24460249.700   128539460.48408  24460249.060   100160604.88646
  23830604.840   125230593.81908  23830605.860    97582249.16546
 15 03 04 00 09  0.0000000  0  7G16G18G21G22G27G29G31
  21235295.260   111592250.57409  21235292.000    86954999.50548
  21857532.840   114862285.93209  21857529.820    89503132.89547
  21708511.160   114079003.34409  21708507.500    88892719.81948
  22845260.780   120052816.77309  22845257.560    93547693.08247
  22516841.520   118326854.62909  22516841.920    92202759.57248
  24474002.040   128611729.70008  24474001.320   100216918.57745
  23848362.580   125323909.43308  23848363.580    97654962.17046
 15 03 04 00 09 30.0000000  0  7G16G18G21G22G27G29G31
  21224250.120   111534208.07609  21224246.880    86909771.60048
  21849819.580   114821752.89209  21849816.740    89471548.73347
  21718410.140   114131023.06409  21718406.540    88933254.67248
  22828113.140   119962705.76109  22828109.940    93477476.82047
  22505099.820   118265151.15309  22505100.140    92154678.98548
  24487762.480   128684041.22108  24487761.720   100273265.17846
  23866126.280   125417256.51208  23866127.280    97727699.67246
 15 03 04 00 10  0.0000000  0  7G16G18G21G22G27G29G31
  21213277.040   111476544.33309  21213273.840    86864838.82148
  21842186.280   114781639.78209  21842183.500    89440291.80147
  21728350.660   114183261.18209  21728347.140    88973959.71048
  22810996.780   119872759.19709  22810993.520    93407388.72347
  22493373.640   118203529.18309  22493373.820    92106661.89248
  24501530.800   128756394.08108  24501529.780   100329643.98145
  23883895.440   125510632.10008  23883896.600    97800459.40246
 15 03 04 00 10 30.0000000  0  7G16G18G21G22G27G29G31
  21202376.480   111419261.58209  21202373.320    86820202.92348
  21834633.220   114741948.09009  21834630.400    89409363.23247
  21738332.380   114235716.08509  21738329.060    89014833.65648
  22793912.340   119782980.21809  22793908.980    93337431.18647
  22481662.960   118141988.87608  22481663.020    92058708.42948
  24515307.120   128828788.26408  24515305.660   100386055.03145
  23901669.380   125604032.87508  23901670.640    97873238.72146
 15 03 04 00 11  0.0000000  0  7G16G18G21G22G27G29G31
  21191549.400   111362364.93509  21191546.240    86775867.87848
  21827161.280   114702682.68809  21827158.360    89378766.82948
  21748355.620   114288388.99709  21748352.400    89055877.47548
  22776860.900   119693374.68009  22776857.540    93267608.80647
  22469968.280   118080533.45408  22469968.320    92010821.10348
  24529091.980   128901226.97908  24529090.240   100442500.74646
  23919448.120   125697458.72408  23919449.640    97946037.56846
 15 03 04 00 11 30.0000000  0  7G16G18G21G22G27G29G31
  21180795.780   111305854.17809  21180792.600    86731833.52848
  21819770.260   114663842.34809  21819767.340    89348501.65648
  21758419.580   114341275.65609  21758416.380    89097087.85948
  22759842.400   119603942.24009  22759839.020    93197921.29047
  22458289.260   118019160.51808  22458289.380    91962998.06048
  24542884.800   128973707.90708  24542882.860   100498979.36445
  23937230.580   125790904.44308  23937232.360    98018851.89346
 15 03 04 00 12  0.0000000  0  7G16G18G21G22G27G29G31
  21170115.940   111249731.00609  21170112.700    86688101.19848
  21812460.340   114625428.42709  21812457.400    89318568.75348
  21768523.780   114394373.61909  21768520.600    89138462.88748
  22742857.280   119514685.30509  22742853.820    93128370.53047
  22446626.000   117957869.94309  22446626.120    91915239.18248
  24556685.460   129046230.56008  24556683.400   100555490.49045
  23955016.240   125884366.75408  23955018.180    98091679.12646
 15 03 04 00 12 30.0000000  0  6G16G18G21G22G27G31
  21159516.700   111194031.41409  21159513.380    86644698.93148
  21805238.220   114587476.12809  21805235.260    89288995.55348
  21778674.340   114447715.14309  21778671.220    89180027.70948
  22725912.480   119425640.22109  22725909.040    93058984.85547
  22434984.960   117896695.46909  22434985.060    91867570.76848
  23972810.900   125977876.18208  23972813.000    98164543.06046
 15 03 04 00 13  0.0000000  0  6G16G18G21G22G27G31
  21148985.860   111138691.42909  21148982.460    86601576.86948
  21798091.800   114549921.57909  21798088.780    89259732.28347
  21788858.420   114501232.62209  21788855.360    89221729.63848
  22708995.920   119336743.71309  22708992.520    92989714.95747
  22423353.660   117835571.73409  22423353.600    91819941.90048
  23990601.440   126071363.85108  23990603.800    98237390.02246
 15 03 04 00 13 30.0000000  0  6G16G18G21G22G27G31
  21138530.100   111083746.28909  21138526.640    86558762.49448
  21791027.600   114512799.08609  21791024.540    89230805.68147
  21799081.960   114554957.40009  21799078.900    89263593.11048
  22692114.460   119248031.66009  22692111.160    92920588.79247
  22411738.260   117774531.90909  22411738.160    91772378.42648
  24008393.700   126164860.41008  24008396.240    98310243.91246
 15 03 04 00 14  0.0000000  0  6G16G18G21G22G27G31
  21128150.200   111029199.62509  21128146.700    86516258.60748
  21784046.060   114476110.99309  21784042.960    89202217.57948
  21809344.760   114608888.36909  21809341.660    89305617.24348
  22675268.880   119159507.84709  22675265.500    92851609.28447
  22400138.960   117713577.32509  22400138.880    91724881.37748
  24026187.360   126258363.96808  24026189.920    98383103.25246
 15 03 04 00 14 30.0000000  0  6G16G18G21G22G27G31
  21117846.700   110975054.55109  21117843.220    86474067.64648
  21777147.760   114439860.17909  21777144.580    89173970.21947
  21819646.760   114663025.31309  21819643.560    89347801.87148
  22658459.800   119071175.93509  22658456.500    92782779.32347
  22388556.020   117652709.20608  22388556.080    91677451.69448
  24043981.920   126351872.38708  24043984.380    98455966.35746
 15 03 04 00 15  0.0000000  0 14G16G18G21G22G27G31R01R02R14R15R16R17
                                R18R24
  21107619.720   110921311.36109  21107616.240    86432189.83848
  21770332.580   114404046.38709  21770329.400    89146063.37847
  21829987.340   114717364.89709  21829983.960    89390144.39648
  22641687.520   118983037.16609  22641684.200    92714099.84947
  22376989.260   117591926.38608  22376989.400    91630088.49148
  24061776.540   126445381.47908  24061779.240    98528829.93146
  22419782.800   119846601.75808  22419787.000    93214051.05306
  21693769.820   115762179.54609  21693772.760    90037305.70508
  22574392.200   120334120.81107  22574401.640    93593203.75905
  20304916.440   108503319.03908  20304920.720    84391485.02708
  21777156.140   116329661.78808  21777158.560    90478638.50107
  20259176.680   108410964.44609  20259177.360    84319650.12808
  21619945.220   115408844.22409  21619948.540    89762497.55608
  22847439.380   122175518.21007  22847439.380    95025401.51105
 15 03 04 00 15 30.0000000  0 14G16G18G21G22G27G31R01R02R14R15R16R17
                                R18R24
  21097469.620   110867972.31509  21097466.240    86390626.95748
  21763600.900   114368671.40909  21763597.780    89118498.49547
  21840366.040   114771904.97109  21840362.480    89432643.15148
  22624952.480   118895094.01309  22624949.140    92645572.80147
  22365438.780   117531229.00309  22365438.960    91582791.85148
  24079570.680   126538888.31608  24079573.580    98601691.77746
  22424196.160   119870192.51508  22424200.200    93232399.39306
  21679013.640   115683437.72109  21679016.760    89976062.10708
  22599273.060   120466748.37807  22599282.360    93696357.73105
  20316538.320   108565422.94908  20316542.580    84439788.04508
  21764141.320   116260139.03108  21764143.660    90424565.26807
  20262391.620   108428168.06309  20262392.220    84333030.72708
  21610689.360   115359435.74509  21610692.560    89724068.77508
  22861029.940   122248193.80106  22861030.660    95081926.94205
 15 03 04 00 16  0.0000000  0 14G16G18G21G22G27G31R01R02R14R15R16R17
                                R18R24
  21087396.440   110815037.25009  21087393.120    86349378.86648
  21756952.500   114333734.09409  21756949.420    89091274.63347
  21850782.120   114826641.63609  21850778.480    89475295.10448
  22608254.660   118807346.52709  22608251.300    92577198.23247
  22353904.260   117470615.12809  22353904.460    91535560.29148
  24097363.420   126632387.68308  24097366.600    98674547.80146
  22428748.100   119894522.84108  22428751.160    93251323.01906
  21664351.420   115605197.49009  21664354.740    89915208.64108
  22624178.580   120599506.75406  22624188.040    93799613.59005
  20328291.660   108628229.02408  20328295.860    84488637.19108
  21751253.900   116191296.78608  21751256.260    90371021.30607
  20265634.380   108445521.38208  20265634.980    84346527.76008
  21601462.520   115310182.31609  21601465.600    89685760.57908
  22874617.900   122320855.33108  22874619.040    95138441.46106
 15 03 04 00 16 30.0000000  0 15G16G18G19G21G22G27G31R01R02R14R15R16
                                R17R18R24
  21077391.980   110762463.30809  21077388.700    86308412.16448
  21750379.140   114299191.19809  21750376.060    89064358.11647
  24517764.800   128841725.57105  24517760.300   100396133.18943
  21861226.620   114881528.19309  21861223.060    89518063.84348
  22591586.060   118719752.87909  22591582.820    92508943.53447
  22342377.200   117410039.96609  22342377.380    91488358.90348
  24115145.720   126725831.98608  24115149.260    98747360.85146
  22433429.500   119919546.29408  22433431.660    93270785.72105
  21649775.500   115527417.16909  21649778.780    89854712.88008
  22649099.300   120732346.04006  22649108.720    93902932.47804
  20340167.260   108691688.43208  20340171.400    84537994.47608
  21738485.820   116123092.33108  21738488.340    90317973.41407
  20268896.280   108462977.42308  20268896.940    84360104.67408
  21592256.040   115261037.63909  21592259.080    89647536.96008
  22888194.820   122393457.11108  22888196.440    95194909.45005
 15 03 04 00 17  0.0000000  0 15G16G18G19G21G22G27G31R01R02R14R15R16
                                R17R18R24
  21067480.320   110710376.92009  21067477.000    86267825.37748
  21743904.720   114265168.18109  21743901.720    89037846.70847
  24503015.980   128764220.15304  24503012.500   100335744.39843
  21871722.920   114936687.14209  21871719.460    89561044.84948
  22574970.920   118632440.15209  22574967.720    92440907.73247
  22330881.280   117349628.04109  22330881.280    91441284.70248
  24132940.620   126819342.18608  24132944.220    98820225.28946
  22438263.600   119945388.49708  22438265.660    93290885.20205
  21635310.180   115450227.05709  21635313.600    89794676.17808
  22674057.920   120865387.44506  22674067.580    94006408.59505
  20352188.280   108755924.77108  20352192.340    84587956.06208
  21725861.320   116055654.97208  21725863.980    90265522.12807
  20272200.820   108480661.48708  20272201.640    84373858.95208
  21583093.420   115212126.93809  21583096.500    89609495.31608
  22901784.020   122466125.62507  22901785.240    95251429.41405
 15 03 04 00 17 30.0000000  0 15G16G18G19G21G22G27G31R01R02R14R15R16
                                R17R18R24
  21057640.680   110658669.20009  21057637.320    86227533.66148
  21737508.480   114231555.65709  21737505.520    89011655.15247
  24488268.660   128686722.82905  24488265.100   100275356.95844
  21882249.720   114992006.06709  21882246.280    89604150.50348
  22558388.540   118545299.65909  22558385.480    92373006.13347
  22319395.340   117289268.66409  22319395.260    91394251.45348
  24150726.460   126912804.71608  24150730.060    98893052.54846
  22443229.940   119971935.98708  22443232.580    93311533.28706
  21620935.140   115373518.60609  21620938.440    89735014.09308
  22699032.540   120998514.12806  22699042.360    94109950.97205
  20364332.860   108820821.29608  20364336.860    84638431.10608
  21713359.860   115988874.61708  21713362.480    90213581.85807
  20275526.980   108498460.46508  20275527.840    84387702.61608
  21573953.440   115163336.99009  21573956.480    89571547.61608
  22915364.460   122538747.48307  22915365.740    95307913.04904
 15 03 04 00 18  0.0000000  0 15G16G18G19G21G22G27G31R01R02R14R15R16
                                R17R18R24
  21047880.760   110607380.71609  21047877.400    86187568.60548
  21731197.920   114198393.25209  21731195.040    88985814.34548
  24473530.420   128609272.14605  24473527.100   100215005.85843
  21892813.980   115047521.52809  21892810.480    89647409.28748
  22541846.660   118458372.48809  22541843.640    92305270.76447
  22307926.740   117229000.55209  22307926.620    91347289.29748
  24168509.980   127006254.90408  24168513.700    98965870.19146
  22448335.540   119999227.25508  22448338.540    93332759.84506
  21606658.580   115297334.95909  21606661.820    89675760.17308
  22724029.640   121131760.53406  22724039.640    94213586.43505
  20376607.700   108886413.97008  20376611.660    84689447.60108
  21700989.240   115922793.37608  21700991.900    90162185.34907
  20278881.860   108516412.51409  20278882.580    84401665.30708
  21564843.200   115114706.00609  21564846.200    89533723.54208
  22928943.940   122611361.93908  22928945.100    95364390.96405
 15 03 04 00 18 30.0000000  0 15G16G18G19G21G22G27G31R01R02R14R15R16
                                R17R18R24
  21038200.300   110556509.97309  21038196.940    86147929.07748
  21724972.600   114165678.94009  21724969.780    88960322.69648
  24458800.420   128531864.24106  24458797.080   100154688.05843
  21903414.680   115103228.02109  21903411.020    89690816.94848
  22525345.160   118371657.56109  22525342.180    92237700.77547
  22296474.780   117168820.29609  22296474.700    91300395.62848
  24186290.020   127099686.72808  24186293.840    99038673.54846
  22453578.940   120027257.63308  22453581.640    93354561.26705
  21592480.240   115221676.25509  21592483.340    89616914.54908
  22749047.700   121265118.82506  22749057.960    94317308.92404
  20389011.420   108952695.52808  20389015.380    84740999.90208
  21688749.320   115857410.29708  21688751.880    90111331.84607
  20282264.500   108534513.03209  20282265.100    84415743.49008
  21555761.860   115066229.37809  21555764.860    89496019.51108
  22942521.340   122683965.40707  22942522.260    95420860.28205
 15 03 04 00 19  0.0000000  0 15G16G18G19G21G22G27G31R01R02R14R15R16
                                R17R18R24
  21028599.180   110506056.18509  21028595.860    86108614.44848
  21718832.300   114133411.24609  21718829.480    88935179.06348
  24444077.980   128454496.51905  24444074.960   100094401.59544
  21914050.920   115159121.26909  21914047.100    89734370.12848
  22508884.100   118285154.92909  22508881.220    92170296.21747
  22285039.140   117108725.60409  22285039.120    91253568.62448
  24204065.480   127193094.45808  24204069.360    99111458.13746
  22458960.220   120056023.56508  22458962.860    93376934.85106
  21578400.360   115146543.96309  21578403.620    89558478.39408
  22774085.260   121398581.57606  22774095.800    94421112.71205
  20401542.560   109019658.42408  20401546.620    84793082.13508
  21676640.160   115792725.38308  21676642.720    90061021.35507
  20285674.220   108552758.59209  20285674.780    84429934.50208
  21546708.800   115017903.84109  21546711.780    89458433.02308
  22956096.160   122756554.81107  22956096.720    95477318.72805
 15 03 04 00 19 30.0000000  0 15G16G18G19G21G22G27G31R01R02R14R15R16
                                R17R18R24
  21019078.940   110456027.13109  21019075.620    86069630.76348
  21712778.360   114101597.35609  21712775.500    88910389.04048
  24429364.240   128377174.84905  24429360.880   100034150.99644
  21924723.380   115215205.15409  21924719.460    89778071.85948
  22492465.120   118198873.13509  22492462.180    92103063.72647
  22273620.940   117048722.50909  22273620.920    91206812.98848
  24221836.860   127286481.05008  24221840.940    99184226.19346
  22464480.140   120085529.99008  22464483.480    93399884.28006
  21564421.040   115071947.72609  21564424.120    89500459.11208
  22799142.880   121532151.09806  22799153.640    94524999.74106
  20414202.200   109087308.26608  20414206.440    84845698.64608
  21664663.320   115728747.30408  21664666.020    90011260.63108
  20289111.820   108571154.22108  20289112.420    84444242.21808
  21537684.900   114969734.48308  21537688.020    89420968.00208
  22969669.380   122829136.21708  22969670.640    95533770.84606
 15 03 04 00 20  0.0000000  0 15G16G18G19G21G22G27G31R01R02R14R15R16
                                R17R18R24
  21009639.140   110406420.26609  21009635.820    86030976.06348
  21706810.040   114070233.39109  21706807.100    88885949.61148
  24414658.360   128299894.43705  24414654.960    99973932.51844
  21935430.720   115271472.52409  21935426.780    89821916.55048
  22476087.820   118112809.84809  22476084.720    92036001.50248
  22262219.340   116988806.56509  22262219.280    91160125.26648
  24239602.800   127379838.75208  24239607.200    99256971.75846
  22470137.440   120115771.15608  22470140.980    93423405.13906
  21550541.840   114997886.86709  21550545.360    89442856.28508
  22824218.600   121665817.10206  22824229.540    94628961.70906
  20426988.360   109155634.11508  20426992.720    84898840.93508
  21652818.480   115665474.08408  21652821.260    89962048.11208
  20292576.320   108589694.53608  20292577.160    84458662.46908
  21528689.220   114921715.85309  21528692.520    89383620.20808
  22983240.340   122901704.94006  22983241.220    95590213.26305
 15 03 04 00 20 30.0000000  0 15G16G18G19G21G22G27G31R01R02R14R15R16
                                R17R18R24
  21000280.660   110357240.65709  21000277.320    85992654.28348
  21700928.260   114039324.16609  21700925.220    88861864.51948
  24399960.860   128222658.48205  24399957.380    99913748.70044
  21946173.480   115327926.21109  21946169.600    89865906.43148
  22459753.320   118026971.07409  22459749.980    91969114.20947
  22250834.960   116928981.26509  22250834.860    91113508.16848
  24257363.260   127473168.02408  24257367.780    99329695.16646
  22475932.720   120146749.20408  22475935.880    93447499.22406
  21536764.400   114924368.64009  21536768.020    89385675.46308
  22849312.340   121799578.99306  22849323.320    94732998.28605
  20439901.220   109224636.72608  20439905.700    84952509.58908
  21641106.620   115602911.33908  21641109.500    89913388.20408
  20296068.300   108608381.73908  20296069.320    84473196.96208
  21519722.260   114873850.16909  21519725.680    89346391.37808
  22996809.220   122974264.04008  22996809.920    95646648.03105
 15 03 04 00 21  0.0000000  0 15G16G18G19G21G22G27G31R01R02R14R15R16
                                R17R18R24
  20991003.660   110308489.40609  20991000.380    85954666.30048
  21695133.020   114008870.04309  21695129.900    88838134.05248
  24385271.580   128145465.59706  24385267.980    99853598.50243
  21956951.100   115384562.91909  21956947.240    89910038.91948
  22443461.820   117941358.28609  22443458.240    91902403.00947
  22239467.620   116869245.80309  22239467.560    91066961.08948
  24275117.600   127566465.05108  24275122.500    99402393.40846
  22481865.540   120178462.59708  22481868.020    93472165.26106
  21523089.180   114851395.75009  21523092.920    89328918.81008
  22874423.000   121933431.02206  22874434.060    94837104.88705
  20452939.860   109294311.17208  20452944.380    85006700.80808
  21629528.060   115541060.79308  21629530.880    89865282.21107
  20299587.580   108627214.27209  20299588.620    84487844.48608
  21510783.720   114826135.88909  21510787.080    89309280.30508
  23010376.200   123046811.92307  23010377.100    95703074.12306
 15 03 04 00 21 30.0000000  0 15G16G18G19G21G22G27G31R01R02R14R15R16
                                R17R18R24
  20981807.960   110260165.81309  20981804.800    85917011.56748
  21689424.020   113978869.42609  21689420.960    88814756.98148
  24370589.880   128068312.85106  24370586.060    99793479.53244
  21967762.480   115441377.17009  21967758.660    89954309.76248
  22427213.260   117855971.09309  22427209.500    91835867.61247
  22228116.880   116809597.49009  22228116.800    91020481.90948
  24292864.700   127659723.70608  24292869.700    99475061.77346
  22487934.520   120210906.72908  22487937.740    93497399.56406
  21509516.420   114778969.05909  21509520.280    89272586.95608
  22899549.280   122067365.72107  22899560.400    94941275.74705
  20466103.060   109364651.00908  20466107.560    85061409.53908
  21618082.780   115479922.26508  21618085.580    89817730.03107
  20303133.400   108646188.24609  20303134.340    84502602.03508
  21501872.860   114778568.87309  21501876.080    89272283.76208
  23023940.360   123119346.11207  23023941.080    95759489.61105
 15 03 04 00 22  0.0000000  0 15G16G18G19G21G22G27G31R01R02R14R15R16
                                R17R18R24
  20972695.240   110212278.80609  20972692.200    85879697.02048
  21683802.680   113949329.78709  21683799.660    88791739.10048
  24355917.180   127991207.32106  24355913.500    99733397.38543
  21978608.780   115498375.06609  21978605.000    89998723.69948
  22411009.380   117770819.08209  22411005.560    91769515.47747
  22216784.100   116750043.65509  22216784.000    90974076.34648
  24310605.300   127752948.48708  24310610.420    99547703.72946
  22494141.060   120244087.79208  22494144.980    93523207.01706
  21496047.880   114707099.72609  21496052.160    89216688.64808
  22924691.600   122201385.88906  22924702.900    95045513.11905
  20479391.280   109435658.78108  20479395.680    85116637.79208
  21606772.560   115419505.12208  21606775.240    89770738.92507
  20306706.900   108665310.12709  20306707.660    84517474.60908
  21492990.840   114731155.80209  21492993.980    89235406.97408
  23037503.160   123191873.55208  23037504.340    95815899.77806
 15 03 04 00 22 30.0000000  0 16G16G18G19G21G22G27G31R01R02R03R14R15
                                R16R17R18R24
  20963664.660   110164823.57909  20963661.760    85842718.93748
  21678268.240   113920246.68409  21678265.160    88769076.97147
  24341252.160   127914142.83806  24341248.660    99673347.21544
  21989488.520   115555548.84509  21989484.780    90043274.70048
  22394849.480   117685898.46209  22394845.560    91703343.64447
  22205468.200   116690578.32309  22205468.060    90927739.73748
  24328337.700   127846130.21908  24328342.920    99620312.10945
  22500484.440   120277998.28008  22500488.380    93549581.92205
  21482683.360   114635784.96709  21482687.580    89161221.64008
  23586347.040   126259562.31007  23586353.780    98201907.12806
  22949847.900   122335480.88006  22949859.220    95149808.68805
  20492802.740   109507325.06608  20492807.060    85172378.22508
  21595596.820   115359805.63508  21595599.380    89724306.00407
  20310306.620   108684572.68609  20310307.280    84532456.60308
  21484136.280   114683889.42009  21484139.440    89198644.25608
  23051063.740   123264387.96008  23051065.200    95872299.82305
 15 03 04 00 23  0.0000000  0 16G16G18G19G21G22G27G31R01R02R03R14R15
                                R16R17R18R24
  20954717.400   110117805.98309  20954714.600    85806081.85348
  21672821.620   113891624.82509  21672818.480    88746774.24247
  24326595.560   127837122.78606  24326592.400    99613331.60644
  22000401.800   115612899.11809  22000398.140    90087963.22048
  22378734.780   117601215.37909  22378730.820    91637356.89147
  22194169.880   116631205.36109  22194169.700    90881475.10048
  24346062.060   127939269.67208  24346067.440    99692887.55845
  22506964.800   120312640.49608  22506969.140    93576525.87506
  21469424.260   114565032.31909  21469428.580    89106191.84908
  23563443.520   126136960.57107  23563450.940    98106551.01006
  22975018.180   122469650.07406  22975029.480    95254161.94605
  20506337.520   109579650.43908  20506341.740    85228631.27008
  21584556.540   115300829.98508  21584559.100    89678436.05608
  20313933.140   108703978.75008  20313933.800    84547550.21708
  21475309.800   114636772.70809  21475312.940    89161997.95508
  23064622.500   123336892.69507  23064624.020    95928692.47606
 15 03 04 00 23 30.0000000  0 16G16G18G19G21G22G27G31R01R02R03R14R15
                                R16R17R18R24
  20945853.300   110071225.00709  20945850.520    85769784.99148
  21667462.320   113863461.87409  21667459.180    88724829.10048
  24311947.020   127760144.23407  24311943.820    99553348.37045
  22011347.920   115670421.99209  22011344.380    90132786.24148
  22362665.140   117516769.30509  22362661.200    91571554.82947
  22182888.520   116571922.03709  22182888.440    90835280.32848
  24363777.320   128032360.94108  24363782.720    99765425.42945
  22513581.500   120348010.41308  22513586.240    93604035.80606
  21456270.700   114494842.59509  21456274.900    89051599.85908
  23540531.620   126014314.91207  23540539.460    98011160.69806
  23000200.880   122603886.01306  23000212.160    95358567.21205
  20519994.180   109652627.14708  20519998.280    85285390.90108
  21573651.660   115242577.52308  21573654.080    89633128.57707
  20317585.860   108723524.70309  20317586.460    84562752.61708
  21466510.600   114589801.75409  21466513.700    89125465.02608
  23078178.560   123409384.69808  23078180.800    95985075.07205
 15 03 04 00 24  0.0000000  0 16G16G18G19G21G22G27G31R01R02R03R14R15
                                R16R17R18R24
  20937072.720   110025082.98709  20937069.960    85733830.17048
  21662190.760   113835759.92009  21662187.640    88703243.18247
  24297306.540   127683207.74007  24297303.240    99493397.89444
  22022326.700   115728116.36409  22022323.260    90177742.88948
  22346641.180   117432563.50809  22346637.220    91505939.97947
  22171624.400   116512729.32509  22171624.480    90789156.17048
  24381482.980   128125401.60908  24381488.620    99837923.86145
  22520333.800   120384107.14408  22520338.480    93632111.02406
  21443223.520   114425220.27009  21443227.480    88997449.19808
  23517612.320   125891630.02607  23517620.500    97915739.94806
  23025395.300   122738184.75406  23025406.900    95463021.22705
  20533772.100   109726251.76008  20533776.120    85342654.45808
  21562882.580   115185051.46608  21562885.180    89588386.11108
  20321264.720   108743210.28809  20321265.320    84578063.63308
  21457738.660   114542976.39309  21457741.680    89089045.33208
  23091732.780   123481864.68008  23091734.900    96041448.39906
 15 03 04 00 24 30.0000000  0 16G16G18G19G21G22G27G31R01R02R03R14R15
                                R16R17R18R24
  20928376.980   109979386.67509  20928374.200    85698222.65848
  21657008.060   113808524.54509  21657004.960    88682020.83748
  24282674.820   127606317.48206  24282671.700    99433483.45744
  22033338.600   115785984.46809  22033335.240    90222834.92248
  22330664.300   117348605.23009  22330660.460    91440518.01147
  22160378.520   116453631.96309  22160378.620    90743106.31548
  24399179.360   128218393.39308  24399184.980    99910384.20145
  22527223.080   120420934.18408  22527227.400    93660754.32806
  21430284.220   114356173.37109  21430288.000    88943746.10208
  23494687.460   125768914.41307  23494695.360    97820295.20206
  23050601.560   122872546.51306  23050613.420    95567524.30905
  20547671.480   109800525.43208  20547675.420    85400422.85008
  21552250.780   115128258.50908  21552253.340    89544213.80807
  20324970.420   108763039.48209  20324970.940    84593486.34908
  21448994.720   114496300.42609  21448997.820    89052741.83108
  23105285.500   123554337.19307  23105287.600    96097815.88504
 15 03 04 00 25  0.0000000  0 16G16G18G19G21G22G27G31R01R02R03R14R15
                                R16R17R18R24
  20919765.620   109934133.88009  20919762.860    85662960.74548
  21651913.640   113781753.12509  21651910.560    88661160.01448
  24268051.120   127529469.93306  24268047.900    99373602.30044
  22044382.580   115844021.31408  22044379.340    90268058.43048
  22314734.180   117264892.81709  22314730.460    91375287.63147
  22149150.220   116394626.50409  22149150.260    90697128.04848
  24416865.200   128311329.98008  24416870.940    99982801.56745
  22534248.080   120458486.01208  22534252.200    93689961.31106
  21417452.820   114287702.01309  21417456.380    88890490.63408
  23471756.820   125646167.85907  23471764.460    97724826.48906
  23075818.160   123006962.94706  23075830.140    95672069.87305
  20561690.880   109875440.84708  20561694.860    85458690.37308
  21541756.020   115072197.33708  21541758.540    89500610.66508
  20328701.960   108783007.68508  20328702.500    84609017.17708
  21440277.820   114449769.22409  21440281.060    89016550.94208
  23118836.460   123626798.11908  23118838.480    96154174.36406
 15 03 04 00 25 30.0000000  0 16G16G18G19G21G22G27G31R01R02R03R14R15
                                R16R17R18R24
  20911239.240   109889327.53809  20911236.500    85628046.71548
  21646907.840   113755447.28109  21646904.740    88640661.97348
  24253435.500   127452665.35806  24253432.120    99313754.62344
  22055458.380   115902225.38208  22055455.300    90313412.24348
  22298851.500   117181429.80009  22298847.900    91310251.57948
  22137939.600   116335713.87009  22137939.580    90651222.11148
  24434540.140   128404209.22908  24434546.220   100055174.24945
  22541408.380   120496761.95408  22541412.420    93719731.50105
  21404729.940   114219810.35409  21404733.360    88837686.04408
  23448821.220   125523394.93907  23448828.640    97629337.22706
  23101044.360   123141430.72306  23101056.480    95776655.50005
  20575829.800   109950995.00508  20575833.820    85517454.67608
  21531398.800   115016870.84908  21531401.240    89457578.95508
  20332459.340   108803114.82108  20332459.880    84624656.05508
  21431588.060   114403382.80509  21431591.260    88980472.63708
  23132385.540   123699248.76706  23132386.840    96210524.85804
 15 03 04 00 26  0.0000000  0 16G16G18G19G21G22G27G31R01R02R03R14R15
                                R16R17R18R24
  20902798.140   109844969.49709  20902795.460    85593482.02148
  21641990.880   113729608.25909  21641987.860    88620527.68248
  24238828.220   127375904.50907  24238824.960    99253941.03145
  22066565.880   115960595.89408  22066562.900    90358895.75648
  22283016.880   117098219.25409  22283013.400    91245412.27247
  22126746.740   116276894.80709  22126746.620    90605389.10248
  24452203.700   128497028.31408  24452209.820   100127500.08345
  22548703.840   120535761.04208  22548707.820    93750064.16406
  21392116.540   114152502.69009  21392119.980    88785335.67208
  23425881.420   125400600.28507  23425888.820    97533831.12106
  23126279.480   123275945.72507  23126291.720    95881277.83306
  20590087.500   110027183.94008  20590091.580    85576712.69508
  21521179.580   114962281.77608  21521182.040    89415120.79708
  20336242.560   108823360.61009  20336243.260    84640402.79008
  21422925.360   114357140.72409  21422928.500    88944506.60508
  23145932.060   123771689.12208  23145933.180    96266867.34306
 15 03 04 00 26 30.0000000  0 16G16G18G19G21G22G27G31R01R02R03R14R15
                                R16R17R18R24
  20894443.060   109801063.24209  20894440.380    85559269.35648
  21637163.280   113704239.00809  21637160.320    88600759.45948
  24224229.580   127299189.01507  24224226.640    99194162.77845
  22077704.840   116019131.70508  22077701.900    90404508.07748
  22267231.060   117015264.88309  22267227.600    91180772.56448
  22115572.020   116218171.24209  22115571.820    90559630.49048
  24469855.540   128589786.08008  24469862.060   100199778.11945
  22556134.620   120575483.34708  22556139.320    93780959.27306
  21379613.420   114085784.06509  21379616.800    88733443.43708
  23402938.660   125277789.20807  23402945.760    97438312.12906
  23151522.860   123410505.32507  23151535.240    95985934.87706
  20604463.600   110104005.20308  20604467.640    85636462.54008
  21511099.100   114908433.91008  21511101.700    89373239.13108
  20340051.960   108843746.02409  20340052.740    84656258.10008
  21414289.740   114311043.69209  21414292.980    88908653.38908
  23159477.080   123844120.71407  23159478.380    96323202.97405
 15 03 04 00 27  0.0000000  0 16G16G18G19G21G22G27G31R01R02R03R14R15
                                R16R17R18R24
  20886173.860   109757608.13509  20886171.140    85525408.24448
  21632424.620   113679337.57509  21632421.760    88581355.76848
  24209639.080   127222515.65707  24209636.260    99134417.37344
  22088874.620   116077829.13209  22088871.680    90450246.33048
  22251494.100   116932566.53709  22251490.580    91116332.36048
  22104415.000   116159540.67409  22104414.620    90513944.35048
  24487494.660   128682477.18108  24487501.200   100272004.24845
  22563699.980   120615924.71308  22563704.780    93812413.68606
  21367220.800   114019655.25209  21367224.240    88682009.95708
  23379993.160   125154962.81307  23379999.960    97342781.27607
  23176773.060   123545101.85706  23176785.540    96090620.64805
  20618956.800   110181452.25108  20618960.840    85696699.10308
  21501157.280   114855326.56108  21501159.880    89331933.41808
  20343886.920   108864267.48809  20343887.580    84672219.25108
  21405680.600   114265088.32909  21405683.940    88872910.35608
  23173020.080   123916540.94606  23173021.400    96379529.88206
 15 03 04 00 27 30.0000000  0 16G16G18G19G21G22G27G31R01R02R03R14R15
                                R16R17R18R24
  20877991.160   109714607.34309  20877988.340    85491901.13248
  21627775.280   113654905.92509  21627772.540    88562318.13248
  24195056.960   127145886.03907  24195054.000    99074706.02644
  22100075.260   116136688.22509  22100072.220    90496110.54448
  22235806.700   116850128.41209  22235803.000    91052094.91148
  22093276.060   116101005.06009  22093275.520    90468332.18748
  24505120.740   128775100.08908  24505127.400   100344177.18445
  22571399.960   120657085.04408  22571404.620    93844427.29706
  21354939.780   113954121.73109  21354943.220    88631039.47208
  23357046.100   125032126.77707  23357052.380    97247242.90306
  23202030.000   123679733.86506  23202042.700    96195334.28505
  20633566.660   110259522.68908  20633570.720    85757420.53608
  21491354.860   114802963.45408  21491357.500    89291206.56108
  20347747.480   108884926.02608  20347748.100    84688286.99808
  21397098.240   114219275.35409  21397101.620    88837278.04808
  23186560.940   123988951.59308  23186562.080    96435849.19505
 15 03 04 00 28  0.0000000  0 16G16G18G19G21G22G27G31R01R02R03R14R15
                                R16R17R18R24
  20869895.380   109672063.36409  20869892.440    85458749.98248
  21623215.780   113630946.39209  21623213.200    88543648.38748
  24180483.200   127069300.76507  24180480.080    99015029.25544
  22111306.320   116195707.14009  22111303.200    90542099.30648
  22220169.340   116767953.22109  22220165.420    90988062.35448
  22082155.300   116042565.22409  22082154.780    90422794.68948
  24522733.480   128867652.73308  24522740.620   100416295.41945
  22579234.160   120698963.17708  22579238.740    93876999.18906
  21342771.040   113889187.43209  21342774.520    88580535.03608
  23334098.080   124909285.48007  23334103.960    97151700.39806
  23227292.640   123814396.29405  23227305.260    96300071.45804
  20648292.420   110338212.67708  20648296.460    85818623.82908
  21481692.340   114751347.49608  21481694.900    89251060.81808
  20351633.620   108905721.56408  20351634.180    84704461.30408
  21388542.580   114173604.71609  21388545.840    88801756.44708
  23200100.340   124061352.81207  23200101.300    96492161.28305
 15 03 04 00 28 30.0000000  0 16G16G18G19G21G22G27G31R01R02R03R14R15
                                R16R17R18R24
  20861887.020   109629979.01509  20861884.020    85425956.98848
  21618746.420   113607460.59809  21618743.960    88525347.78948
  24165918.040   126992760.71907  24165914.840    98955387.72844
  22122567.600   116254885.05009  22122564.420    90588211.96248
  22204582.680   116686044.45909  22204578.460    90924237.40448
  22071052.920   115984222.31209  22071052.500    90377332.70248
  24540332.580   128960133.34308  24540339.620   100488357.58946
  22587202.660   120741558.25408  22587207.140    93910128.70606
  21330715.360   113824856.54209  21330719.120    88530499.96108
  23311149.820   124786443.65208  23311155.480    97056157.41406
  23252560.400   123949086.11206  23252573.440    96405010.87505
  20663133.620   110417519.39308  20663137.640    85880306.79708
  21472170.120   114700481.43408  21472172.680    89211498.32908
  20355545.420   108926654.24109  20355545.920    84720742.27908
  21380013.520   114128076.23109  21380016.740    88766345.42408
  23213638.200   124133745.72908  23213639.720    96548466.82306
 15 03 04 00 29  0.0000000  0 16G16G18G19G21G22G27G31R01R02R03R14R15
                                R16R17R18R24
  20853966.020   109588353.74209  20853962.940    85393521.72548
  21614367.000   113584447.31609  21614364.560    88507415.38248
  24151361.060   126916263.68507  24151357.860    98895779.69545
  22133858.320   116314218.05809  22133855.120    90634445.48348
  22189046.760   116604402.37309  22189042.380    90860620.23747
  22059968.620   115925974.66608  22059968.420    90331944.96348
  24557916.880   129052536.78608  24557924.360   100560359.62745
  22595304.640   120784866.88708  22595309.360    93943813.20106
  21318773.180   113761130.86409  21318776.720    88480935.56608
  23288201.680   124663603.33408  23288206.940    96960615.62907
  23277831.940   124083796.99606  23277844.880    96509785.95505
  20678089.000   110497436.08808  20678093.000    85942464.20408
  21462788.220   114650365.10408  21462790.920    89172518.97208
  20359482.340   108947721.31909  20359482.880    84737127.79008
  21371510.640   114082687.34109  21371513.920    88731043.00208
  23227174.120   124206128.07408  23227175.540    96604764.21305
 15 03 04 00 29 30.0000000  0 16G16G18G19G21G22G27G31R01R02R03R14R15
                                R16R17R18R24
  20846133.380   109547192.71209  20846130.240    85361448.19148
  21610078.260   113561910.45809  21610075.940    88489854.20247
  24136812.880   126839813.11107  24136809.700    98836207.89044
  22145178.840   116373708.04709  22145175.700    90680801.30847
  22173562.700   116523032.95709  22173558.180    90797215.55347
  22048903.140   115867825.92508  22048903.120    90286634.26048
  24575486.600   129144863.89408  24575494.280   100632302.32246
  22603540.320   120828890.62208  22603544.800    93978053.91006
  21306945.660   113698017.06009  21306949.120    88431847.08308
  23265255.220   124540772.04607  23265260.400    96865080.82906
  23303107.200   124218527.88806  23303120.140    96614576.43006
  20693158.480   110577962.58808  20693162.460    86005095.88208
  21453547.700   114601004.20408  21453550.340    89134127.17808
  20363444.900   108968925.58209  20363445.400    84753619.97608
  21363034.240   114037440.61008  21363037.700    88695851.12308
  23240708.960   124278503.61207  23240710.400    96661056.32905
 15 03 04 00 30  0.0000000  0 16G16G18G19G21G22G27G31R01R02R03R14R15
                                R16R17R18R24
  20838389.120   109506495.88609  20838385.980    85329736.38348
  21605880.160   113539849.63209  21605877.880    88472663.97348
  24122273.260   126763407.47107  24122269.940    98776671.06845
  22156528.680   116433351.86409  22156525.500    90727276.99548
  22158130.720   116441937.38909  22158126.180    90734024.24648
  22037856.300   115809774.97509  22037856.360    90241399.76248
  24593040.880   129237110.18508  24593048.500   100704182.08245
  22611909.020   120873626.05308  22611913.340    94012848.14406
  21295233.280   113635516.97209  21295236.660    88383235.93008
  23242310.880   124417952.04507  23242315.920    96769554.75106
  23328385.080   124353272.94106  23328398.260    96719377.90505
  20708341.020   110659093.44108  20708345.000    86068197.62408
  21444448.700   114552399.10808  21444451.340    89096323.21408
  20367432.660   108990264.63509  20367433.200    84770217.02708
  21354584.060   113992333.69809  21354587.660    88660768.00508
  23254242.060   124350870.74108  23254243.540    96717341.79705
 15 03 04 00 30 30.0000000  0 16G16G18G19G21G22G27G31R01R02R03R14R15
                                R16R17R18R24
  20830733.420   109466264.24909  20830730.220    85298387.06948
  21601772.520   113518264.21709  21601770.280    88455844.18948
  24107741.900   126687045.10507  24107738.600    98717167.97845
  22167907.240   116493146.32209  22167904.000    90773870.08047
  22142750.920   116361116.44409  22142746.480    90671046.95248
  22026827.940   115751820.72609  22026828.040    90196240.63948
  24610578.920   129329271.72307  24610586.940   100775995.91145
  22620410.180   120919069.94608  22620414.680    94048193.39006
  21283636.340   113573632.75809  21283639.380    88335103.80108
  23219369.080   124295145.94907  23219374.100    96674039.49107
  23353664.460   124488025.78405  23353678.440    96824146.23203
  20723635.400   110740822.27808  20723639.460    86131764.46308
  21435491.220   114504549.95608  21435493.860    89059107.23408
  20371445.320   109011736.80909  20371445.860    84786917.60708
  21346159.760   113947364.33009  21346163.320    88625791.85908
  23267773.460   124423227.77107  23267774.520    96773619.51405
 15 03 04 00 31  0.0000000  0 16G16G18G19G21G22G27G31R01R02R03R14R15
                                R16R17R18R24
  20823167.040   109426502.19709  20823163.800    85267403.66448
  21597756.140   113497158.09509  21597753.860    88439397.88448
  24093219.340   126610729.17007  24093216.100    98657701.07945
  22179314.740   116553092.81109  22179311.360    90820581.61747
  22127424.420   116280575.55309  22127420.100    90608287.86748
  22015818.700   115693966.63209  22015818.780    90151159.54748
  24628100.740   129421348.54208  24628109.040   100847743.82147
  22629044.020   120965223.72308  22629048.840    94084090.78706
  21272155.960   113512370.94609  21272158.940    88287455.76508
  23196431.140   124172360.89908  23196436.320    96578540.61806
  23378945.420   124622786.54405  23378959.080    96928959.94205
  20739041.620   110823148.69008  20739045.760    86195796.08608
  21426676.240   114457462.19308  21426678.780    89022483.43307
  20375483.360   109033344.50809  20375483.800    84803723.58708
  21337761.800   113902534.99009  21337765.180    88590924.62108
  23281303.280   124495578.42208  23281304.360    96829892.17204
 15 03 04 00 31 30.0000000  0 16G16G18G19G21G22G27G31R01R02R03R14R15
                                R16R17R18R24
  20815689.740   109387208.48409  20815686.460    85236785.19348
  21593830.520   113476528.40709  21593828.160    88423322.82048
  24078704.880   126534456.09307  24078701.920    98598267.56246
  22190750.180   116613186.13609  22190746.680    90867407.57447
  22112151.060   116200313.92409  22112146.840    90545746.41448
  22004827.960   115636209.46209  22004828.020    90106153.97348
  24645605.320   129513334.50907  24645613.560   100919420.98144
  22637809.800   121012081.58908  22637814.420    94120535.81505
  21260792.240   113451731.27009  21260794.980    88240291.59908
  23173497.140   124049597.34907  23173502.660    96483058.42107
  23404226.280   124757546.06906  23404240.020    97033772.38605
  20754558.200   110906064.92008  20754562.440    86260286.45208
  21418003.460   114411133.85508  21418005.920    88986450.28507
  20379545.940   109055083.44509  20379546.200    84820631.66308
  21329389.240   113857841.27209  21329392.540    88556162.88208
  23294831.160   124567918.59207  23294832.420    96886156.74206
 15 03 04 00 32  0.0000000  0 16G16G18G19G21G22G27G31R01R02R03R14R15
                                R16R17R18R24
  20808301.780   109348384.37909  20808298.440    85206532.64948
  21589995.780   113456375.73509  21589993.240    88407619.45548
  24064198.840   126458226.27007  24064196.060    98538867.74745
  22202213.280   116673424.53909  22202209.640    90914346.59048
  22096931.320   116120333.92409  22096927.100    90483424.39548
  21993855.780   115578549.68909  21993855.800    90061224.29148
  24663092.060   129605227.15708  24663100.400   100991025.60546
  22646706.900   121059641.93408  22646711.500    94157527.19205
  21249545.620   113391717.19909  21249548.400    88193614.02608
  23150568.140   123926859.31207  23150573.480    96387596.01306
  23429506.280   124892301.10305  23429519.980    97138581.47603
  20770184.440   110989566.82508  20770188.680    86325232.33608
