     2.11           OBSERVATION DATA    G                   RINEX VERSION / TYPE
SPIDER V4,0,0,3554                      2015 04 03 00:58    PGM / RUN BY / DATE 
EADB                                                        MARKER NAME         
EADB                                                        MARKER NUMBER       
                                                            OBSERVER / AGENCY   
462408              LEICA GRX1200PRO    3.00/2.127          REC # / TYPE / VERS 
103310              LEIAT504                                ANT # / TYPE        
  5238464.6656   142765.3090  3625629.6523                  APPROX POSITION XYZ 
        0.0770        0.0000        0.0000                  ANTENNA: DELTA H/E/N
     1     1                                                WAVELENGTH FACT L1/2
     4    C1    L1    P2    L2                              # / TYPES OF OBSERV 
    30.000                                                  INTERVAL            
  2015    03    04    00    00    0.0000000     GPS         TIME OF FIRST OBS   
  2015    03    04    23    59   30.0000000     GPS         TIME OF LAST OBS    
    16                                                      LEAP SECONDS        
    30                                                      # OF SATELLITES     
   G 1   836   836   836   836                              PRN / # OF OBS      
   G 2   928   928   928   928                              PRN / # OF OBS      
   G 3   846   846   846   846                              PRN / # OF OBS      
   G 4   847   847   847   847                              PRN / # OF OBS      
   G 5   673   673   673   673                              PRN / # OF OBS      
   G 6   726   726   726   726                              PRN / # OF OBS      
   G 7   647   647   647   647                              PRN / # OF OBS      
   G 9   788   788   788   788                              PRN / # OF OBS      
   G10   785   785   785   785                              PRN / # OF OBS      
   G11   800   800   799   799                              PRN / # OF OBS      
   G12   818   818   818   818                              PRN / # OF OBS      
   G13   823   823   823   823                              PRN / # OF OBS      
   G14   931   931   931   931                              PRN / # OF OBS      
   G15   732   732   732   732                              PRN / # OF OBS      
   G16   692   692   692   692                              PRN / # OF OBS      
   G17   931   931   930   930                              PRN / # OF OBS      
   G18   932   932   932   932                              PRN / # OF OBS      
   G19   783   783   783   783                              PRN / # OF OBS      
   G20   795   795   795   795                              PRN / # OF OBS      
   G21   705   705   705   705                              PRN / # OF OBS      
   G22   785   785   785   785                              PRN / # OF OBS      
   G23   730   730   730   730                              PRN / # OF OBS      
   G24   843   843   843   843                              PRN / # OF OBS      
   G25   850   850   850   850                              PRN / # OF OBS      
   G27   833   833   833   833                              PRN / # OF OBS      
   G28   908   908   908   908                              PRN / # OF OBS      
   G29   735   735   735   735                              PRN / # OF OBS      
   G30   695   695   695   695                              PRN / # OF OBS      
   G31   784   784   784   784                              PRN / # OF OBS      
   G32   741   741   741   741                              PRN / # OF OBS      
BIT 2 OF LLI FLAGS DATA COLLECTED UNDER A/S CONDITION       COMMENT             
SNR is mapped to RINEX snr flag value [2-9]                 COMMENT             
Lx:     = 25dBHz -> 1; 26-27dBHz -> 2; 28-31dBHz -> 3       COMMENT             
       32-35dBHz -> 4; 36-38dBHz -> 5; 39-41dBHz -> 6       COMMENT             
       42-44dBHz -> 7; 45-48dBHz -> 8; >=49dBHz -> 9        COMMENT             
                                                            END OF HEADER       
 15 03 04 00 00  0.0000000  0  7G16G18G19G21G22G27G31
  21208961.837   111453865.07909  21208960.433    86847170.55948
  22380159.014   117608716.75408  22380158.946    91643229.12147
  24468100.951   128580740.65806  24468100.456   100192791.25444
  21719201.172   114135186.26009  21719199.661    88936509.31048
  23332669.168   122614164.64708  23332669.849    95543581.29146
  22296646.775   117169722.41208  22296648.345    91301112.66848
  23378197.260   122853187.23108  23378198.901    95729734.80446
 15 03 04 00 00 30.0000000  0  7G16G18G19G21G22G27G31
  21197791.228   111395163.13209  21197789.742    86801428.79148
  22371146.349   117561354.06608  22371145.996    91606323.15847
  24453323.471   128503085.00906  24453322.979   100132280.52045
  21729173.183   114187590.90509  21729172.017    88977344.09448
  23315617.510   122524556.33308  23315617.906    95473756.93246
  22285875.666   117113120.54408  22285877.391    91257007.35048
  23396460.012   122949157.32707  23396461.912    95804516.37246
 15 03 04 00 01  0.0000000  0  7G16G18G19G21G22G27G31
  21186682.228   111336785.88109  21186681.100    86755940.03848
  22362202.167   117514352.57308  22362201.866    91569698.66347
  24438561.342   128425511.59206  24438561.110   100071833.82345
  21739196.104   114240261.33409  21739194.621    89018385.98248
  23298582.799   122435040.22807  23298583.179    95404004.41745
  22275126.451   117056633.56608  22275128.231    91212991.55648
  23414740.865   123045224.26207  23414743.402    95879373.36446
 15 03 04 00 01 30.0000000  0  7G16G18G19G21G22G27G31
  21175636.047   111278737.80809  21175634.722    86710707.78048
  22353327.697   117467716.85508  22353327.483    91533359.17147
  24423815.688   128348023.06106  24423815.250   100011453.20845
  21749269.739   114293198.36109  21749268.338    89059635.60648
  23281566.540   122345621.62007  23281566.460    95334327.83146
  22264399.772   117000264.24108  22264401.650    91169067.44048
  23433040.230   123141387.76108  23433043.103    95954305.57846
 15 03 04 00 02  0.0000000  0  7G16G18G19G21G22G27G31
  21164653.229   111221022.46209  21164651.851    86665734.79048
  22344523.600   117421450.45308  22344523.073    91497307.46047
  24409086.268   128270620.46906  24409085.714    99951139.65945
  21759394.044   114346401.50709  21759392.544    89101092.60248
  23264570.041   122256304.66208  23264570.092    95264730.45146
  22253695.629   116944013.80508  22253697.464    91125235.96148
  23451358.075   123237645.75308  23451360.571    96029311.48746
 15 03 04 00 02 30.0000000  0  7G16G18G19G21G22G27G31
  21153733.622   111163639.34909  21153732.233    86621020.68748
  22335789.413   117375552.64608  22335788.859    91461542.97047
  24394372.784   128193301.65306  24394372.731    99890891.36045
  21769568.036   114399865.75909  21769566.575    89142753.05748
  23247593.118   122167089.51907  23247593.366    95195212.40746
  22243013.744   116887879.71308  22243015.673    91081495.12748
  23469692.566   123333993.43107  23469695.240    96104387.23646
 15 03 04 00 03  0.0000000  0  7G16G18G19G21G22G27G31
  21142877.952   111106592.23209  21142876.590    86576568.39548
  22327126.067   117330026.82908  22327125.676    91426068.33947
  24379675.688   128116067.70106  24379675.803    99830709.17645
  21779791.801   114453591.53709  21779790.212    89184617.29748
  23230635.783   122077980.46708  23230636.468    95125777.08746
  22232354.299   116831863.51508  22232356.086    91037846.18148
  23488043.698   123430428.96907  23488046.714    96179531.42346
 15 03 04 00 03 30.0000000  0  7G16G18G19G21G22G27G31
  21132086.023   111049880.04509  21132084.684    86532377.09148
  22318533.390   117284871.94508  22318532.836    91390882.75147
  24364994.226   128038915.87806  24364994.144    99770590.98845
  21790064.217   114507573.66609  21790062.601    89226681.29748
  23213699.100   121988977.25408  23213699.223    95056424.15046
  22221716.704   116775962.13708  22221718.255    90994286.69648
  23506410.593   123526946.62207  23506413.839    96254739.57246
 15 03 04 00 04  0.0000000  0  7G16G18G19G21G22G27G31
  21121360.530   110993517.29509  21121359.202    86488458.06748
  22310014.109   117240102.35408  22310013.558    91355997.38947
  24350330.408   127961857.96606  24350330.059    99710545.95045
  21800387.361   114561822.53209  21800385.917    89268953.14148
  23196784.958   121900094.52108  23196784.917    94987165.11546
  22211103.113   116720187.71808  22211104.804    90950826.13748
  23524795.126   123623555.40307  23524798.204    96330018.75346
 15 03 04 00 04 30.0000000  0  7G16G18G19G21G22G27G31
  21110697.816   110937484.60109  21110696.453    86444796.23848
  22301564.286   117195698.70008  22301563.771    91321397.17347
  24335680.660   127884872.83206  24335679.882    99650557.64345
  21810756.884   114616315.39409  21810755.585    89311415.10648
  23179890.647   121811313.84908  23179890.487    94917985.59046
  22200509.855   116664519.11308  22200511.380    90907448.02748
  23543192.215   123720231.41507  23543195.473    96405350.30946
 15 03 04 00 05  0.0000000  0  7G16G18G19G21G22G27G31
  21100101.682   110881801.91809  21100100.394    86401407.14648
  22293187.879   117151680.51208  22293187.413    91287097.32547
  24321048.136   127807977.99206  24321047.202    99590639.70045
  21821175.831   114671067.67609  21821174.574    89354079.21648
  23163019.202   121722655.68507  23163019.128    94848901.54146
  22189939.682   116608973.88608  22189941.408    90864166.06848
  23561604.586   123816988.95107  23561608.181    96480745.33145
 15 03 04 00 05 30.0000000  0  7G16G18G19G21G22G27G31
  21089571.790   110826466.52409  21089570.321    86358288.66348
  22284884.211   117108044.91208  22284883.705    91253095.59247
  24306431.778   127731168.70306  24306430.820    99530788.40245
  21831643.027   114726072.66109  21831641.720    89396940.24448
  23146170.658   121634117.67508  23146170.878    94779911.11646
  22179392.371   116553547.20708  22179393.931    90820976.47748
  23580031.666   123913820.31807  23580034.688    96556197.95546
 15 03 04 00 06  0.0000000  0  7G16G18G19G21G22G27G31
  21079107.922   110771478.77709  21079106.671    86315441.08048
  22276653.656   117064792.23908  22276652.951    91219392.24847
  24291831.428   127654443.34506  24291830.367    99471002.52145
  21842157.653   114781326.98809  21842156.200    89439995.56348
  23129345.605   121545701.39308  23129345.221    94711015.48946
  22168867.176   116498237.55908  22168868.898    90777878.07048
  23598471.616   124010721.22307  23598475.003    96631704.71146
 15 03 04 00 06 30.0000000  0  7G16G18G19G21G22G27G31
  21068711.427   110716844.23309  21068709.927    86272868.71548
  22268496.701   117021927.74408  22268496.000    91185991.36947
  24277247.487   127577805.21706  24277246.583    99411284.61345
  21852719.967   114836831.42009  21852718.290    89483245.77248
  23112544.475   121457412.26508  23112544.113    94642218.98146
  22158364.942   116443048.19508  22158366.603    90734873.39748
  23616924.767   124107692.02807  23616928.582    96707265.87546
 15 03 04 00 07  0.0000000  0  7G16G18G19G21G22G27G31
  21058381.885   110662562.34209  21058380.550    86230571.13948
  22260413.583   116979450.67309  22260412.822    91152892.38547
  24262679.691   127501251.43106  24262678.978    99351632.42445
  21863328.806   114892581.71209  21863327.231    89526687.55348
  23095767.897   121369251.09508  23095767.387    94573522.15546
  22147885.074   116387976.62008  22147886.645    90691960.50148
  23635390.381   124204727.10807  23635394.457    96782877.14146
 15 03 04 00 07 30.0000000  0  7G16G18G19G21G22G27G31
  21048119.668   110608634.93409  21048118.324    86188549.79248
  22252404.530   116937362.50209  22252403.718    91120096.44247
  24248127.720   127424781.80806  24248127.156    99292045.83245
  21873984.205   114948576.58409  21873982.563    89570319.91848
  23079015.813   121281219.92908  23079015.411    94504926.64446
  22137427.656   116333022.45208  22137429.243    90649139.09648
  23653867.631   124301823.12007  23653871.228    96858535.90045
 15 03 04 00 08  0.0000000  0  7G16G18G19G21G22G27G31
  21037926.560   110555069.13209  21037925.237    86146810.21148
  22244470.814   116895670.17109  22244469.809    91087608.94447
  24233593.010   127348401.42606  24233592.574    99232528.74245
  21884686.607   115004818.33809  21884685.050    89614144.65748
  23062290.275   121193326.69308  23062289.811    94436438.60946
  22126993.401   116278190.79308  22126995.168    90606413.14648
  23672356.798   124398982.13107  23672360.351    96934243.73446
 15 03 04 00 08 30.0000000  0  7G16G18G19G21G22G27G31
  21027800.814   110501858.10209  21027799.555    86105347.08149
  22236610.895   116854366.64109  22236610.153    91055424.40347
  24219073.406   127272101.17305  24219073.087    99173074.12045
  21895433.932   115061296.38109  21895432.463    89658153.51548
  23045590.117   121105565.11708  23045588.986    94368053.11346
  22116580.929   116223472.81708  22116582.521    90563775.78448
  23690855.579   124496192.72507  23690859.410    97009991.72846
 15 03 04 00 09  0.0000000  0  7G16G18G19G21G22G27G31
  21017744.365   110449011.45309  21017742.976    86064167.88249
  22228826.809   116813461.14809  22228826.250    91023550.02847
  24204570.524   127195888.51306  24204569.766    99113687.72846
  21906227.477   115118016.12209  21906225.824    89702350.71448
  23028916.340   121017945.10908  23028915.187    94299777.97546
  22106191.455   116168875.95008  22106193.126    90521232.79148
  23709365.167   124593459.17307  23709369.330    97085783.19345
 15 03 04 00 09 30.0000000  0  7G16G18G19G21G22G27G31
  21007757.179   110396528.21309  21007755.742    86023271.85748
  22221118.141   116772952.76109  22221117.668    90991985.07947
  24190083.762   127119760.43606  24190083.073    99054367.26846
  21917066.215   115174973.42109  21917064.658    89746733.02148
  23012269.257   120930466.84508  23012268.763    94231613.27946
  22095824.615   116114397.37308  22095826.149    90478781.97548
  23727884.247   124690775.28007  23727888.581    97161613.36946
 15 03 04 00 10  0.0000000  0  7G16G18G19G21G22G27G31
  20997839.239   110344409.90409  20997838.051    85982660.19849
  22213485.412   116732842.59508  22213484.888    90960730.43447
  24175613.151   127043716.33406  24175612.198    98995112.20345
  21927949.619   115232165.25109  21927947.947    89791298.08248
  22995650.259   120843132.04508  22995649.403    94163560.34047
  22085480.150   116060036.56108  22085481.636    90436422.92348
  23746412.497   124788138.42307  23746416.584    97237480.22546
 15 03 04 00 10 30.0000000  0  7G16G18G19G21G22G27G31
  20987991.718   110292660.45609  20987990.261    85942335.95749
  22205929.132   116693134.07709  22205928.447    90929788.76147
  24161158.782   126967758.05106  24161157.713    98935924.00345
  21938877.445   115289591.67509  21938875.694    89836045.94248
  22979058.958   120755945.63808  22979058.480    94095623.06446
  22075158.431   116005795.31208  22075160.042    90394157.03148
  23764949.038   124885547.07307  23764953.314    97313382.47046
 15 03 04 00 11  0.0000000  0  7G16G18G19G21G22G27G31
  20978214.457   110241280.07209  20978213.054    85902299.30149
  22198449.274   116653827.43609  22198448.650    90899160.23947
  24146720.230   126891883.82005  24146719.047    98876801.32946
  21949849.222   115347249.03409  21949847.561    89880973.74748
  22962496.211   120668908.78508  22962495.418    94027802.28446
  22064859.017   115951671.96408  22064860.709    90351983.01648
  23783493.315   124982996.34107  23783498.091    97389316.32646
 15 03 04 00 11 30.0000000  0  7G16G18G19G21G22G27G31
  20968508.328   110190274.98809  20968507.179    85862555.08749
  22191046.987   116614928.15609  22191046.339    90868849.14147
  24132298.511   126816097.39305  24132297.409    98817747.07145
  21960865.163   115405139.53809  21960863.871    89926083.22548
  22945963.109   120582027.71708  22945962.078    93960102.89547
  22054583.017   115897670.50008  22054584.304    90309903.98148
  23802045.927   125080487.57007  23802050.419    97465282.88345
 15 03 04 00 12  0.0000000  0  7G16G18G19G21G22G27G31
  20958874.141   110139646.58509  20958872.825    85823104.39249
  22183722.352   116576437.53309  22183721.747    90838856.47247
  24117893.182   126740398.12806  24117892.083    98758760.76144
  21971925.183   115463260.46209  21971923.837    89971372.25048
  22929460.228   120495304.80508  22929459.424    93892526.75547
  22044329.935   115843790.43708  22044331.388    90267919.53548
  23820605.930   125178017.35807  23820610.331    97541279.49845
 15 03 04 00 12 30.0000000  0  7G16G18G19G21G22G27G31
  20949310.954   110089391.54509  20949309.536    85783944.63349
  22176474.819   116538351.74309  22176474.399    90809179.26447
  24103503.607   126664780.62406  24103502.602    98699838.08945
  21983027.803   115521604.74909  21983026.302    90016835.33148
  22912986.874   120408737.15108  22912986.379    93825071.60747
  22034098.980   115790026.19008  22034100.451    90226025.33848
  23839171.267   125275577.05007  23839175.917    97617299.37545
 15 03 04 00 13  0.0000000  0  7G16G18G19G21G22G27G31
  20939819.878   110039515.25809  20939818.518    85745080.00049
  22169305.478   116500676.50809  22169304.887    90779821.96447
  24089130.338   126589248.58506  24089129.256    98640982.04546
  21994173.443   115580174.13809  21994171.571    90062473.81548
  22896544.130   120322331.07208  22896543.504    93757742.34346
  22023890.698   115736381.74308  22023892.127    90184224.49148
  23857742.576   125373167.25007  23857747.279    97693343.02845
 15 03 04 00 13 30.0000000  0  7G16G18G19G21G22G27G31
  20930400.325   109990015.64009  20930398.773    85706508.87849
  22162213.820   116463409.09409  22162213.292    90750782.44547
  24074772.479   126513797.58606  24074771.223    98582189.11345
  22005360.456   115638962.69309  22005358.837    90108283.08048
  22880131.947   120236085.25208  22880130.921    93690537.93446
  22013704.441   115682852.81808  22013705.761    90142513.65148
  23876318.386   125470781.38207  23876323.373    97769405.30846
 15 03 04 00 14  0.0000000  0  7G16G18G19G21G22G27G31
  20921054.952   109940905.87609  20921053.575    85668241.54149
  22155201.811   116426561.67109  22155201.469    90722070.20347
  24060431.966   126438438.52706  24060430.869    98523467.88345
  22016590.752   115697978.89109  22016589.108    90154269.72348
  22863753.098   120150013.25808  22863752.013    93623468.98447
  22003542.364   115629450.39908  22003543.648    90100901.40148
  23894900.332   125568427.32507  23894905.627    97845492.34446
 15 03 04 00 14 30.0000000  0  7G16G18G19G21G22G27G31
  20911782.133   109892176.47609  20911780.695    85630270.58449
  22148268.084   116390124.75409  22148267.449    90693677.82947
  24046106.758   126363159.83406  24046105.743    98464809.26145
  22027861.934   115757209.91409  22027860.473    90200423.76548
  22847405.447   120064106.27208  22847404.514    93556528.61446
  21993401.935   115576162.99508  21993403.288    90059378.76048
  23913485.515   125666090.43307  23913490.912    97921592.75945
 15 03 04 00 15  0.0000000  0  7G16G18G19G21G22G27G31
  20902584.105   109843840.88809  20902582.747    85592606.49449
  22141415.075   116354111.51209  22141414.315    90665615.58147
  24031799.485   126287973.35407  24031798.316    98406222.42945
  22039176.028   115816665.53709  22039174.524    90246752.82048
  22831091.761   119978378.86408  22831091.092    93489728.16047
  21983285.809   115523002.51808  21983287.396    90017955.02948
  23932075.396   125763779.82606  23932081.124    97997713.63345
 15 03 04 00 15 30.0000000  0  7G16G18G19G21G22G27G31
  20893458.972   109795887.26909  20893457.623    85555240.04449
  22134640.280   116318509.91409  22134639.556    90637874.10647
  24017506.681   126212864.63206  24017505.657    98347696.22445
  22050529.782   115876329.54409  22050528.305    90293244.25148
  22814810.287   119892819.61008  22814809.665    93423058.75147
  21973191.244   115469955.03108  21973192.669    89976619.34348
  23950667.602   125861478.49707  23950673.137    98073841.75645
 15 03 04 00 16  0.0000000  0  7G16G18G19G21G22G27G31
  20884408.855   109748328.14809  20884407.226    85518180.99349
  22127946.130   116283331.72709  22127945.177    90610462.55447
  24003230.743   126137844.53906  24003229.765    98289239.11145
  22061924.808   115936210.74809  22061923.113    90339904.92748
  22798563.360   119807441.43408  22798562.589    93356530.40947
  21963120.154   115417031.25608  21963121.707    89935380.06148
  23969263.197   125959194.12907  23969268.820    98149983.09645
 15 03 04 00 16 30.0000000  0  7G16G18G19G21G22G27G31
  20875433.454   109701162.16109  20875432.023    85481428.28649
  22121332.290   116248575.48409  22121331.252    90583379.79347
  23988971.050   126062909.53707  23988969.789    98230848.26845
  22073360.171   115996303.92309  22073358.494    90386730.77848
  22782350.759   119722244.10808  22782349.677    93290142.99546
  21953071.828   115364227.75408  21953073.404    89894234.50348
  23987860.314   126056920.79506  23987866.119    98226132.98746
 15 03 04 00 17  0.0000000  0  7G16G18G19G21G22G27G31
  20866533.563   109654393.57209  20866532.258    85444985.23849
  22114799.268   116214244.75009  22114798.460    90556628.60347
  23974727.884   125988061.81906  23974726.665    98172525.43445
  22084835.927   116056609.42809  22084834.380    90433722.07948
  22766173.693   119637232.80508  22766172.525    93223900.51147
  21943046.877   115311546.90808  21943048.547    89853184.51648
  24006458.989   126154657.37006  24006465.552    98302290.55744
 15 03 04 00 17 30.0000000  0  7G16G18G19G21G22G27G31
  20857708.847   109608019.56409  20857707.465    85408849.65249
  22108346.720   116180336.44809  22108345.994    90530206.58147
  23960500.515   125913296.48906  23960499.148    98114266.81845
  22096350.714   116117120.88309  22096349.228    90480873.86148
  22750031.406   119552405.01308  22750030.363    93157801.05747
  21933044.698   115258984.00708  21933046.172    89812226.42848
  24025058.789   126252396.41607  24025065.513    98378450.10244
 15 03 04 00 18  0.0000000  0  7G16G18G19G21G22G27G31
  20848960.638   109562047.66709  20848959.342    85373027.39749
  22101975.869   116146857.43109  22101975.277    90504119.06247
  23946289.776   125838619.23606  23946288.628    98056076.83045
  22107905.497   116177841.80509  22107904.155    90528188.85948
  22733925.260   119467768.98708  22733924.711    93091851.04047
  21923065.755   115206544.68408  21923067.266    89771364.63448
  24043659.882   126350140.25407  24043665.996    98454613.43845
 15 03 04 00 18 30.0000000  0  7G16G18G19G21G22G27G31
  20840288.748   109516476.98209  20840287.393    85337517.77649
  22095686.448   116113806.54909  22095685.910    90478365.15747
  23932095.290   125764026.80507  23932093.929    97997952.91145
  22119499.371   116238767.27109  22119498.084    90575663.24648
  22717856.196   119383324.42608  22717855.048    93026050.17747
  21913109.950   115154226.07808  21913111.289    89730596.91448
  24062260.273   126447883.74907  24062266.599    98530776.45445
 15 03 04 00 19  0.0000000  0  7G16G18G19G21G22G27G31
  20831693.553   109471308.73909  20831692.117    85302321.74849
  22089478.742   116081184.58509  22089478.064    90452945.46947
  23917916.768   125689518.69907  23917915.451    97939894.72845
  22131131.753   116299895.00709  22131130.359    90623295.24848
  22701823.632   119299073.54308  22701822.391    92960400.24947
  21903176.804   115102027.85608  21903178.288    89689922.99748
  24080860.019   126545623.26306  24080866.618    98606936.29945
 15 03 04 00 19 30.0000000  0  7G16G18G19G21G22G27G31
  20823175.258   109426544.39309  20823173.762    85267440.44549
  22083352.799   116048992.69209  22083351.866    90427860.89947
  23903754.225   125615094.56807  23903752.805    97881901.96645
  22142801.954   116361222.57809  22142800.408    90671082.96248
  22685828.245   119215018.71708  22685827.227    92894903.10247
  21893266.676   115049949.65708  21893268.203    89649342.60648
  24099458.376   126643355.50607  24099465.161    98683090.53645
 15 03 04 00 20  0.0000000  0  7G16G18G19G21G22G27G31
  20814735.937   109382195.80609  20814734.546    85232883.10949
  22077310.713   116017241.62709  22077309.794    90403119.84447
  23889609.727   125540764.07107  23889608.341    97823982.15846
  22154511.634   116422757.23909  22154510.217    90719032.04748
  22669873.063   119131172.23508  22669871.673    92829568.27547
  21883381.322   114998001.36508  21883382.723    89608863.43848
  24118056.878   126741087.23406  24118063.780    98759244.39446
 15 03 04 00 20 30.0000000  0  7G16G18G19G21G22G27G31
  20806373.491   109338250.35409  20806371.791    85198639.90049
  22071350.036   115985918.78009  22071349.366    90378712.45247
  23875479.810   125466512.82607  23875478.824    97766124.11645
  22166257.779   116484484.08208  22166256.238    90767130.88348
  22653954.937   119047522.50908  22653953.469    92764386.76747
  21873517.790   114946168.68608  21873519.280    89568474.34948
  24136651.885   126838801.46507  24136658.750    98835384.62745
 15 03 04 00 21  0.0000000  0  7G16G18G19G21G22G27G31
  20798089.232   109294716.49909  20798087.704    85164717.41849
  22065472.593   115955032.16809  22065471.625    90354644.99147
  23861366.446   125392346.97207  23861365.260    97708332.61846
  22178041.358   116546407.18008  22178039.803    90815382.64248
  22638076.039   118964078.67908  22638074.576    92699365.69847
  21863677.662   114894458.17908  21863679.040    89528180.46448
  24155244.204   126936501.66707  24155251.054    98911513.94344
 15 03 04 00 21 30.0000000  0  7G16G18G19G21G22G27G31
  20789884.145   109251598.78609  20789882.738    85131119.20449
  22059678.598   115924585.67909  22059677.950    90330920.48447
  23847269.791   125318268.76707  23847268.602    97650609.41146
  22189862.261   116608526.28509  22189860.842    90863787.13348
  22622237.208   118880845.62508  22622235.571    92634508.87147
  21853861.199   114842872.29008  21853862.501    89487983.69148
  24173833.764   127034187.21806  24173840.583    98987631.92445
 15 03 04 00 22  0.0000000  0  7G16G18G19G21G22G27G31
  20781758.223   109208896.46609  20781756.682    85097844.67449
  22053968.298   115894577.34909  22053967.590    90307537.39247
  23833189.454   125244275.78307  23833188.159    97592952.59945
  22201719.736   116670837.79909  22201718.306    90912341.56148
  22606438.775   118797823.54908  22606437.031    92569816.42747
  21844067.928   114791408.58508  21844069.403    89447882.12348
  24192419.216   127131853.08406  24192426.671    99063734.50145
 15 03 04 00 22 30.0000000  0  7G16G18G19G21G22G27G31
  20773711.637   109166611.02809  20773709.992    85064894.98149
  22048341.772   115865009.34509  22048340.992    90284497.41147
  23819125.404   125170368.14106  23819123.996    97535362.29745
  22213613.668   116733340.21109  22213612.150    90961044.74048
  22590680.969   118715015.03508  22590679.194    92505290.40847
  21834298.043   114740067.33608  21834299.258    89407875.98048
  24211000.485   127229496.30807  24211008.641    99139819.40746
 15 03 04 00 23  0.0000000  0  7G16G18G19G21G22G27G31
  20765744.784   109124745.62009  20765743.400    85032272.58649
  22042799.365   115835883.89409  22042798.609    90261802.27947
  23805077.490   125096546.51006  23805076.137    97477839.00745
  22225543.327   116796031.43109  22225542.068    91009895.04148
  22574964.111   118632423.73108  22574962.555    92440933.64847
  21824551.604   114688849.60909  21824553.022    89367966.08348
  24229577.697   127327115.06107  24229585.803    99215885.31146
 15 03 04 00 23 30.0000000  0  7G16G18G19G21G22G27G31
  20757858.649   109083303.04809  20757857.133    84999979.67349
  22037341.526   115807202.76009  22037340.754    90239453.37047
  23791046.264   125022812.01606  23791044.602    97420383.62446
  22237508.897   116858911.33208  22237507.594    91058892.36748
  22559289.492   118550053.11408  22559287.679    92376748.83947
  21814828.970   114637756.41808  21814830.217    89328153.23248
  24248149.512   127424707.42307  24248157.364    99291930.68944
 15 03 04 00 24  0.0000000  0  7G16G18G19G21G22G27G31
  20750053.024   109042284.36809  20750051.684    84968017.06949
  22031968.261   115778966.99809  22031967.605    90217451.50647
  23777031.241   124949163.91706  23777029.973    97362995.55945
  22249509.910   116921977.51509  22249508.513    91108034.84248
  22543657.303   118467905.34608  22543655.251    92312737.66047
  21805129.858   114586787.36208  21805131.118    89288437.10548
  24266715.342   127522269.92406  24266722.978    99367952.86444
 15 03 04 00 24 30.0000000  0  7G16G18G19G21G22G27G31
  20742328.271   109001690.17009  20742326.819    84936385.22849
  22026679.809   115751176.27709  22026679.216    90195796.43347
  23763032.680   124875600.29206  23763031.316    97305673.30546
  22261545.874   116985226.02609  22261544.357    91157319.39748
  22528067.612   118385981.62008  22528065.890    92248901.08247
  21795453.895   114535940.89908  21795455.240    89248816.50048
  24285274.324   127619798.15506  24285282.383    99443948.36944
 15 03 04 00 25  0.0000000  0  7G16G18G19G21G22G27G31
  20734684.360   108961521.58509  20734683.045    84905085.03249
  22021476.123   115723831.56709  22021475.490    90174488.89147
  23749049.846   124802120.94206  23749048.580    97248416.74546
  22273616.127   117048655.13408  22273614.401    91206744.67648
  22512520.976   118304283.84108  22512519.259    92185240.56847
  21785801.382   114485216.87908  21785802.793    89209291.31348
  24303826.926   127717289.01707  24303835.344    99519914.80145
 15 03 04 00 25 30.0000000  0  7G16G18G19G21G22G27G31
  20727123.040   108921786.23809  20727121.553    84874122.42649
  22016358.707   115696939.42609  22016358.253    90153534.00547
  23735084.203   124728730.93106  23735082.946    97191229.77746
  22285721.392   117112268.01609  22285719.705    91256313.15348
  22497018.911   118222820.31408  22497017.241    92121762.58447
  21776173.162   114434620.77608  21776174.558    89169865.80148
  24322372.756   127814745.13607  24322381.754    99595854.15446
 15 03 04 00 26  0.0000000  0  7G16G18G19G21G22G27G31
  20719643.513   108882481.30509  20719642.112    84843495.20949
  22011326.788   115670496.69809  22011326.176    90132929.30447
  23721134.692   124655426.38006  23721133.516    97134109.41046
  22297860.413   117176059.15408  22297858.663    91306020.53347
  22481561.126   118141589.66608  22481559.273    92058466.04047
  21766568.646   114384148.60708  21766570.045    89130536.86348
  24340910.372   127912159.31306  24340919.666    99671760.80746
 15 03 04 00 26 30.0000000  0  7G16G18G19G21G22G27G31
  20712247.172   108843613.11609  20712245.697    84813208.31349
  22006381.689   115644509.43809  22006380.887    90112679.51747
  23707202.139   124582211.79007  23707201.164    97077059.13645
  22310033.517   117240030.25108  22310032.017    91355868.13348
  22466149.102   118060598.65208  22466147.102    91995356.24747
  21756988.714   114333805.03509  21756990.157    89091308.13348
  24359439.866   128009533.27105  24359449.766    99747636.15745
 15 03 04 00 27  0.0000000  0  7G16G18G19G21G22G27G31
  20704932.470   108805174.85009  20704931.100    84783256.41749
  22001521.706   115618969.77209  22001520.756    90092778.49947
  23693285.191   124509077.85906  23693284.078    97020071.71146
  22322239.081   117304171.35708  22322237.692    91405848.20748
  22450781.503   117979841.03208  22450779.193    91932428.29047
  21747431.415   114283581.25109  21747432.678    89052172.73348
  24377959.846   128106855.54806  24377969.456    99823471.19042
 15 03 04 00 27 30.0000000  0  7G16G18G19G21G22G27G31
  20697701.899   108767177.06709  20697700.280    84753647.75949
  21996748.778   115593887.30009  21996747.605    90073233.74347
  23679385.378   124436033.56907  23679384.133    96963154.13646
  22334478.436   117368489.88508  22334477.077    91455966.53648
  22435460.114   117899328.58908  22435458.242    91869691.39947
  21737898.653   114233486.52909  21737899.932    89013137.91748
  24396471.316   128204131.98207  24396480.290    99899270.80743
 15 03 04 00 28  0.0000000  0  7G16G18G19G21G22G27G31
  20690553.303   108729611.00209  20690551.733    84724375.50049
  21992061.095   115569253.36009  21992060.033    90054038.48147
  23665500.726   124363068.35107  23665499.189    96906298.17346
  22346749.255   117432972.69308  22346747.572    91506212.88148
  22420184.029   117819052.94208  22420182.434    91807139.01947
  21728388.513   114183510.31109  21728389.900    88974195.42548
  24414971.784   128301349.28106  24414980.927    99975024.22845
 15 03 04 00 28 30.0000000  0  7G16G18G19G21G22G27G31
  20683489.773   108692492.83909  20683488.459    84695452.26149
  21987461.743   115545083.19609  21987460.641    90035204.61347
  23651633.714   124290196.46407  23651631.899    96849514.93946
  22359053.737   117497632.27408  22359051.882    91556596.97148
  22404956.430   117739031.15108  22404954.575    91744784.45147
  21718903.743   114133667.00909  21718905.033    88935356.51248
  24433462.870   128398519.18806  24433472.369   100050740.68645
 15 03 04 00 29  0.0000000  0  7G16G18G19G21G22G27G31
  20676510.520   108655816.39809  20676509.187    84666873.21449
  21982949.199   115521370.21509  21982948.255    90016726.99247
  23637783.039   124217410.07907  23637781.346    96792798.33345
  22371389.867   117562459.04408  22371388.166    91607111.33748
  22389775.849   117659257.97008  22389774.054    91682623.60047
  21709442.768   114083949.24609  21709444.113    88896615.40648
  24451942.349   128495630.94705  24451952.881   100126411.79246
 15 03 04 00 29 30.0000000  0  7G16G18G19G21G22G27G31
  20669616.150   108619586.21009  20669614.652    84638641.90249
  21978524.231   115498117.94509  21978523.639    89998608.36847
  23623949.035   124144712.12007  23623947.332    96736150.60946
  22383757.921   117627454.23508  22383756.170    91657756.93148
  22374643.769   117579738.94608  22374641.758    91620660.78347
  21700006.094   114034359.94509  21700007.536    88857974.42048
  24470411.169   128592684.75006  24470421.758   100202037.75845
 15 03 04 00 30  0.0000000  0  7G16G18G19G21G22G27G31
  20662806.682   108583802.49209  20662805.360    84610758.48949
  21974187.141   115475326.53709  21974186.517    89980848.85647
  23610131.444   124072101.25207  23610129.719    96679570.76446
  22396157.383   117692614.87708  22396155.971    91708531.45347
  22359560.399   117500475.67808  22359558.671    91558897.28347
  21690593.927   113984898.11009  21690595.151    88819432.74848
  24488868.456   128689676.44606  24488879.109   100277615.39844
 15 03 04 00 30 30.0000000  0  7G16G18G19G21G22G27G31
  20656082.476   108548466.17909  20656081.029    84583223.70049
  21969937.622   115452995.53909  21969937.166    89963448.10347
  23596330.056   123999575.90407  23596328.542    96623057.56446
  22408587.894   117757937.68608  22408586.547    91759432.33447
  22344526.009   117421469.02008  22344523.944    91497333.71547
  21681205.565   113935562.43109  21681206.962    88780989.37248
  24507313.387   128786602.21406  24507323.822   100353141.76044
 15 03 04 00 31  0.0000000  0  7G16G18G19G21G22G27G31
  20649443.542   108513578.00209  20649442.168    84556038.10949
  21965775.962   115431125.43309  21965775.246    89946406.48347
  23582545.037   123927135.48207  23582543.701    96566610.53646
  22421048.858   117823420.30608  22421047.330    91810457.75047
  22329540.532   117342720.92908  22329538.715    91435971.64547
  21671841.192   113886352.63509  21671842.663    88742644.09748
  24525744.597   128883458.25006  24525754.797   100428613.70844
 15 03 04 00 31 30.0000000  0  7G16G18G19G21G22G27G31
  20642890.988   108479144.25509  20642889.507    84529206.62249
  21961702.924   115409721.12809  21961702.056    89929727.82747
  23568777.087   123854784.01307  23568775.561    96510232.80546
  22433540.674   117889065.05208  22433539.124    91861609.49547
  22314605.893   117264238.31108  22314603.674    91374816.39847
  21662501.581   113837272.89409  21662503.010    88704400.15648
  24544162.746   128980246.49306  24544173.203   100504032.90846
 15 03 04 00 32  0.0000000  0  7G16G18G19G21G22G27G31
  20636424.639   108445163.67309  20636423.273    84502728.25349
  21957718.010   115388780.94909  21957717.186    89913410.82747
  23555025.512   123782519.40307  23555023.968    96453922.76646
  22446062.398   117954867.56208  22446060.972    91912884.18047
  22299721.647   117186021.19208  22299719.498    91313868.06047
  21653186.502   113788321.04509  21653187.543    88666255.87748
  24562567.104   129076961.48906  24562577.997   100579395.05444
 15 03 04 00 32 30.0000000  0  7G16G18G19G21G22G27G31
  20630045.075   108411638.33909  20630043.499    84476604.61449
  21953822.162   115368307.13309  21953821.130    89897457.22247
  23541290.573   123710341.59207  23541288.999    96397680.36646
  22458613.962   118020826.06808  22458612.388    91964280.41447
  22284888.318   117108072.42908  22284886.183    91253128.83247
  21643895.579   113739497.85009  21643896.794    88628211.84548
  24580957.299   129173601.17906  24580968.070   100654698.70645
 15 03 04 00 33  0.0000000  0  7G16G18G19G21G22G27G31
  20623752.286   108378569.44609  20623750.682    84450836.64349
  21950014.760   115348299.75609  21950013.896    89881867.08047
  23527571.852   123638249.97907  23527570.414    96341505.11746
  22471194.711   118086938.60108  22471193.182    92015796.66347
  22270106.806   117030394.18308  22270104.608    91192600.37947
  21634629.234   113690802.85009  21634630.408    88590267.69748
  24599332.308   129270162.12504  24599343.237   100729941.19143
 15 03 04 00 33 30.0000000  0  7G16G18G19G21G22G27G31
  20617546.427   108345957.15509  20617544.815    84425424.46949
  21946296.177   115328758.09509  21946295.072    89866639.83447
  23513869.550   123566243.27007  23513868.078    96285396.02746
  22483804.181   118153201.81408  22483802.787    92067430.32547
  22255376.636   116952987.15008  22255374.553    91132283.26547
  21625387.023   113642234.95109  21625388.193    88552422.59048
  24617691.387   129366640.23705  24617702.340   100805119.33943
 15 03 04 00 34  0.0000000  0  7G16G18G19G21G22G27G31
  20611429.393   108313812.64309  20611427.819    84400376.80049
  21942667.988   115309692.33209  21942667.044    89851783.41847
  23500185.080   123494330.83107  23500183.351    96229360.38946
  22496443.933   118219623.43808  22496442.371    92119187.43347
  22240700.276   116875863.67208  22240698.405    91072187.11347
  21616170.867   113593803.75709  21616172.205    88514684.00648
  24636035.812   129463042.77905  24636046.808   100880238.64845
 15 03 04 00 34 30.0000000  0  7G16G18G19G21G22G27G31
  20605399.713   108282126.64809  20605398.266    84375686.41349
  21939128.745   115291093.14209  21939127.696    89837290.56847
  23486516.481   123422501.86107  23486514.620    96173389.81746
  22509111.216   118286190.86808  22509109.792    92171058.15247
  22226076.490   116799015.28008  22226074.483    91012305.31647
  21606978.695   113545498.53709  21606979.948    88477043.59248
  24654363.181   129559355.16107  24654374.833   100955288.00245
 15 03 04 00 35  0.0000000  0  7G16G18G19G21G22G27G31
  20599458.155   108250903.39209  20599456.633    84351356.60749
  21935678.707   115272963.53809  21935677.723    89823163.62947
  23472864.217   123350758.79207  23472862.467    96117486.15446
  22521806.498   118352904.77708  22521805.041    92223043.01347
  22211506.117   116722447.33208  22211503.907    90952642.02447
  21597811.101   113497322.34809  21597812.289    88439503.71848
  24672673.282   129655578.13806  24672683.831   101030267.88246
 15 03 04 00 35 30.0000000  0  7G16G18G19G21G22G27G31
  20593604.728   108220143.20709  20593603.149    84327387.63149
  21932318.052   115255303.08209  21932317.108    89809402.25347
  23459227.984   123279100.46407  23459226.192    96061648.54646
  22534529.208   118419762.34908  22534527.360    92275139.81447
  22196989.268   116646161.05608  22196987.051    90893198.23647
  21588667.826   113449274.14309  21588669.062    88402063.57448
  24690964.671   129751896.12816  24690972.968   101105397.46855
 15 03 04 00 36  0.0000000  0  6G16G18G19G21G22G27
  20587841.303   108189856.95409  20587839.791    84303787.95449
  21929048.539   115238122.17809  21929047.621    89796014.56047
  23445609.522   123207535.87107  23445607.845    96005883.97246
  22547280.361   118486770.67508  22547278.824    92327354.08447
  22182528.013   116570167.73908  22182525.898    90833982.73547
  21579550.656   113401363.27809  21579551.962    88364730.45048
 15 03 04 00 36 30.0000000  0  6G16G18G19G21G22G27
  20582167.857   108160042.23309  20582166.314    84280555.70349
  21925869.656   115221417.59809  21925868.995    89782998.02647
  23432008.389   123136061.27807  23432006.668    95950189.51946
  22560059.329   118553924.69708  22560057.654    92379681.88247
  22168122.650   116494466.51908  22168120.496    90774994.83447
  21570459.026   113353586.19209  21570460.237    88327501.57348
 15 03 04 00 37  0.0000000  0  6G16G18G19G21G22G27
  20576583.464   108130696.17309  20576581.959    84257688.64149
  21922780.838   115205185.49609  21922779.996    89770349.65547
  23418423.525   123064672.30507  23418421.724    95894561.78846
  22572864.747   118621217.84208  22572863.348    92432118.08947
  22153772.411   116419055.40608  22153769.977    90716232.98047
  21561391.940   113305938.67709  21561393.217    88290373.64548
 15 03 04 00 37 30.0000000  0  6G16G18G19G21G22G27
  20571088.900   108101822.88809  20571087.503    84235189.98049
  21919782.568   115189429.70009  21919781.834    89758072.43247
  23404855.425   122993371.55007  23404853.518    95839002.81646
  22585696.792   118688650.75508  22585695.441    92484663.21047
  22139478.347   116343939.09408  22139475.729    90657700.83147
  21552350.177   113258423.73609  21552351.604    88253349.03048
 15 03 04 00 38  0.0000000  0  6G16G18G19G21G22G27
  20565684.944   108073424.53609  20565683.652    84213061.39649
  21916875.322   115174151.24209  21916874.446    89746167.16447
  23391304.170   122922159.59907  23391302.468    95783513.03346
  22598555.258   118756222.54708  22598553.802    92537316.54747
  22125240.881   116269121.14108  22125238.403    90599401.17447
  21543333.899   113211042.28309  21543335.094    88216428.43248
 15 03 04 00 38 30.0000000  0  6G16G18G19G21G22G27
  20560371.192   108045500.67309  20560369.896    84191302.54349
  21914058.436   115159348.71709  21914057.487    89734632.75147
  23377769.506   122851034.49407  23377767.488    95728090.92746
  22611439.489   118823929.50908  22611438.044    92590075.21047
  22111060.197   116194601.73908  22111057.951    90541334.15848
  21534342.498   113163792.55609  21534343.751    88179610.47648
 15 03 04 00 39  0.0000000  0  6G16G18G19G21G22G27
  20555148.791   108018056.39809  20555147.439    84169917.39449
  21911333.045   115145026.90809  21911332.057    89723472.91447
  23364252.145   122779999.69007  23364250.201    95672739.17946
  22624349.816   118891773.42408  22624348.182    92642940.59547
  22096937.772   116120387.24008  22096935.269    90483504.72947
  21525377.007   113116678.45809  21525378.292    88142898.20548
 15 03 04 00 39 30.0000000  0  6G16G18G19G21G22G27
  20550018.134   107991094.55009  20550016.839    84148908.16349
  21908699.569   115131187.89909  21908698.723    89712689.28948
  23350752.078   122709056.88707  23350750.347    95617459.12746
  22637285.994   118959753.96608  22637284.516    92695912.44247
  22082873.932   116046481.50909  22082871.360    90425915.90247
  21516437.542   113069701.75109  21516438.680    88106292.98748
 15 03 04 00 40  0.0000000  0  6G16G18G19G21G22G27
  20544977.837   107964607.70109  20544976.614    84128269.06449
  21906156.509   115117823.06109  21906155.536    89702275.14648
  23337267.773   122638196.69807  23337266.119    95562243.43746
  22650246.409   119027860.28008  22650244.784    92748982.28947
  22068867.488   115972877.86909  22068864.957    90368562.46347
  21507522.552   113022853.66609  21507523.736    88069787.99948
 15 03 04 00 40 30.0000000  0  6G16G18G19G21G22G27
  20540030.206   107938607.66709  20540028.926    84108009.29849
  21903705.451   115104943.44509  21903704.578    89692239.10248
  23323801.160   122567429.54707  23323799.542    95507100.24346
  22663232.285   119096101.17808  22663230.761    92802157.00947
  22054920.995   115899588.89909  22054918.581    90311454.22648
  21498634.098   112976144.80409  21498635.431    88033391.50148
 15 03 04 00 41  0.0000000  0  6G16G18G19G21G22G27
  20535174.687   107913091.58509  20535173.300    84088126.63549
  21901346.045   115092545.34009  21901345.234    89682578.26347
  23310351.547   122496751.31907  23310349.867    95452026.31946
  22676242.495   119164470.63408  22676240.815    92855431.91047
  22041034.106   115826612.58509  22041031.478    90254589.61247
  21489771.598   112929571.17609  21489772.760    87997100.37748
 15 03 04 00 41 30.0000000  0  6G16G18G19G21G22G27
  20530411.659   107888061.07709  20530410.245    84068622.34449
  21899078.637   115080630.09109  21899077.651    89673293.67248
  23296918.881   122426162.30807  23296916.988    95397021.92846
  22689276.996   119232967.24308  22689275.299    92908805.88147
  22027207.308   115753952.14609  22027204.877    90197971.14748
  21480934.756   112883133.51009  21480935.954    87960915.19648
 15 03 04 00 42  0.0000000  0  6G16G18G19G21G22G27
  20525740.866   107863516.95809  20525739.723    84049497.05649
  21896902.963   115069197.19209  21896901.957    89664384.94048
  23283502.973   122355661.89507  23283501.112    95342086.59446
  22702335.112   119301588.76308  22702333.752    92962277.19047
  22013440.946   115681609.39209  22013438.466    90141600.21647
  21472123.742   112836831.53509  21472124.855    87924835.75148
 15 03 04 00 42 30.0000000  0  6G16G18G19G21G22G27
  20521163.137   107839460.73409  20521161.785    84030751.94849
  21894819.174   115058247.49209  21894818.294    89655852.72147
  23270104.196   122285250.16007  23270102.260    95287220.34846
  22715416.912   119370333.24508  22715415.368    93015844.31447
  21999735.386   115609586.81609  21999732.754    90085478.77248
  21463338.625   112790665.62309  21463339.885    87888862.32748
 15 03 04 00 43  0.0000000  0  6G16G18G19G21G22G27
  20516679.024   107815896.93809  20516677.820    84012390.54749
  21892828.136   115047784.70409  21892827.136    89647699.92048
  23256722.687   122214930.41707  23256720.771    95232425.79246
  22728522.296   119439202.37508  22728520.681    93069508.56547
  21986091.792   115537889.68509  21986089.141    90029610.92847
  21454580.171   112744639.32609  21454581.265    87852997.68248
 15 03 04 00 43 30.0000000  0  6G16G18G19G21G22G27
  20512288.755   107792825.72809  20512287.369    83994412.97849
  21890929.609   115037807.97109  21890928.586    89639925.86148
  23243358.592   122144701.12207  23243356.614    95177701.71246
  22741650.692   119508192.99908  22741649.257    93123267.48647
  21972510.200   115466518.90309  21972507.814    89973997.38048
  21445847.956   112698751.44209  21445849.055    87817240.89848
 15 03 04 00 44  0.0000000  0  6G16G18G19G21G22G27
  20507991.938   107770245.40009  20507990.468    83976817.91849
  21889123.166   115028314.83309  21889122.138    89632528.63448
  23230011.038   122074559.37607  23230009.031    95123045.84046
  22754801.543   119577300.59308  22754799.980    93177117.55847
  21958990.903   115395474.51809  21958988.498    89918638.16948
  21437141.646   112652999.60209  21437142.939    87781590.11948
 15 03 04 00 44 30.0000000  0  6G16G18G19G21G22G27
  20503789.312   107748160.29509  20503787.835    83959608.74449
  21887409.319   115019308.97509  21887408.477    89625511.10347
  23216680.887   122004508.55407  23216678.568    95068460.82446
  22767974.824   119646526.34408  22767973.131    93231059.69047
  21945534.678   115324761.85909  21945532.284    89863537.44048
  21428461.979   112607387.20409  21428463.260    87746048.00648
 15 03 04 00 45  0.0000000  0  6G16G18G19G21G22G27
  20499681.260   107726572.86409  20499679.983    83942787.37249
  21885788.760   115010792.06809  21885787.647    89618874.57647
  23203368.047   121934549.79907  23203365.883    95013947.53946
  22781170.310   119715869.74508  22781168.732    93285093.50147
  21932142.346   115254384.15109  21932139.780    89808697.71848
  21419809.023   112561915.67509  21419810.167    87710615.65948
 15 03 04 00 45 30.0000000  0  6G16G18G19G21G22G27
  20495667.978   107705482.86509  20495666.629    83926353.60849
  21884260.670   115002762.49309  21884259.658    89612617.78048
  23190072.581   121864681.05608  23190070.481    94959504.40447
  22794387.677   119785327.69608  22794386.071    93339216.57847
  21918813.792   115184342.00209  21918811.166    89754119.46148
  21411182.642   112516583.70909  21411183.936    87675292.06249
 15 03 04 00 46  0.0000000  0  6G16G18G19G21G22G27
  20491749.864   107684892.72209  20491748.508    83910309.33949
  21882825.618   114995221.71109  21882824.694    89606741.87148
  23176794.193   121794903.87307  23176792.267    94905132.61946
  22807626.848   119854899.35008  22807625.153    93393428.24747
  21905549.611   115114639.32309  21905547.153    89699805.73248
  21402583.003   112471392.86309  21402584.294    87640078.43149
 15 03 04 00 46 30.0000000  0  6G16G18G19G21G22G27
  20487926.866   107664802.45109  20487925.387    83894654.58049
  21881483.658   114988169.91309  21881482.687    89601246.98448
  23163533.470   121725217.21307  23163531.395    94850831.37646
  22820887.099   119924582.25708  22820885.314    93447726.61147
  21892350.305   115045277.12509  21892347.915    89645757.30948
  21394010.253   112426342.57209  21394011.475    87604974.32949
 15 03 04 00 47  0.0000000  0  6G16G18G19G21G22G27
  20484199.013   107645212.95109  20484197.766    83879390.03349
  21880234.747   114981606.74809  21880233.778    89596132.84848
  23150289.537   121655620.40507  23150287.439    94796600.12247
  22834168.026   119994374.05908  22834166.263    93502109.81347
  21879216.053   114976256.81809  21879213.851    89591975.29248
  21385464.171   112381432.35409  21385465.308    87569979.35848
 15 03 04 00 47 30.0000000  0  6G16G18G19G21G22G27
  20480567.637   107626129.13109  20480566.092    83864519.52649
  21879079.527   114975535.99609  21879078.649    89591402.41447
  23137063.429   121586117.20907  23137061.264    94742441.83446
  22847469.871   120064276.72508  22847468.394    93556579.41247
  21866148.202   114907584.70809  21866145.880    89538464.60548
  21376945.473   112336666.45209  21376946.520    87535096.84649
 15 03 04 00 48  0.0000000  0  6G16G18G19G21G22G27
  20477031.774   107607548.23209  20477030.180    83850040.90149
  21878017.538   114969954.39209  21878016.494    89587053.12748
  23123854.538   121516704.20507  23123852.313    94688353.82346
  22860792.042   120134285.17408  22860790.504    93611131.44447
  21853146.517   114839259.79809  21853144.053    89485224.45248
  21368453.565   112292041.73509  21368454.822    87500324.35749
 15 03 04 00 48 30.0000000  0  6G16G18G19G21G22G27
  20473592.012   107589472.28709  20473590.464    83835955.74849
  21877048.636   114964862.21909  21877047.460    89583085.22148
  23110662.697   121447381.64507  23110660.731    94634336.28346
  22874134.043   120204398.11508  22874132.451    93665764.89347
  21840211.195   114771284.19209  21840208.638    89432256.49548
  21359988.737   112247558.79609  21359989.941    87465662.33449
 15 03 04 00 49  0.0000000  0  6G16G18G19G21G22G27
  20470249.681   107571908.37509  20470248.178    83822269.58349
  21876174.071   114960266.18909  21876172.670    89579503.91448
  23097489.449   121378155.60407  23097487.235    94580393.95546
  22887496.705   120274619.53608  22887495.150    93720482.87747
  21827343.813   114703666.88809  21827341.374    89379567.73548
  21351552.244   112203224.10009  21351553.089    87431115.83549
 15 03 04 00 49 30.0000000  0  6G16G18G19G21G22G27
  20467003.250   107554848.07509  20467001.634    83808975.84049
  21875392.192   114956157.17109  21875390.920    89576302.09148
  23084332.823   121309016.68907  23084330.591    94526519.51246
  22900877.974   120344938.17108  22900876.347    93775276.61247
  21814543.483   114636400.29509  21814541.076    89327152.24748
  21343141.999   112159028.43509  21343142.965    87396677.65949
 15 03 04 00 50  0.0000000  0  6G16G18G19G21G22G27
  20463854.900   107538303.10409  20463853.299    83796083.65249
  21874705.034   114952546.03709  21874703.764    89573488.23948
  23071194.644   121239975.75207  23071192.484    94472721.41146
  22914279.348   120415363.23908  22914277.950    93830153.28047
  21801812.184   114569497.05409  21801809.671    89275019.89548
  21334760.433   112114983.06809  21334761.504    87362356.60049
 15 03 04 00 50 30.0000000  0  6G16G18G19G21G22G27
  20460803.185   107522266.57909  20460801.680    83783587.65749
  21874110.929   114949424.99309  21874109.876    89571056.27348
  23058073.474   121171024.50707  23058071.589    94418993.22546
  22927699.258   120485885.56208  22927697.847    93885105.73347
  21789148.857   114502951.63809  21789146.539    89223166.36148
  21326405.935   112071080.22909  21326407.067    87328146.61249
 15 03 04 00 51  0.0000000  0  6G16G18G19G21G22G27
  20457849.295   107506743.24909  20457847.742    83771491.55549
  21873610.984   114946797.36009  21873609.682    89569008.78048
  23044970.103   121102166.85807  23044968.104    94365337.95747
  22941138.025   120556506.76208  22941136.690    93940135.23846
  21776554.865   114436769.48209  21776552.326    89171595.88448
  21318079.258   112027323.84309  21318080.475    87294050.73349
 15 03 04 00 51 30.0000000  0  6G16G18G19G21G22G27
  20454992.797   107491732.25309  20454991.228    83759794.67449
  21873204.486   114944661.66709  21873203.354    89567344.62248
  23031884.422   121033400.85907  23031882.623    94311754.09947
  22954595.112   120627223.35408  22954593.677    93995239.06947
  21764030.100   114370951.24009  21764027.540    89120308.98148
  21309780.425   111983712.64909  21309781.503    87260067.98549
 15 03 04 00 52  0.0000000  0  6G16G18G19G21G22G27
  20452234.639   107477238.15909  20452233.132    83748500.57249
  21872892.564   114943022.06909  21872891.543    89566067.03048
  23018816.870   120964730.12907  23018814.898    94258244.48146
  22968070.600   120698037.05308  22968069.023    94050418.57647
  21751575.476   114305502.37409  21751573.037    89069309.90148
  21301509.889   111940250.47109  21301511.125    87226201.35949
 15 03 04 00 52 30.0000000  0  6G16G18G19G21G22G27
  20449574.311   107463258.53909  20449572.959    83737607.35949
  21872674.084   114941874.82109  21872673.187    89565173.08448
  23005766.765   120896151.20607  23005764.894    94204806.39647
  22981563.364   120768942.78908  22981561.857    94105669.78647
  21739191.047   114240422.04309  21739188.940    89018598.00248
  21293267.183   111896934.32009  21293268.300    87192448.52449
 15 03 04 00 53  0.0000000  0  6G16G18G19G21G22G27
  20447012.964   107449798.10309  20447011.417    83727118.70949
  21872550.177   114941223.68809  21872549.138    89564665.71948
  22992734.641   120827667.74807  22992732.805    94151442.70346
  22995074.214   120839942.91208  22995072.798    94160994.55347
  21726877.821   114175716.06909  21726875.497    88968177.79448
  21285052.985   111853768.26409  21285054.037    87158812.64849
 15 03 04 00 53 30.0000000  0  6G16G18G19G21G22G27
  20444549.651   107436853.92809  20444548.305    83717032.33449
  21872520.049   114941065.14409  21872519.140    89564542.19448
  22979720.259   120759276.24008  22979718.305    94098150.65546
  23008602.003   120911031.86008  23008600.703    94216388.53147
  21714635.462   114111382.75909  21714633.147    88918047.97748
  21276866.718   111810749.04409  21276867.815    87125291.18849
 15 03 04 00 54  0.0000000  0  6G16G18G19G21G22G27
  20442185.450   107424429.75309  20442184.109    83707351.15949
  21872583.964   114941401.14309  21872583.129    89564804.03148
  22966723.870   120690979.16008  22966721.846    94044932.17347
  23022146.939   120982210.44608  23022145.636    94271852.36047
  21702465.137   114047426.54909  21702462.638    88868211.99748
  21268708.792   111767879.44609  21268709.960    87091886.32049
 15 03 04 00 54 30.0000000  0  7G04G16G18G19G21G22G27
  24592086.519   129232293.74616  24592099.641   100700530.87654
  20439920.004   107412524.31509  20439918.571    83698074.19349
  21872741.693   114942230.60909  21872740.798    89565450.38048
  22953745.020   120622774.74808  22953742.702    93991785.90646
  23035708.284   121053475.04708  23035706.928    94327383.20946
  21690366.474   113983847.42809  21690363.965    88818669.86248
  21260579.040   111725157.87709  21260580.166    87058596.80049
 15 03 04 00 55  0.0000000  0  7G04G16G18G19G21G22G27
  24572997.669   129131985.50606  24573011.634   100622369.55644
  20437757.100   107401158.33309  20437755.589    83689217.58249
  21872997.265   114943573.18209  21872996.208    89566496.55348
  22940787.560   120554682.74108  22940785.330    93938727.22647
  23049289.281   121124844.04008  23049287.992    94382995.39747
  21678343.641   113920667.64109  21678341.285    88769438.90248
  21252481.427   111682604.75409  21252482.612    87025438.54249
 15 03 04 00 55 30.0000000  0  7G04G16G18G19G21G22G27
  24553934.096   129031812.47305  24553947.968   100544313.84044
  20435691.502   107390303.32509  20435690.102    83680759.13349
  21873344.530   114945398.88409  21873343.654    89567919.19348
  22927845.761   120486673.38008  22927843.297    93885732.95347
  23062884.167   121196286.08608  23062882.942    94438664.50347
  21666391.624   113857859.49309  21666389.285    88720497.52048
  21244410.264   111640190.88109  21244411.410    86992388.79149
 15 03 04 00 56  0.0000000  0  7G04G16G18G19G21G22G27
  24534899.006   128931786.40006  24534913.045   100466372.29644
  20433725.395   107379971.70309  20433723.990    83672708.51449
  21873786.146   114947719.09109  21873785.132    89569727.16047
  22914921.879   120418758.42208  22914919.632    93832812.23747
  23076495.010   121267811.05208  23076493.667    94494398.24346
  21654512.889   113795436.69409  21654510.553    88671856.41248
  21236368.061   111597928.07209  21236369.023    86959456.74749
 15 03 04 00 56 30.0000000  0  7G04G16G18G19G21G22G27
  24515892.139   128831907.98406  24515906.149   100388545.89144
  20431858.791   107370162.82509  20431857.514    83665065.23149
  21874321.392   114950532.92309  21874320.361    89571919.76947
  22902015.848   120350936.70608  22902013.571    93779964.16747
  23090121.033   121339416.18808  23090119.578    94550194.44746
  21642707.704   113733399.86909  21642705.268    88623516.05548
  21228354.199   111555815.53609  21228355.246    86926641.79549
 15 03 04 00 57  0.0000000  0  7G04G16G18G19G21G22G27
  24496914.731   128732183.03307  24496928.527   100310839.42144
  20430092.848   107360882.50909  20430091.399    83657833.81549
  21874951.786   114953845.13509  21874950.575    89574500.73448
