     2.11           OBSERVATION DATA    G                   RINEX VERSION / TYPE
SPIDER V4,0,0,3554                      2015 03 12 00:07    PGM / RUN BY / DATE 
EECH                                                        MARKER NAME         
EECH                                                        MARKER NUMBER       
                                                            OBSERVER / AGENCY   
462240              LEICA GRX1200PRO    8.20/2.127          REC # / TYPE / VERS 
103299              LEIAT504                                ANT # / TYPE        
  5154282.7593   121017.3605  3742656.9418                  APPROX POSITION XYZ 
        0.0590        0.0000        0.0000                  ANTENNA: DELTA H/E/N
     1     1                                                WAVELENGTH FACT L1/2
     4    C1    L1    P2    L2                              # / TYPES OF OBSERV 
    30.000                                                  INTERVAL            
  2015    03    04    00    00    0.0000000     GPS         TIME OF FIRST OBS   
  2015    03    04    23    59   30.0000000     GPS         TIME OF LAST OBS    
    16                                                      LEAP SECONDS        
    30                                                      # OF SATELLITES     
   G 1   821   821   820   820                              PRN / # OF OBS      
   G 2   890   890   889   889                              PRN / # OF OBS      
   G 3   795   795   794   794                              PRN / # OF OBS      
   G 4   838   838   836   836                              PRN / # OF OBS      
   G 5   670   670   670   670                              PRN / # OF OBS      
   G 6   663   663   662   662                              PRN / # OF OBS      
   G 7   695   695   695   695                              PRN / # OF OBS      
   G 9   780   780   780   780                              PRN / # OF OBS      
   G10   776   776   776   776                              PRN / # OF OBS      
   G11   784   784   784   784                              PRN / # OF OBS      
   G12   806   806   806   806                              PRN / # OF OBS      
   G13   811   811   811   811                              PRN / # OF OBS      
   G14   877   877   875   875                              PRN / # OF OBS      
   G15   729   729   729   729                              PRN / # OF OBS      
   G16   688   688   688   688                              PRN / # OF OBS      
   G17   908   908   908   908                              PRN / # OF OBS      
   G18   894   894   893   893                              PRN / # OF OBS      
   G19   784   784   784   784                              PRN / # OF OBS      
   G20   781   781   781   781                              PRN / # OF OBS      
   G21   656   656   655   655                              PRN / # OF OBS      
   G22   773   773   773   773                              PRN / # OF OBS      
   G23   693   693   690   690                              PRN / # OF OBS      
   G24   823   823   823   823                              PRN / # OF OBS      
   G25   824   824   824   824                              PRN / # OF OBS      
   G27   818   818   818   818                              PRN / # OF OBS      
   G28   879   879   878   878                              PRN / # OF OBS      
   G29   725   725   725   725                              PRN / # OF OBS      
   G30   658   658   656   656                              PRN / # OF OBS      
   G31   697   697   697   697                              PRN / # OF OBS      
   G32   730   730   730   730                              PRN / # OF OBS      
BIT 2 OF LLI FLAGS DATA COLLECTED UNDER A/S CONDITION       COMMENT             
SNR is mapped to RINEX snr flag value [2-9]                 COMMENT             
Lx:     = 25dBHz -> 1; 26-27dBHz -> 2; 28-31dBHz -> 3       COMMENT             
       32-35dBHz -> 4; 36-38dBHz -> 5; 39-41dBHz -> 6       COMMENT             
       42-44dBHz -> 7; 45-48dBHz -> 8; >=49dBHz -> 9        COMMENT             
                                                            END OF HEADER       
 15 03 04 00 00  0.0000000  0  7G16G18G19G21G22G27G31
  21137165.920   111076583.05009  21137165.680    86553173.90148
  22454391.660   117998642.32608  22454392.540    91947003.52946
  24439155.020   128428633.91206  24439156.960   100074272.44545
  21675960.600   113907954.89808  21675960.200    88759449.41948
  23465286.520   123311050.47506  23465288.300    96086604.65546
  22238218.320   116862680.14108  22238220.880    91061851.86448
  23499106.400   123488578.74207  23499109.020    96224852.48546
 15 03 04 00 00 30.0000000  0  7G16G18G19G21G22G27G31
  21126403.300   111020025.60209  21126403.100    86509103.16548
  22444876.960   117948642.26108  22444877.740    91908042.47046
  24423966.420   128348815.46706  24423967.840   100012076.37145
  21685574.920   113958478.60609  21685574.500    88798818.54048
  23447999.140   123220206.18307  23448001.080    96015817.14546
  22227170.900   116804625.45908  22227173.300    91016614.45448
  23517647.740   123586013.29507  23517650.480    96300775.23346
 15 03 04 00 01  0.0000000  0  7G16G18G19G21G22G27G31
  21115707.940   110963821.62409  21115707.840    86465307.86348
  22435432.180   117899009.89408  22435432.860    91869367.93146
  24408796.340   128269096.55206  24408797.680    99949957.81444
  21695245.000   114009295.13609  21695244.520    88838415.83848
  23430729.700   123129456.63907  23430731.800    95945103.42146
  22216150.140   116746710.94608  22216152.480    90971486.27448
  23536208.200   123683548.09607  23536211.120    96376776.07746
 15 03 04 00 01 30.0000000  0  7G16G18G19G21G22G27G31
  21105076.540   110907953.52309  21105076.600    86421774.29248
  22426054.080   117849727.83808  22426054.680    91830966.35746
  24393641.520   128189457.85106  24393642.460    99887901.76745
  21704966.740   114060383.32108  21704966.240    88878224.81348
  23413475.260   123038785.09307  23413477.160    95874450.49446
  22205152.300   116688917.39508  22205154.800    90926452.37348
  23554783.460   123781160.90007  23554786.700    96452837.70246
 15 03 04 00 02  0.0000000  0  7G16G18G19G21G22G27G31
  21094511.040   110852431.33009  21094511.160    86378510.25248
  22416744.580   117800806.19008  22416745.120    91792845.62346
  24378503.580   128109907.00806  24378503.620    99825914.23744
  21714741.300   114111749.23809  21714740.840    88918250.20948
  23396237.820   122948202.22307  23396239.500    95803866.65046
  22194178.960   116631252.64308  22194181.680    90881518.83148
  23573374.480   123878856.20607  23573377.860    96528963.60246
 15 03 04 00 02 30.0000000  0  7G16G18G19G21G22G27G31
  21084011.580   110797256.35609  21084011.740    86335516.77648
  22407503.880   117752246.17308  22407504.420    91755006.67847
  24363382.200   128030443.79106  24363381.820    99763994.99645
  21724568.140   114163389.78309  21724567.660    88958489.59348
  23379017.820   122857709.97407  23379019.140    95733353.42846
  22183230.020   116573716.07208  22183233.000    90836685.16948
  23591980.660   123976630.99707  23591984.000    96605151.41745
 15 03 04 00 03  0.0000000  0  7G16G18G19G21G22G27G31
  21073580.580   110742441.07109  21073580.660    86292803.57348
  22398334.320   117704059.95208  22398334.900    91717459.01446
  24348278.960   127951078.23605  24348278.960    99702151.76945
  21734449.080   114215314.15809  21734448.480    88998950.14548
  23361817.520   122767321.49307  23361818.660    95662921.02646
  22172307.520   116516318.04408  22172310.600    90791959.46648
  23610603.280   124074492.30607  23610606.540    96681406.64745
 15 03 04 00 03 30.0000000  0  7G16G18G19G21G22G27G31
  21063215.440   110687971.96909  21063215.440    86250360.12548
  22389233.420   117656234.14508  22389234.000    91680192.18247
  24333191.700   127871795.15605  24333192.040    99640372.81845
  21744380.700   114267504.81908  21744379.960    89039618.19248
  23344634.400   122677023.93707  23344635.300    95592559.48246
  22161408.580   116459043.16808  22161411.600    90747329.71948
  23629238.940   124172421.94707  23629242.080    96757715.11246
 15 03 04 00 04  0.0000000  0  7G16G18G19G21G22G27G31
  21052916.040   110633848.40609  21052916.100    86208185.92848
  22380200.980   117608768.06808  22380201.560    91643205.65947
  24318120.060   127792591.34506  24318120.340    99578655.67145
  21754362.060   114319957.08108  21754361.300    89080490.08448
  23327468.340   122586817.05207  23327469.020    95522268.57545
  22150532.560   116401888.51908  22150535.380    90702793.64448
  23647886.460   124270413.92007  23647889.500    96834072.16046
 15 03 04 00 04 30.0000000  0  7G16G18G19G21G22G27G31
  21042684.400   110580081.05109  21042684.560    86166289.29448
  22371238.980   117561672.48208  22371239.580    91606507.84346
  24303065.480   127713475.83806  24303065.280    99517007.35545
  21764394.560   114372678.33208  21764393.880    89121571.58148
  23310321.820   122496712.29307  23310322.280    95452057.25346
  22139681.100   116344863.08708  22139683.720    90658358.25048
  23666546.960   124368474.36607  23666550.040    96910482.52946
 15 03 04 00 05  0.0000000  0  7G16G18G19G21G22G27G31
  21032522.820   110526681.63709  21032523.020    86124679.36648
  22362349.720   117514958.89808  22362350.240    91570107.67947
  24288029.160   127634458.09206  24288028.540    99455435.23945
  21774479.600   114425675.89808  21774479.060    89162868.38648
  23293197.080   122406722.05507  23293197.500    95381935.17546
  22128855.940   116287976.38708  22128858.520    90614030.98348
  23685221.640   124466609.46107  23685224.940    96986951.05946
 15 03 04 00 05 30.0000000  0  7G16G18G19G21G22G27G31
  21022431.420   110473650.88609  21022431.540    86083356.70849
  22353533.280   117468627.91008  22353533.620    91534005.64246
  24273010.640   127555536.95506  24273010.440    99393938.36446
  21784616.600   114478946.55208  21784616.200    89204377.98948
  23276094.340   122316847.42407  23276094.700    95311903.13146
  22118056.800   116231227.14908  22118059.540    90569810.81948
  23703909.880   124564815.07207  23703913.280    97063474.51546
 15 03 04 00 06  0.0000000  0  7G16G18G19G21G22G27G31
  21012409.000   110420982.59009  21012408.980    86042316.47748
  22344788.520   117422673.43608  22344788.660    91498196.98047
  24258008.680   127476704.30306  24258009.360    99332510.40146
  21794803.740   114532480.46608  21794803.380    89246092.72248
  23259012.640   122227083.49107  23259012.920    95241957.35046
  22107282.200   116174607.38708  22107285.200    90525691.55748
  23722609.460   124663080.36007  23722613.000    97140044.48246
 15 03 04 00 06 30.0000000  0  7G16G18G19G21G22G27G31
  21002455.340   110368675.54109  21002455.240    86001557.74049
  22336114.980   117377094.05708  22336115.100    91462680.61346
  24243023.080   127397956.82606  24243024.320    99271148.82946
  21805039.860   114586271.73408  21805039.580    89288007.99248
  23241951.860   122137428.90507  23241951.800    95172096.81046
  22096531.660   116118113.70608  22096534.800    90481670.52948
  23741319.240   124761399.00707  23741322.840    97216655.99946
 15 03 04 00 07  0.0000000  0  7G16G18G19G21G22G27G31
  20992571.480   110316735.08509  20992571.400    85961084.66249
  22327513.680   117331895.00308  22327514.040    91427460.61047
  24228054.600   127319297.67706  24228055.860    99209856.10845
  21815325.260   114640322.04608  21815325.040    89330125.11948
  23224913.080   122047890.42907  23224913.000    95102326.71646
  22085805.860   116061749.53808  22085808.960    90437750.41148
  23760039.280   124859771.37907  23760042.800    97293309.36045
 15 03 04 00 07 30.0000000  0  7G16G18G19G21G22G27G31
  20982756.980   110265159.22209  20982756.880    85920895.67949
  22318984.440   117287074.10408  22318985.020    91392535.25747
  24213102.500   127240722.97806  24213103.040    99148629.18545
  21825658.980   114694626.42408  21825658.820    89372440.22748
  23207895.960   121958466.32107  23207896.140    95032645.74046
  22075104.040   116005510.91008  22075106.920    90393928.13048
  23778768.240   124958190.36107  23778771.600    97369999.05146
 15 03 04 00 08  0.0000000  0  7G16G18G19G21G22G27G31
  20973013.540   110213956.88609  20973013.380    85880997.76449
  22310528.880   117242640.13608  22310529.580    91357911.41047
  24198167.700   127162239.75106  24198167.660    99087473.49745
  21836041.840   114749189.02708  21836041.720    89414956.54248
  23190902.480   121869166.38607  23190903.060    94963061.51546
  22064427.460   115949404.78308  22064430.080    90350209.08548
  23797506.840   125056659.84307  23797509.940    97446728.07245
 15 03 04 00 08 30.0000000  0  7G16G18G19G21G22G27G31
  20963341.460   110163129.89409  20963341.280    85841392.31749
  22302147.260   117198594.93508  22302148.100    91323590.51147
  24183250.160   127083847.72506  24183249.920    99026388.88845
  21846473.480   114804008.03808  21846473.360    89457672.65148
  23173933.280   121779993.04307  23173933.980    94893575.95946
  22053776.020   115893431.16208  22053778.460    90306593.30648
  23816254.500   125155177.30207  23816257.340    97523494.45845
 15 03 04 00 09  0.0000000  0  7G16G18G19G21G22G27G31
  20953740.420   110112676.17809  20953740.260    85802077.73749
  22293839.180   117154936.10308  22293840.100    91289570.67147
  24168349.220   127005542.71506  24168349.040    98965372.11246
  21856952.800   114859077.21808  21856952.620    89500583.69648
  23156987.920   121690944.54607  23156988.380    94824187.67546
  22043148.940   115837585.81608  22043151.340    90263077.48148
  23835009.860   125253735.22407  23835012.480    97600292.37245
 15 03 04 00 09 30.0000000  0  7G16G18G19G21G22G27G31
  20944212.060   110062604.48709  20944212.000    85763060.84149
  22285606.400   117111672.57808  22285607.340    91255858.87947
  24153465.960   126927331.68106  24153466.320    98904428.49546
  21867480.900   114914402.31008  21867480.620    89543694.15148
  23140068.160   121602030.95707  23140068.540    94754904.47446
  22032547.600   115781875.84708  22032550.040    90219667.12848
  23853773.720   125352337.39607  23853776.080    97677124.74445
 15 03 04 00 10  0.0000000  0  7G16G18G19G21G22G27G31
  20934754.440   110012904.50809  20934754.420    85724333.58749
  22277446.920   117068793.75708  22277447.740    91222446.84047
  24138598.440   126849202.19607  24138598.580    98843548.47045
  21878054.920   114969968.45908  21878054.500    89586992.44948
  23123172.240   121513242.06407  23123172.540    94685718.46346
  22021969.760   115726288.95708  22021972.200    90176352.69148
  23872543.180   125450969.37007  23872545.540    97753980.31246
 15 03 04 00 10 30.0000000  0  7G16G18G19G21G22G27G31
  20925369.880   109963588.26009  20925369.860    85685905.35249
  22269362.860   117026311.26408  22269363.540    91189343.61847
  24123748.520   126771164.30006  24123747.940    98782739.80145
  21888676.320   115025783.93208  21888675.860    89630485.02848
  23106302.540   121424590.97107  23106302.780    94616639.81046
  22011417.360   115670835.18008  22011419.740    90133141.96748
  23891319.540   125549637.70607  23891322.120    97830864.19745
 15 03 04 00 11  0.0000000  0  7G16G18G19G21G22G27G31
  20916059.020   109914659.14709  20916058.920    85647778.77349
  22261354.760   116984228.67508  22261355.400    91156552.02747
  24108916.240   126693219.74306  24108915.040    98722003.87145
  21899345.020   115081848.37908  21899344.600    89674171.60448
  23089459.680   121336082.17207  23089460.040    94547672.01346
  22000890.580   115615516.15208  22000892.960    90090036.24848
  23910102.420   125648340.86406  23910105.420    97907775.18446
 15 03 04 00 11 30.0000000  0  7G16G18G19G21G22G27G31
  20906822.240   109866119.61709  20906822.100    85609955.76649
  22253423.040   116942547.77808  22253423.660    91124073.43047
  24094101.420   126615368.57106  24094100.120    98661340.66745
  21910060.820   115138160.28308  21910060.420    89718051.01348
  23072644.360   121247718.12507  23072644.760    94478817.02046
  21990389.420   115560332.18108  21990391.860    90047035.77148
  23928891.440   125747076.51406  23928894.960    97984711.46046
 15 03 04 00 12  0.0000000  0  7G16G18G19G21G22G27G31
  20897658.460   109817963.54909  20897658.260    85572431.56049
  22245566.720   116901262.54308  22245567.240    91091903.14047
  24079302.920   126537602.72706  24079301.960    98600743.97344
  21920821.860   115194709.49908  21920821.360    89762115.33348
  23055855.820   121159493.70208  23055856.060    94410070.84146
  21979912.360   115505275.46308  21979915.020    90004134.47248
  23947684.700   125845833.78106  23947688.560    98061664.58346
 15 03 04 00 12 30.0000000  0  7G16G18G19G21G22G27G31
  20888568.680   109770196.35409  20888568.380    85535210.37949
  22237786.700   116860377.95908  22237787.200    91060045.05847
  24064521.440   126459925.66406  24064520.940    98540216.44745
  21931628.460   115251497.79508  21931627.760    89806365.95248
  23039094.860   121071414.84907  23039095.000    94341438.09746
  21969460.160   115450349.16308  21969462.920    89961334.79448
  23966482.080   125944612.82406  23966486.300    98138634.65845
 15 03 04 00 13  0.0000000  0  7G16G18G19G21G22G27G31
  20879553.360   109722820.58809  20879553.020    85498294.20649
  22230083.500   116819897.07908  22230084.000    91028501.54747
  24049757.200   126382338.41306  24049756.960    98479758.92945
  21942480.320   115308524.19708  21942479.420    89850802.10948
  23022362.260   120983485.12308  23022362.400    94272921.54246
  21959033.120   115395554.63408  21959035.840    89918637.77548
  23985283.140   126043411.53006  23985287.660    98215620.04046
 15 03 04 00 13 30.0000000  0  7G16G18G19G21G22G27G31
  20870614.320   109675845.67609  20870614.060    85461690.39149
  22222458.740   116779828.77608  22222459.280    90997279.51947
  24035011.100   126304848.22806  24035011.160    98419377.07745
  21953378.440   115365794.30208  21953377.520    89895428.16148
  23005660.180   120895714.73008  23005660.040    94204529.14546
  21948632.640   115340899.23608  21948635.200    89876049.16448
  24004088.880   126142234.89406  24004093.540    98292624.62646
 15 03 04 00 14  0.0000000  0  7G16G18G19G21G22G27G31
  20861751.720   109629272.39109  20861751.500    85425399.52149
  22214912.460   116740172.94308  22214912.960    90966378.89547
  24020282.860   126227453.80506  24020283.500    98359069.76146
  21964322.120   115423304.28008  21964321.300    89940241.12748
  22988988.800   120808104.88608  22988988.140    94136261.85046
  21938258.380   115286381.58808  21938260.680    89833567.90048
  24022898.420   126241078.50906  24022903.260    98369644.95545
 15 03 04 00 14 30.0000000  0  7G16G18G19G21G22G27G31
  20852962.720   109583086.23409  20852962.600    85389410.31449
  22207442.000   116700915.22208  22207442.320    90935788.47347
  24005570.080   126150138.64106  24005571.000    98298824.23245
  21975308.060   115481036.37608  21975307.380    89985227.16748
  22972345.200   120720641.87808  22972344.320    94068108.95846
  21927907.140   115231985.37608  21927909.280    89791181.27048
  24041708.160   126339922.75706  24041713.240    98446665.75545
 15 03 04 00 15  0.0000000  0  7G16G18G19G21G22G27G31
  20844249.360   109537297.54109  20844249.280    85353730.82449
  22200049.240   116662065.78308  22200049.380    90905516.21447
  23990874.440   126072911.39406  23990875.120    98238647.21145
  21986337.540   115538997.34608  21986337.080    90030391.54948
  22955731.460   120633337.17808  22955730.720    94000079.39946
  21917580.660   115177719.47508  21917582.720    89748896.16948
  24060519.300   126438773.69706  24060524.700    98523691.75446
 15 03 04 00 15 30.0000000  0  7G16G18G19G21G22G27G31
  20835613.440   109491915.35409  20835613.320    85318368.08949
  22192735.760   116623633.67408  22192735.800    90875569.13546
  23976196.860   125995778.94206  23976197.020    98178544.06645
  21997411.540   115597192.00608  21997411.200    90075738.03348
  22939149.720   120546200.35308  22939149.000    93932180.65846
  21907280.280   115123590.95708  21907282.420    89706718.11948
  24079332.500   126537635.41106  24079338.320    98600726.14646
 15 03 04 00 16  0.0000000  0  7G16G18G19G21G22G27G31
  20827056.180   109446946.37609  20827056.040    85283327.33749
  22185502.920   116585624.95908  22185502.780    90845951.97746
  23961537.720   125918746.48106  23961537.720    98118518.81846
  22008530.640   115655623.38408  22008530.320    90121268.97548
  22922601.300   120459238.49908  22922600.520    93864418.27346
  21897006.940   115069604.84508  21897009.300    89664651.03148
  24098148.240   126636509.84406  24098154.500    98677770.41846
 15 03 04 00 16 30.0000000  0  7G16G18G19G21G22G27G31
  20818574.840   109402376.61509  20818574.640    85248597.65549
  22178348.020   116548025.65108  22178347.700    90816653.84347
  23946894.480   125841797.78206  23946894.380    98058558.86545
  22019691.420   115714273.72608  22019691.060    90166970.53648
  22906083.740   120372438.94708  22906083.140    93796782.33547
  21886757.640   115015745.22808  21886760.300    89622682.51848
  24116963.120   126735378.39406  24116969.480    98754810.09146
 15 03 04 00 17  0.0000000  0  7G16G18G19G21G22G27G31
  20810170.180   109358210.06809  20810169.920    85214182.17249
  22171271.640   116510839.20708  22171271.280    90787677.42047
  23932268.060   125764935.02707  23932267.900    97998665.87846
  22030893.920   115773143.17108  22030893.500    90212842.83348
  22889598.080   120285806.51908  22889597.720    93729276.64347
  21876532.840   114962014.30808  21876535.800    89580814.29248
  24135776.860   126834239.79107  24135783.040    98831844.16446
 15 03 04 00 17 30.0000000  0  7G16G18G19G21G22G27G31
  20801843.220   109314451.57709  20801842.940    85180084.65749
  22164274.720   116474070.33908  22164274.520    90759026.38247
  23917658.980   125688161.14207  23917658.540    97938842.15446
  22042138.420   115832233.13908  22042137.940    90258886.96048
  22873145.300   120199346.55008  22873145.060    93661905.33947
  21866333.220   114908415.17508  21866336.300    89539048.76248
  24154589.300   126933094.42907  24154595.260    98908872.94746
 15 03 04 00 18  0.0000000  0  7G16G18G19G21G22G27G31
  20793595.260   109271108.21009  20793595.020    85146310.61749
  22157358.540   116437725.58008  22157358.520    90730705.82647
  23903067.760   125611481.47507  23903067.060    97879091.84046
  22053425.520   115891546.74808  22053425.000    90305105.35748
  22856726.800   120113066.82408  22856726.680    93594674.48547
  21856159.720   114854953.14008  21856162.800    89497390.06448
  24173400.660   127031944.31307  24173406.620    98985898.00646
 15 03 04 00 18 30.0000000  0  7G16G18G19G21G22G27G31
  20785427.300   109228185.76109  20785427.140    85112864.55649
  22150524.140   116401810.61908  22150524.240    90702720.16047
  23888494.540   125534899.61206  23888493.900    97819417.70445
  22064755.500   115951085.84008  22064754.980    90351499.45248
  22840343.760   120026973.88308  22840343.720    93527589.16947
  21846013.120   114801632.11308  21846016.060    89455841.22448
  24192211.200   127130790.96007  24192217.420    99062920.54646
 15 03 04 00 19  0.0000000  0  7G16G18G19G21G22G27G31
  20777338.580   109185679.78909  20777338.440    85079743.03449
  22143770.640   116366320.76008  22143770.720    90675065.74147
  23873938.580   125458409.58006  23873937.880    97759815.15246
  22076126.860   116010842.60108  22076126.420    90398063.16048
  22823995.560   119941064.32908  22823995.480    93460646.75647
  21835892.140   114748446.23008  21835895.020    89414397.68148
  24211019.220   127229625.21307  24211025.880    99139933.42545
 15 03 04 00 19 30.0000000  0  7G16G18G19G21G22G27G31
  20769328.660   109143587.63809  20769328.400    85046943.96049
  22137097.480   116331253.14408  22137097.540    90647740.33647
  23859399.540   125382006.99507  23859398.760    97700280.70745
  22087538.400   116070810.57208  22087538.000    90444791.44548
  22807682.060   119855336.47108  22807681.820    93393845.91146
  21825796.000   114695391.17608  21825798.820    89373056.08748
  24229823.540   127328439.83607  24229830.520    99216930.99745
 15 03 04 00 20  0.0000000  0  7G16G18G19G21G22G27G31
  20761398.500   109101914.29509  20761398.220    85014471.23149
  22130505.380   116296611.80308  22130505.520    90620747.11047
  23844877.980   125305694.86807  23844876.960    97640816.76946
  22098990.220   116130990.15908  22098989.820    90491684.62548
  22791404.200   119769795.77308  22791403.800    93327190.89246
  21815725.400   114642470.05508  21815728.120    89331818.86748
  24248624.160   127427234.83907  24248631.260    99293913.29145
 15 03 04 00 20 30.0000000  0  7G16G18G19G21G22G27G31
  20753549.640   109060667.94709  20753549.360    84982331.22449
  22123995.900   116262405.10308  22123996.240    90594092.56847
  23830374.580   125229479.73606  23830373.720    97581428.39745
  22110483.480   116191387.43208  22110483.020    90538747.43248
  22775163.660   119684451.63508  22775163.080    93260689.02946
  21805681.660   114589689.55408  21805684.220    89290691.22148
  24267421.760   127526013.98207  24267428.900    99370883.20845
 15 03 04 00 21  0.0000000  0  7G16G18G19G21G22G27G31
  20745781.840   109019847.75109  20745781.500    84950523.28949
  22117568.940   116228631.89208  22117569.420    90567775.80247
  23815888.760   125153358.58106  23815888.400    97522113.26946
  22122017.180   116251997.22708  22122016.640    90585975.83548
  22758960.480   119599303.87208  22758959.700    93194340.21646
  21795664.240   114537047.05208  21795666.660    89249671.10748
  24286215.300   127624771.64807  24286222.240    99447836.41145
 15 03 04 00 21 30.0000000  0  7G16G18G19G21G22G27G31
  20738094.460   108979450.02909  20738094.000    84919044.54949
  22111223.700   116195287.98208  22111224.260    90541793.55947
  23801419.840   125077325.60106  23801419.700    97462866.82246
  22133589.760   116312811.12808  22133589.100    90633363.29048
  22742794.060   119514349.27908  22742793.200    93128141.91147
  21785671.980   114484536.84108  21785674.340    89208754.07148
  24305003.000   127723499.15806  24305009.920    99524766.15445
 15 03 04 00 22  0.0000000  0  7G16G18G19G21G22G27G31
  20730488.020   108939477.81909  20730487.520    84887897.36849
  22104960.580   116162375.36908  22104961.260    90516147.40447
  23786968.320   125001382.29606  23786968.400    97403690.28045
  22145201.180   116373829.44708  22145200.460    90680910.03048
  22726665.180   119429591.89208  22726664.360    93062097.26647
  21775705.120   114432160.43008  21775707.500    89167941.30648
  24323784.660   127822195.19307  24323791.780    99601671.37345
 15 03 04 00 22 30.0000000  0  7G16G18G19G21G22G27G31
  20722963.360   108899935.37009  20722962.960    84857085.07449
  22098780.560   116129899.10308  22098781.280    90490841.26047
  23772534.580   124925531.72906  23772534.520    97344585.99145
  22156851.760   116435053.50308  22156850.980    90728617.07948
  22710574.860   119345037.20508  22710574.120    92996210.56647
  21765764.260   114379920.97608  21765766.760    89127235.25148
  24342560.280   127920859.88506  24342567.780    99678552.19545
 15 03 04 00 23  0.0000000  0  7G16G18G19G21G22G27G31
  20715521.400   108860827.50909  20715521.040    84826611.41849
  22092684.400   116097863.28208  22092685.100    90465878.31347
  23758118.800   124849776.37006  23758118.680    97285555.89646
  22168541.360   116496482.97508  22168540.580    90776484.19848
  22694524.040   119260690.53608  22694523.440    92930485.96047
  21755850.020   114327821.32808  21755852.620    89086638.14048
  24361329.900   128019493.07206  24361337.880    99755408.46944
 15 03 04 00 23 30.0000000  0  7G16G18G19G21G22G27G31
  20708161.440   108822151.03609  20708161.120    84796473.91349
  22086671.280   116066263.79508  22086671.860    90441255.36547
  23743720.180   124774111.52606  23743719.980    97226596.35746
  22180268.900   116558111.84308  22180268.160    90824506.68248
  22678512.380   119176549.50608  22678511.860    92864921.58947
  21745961.520   114275856.69408  21745964.120    89046146.23848
  24380092.220   128118086.90506  24380100.480    99832234.04845
 15 03 04 00 24  0.0000000  0  7G16G18G19G21G22G27G31
  20700884.080   108783908.58509  20700883.780    84766674.60749
  22080741.720   116035103.46608  22080742.140    90416974.60747
  23729339.060   124698538.20407  23729338.360    97167708.12246
  22192034.220   116619939.35608  22192033.600    90872683.95548
  22662540.600   119092617.92408  22662540.140    92799520.41847
  21736099.000   114224028.31609  21736101.460    89005760.49948
  24398846.800   128216639.49006  24398855.220    99909027.49545
 15 03 04 00 24 30.0000000  0  7G16G18G19G21G22G27G31
  20693689.920   108746103.15309  20693689.620    84737215.83549
  22074896.160   116004384.51708  22074896.480    90393037.78947
  23714975.680   124623057.00807  23714974.560    97108891.66546
  22203837.060   116681964.08708  22203836.620    90921014.90648
  22646609.500   119008899.50208  22646608.960    92734285.35247
  21726262.540   114172337.26408  21726264.860    88965481.79148
  24417593.280   128315149.00606  24417601.660    99985787.45045
 15 03 04 00 25  0.0000000  0  7G16G18G19G21G22G27G31
  20686579.900   108708739.58009  20686579.600    84708101.35849
  22069135.460   115974111.77108  22069135.740    90369448.66147
  23700630.380   124547671.65607  23700629.240    97050149.85146
  22215677.820   116744188.09508  22215677.520    90969501.14048
  22630720.120   118925399.86308  22630719.360    92669220.76347
  21716452.820   114120787.13708  21716455.060    88925312.87348
  24436331.700   128413616.19706  24436340.060   100062514.38844
 15 03 04 00 25 30.0000000  0  7G16G18G19G21G22G27G31
  20679553.780   108671817.16809  20679553.460    84679330.65149
  22063459.280   115944283.59608  22063459.560    90346205.96447
  23686302.640   124472378.98207  23686301.900    96991480.26546
  22227555.540   116806606.31908  22227555.300    91018138.70848
  22614872.340   118842119.17308  22614871.460    92604326.80347
  21706669.380   114069375.24908  21706671.680    88885251.68648
  24455061.120   128512035.52806  24455069.320   100139204.00445
 15 03 04 00 26  0.0000000  0  7G16G18G19G21G22G27G31
  20672611.940   108635337.60009  20672611.580    84650905.01249
  22057868.020   115914901.57608  22057868.240    90323310.90847
  23671992.680   124397179.78707  23671992.200    96932883.53745
  22239470.080   116869217.84608  22239469.880    91066926.90748
  22599066.800   118759060.63308  22599065.960    92539605.94147
  21696912.440   114018102.28309  21696914.800    88845298.74848
  24473780.860   128610404.27506  24473788.920   100215854.18144
 15 03 04 00 26 30.0000000  0  7G16G18G19G21G22G27G31
  20665754.640   108599302.38709  20665754.380    84622825.62949
  22052361.960   115885967.07508  22052362.140    90300764.56047
  23657700.320   124322073.92706  23657699.880    96874359.56046
  22251420.880   116932019.62908  22251420.720    91115863.35447
  22583303.840   118676226.22108  22583303.120    92475059.70747
  21687181.940   113966968.17609  21687184.360    88805454.00848
  24492490.260   128708719.55606  24492498.420   100292462.78944
 15 03 04 00 27  0.0000000  0  7G16G18G19G21G22G27G31
  20658982.880   108563716.59509  20658982.720    84595096.43149
  22046941.900   115857484.25208  22046942.080    90278570.16447
  23643426.100   124247064.17906  23643425.900    96815910.44046
  22263408.300   116995013.75208  22263408.140    91164949.68747
  22567584.680   118593621.74308  22567584.040    92410692.62847
  21677478.440   113915976.14209  21677480.900    88765719.96748
  24511189.420   128806982.15806  24511197.960   100369030.48145
 15 03 04 00 27 30.0000000  0  7G16G18G19G21G22G27G31
  20652295.820   108528575.75509  20652295.700    84567713.96449
  22041606.760   115829447.90708  22041607.000    90256723.67647
  23629169.200   124172144.63107  23629168.960    96757531.63346
  22275430.900   117058192.63708  22275430.660    91214179.98547
  22551908.720   118511244.05408  22551908.080    92346502.27947
  21667800.860   113865120.57608  21667803.380    88726092.26648
  24529876.640   128905182.78306  24529885.740   100445549.82445
 15 03 04 00 28  0.0000000  0  7G16G18G19G21G22G27G31
  20645694.460   108493885.03509  20645694.220    84540682.23449
  22036357.560   115801863.42508  22036357.880    90235229.29947
  23614930.460   124097318.76607  23614930.100    96699225.81046
  22287488.800   117121557.20308  22287488.520    91263554.97247
  22536276.940   118429098.74008  22536276.320    92282492.99847
  21658149.880   113814404.98308  21658152.440    88686573.64448
  24548552.260   129003322.21806  24548561.920   100522021.51745
 15 03 04 00 28 30.0000000  0  7G16G18G19G21G22G27G31
  20639178.460   108459643.25309  20639178.220    84514000.32049
  22031193.920   115774728.87008  22031194.340    90214085.52147
  23600709.240   124022583.70707  23600708.440    96640990.73346
  22299581.120   117185102.63408  22299580.820    91313070.88647
  22520689.460   118347185.64408  22520688.720    92218664.67747
  21648524.980   113763826.52208  21648527.580    88647161.87948
  24567215.220   129101394.95606  24567225.400   100598441.24545
 15 03 04 00 29  0.0000000  0  7G16G18G19G21G22G27G31
  20632749.300   108425857.99409  20632749.200    84487674.14649
  22026117.360   115748051.55908  22026117.720    90193298.03147
  23586506.380   123947945.47907  23586504.940    96582831.13446
  22311708.700   117248833.21608  22311708.360    91362731.06947
  22505147.780   118265513.35408  22505147.060    92155023.98947
  21638927.520   113713391.71308  21638930.100    88607862.04548
  24585866.000   129199404.00006  24585876.740   100674811.36144
 15 03 04 00 29 30.0000000  0  7G16G18G19G21G22G27G31
  20626407.440   108392531.25809  20626407.360    84461705.25749
  22021128.060   115721832.68208  22021128.400    90172867.75547
  23572321.740   123873404.69507  23572319.920    96524747.44846
  22323871.300   117312747.76608  22323870.900    91412534.62147
  22489652.420   118184085.03408  22489651.720    92091573.41247
  21629357.560   113663101.09809  21629360.140    88568674.56848
  24604504.200   129297347.32705  24604515.480   100751130.32745
 15 03 04 00 30  0.0000000  0  7G16G18G19G21G22G27G31
  20620152.000   108359658.89909  20620151.960    84436090.43349
  22016225.220   115696068.18108  22016225.620    90152791.54547
  23558154.380   123798955.83507  23558152.520    96466735.41146
  22336067.500   117376839.02008  22336067.060    91462475.84747
  22474202.880   118102897.95508  22474202.220    92028310.80647
  21619814.140   113612949.46409  21619816.660    88529595.38148
  24623128.320   129395216.61105  24623139.900   100827391.68745
 15 03 04 00 30 30.0000000  0  7G16G18G19G21G22G27G31
  20613984.800   108327250.04109  20613984.700    84410836.77649
  22011410.340   115670765.98908  22011410.780    90133075.57247
  23544005.540   123724605.60406  23544004.300    96408800.22346
  22348298.240   117441111.96308  22348297.720    91512558.66947
  22458801.080   118021961.32008  22458800.400    91965243.34747
  21610298.480   113562943.77909  21610300.940    88490629.93148
  24641739.280   129493016.06605  24641751.080   100903598.66645
 15 03 04 00 31  0.0000000  0  7G16G18G19G21G22G27G31
  20607904.760   108295299.12909  20607904.640    84385939.96549
  22006682.300   115645920.47608  22006682.820    90113715.46047
  23529874.220   123650347.35507  23529873.980    96350936.70847
  22360561.880   117505558.10208  22360561.320    91562776.43547
  22443446.140   117941270.86808  22443445.400    91902367.73247
  21600809.300   113513077.65409  21600811.700    88451773.23948
  24660335.180   129590735.72906  24660346.940   100979743.37844
 15 03 04 00 31 30.0000000  0  7G16G18G19G21G22G27G31
  20601912.780   108263810.84109  20601912.580    84361403.63549
  22002041.860   115621535.10608  22002042.320    90094713.89247
  23515761.200   123576183.66807  23515761.880    96293146.85046
  22372858.540   117570178.18608  22372858.060    91613129.73747
  22428139.180   117860832.05608  22428138.300    91839688.19947
  21591347.120   113463353.78409  21591349.420    88413027.38648
  24678915.920   129688375.87505  24678927.760   101055826.07144
 15 03 04 00 32  0.0000000  0  7G16G18G19G21G22G27G31
  20596008.580   108232784.09209  20596008.280    84337226.94149
  21997488.820   115597608.55408  21997489.080    90076069.84647
  23501666.080   123502112.70507  23501667.040    96235429.26046
  22385187.540   117634968.14908  22385187.120    91663615.42447
  22412880.180   117780645.12608  22412879.140    91777204.93047
  21581911.580   113413770.26708  21581913.860    88374390.89448
  24697480.600   129785931.93805  24697492.660   101131843.38744
 15 03 04 00 32 30.0000000  0  6G16G18G19G21G22G27
  20590191.000   108202212.53109  20590190.660    84313404.94849
  21993021.940   115574134.81808  21993022.040    90057778.64147
  23487587.240   123428126.21707  23487587.640    96177777.49046
  22397547.020   117699917.88008  22397546.680    91714225.60147
  22397668.000   117700704.65608  22397666.800    91714913.70047
  21572501.300   113364319.60508  21572503.680    88335857.92348
 15 03 04 00 33  0.0000000  0  6G16G18G19G21G22G27
  20584464.720   108172120.63209  20584464.380    84289956.71949
  21988645.660   115551137.41408  21988645.740    90039858.60447
  23473528.800   123354247.11107  23473528.160    96120209.39046
  22409941.020   117765048.79808  22409940.740    91764976.95747
  22382507.480   117621036.14808  22382506.240    91652834.38047
  21563120.760   113315024.77109  21563123.220    88297446.38348
 15 03 04 00 33 30.0000000  0  6G16G18G19G21G22G27
  20578827.760   108142497.73709  20578827.360    84266873.94049
  21984357.880   115528604.99408  21984357.960    90022300.88747
  23459488.380   123280463.33307  23459486.700    96062715.58646
  22422366.880   117830346.79608  22422366.680    91815858.50847
  22367396.820   117541629.66208  22367395.580    91590959.23347
  21553767.700   113265873.96209  21553770.180    88259147.06348
 15 03 04 00 34  0.0000000  0  6G16G18G19G21G22G27
  20573280.600   108113347.00709  20573280.180    84244159.09449
  21980159.060   115506539.89608  21980159.160    90005107.33547
  23445466.160   123206776.37507  23445464.060    96005297.25146
  22434824.540   117895811.71608  22434824.380    91866870.13447
  22352336.880   117462489.60008  22352335.700    91529291.71047
  21544442.380   113216868.90909  21544444.880    88220961.33248
 15 03 04 00 34 30.0000000  0  6G16G18G19G21G22G27
  20567823.160   108084667.86909  20567822.740    84221811.71349
  21976049.020   115484941.68708  21976049.220    89988277.59047
  23431461.880   123133184.41907  23431460.020    95947952.89046
  22447313.240   117961439.71808  22447313.060    91918008.83447
  22337327.760   117383616.31008  22337326.640    91467832.04647
  21535144.380   113168007.70809  21535146.940    88182887.68948
 15 03 04 00 35  0.0000000  0  6G16G18G19G21G22G27
  20562456.800   108056467.26009  20562456.340    84199837.21149
  21972028.960   115463816.25008  21972029.200    89971816.23347
  23417476.480   123059692.71106  23417475.340    95890686.65146
  22459833.580   118027234.32008  22459833.400    91969277.34747
  22322371.040   117305017.96408  22322369.900    91406586.63347
  21525874.840   113119296.28509  21525877.440    88144930.75948
 15 03 04 00 35 30.0000000  0  6G16G18G19G21G22G27
  20557180.580   108028740.87009  20557180.200    84178232.22849
  21968097.980   115443158.69508  21968098.180    89955719.45647
  23403509.020   122986295.66807  23403508.760    95833494.16847
  22472384.140   118093188.11308  22472383.920    92020669.90947
  22307465.960   117226691.27608  22307464.820    91345552.90847
  21516632.740   113070729.00109  21516635.380    88107086.13848
 15 03 04 00 36  0.0000000  0  6G16G18G19G21G22G27
  20551994.120   108001485.91509  20551993.700    84156994.60449
  21964255.540   115422965.98708  21964255.560    89939984.89047
  23389559.220   122912988.74807  23389559.080    95776371.93846
  22484963.740   118159294.67808  22484963.460    92072181.52047
  22292612.040   117148633.98608  22292611.020    91284729.11147
  21507417.320   113022301.78609  21507419.980    88069350.66148
 15 03 04 00 36 30.0000000  0  6G16G18G19G21G22G27
  20546899.280   107974712.08009  20546898.780    84136131.87949
  21960503.260   115403247.15508  21960503.080    89924619.57747
  23375628.360   122839780.47607  23375627.980    95719326.57846
  22497573.760   118225561.10308  22497573.400    92123817.68447
  22277811.560   117070857.44608  22277810.580    91224124.06347
  21498230.240   112974023.28109  21498232.900    88031731.05548
 15 03 04 00 37  0.0000000  0  6G16G18G19G21G22G27
  20541895.920   107948419.22709  20541895.420    84115643.94849
  21956840.920   115384001.28108  21956840.600    89909622.80447
  23361715.980   122766669.38507  23361715.180    95662356.94846
  22510213.460   118291983.68508  22510213.060    92175575.53747
  22263064.740   116993362.54108  22263063.740    91163738.47147
  21489071.200   112925892.17209  21489073.880    87994226.30749
 15 03 04 00 37 30.0000000  0  6G16G18G19G21G22G27
  20536984.180   107922607.90109  20536983.720    84095531.22549
  21953268.480   115365228.77908  21953268.300    89894994.90147
  23347821.920   122693654.65807  23347820.360    95605462.41346
  22522882.420   118358559.57408  22522881.880    92227452.85647
  22248371.900   116916150.51808  22248370.820    91103573.30348
  21479940.120   112877907.96509  21479942.800    87956836.03648
 15 03 04 00 38  0.0000000  0  6G16G18G19G21G22G27
  20532164.740   107897281.67809  20532164.320    84075796.50249
  21949786.700   115346932.29008  21949786.700    89880737.92147
  23333946.480   122620738.51107  23333944.460    95548644.66946
  22535580.660   118425289.37308  22535580.100    92279450.09547
  22233733.820   116839226.47608  22233732.760    91043632.53648
  21470837.520   112830073.17209  21470840.080    87919562.17748
 15 03 04 00 38 30.0000000  0  6G16G18G19G21G22G27
  20527438.020   107872442.70709  20527437.620    84056441.45949
  21946395.860   115329113.27909  21946395.940    89866852.99047
  23320089.720   122547921.72607  23320087.900    95491904.34746
  22548308.040   118492172.11408  22548307.480    92331566.51747
  22219151.020   116762593.30508  22219150.060    90983918.42047
  21461763.540   112782388.78609  21461765.960    87882405.52948
 15 03 04 00 39  0.0000000  0  6G16G18G19G21G22G27
  20522803.860   107848090.29009  20522803.500    84037465.54949
  21943095.700   115311770.82708  21943095.720    89853339.40347
  23306251.420   122475202.12707  23306250.040    95435239.74646
  22561063.780   118559203.83608  22561063.260    92383799.01947
  22204623.620   116686251.70808  22204622.800    90924431.49747
  21452717.820   112734852.99909  21452720.100    87845364.67248
 15 03 04 00 39 30.0000000  0  6G16G18G19G21G22G27
  20518262.260   107824224.24909  20518261.980    84018868.63949
  21939886.020   115294904.24408  21939886.040    89840196.61947
  23292431.520   122402578.60407  23292430.620    95378649.99346
  22573847.280   118626381.33808  22573846.820    92436145.11447
  22190151.800   116610202.64208  22190151.120    90865172.53947
  21443700.180   112687464.74709  21443702.320    87808438.77648
 15 03 04 00 40  0.0000000  0  6G16G18G19G21G22G27
  20513814.040   107800848.97609  20513813.840    84000654.13949
  21936767.540   115278516.88608  21936767.660    89827427.27247
  23278630.440   122330053.77807  23278629.900    95322137.17746
  22586658.720   118693705.67308  22586658.300    92488605.62947
  22175736.620   116534451.40608  22175736.000    90806145.64847
  21434711.200   112640227.18609  21434713.220    87771630.30748
 15 03 04 00 40 30.0000000  0  6G16G18G19G21G22G27
  20509459.320   107777964.96009  20509459.160    83982822.43449
  21933740.180   115262608.67208  21933740.520    89815031.29447
  23264848.020   122257626.90607  23264847.700    95265700.68846
  22599497.660   118761174.39508  22599497.260    92541178.65547
  22161378.500   116458999.33308  22161377.820    90747351.88147
  21425750.700   112593139.72109  21425752.680    87734938.78748
 15 03 04 00 41  0.0000000  0  6G16G18G19G21G22G27
  20505198.580   107755574.52609  20505198.420    83965375.33849
  21930804.400   115247181.32008  21930804.840    89803010.00547
  23251084.420   122185299.25907  23251084.260    95209341.50946
  22612363.920   118828786.80608  22612363.560    92593863.64947
  22147078.000   116383849.77208  22147077.240    90688793.83247
  21416819.000   112546203.70209  21416821.040    87698365.27648
 15 03 04 00 41 30.0000000  0  6G16G18G19G21G22G27
  20501031.640   107733676.42209  20501031.440    83948311.87949
  21927959.940   115232233.44208  21927960.360    89791362.31947
  23237339.420   122113068.37907  23237339.140    95153057.74746
  22625256.720   118896538.65908  22625256.380    92646657.29147
  22132835.260   116309003.19808  22132834.340    90630471.87647
  21407915.760   112499417.07809  21407917.880    87661908.17948
 15 03 04 00 42  0.0000000  0  6G16G18G19G21G22G27
  20496958.740   107712272.81009  20496958.460    83931633.73549
  21925206.920   115217766.08508  21925207.220    89780089.07247
  23223613.140   122040935.17107  23223612.540    95096850.08646
  22638175.880   118964429.22508  22638175.580    92699559.02647
  22118650.760   116234462.88708  22118649.760    90572388.56248
  21399041.280   112452781.10309  21399043.420    87625568.46449
 15 03 04 00 42 30.0000000  0  6G16G18G19G21G22G27
  20492980.640   107691367.55409  20492980.280    83915343.92549
  21922545.940   115203782.65108  21922546.140    89769192.90247
  23209905.960   121968902.23207  23209905.020    95040720.55646
  22651121.460   119032458.99008  22651121.200    92752569.22947
  22104525.380   116160233.84808  22104524.380    90514547.79347
  21390196.000   112406298.66209  21390198.140    87589348.38048
 15 03 04 00 43  0.0000000  0  6G16G18G19G21G22G27
  20489097.740   107670962.81109  20489097.420    83899444.12549
  21919977.380   115190284.70708  21919977.520    89758675.04147
  23196217.900   121896970.75807  23196216.740    94984670.08746
  22664093.380   119100627.33108  22664093.160    92805687.41447
  22090459.720   116086319.07008  22090458.760    90456951.90147
  21381380.100   112359971.07809  21381382.240    87553248.97648
 15 03 04 00 43 30.0000000  0  6G16G18G19G21G22G27
  20485310.040   107651058.46309  20485309.800    83883934.23949
  21917501.080   115177271.27309  21917501.160    89748534.72047
  23182548.620   121825138.97607  23182547.480    94928697.32246
  22677091.080   119168930.95808  22677090.940    92858911.00947
  22076454.000   116012719.34508  22076453.060    90399601.50947
  21372593.380   112313796.98409  21372595.520    87517269.17548
 15 03 04 00 44  0.0000000  0  6G16G18G19G21G22G27
  20481618.100   107631656.98209  20481617.860    83868816.19649
  21915117.400   115164744.29608  21915117.420    89738773.45947
  23168898.480   121753408.46007  23168897.660    94872803.44546
  22690114.500   119237369.58408  22690114.320    92912239.80347
  22062509.160   115939439.02908  22062508.140    90342499.99947
  21363836.320   112267778.30509  21363838.360    87481410.47648
 15 03 04 00 44 30.0000000  0  6G16G18G19G21G22G27
  20478021.420   107612756.31209  20478021.160    83854088.40549
  21912825.700   115152701.26608  21912825.760    89729389.30247
  23155267.060   121681776.37207  23155266.680    94816986.27146
  22703162.740   119305938.15908  22703162.400    92965669.85747
  22048624.960   115866477.23108  22048623.900    90285646.70348
  21355108.260   112221912.23209  21355110.340    87445670.69348
 15 03 04 00 45  0.0000000  0  6G16G18G19G21G22G27
  20474520.160   107594357.04009  20474519.860    83839751.30849
  21910626.080   115141142.16108  21910626.120    89720382.22447
  23141654.460   121610242.09907  23141654.240    94761245.30646
  22716235.240   119374634.35608  22716234.760    93019199.35547
  22034801.640   115793835.36008  22034800.600    90229042.69648
  21346409.120   112176198.41509  21346411.300    87410049.55048
 15 03 04 00 45 30.0000000  0  6G16G18G19G21G22G27
  20471114.720   107576461.66009  20471114.480    83825806.85949
  21908518.780   115130068.34308  21908518.800    89711753.28747
  23128060.900   121538806.56407  23128060.540    94705581.29146
  22729332.000   119443457.94208  22729331.340    93072828.12747
  22021039.880   115721516.98808  22021038.780    90172690.76848
  21337739.260   112130638.44509  21337741.520    87374548.28548
 15 03 04 00 46  0.0000000  0  6G16G18G19G21G22G27
  20467806.080   107559074.87409  20467805.880    83812258.70349
  21906504.540   115119483.72108  21906504.560    89703505.54747
  23114486.900   121467473.71907  23114486.200    94649997.29746
  22742453.300   119512410.46808  22742452.520    93126557.35647
  22007340.840   115649528.43908  22007339.700    90116595.84548
  21329099.500   112085236.31809  21329101.800    87339170.01048
 15 03 04 00 46 30.0000000  0  6G16G18G19G21G22G27
  20464594.360   107542197.04009  20464594.140    83799107.14449
  21904583.500   115109389.03008  21904583.480    89695639.56747
  23100932.220   121396243.00807  23100931.140    94594492.89446
  22755598.760   119581489.87008  22755597.880    93180385.44947
  21993704.780   115577871.19308  21993703.680    90060759.06347
  21320489.740   112039991.87909  21320492.140    87303914.61749
 15 03 04 00 47  0.0000000  0  6G16G18G19G21G22G27
  20461479.800   107525829.90909  20461479.580    83786353.53449
  21902755.880   115099785.02109  21902755.720    89688155.94747
  23087396.940   121325114.90807  23087395.560    94539068.45646
  22768768.020   119650694.80308  22768767.160    93234311.36347
  21980132.260   115506547.65708  21980131.120    90005182.31347
  21311910.140   111994905.73209  21311912.620    87268782.56749
 15 03 04 00 47 30.0000000  0  6G16G18G19G21G22G27
  20458462.580   107509974.08509  20458462.280    83773998.35249
  21901021.680   115090671.31309  21901021.380    89681054.37347
  23073881.040   121254088.98407  23073879.520    94483723.62746
  22781960.660   119720022.94408  22781959.900    93288333.27947
  21966623.720   115435559.97408  21966622.560    89949867.28048
  21303360.720   111949977.90109  21303363.220    87233773.88249
 15 03 04 00 48  0.0000000  0  6G16G18G19G21G22G27
  20455542.560   107494628.79809  20455542.160    83762040.98449
  21899380.620   115082046.87509  21899380.180    89674334.04247
  23060384.320   121183163.95307  23060382.760    94428457.41646
  22795176.140   119789471.38008  22795175.520    93342448.93147
  21953179.380   115364909.32508  21953178.200    89894814.87147
  21294841.220   111905207.38209  21294843.680    87198887.77749
 15 03 04 00 48 30.0000000  0  6G16G18G19G21G22G27
  20452720.140   107479796.57809  20452719.680    83750483.41049
  21897832.740   115073912.66908  21897832.300    89667995.72447
  23046906.940   121112340.80807  23046905.540    94373270.58047
  22808414.360   119859039.38208  22808413.920    93396657.76147
  21939799.760   115294598.42208  21939798.420    89840027.19647
  21286351.860   111860595.38909  21286354.260    87164125.19249
 15 03 04 00 49  0.0000000  0  6G16G18G19G21G22G27
  20449995.400   107465477.98309  20449994.960    83739326.06149
  21896378.140   115066269.13808  21896377.800    89662039.72847
  23033449.040   121041619.29207  23033447.920    94318162.93047
  22821674.880   119928724.52808  22821674.560    93450957.86347
  21926485.320   115224629.91608  21926483.860    89785506.32547
  21277892.660   111816142.05609  21277895.020    87129486.23149
 15 03 04 00 49 30.0000000  0  6G16G18G19G21G22G27
  20447368.440   107451673.20509  20447368.000    83728569.09349
  21895016.840   115059115.91608  21895016.640    89656465.80047
  23020010.440   120970998.75107  23020009.400    94263133.96446
  22834957.300   119998524.25608  22834957.000    93505347.25947
  21913236.180   115155004.92908  21913234.660    89731253.11948
  21269463.540   111771846.89709  21269465.800    87094970.53148
 15 03 04 00 50  0.0000000  0  6G16G18G19G21G22G27
  20444839.720   107438384.91209  20444839.320    83718214.57849
  21893749.260   115052455.07408  21893749.180    89651275.55147
  23006591.500   120900481.19708  23006590.340    94208185.27446
  22848261.660   120068438.86308  22848261.380    93559826.16447
  21900053.100   115085727.27908  21900051.560    89677270.57748
  21261065.040   111727712.26409  21261067.120    87060579.91149
 15 03 04 00 50 30.0000000  0  6G16G18G19G21G22G27
  20442409.900   107425616.36409  20442409.520    83708265.04949
  21892575.820   115046289.13308  21892575.920    89646470.94647
  22993192.480   120830068.63007  22993191.340    94153318.37547
  22861588.140   120138469.38208  22861587.780    93614395.38746
  21886936.940   115016801.68908  21886935.360    89623562.36148
  21252697.600   111683740.66009  21252699.520    87026316.32649
 15 03 04 00 51  0.0000000  0  6G16G18G19G21G22G27
  20440079.040   107413367.69109  20440078.700    83698720.62249
  21891496.380   115040617.04008  21891496.600    89642051.15147
  22979813.220   120759760.60907  22979812.260    94098532.94147
  22874936.160   120208612.92008  22874935.580    93669052.67947
  21873887.940   114948229.16808  21873886.400    89570129.25848
  21244361.060   111639931.55509  21244362.960    86992179.37749
 15 03 04 00 51 30.0000000  0  6G16G18G19G21G22G27
  20437847.160   107401639.20809  20437846.900    83689581.54549
  21890510.900   115035438.67308  21890511.140    89638016.08147
  22966453.680   120689556.39307  22966452.960    94043828.40147
  22888305.200   120278867.28708  22888304.520    93723796.32346
  21860906.440   114880011.66308  21860904.980    89516972.80048
  21236055.400   111596285.00409  21236057.360    86958169.08649
 15 03 04 00 52  0.0000000  0  6G16G18G19G21G22G27
  20435714.400   107390431.51009  20435714.160    83680848.27249
  21889619.440   115030754.47308  21889619.740    89634366.05947
  22953113.920   120619455.93308  22953113.300    93989204.69647
  22901694.860   120349230.32008  22901694.120    93778624.65846
  21847992.860   114812150.87008  21847991.520    89464094.29048
  21227780.580   111552800.99109  21227782.660    86924285.44049
 15 03 04 00 52 30.0000000  0  6G16G18G19G21G22G27
  20433680.620   107379744.08209  20433680.380    83672520.40349
  21888821.760   115026562.78108  21888822.020    89631099.82847
  22939793.660   120549457.83108  22939793.020    93934660.75347
  22915104.640   120419698.94508  22915103.880    93833535.26747
  21835147.500   114744647.99508  21835146.200    89411494.69348
  21219536.460   111509478.54409  21219538.700    86890527.69349
 15 03 04 00 53  0.0000000  0  6G16G18G19G21G22G27
  20431746.340   107369579.47709  20431746.160    83664599.93449
  21888118.240   115022865.43009  21888118.460    89628218.79647
  22926493.300   120479563.74708  22926492.440    93880197.86547
  22928534.500   120490273.50108  22928533.820    93888528.42247
  21822371.020   114677506.84808  21822369.660    89359176.94448
  21211323.580   111466319.75209  21211325.880    86856897.47849
 15 03 04 00 53 30.0000000  0  6G16G18G19G21G22G27
  20429911.660   107359938.51809  20429911.560    83657087.49449
  21887508.900   115019662.85909  21887509.080    89625723.31147
  22913212.880   120409774.19008  22913211.700    93825816.43046
  22941984.180   120560952.27008  22941983.620    93943602.78346
  21809663.840   114610729.67508  21809662.400    89307142.82248
  21203142.080   111423325.22809  21203144.320    86823395.26149
 15 03 04 00 54  0.0000000  0  6G16G18G19G21G22G27
  20428177.560   107350825.94509  20428177.480    83649986.78449
  21886994.300   115016958.22609  21886994.380    89623615.81547
  22899952.980   120340092.70908  22899951.560    93771519.18647
  22955453.980   120631737.11408  22955453.620    93998759.79847
  21797026.960   114544322.06009  21797025.460    89255396.66648
  21194992.600   111380498.89109  21194994.760    86790024.10049
 15 03 04 00 54 30.0000000  0  6G16G18G19G21G22G27
  20426544.020   107342241.37709  20426543.900    83643297.51449
  21886574.440   115014751.55309  21886574.360    89621896.33748
  22886713.380   120270518.64608  22886711.900    93717305.66347
  22968943.460   120702625.42208  22968943.220    94053997.43747
  21784460.620   114478285.04009  21784458.980    89203939.27648
  21186874.960   111337840.17309  21186877.080    86756783.56149
 15 03 04 00 55  0.0000000  0  6G16G18G19G21G22G27
  20425010.800   107334183.85709  20425010.640    83637018.92649
  21886248.920   115013041.02309  21886248.780    89620563.46548
  22873493.860   120201050.23807  22873492.380    93663174.45047
  22982452.040   120773614.01708  22982451.880    94109313.22146
  21771964.900   114412619.35709  21771963.200    89152771.24248
  21178788.920   111295347.93809  21178791.000    86723672.74149
 15 03 04 00 55 30.0000000  0  6G16G18G19G21G22G27
  20423577.840   107326653.50209  20423577.700    83631151.11449
  21886017.560   115011825.43609  21886017.500    89619616.27147
  22860294.240   120131686.52907  22860292.900    93609124.84846
  22995979.240   120844700.24108  22995979.160    94164705.07746
  21759539.940   114347326.05708  21759538.300    89101893.36848
  21170734.420   111253021.72009  21170736.460    86690691.28049
 15 03 04 00 56  0.0000000  0  7G04G16G18G19G21G22G27
  24596107.680   129253417.08306  24596119.300   100716982.08344
  20422246.040   107319654.82209  20422245.820    83625697.59549
  21885881.100   115011108.51308  21885881.160    89619057.65247
  22847115.420   120062431.54608  22847114.260    93555159.95747
  23009525.560   120915886.17808  23009525.420    94220174.64146
  21747186.940   114282411.16808  21747185.440    89051310.37348
  21162712.380   111210865.61509  21162714.300    86657842.37049
 15 03 04 00 56 30.0000000  0  7G04G16G18G19G21G22G27
  24576773.740   129151820.63906  24576785.920   100637817.56444
  20421017.420   107313198.26509  20421017.100    83620666.50749
  21885841.480   115010900.67308  21885841.620    89618895.71347
  22833959.360   119993295.35608  22833958.400    93501287.63647
  23023092.540   120987180.20408  23023092.240    94275728.43846
  21734908.220   114217886.49608  21734906.820    89001031.45748
  21154724.720   111168890.03409  21154726.560    86625134.13349
 15 03 04 00 57  0.0000000  0  7G04G16G18G19G21G22G27
  24557463.380   129050350.83906  24557476.200   100558751.70544
  20419886.980   107307257.72009  20419886.680    83616037.51249
  21885893.680   115011174.96009  21885893.740    89619109.45747
  22820820.860   119924251.18208  22820820.040    93447487.00547
  23036674.560   121058553.47508  23036674.200    94331343.95846
  21722699.100   114153727.45508  21722697.700    88951037.43448
  21146766.380   111127068.56709  21146768.240    86592545.98349
 15 03 04 00 57 30.0000000  0  7G04G16G18G19G21G22G27
  24538180.640   128949025.07606  24538193.940   100479798.03744
  20418857.980   107301850.41509  20418857.720    83611824.02549
  21886040.740   115011947.64208  21886040.680    89619711.55347
  22807702.960   119855315.89708  22807702.220    93393771.24047
  23050274.620   121130021.53708  23050274.200    94387033.35446
  21710563.080   114089952.67008  21710561.640    88901342.82548
