     2.11           OBSERVATION DATA    M                   RINEX VERSION / TYPE
SPIDER V4,0,0,3554                      2015 03 16 00:20    PGM / RUN BY / DATE 
OBBL                                                        MARKER NAME         
OBBL                                                        MARKER NUMBER       
                                                            OBSERVER / AGENCY   
496644              LEICA GRX1200+GNSS  8.20/4.007          REC # / TYPE / VERS 
10321016            LEIAR25         NONE                    ANT # / TYPE        
  5247771.7331  -137806.0861  3611675.3627                  APPROX POSITION XYZ 
        0.1200        0.0000        0.0000                  ANTENNA: DELTA H/E/N
     1     1                                                WAVELENGTH FACT L1/2
     4    C1    L1    P2    L2                              # / TYPES OF OBSERV 
    30.000                                                  INTERVAL            
  2015    03    04    09    01    0.0000000     GPS         TIME OF FIRST OBS   
  2015    03    04    23    59   30.0000000     GPS         TIME OF LAST OBS    
    16                                                      LEAP SECONDS        
    49                                                      # OF SATELLITES     
   G 1     7     7     7     7                              PRN / # OF OBS      
   G 2   848   846   840   840                              PRN / # OF OBS      
   G 3   135   135   135   135                              PRN / # OF OBS      
   G 5   643   641   640   639                              PRN / # OF OBS      
   G 6   397   397   397   397                              PRN / # OF OBS      
   G 7   509   509   509   509                              PRN / # OF OBS      
   G 9   409   409   409   409                              PRN / # OF OBS      
   G10   593   593   593   593                              PRN / # OF OBS      
   G12   796   796   796   796                              PRN / # OF OBS      
   G13   798   797   788   788                              PRN / # OF OBS      
   G14   466   465   453   453                              PRN / # OF OBS      
   G15   685   684   683   683                              PRN / # OF OBS      
   G16   210   209   196   196                              PRN / # OF OBS      
   G17   448   447   447   446                              PRN / # OF OBS      
   G18   473   473   453   453                              PRN / # OF OBS      
   G19     3     3     1     1                              PRN / # OF OBS      
   G20   551   551   551   551                              PRN / # OF OBS      
   G21   437   427   422   419                              PRN / # OF OBS      
   G22   109   109    85    85                              PRN / # OF OBS      
   G23   226   226   226   226                              PRN / # OF OBS      
   G24   809   808   804   804                              PRN / # OF OBS      
   G25   852   851   851   850                              PRN / # OF OBS      
   G27   153   153   146   146                              PRN / # OF OBS      
   G28   557   557   556   556                              PRN / # OF OBS      
   G29   728   728   728   728                              PRN / # OF OBS      
   G30   666   666   666   666                              PRN / # OF OBS      
   G31   549   549   547   547                              PRN / # OF OBS      
   R 1   572   572   540   531                              PRN / # OF OBS      
   R 2   594   594   572   568                              PRN / # OF OBS      
   R 3   434   434   427   421                              PRN / # OF OBS      
   R 4   238   238   200   173                              PRN / # OF OBS      
   R 6   249   249   249   249                              PRN / # OF OBS      
   R 7   505   505   505   505                              PRN / # OF OBS      
   R 8   641   641   633   624                              PRN / # OF OBS      
   R 9   485   485   469   467                              PRN / # OF OBS      
   R10   558   558   558   558                              PRN / # OF OBS      
   R11   640   640   640   637                              PRN / # OF OBS      
   R12   732   732   730   727                              PRN / # OF OBS      
   R13   691   691   687   687                              PRN / # OF OBS      
   R14   612   612   607   607                              PRN / # OF OBS      
   R15   524   524   510   505                              PRN / # OF OBS      
   R16   492   492   484   484                              PRN / # OF OBS      
   R17   596   596   595   592                              PRN / # OF OBS      
   R18   400   400   387   366                              PRN / # OF OBS      
   R19   144   144   125   123                              PRN / # OF OBS      
   R21   296   296   295   295                              PRN / # OF OBS      
   R22   582   582   581   577                              PRN / # OF OBS      
   R23   738   738   641   636                              PRN / # OF OBS      
   R24   560   560   552   552                              PRN / # OF OBS      
BIT 2 OF LLI FLAGS DATA COLLECTED UNDER A/S CONDITION       COMMENT             
SNR is mapped to RINEX snr flag value [2-9]                 COMMENT             
Lx:     = 25dBHz -> 1; 26-27dBHz -> 2; 28-31dBHz -> 3       COMMENT             
       32-35dBHz -> 4; 36-38dBHz -> 5; 39-41dBHz -> 6       COMMENT             
       42-44dBHz -> 7; 45-48dBHz -> 8; >=49dBHz -> 9        COMMENT             
                                                            END OF HEADER       
 15 03 04 09 01  0.0000000  0 17G01G02G03G06G07G09G10G17G20G23G30R06
                                R07R09R16R21R22
  24690766.880   129750851.79607  24690774.720   101104581.77146
  24209386.140   127221178.85505  24209377.080    99133382.37843
  22771049.720   119662676.74108  22771054.280    93243660.86847
  20784614.360   109223881.98109  20784616.160    85109528.94948
  22369408.860   117552036.46109  22369410.260    91598993.84148
  20293377.560   106642417.57009  20293378.640    83097991.05649
  21599792.840   113507676.38208  21599793.360    88447542.92546
  23242830.560   122141902.61707  23242832.640    95175511.41347
  21211551.640   111467454.59309  21211550.700    86857751.04648
  21476558.200   112860078.50709  21476555.680    87942904.79648
  24402513.440   128236068.26607  24402521.020    99924211.49745
  20810930.820   111051107.41809  20810935.500    86373100.10308
  20623172.400   110397449.95309  20623174.620    85864696.28508
  22308682.600   119127129.32508  22308688.160    92654452.28904
  21449318.060   114578403.25008  21449323.400    89116554.70707
  21428097.480   114666076.47708  21428101.640    89184746.16807
  20494610.940   109401625.14309  20494615.540    85090172.88808
 15 03 04 09 01 30.0000000  0 17G01G02G03G06G07G09G10G17G20G23G30R06
                                R07R09R16R21R22
  24711117.660   129857794.00108  24711125.100   101187912.88245
  24190234.680   127120532.98906  24190232.800    99054960.07842
  22782859.840   119724740.35808  22782864.780    93292022.04147
  20776161.540   109179462.36509  20776163.480    85074916.26848
  22353035.900   117465994.77409  22353037.300    91531948.43948
  20295866.600   106655497.23009  20295867.720    83108183.00349
  21588755.600   113449676.24308  21588756.080    88402348.02146
  23258388.320   122223660.89508  23258390.580    95239219.00046
  21201743.220   111415911.02709  21201742.360    86817587.21448
  21487829.820   112919310.04309  21487826.940    87989059.17448
  24382128.660   128128943.71908  24382135.660    99840738.00445
  20819170.520   111095074.55809  20819174.720    86407296.72407
  20618492.380   110372397.10309  20618494.460    85845210.71408
  22287393.540   119013450.37108  22287400.540    92566035.50004
  21443256.860   114546026.04608  21443261.460    89091372.46807
  21449102.000   114778474.47808  21449106.200    89272166.71007
  20496762.860   109413110.67609  20496767.160    85099106.05008
 15 03 04 09 02  0.0000000  0 18G01G02G03G06G07G09G10G17G20G23G30R06
                                R07R09R16R21R22R23
  24731488.720   129964842.38408  24731496.020   101271326.70544
  24171104.720   127019999.65105  24171105.840    98976629.46843
  22794697.560   119786947.77008  22794702.680    93340495.25347
  20767800.960   109135527.55409  20767803.160    85040681.32649
  22336713.700   117380219.68909  22336715.080    91465110.78848
  20298434.460   106668990.56109  20298435.320    83118697.26449
  21577751.320   113391849.96408  21577752.020    88357288.61047
  23273983.340   122305611.34408  23273985.600    95303076.31547
  21191967.780   111364541.52109  21191966.800    86777559.02947
  21499148.280   112978787.70109  21499145.140    88035405.35648
  24361739.500   128021797.84107  24361745.980    99757247.95445
  20827432.020   111139158.67509  20827435.740    86441584.31707
  20613843.480   110347511.52208  20613845.800    85825855.27108
  22266150.340   118900015.38308  22266158.340    92477808.45504
  21437333.420   114514384.93908  21437338.300    89066762.71508
  21470176.260   114891243.46408  21470179.460    89359875.76007
  20499065.360   109425400.47509  20499069.700    85108664.75808
  23276486.780   124513496.99005                                
 15 03 04 09 02 30.0000000  0 18G01G02G03G06G07G09G10G17G20G23G30R06
                                R07R09R16R21R22R23
  24751877.740   130071985.31907  24751885.220   101354814.20045
  24151994.280   126919571.53304                                
  22806560.920   119849289.38308  22806565.580    93389073.02947
  20759531.180   109092069.78209  20759533.580    85006818.12848
  22320440.720   117294704.31309  22320442.080    91398475.50448
  20301078.780   106682886.37509  20301079.480    83129525.14549
  21566778.680   113334188.64308  21566779.400    88312357.75146
  23289612.760   122387741.04008  23289614.480    95367073.28346
  21182223.600   111313336.62909  21182222.220    86737659.10147
  21510511.400   113038500.06509  21510508.160    88081934.41048
  24341344.480   127914623.60308  24341350.980    99673735.77544
  20835713.400   111183349.49209  20835717.020    86475954.94007
  20609223.940   110322783.27908  20609226.400    85806622.15308
  22244951.720   118786819.03207  22244959.580    92389767.01104
  21431546.320   114483472.68208  21431551.660    89042719.84308
  21491316.840   115004368.92808  21491320.080    89447862.07407
  20501516.380   109438483.62909  20501520.480    85118840.47508
  23258728.920   124418507.91104  23258738.960                  
 15 03 04 09 03  0.0000000  0 16G01G03G06G07G09G10G17G20G23G30R06R07
                                R09R16R21R22
  24772284.700   130179223.16407  24772293.080   101438375.66545
  22818450.420   119911767.69508  22818454.780    93437757.30847
  20751353.000   109049093.39309  20751355.460    84973330.02648
  22304217.860   117209453.71209  22304219.320    91332046.51148
  20303799.820   106697185.60509  20303800.480    83140667.38649
  21555838.320   113276695.32108  21555838.660    88267557.78046
  23305275.900   122470049.21808  23305277.180    95431209.38846
  21172511.360   111262299.67709  21172509.900    86697890.05447
  21521919.300   113098447.57809  21521915.980    88128646.69448
  24320944.900   127807425.99008  24320951.220    99590205.37744
  20844015.340   111227648.67609  20844018.240    86510409.77007
  20604634.120   110298214.06109  20604636.840    85787512.75108
  22223799.320   118673868.73308  22223806.240    92301916.94404
  21425896.460   114453293.65808  21425902.220    89019247.28807
  21512523.380   115117848.66308  21512526.480    89536123.93607
  20504116.140   109452361.57008  20504119.940    85129634.39808
 15 03 04 09 03 30.0000000  0 16G01G03G06G07G09G10G17G20G23G30R06R07
                                R09R16R21R22
  24792710.440   130286560.85807  24792719.780   101522014.87945
  22830367.300   119974389.73308  22830371.460    93486553.58847
  20743268.120   109006607.23709  20743270.520    84940223.91549
  22288047.160   117124477.51509  22288048.720    91265831.35348
  20306598.620   106711893.72909  20306599.260    83152128.23749
  21544931.120   113219377.19308  21544931.200    88222894.32146
  23320973.320   122552539.50908  23320974.960    95495487.44146
  21162832.780   111211438.64309  21162831.400    86658258.05948
  21533372.740   113158635.22309  21533369.360    88175546.10747
  24300542.680   127700214.60308  24300548.720    99506664.20845
  20852338.800   111272063.98709  20852341.580    86544954.94307
  20600075.320   110273810.44709  20600078.140    85768532.16208
  22202695.660   118561175.90908  22202701.160    92214267.11703
  21420385.840   114423857.00908  21420391.740    88996352.16607
  21533796.040   115231684.81308  21533799.280    89624663.05507
  20506865.980   109467040.32508  20506869.640    85141051.15008
 15 03 04 09 04  0.0000000  0 17G01G02G03G06G07G09G10G17G20G23G30R06
                                R07R09R16R21R22
  24813155.380   130394000.28207  24813165.600   101605733.43045
  24094792.300   126618988.99604  24094794.160    98664153.50442
  22842312.180   120037159.34208  22842316.320    93535464.83747
  20735277.720   108964616.99209  20735280.020    84907504.25349
  22271930.200   117039782.64209  22271931.400    91199835.41547
  20309475.700   106727012.99709  20309476.260    83163909.47249
  21534057.820   113162238.86408  21534058.100    88178370.96046
  23336705.380   122635212.50208  23336707.660    95559907.86146
  21153188.520   111160757.96409  21153187.600    86618766.63348
  21544871.900   113219064.89409  21544868.680    88222634.15347
  24280139.220   127592995.78408  24280144.900    99423117.25045
  20860684.360   111316598.03609  20860687.300    86579592.49507
  20595548.200   110249575.72409  20595550.860    85749682.94908
  22181642.260   118448749.23908  22181646.520    92126824.31404
  21415015.220   114395168.91408  21415021.560    88974039.24108
  21555135.220   115345876.91108  21555139.060    89713479.03608
  20509766.220   109482522.40608  20509770.120    85153092.72908
 15 03 04 09 04 30.0000000  0 16G02G03G06G07G09G10G17G20G23G30R06R07
                                R09R16R21R22
  24075771.880   126519036.38204  24075767.680    98586243.15953
  22854283.880   120100070.99008  22854288.880    93584486.79147
  20727380.980   108923118.98609  20727383.320    84875168.13849
  22255866.360   116955365.82309  22255866.720    91134056.16247
  20312429.620   106742536.35309  20312430.240    83176005.59249
  21523217.920   113105275.35108  21523218.320    88133983.77246
  23352470.300   122718059.42708  23352473.300    95624463.82446
  21143577.560   111110252.60609  21143577.060    86579411.81148
  21556415.780   113279729.15809  21556412.780    88269904.95547
  24259733.760   127485766.58807  24259739.160    99339562.19945
  20869051.060   111361245.35608  20869054.480    86614318.14107
  20591051.540   110225503.61308  20591053.800    85730960.16608
  22160638.420   118336587.79308  22160642.180    92039587.80404
  21409784.020   114367225.68508  21409790.340    88952305.62307
  21576539.220   115460414.51509  21576543.780    89802563.73508
  20512815.600   109498800.90008  20512819.440    85165753.73408
 15 03 04 09 05  0.0000000  0 15G03G06G07G09G10G17G20G23G30R06R07R09
                                R16R21R22
  22866281.880   120163120.96608  22866287.460    93633616.54847
  20719577.600   108882111.30909  20719579.760    84843214.11249
  22239855.240   116871226.13409  22239854.760    91068492.84747
  20315459.500   106758458.50909  20315460.140    83188412.46349
  21512410.980   113048483.48908  21512411.100    88089730.40646
  23368267.200   122801073.07208  23368270.260    95689149.64646
  21133999.380   111059919.88409  21133998.880    86540191.52048
  21568003.100   113340622.26209  21568000.520    88317354.08647
  24239326.000   127378525.88607  24239331.480    99255998.16745
  20877438.120   111406001.48409  20877442.120    86649128.42307
  20586584.280   110201589.62408  20586586.520    85712360.43208
  22139684.120   118224692.41608  22139688.060    91952558.21504
  21404691.900   114340025.19908  21404697.960    88931149.72707
  21598006.480   115575289.01208  21598011.060    89891910.48207
  20516013.200   109515871.28609  20516017.440    85179030.67408
 15 03 04 09 05 30.0000000  0 16G02G03G06G07G09G10G17G20G23G30R06R07
                                R09R16R21R22
  24037798.240   126319477.50604                                
  22878305.880   120226306.43808  22878311.480    93682851.85047
  20711867.280   108841592.81809  20711869.180    84811641.25448
  22223896.640   116787363.26209  22223896.000    91003145.24547
  20318564.480   106774774.97409  20318565.160    83201126.57149
  21501636.280   112991861.00309  21501636.160    88045609.01446
  23384095.040   122884247.63708  23384098.080    95753960.87147
  21124453.780   111009757.61509  21124452.900    86501104.02948
  21579632.940   113401739.52309  21579630.640    88364977.89347
  24218915.760   127271273.28708  24218921.740    99172424.87945
  20885845.140   111450863.01809  20885849.600    86684020.66708
  20582145.940   110177830.28109  20582148.320    85693880.97208
  22118779.820   118113064.62008  22118784.680    91865736.72704
  21399738.900   114313566.56908  21399745.000    88910570.86108
  21619535.660   115690492.87008  21619539.800    89981513.35407
  20519358.360   109533728.67409  20519363.040    85192919.70308
 15 03 04 09 06  0.0000000  0 16G02G03G06G07G09G10G17G20G23G30R06R07
                                R09R16R21R22
  24018848.040   126219888.64805  24018847.620    98353180.47244
  22890356.160   120289629.38908  22890361.080    93732194.30146
  20704250.660   108801567.33309  20704252.580    84780452.57548
  22207991.340   116703781.97509  22207991.200    90938017.03548
  20321744.560   106791486.16509  20321745.240    83214148.26649
  21490894.120   112935410.37108  21490894.020    88001621.52046
  23399953.240   122967581.60108  23399956.200    95818896.30247
  21114941.260   110959768.20709  21114939.920    86462151.23648
  21591305.680   113463080.92609  21591303.260    88412776.31647
  24198504.100   127164013.46507  24198511.080    99088845.93845
  20894272.260   111495831.48309  20894277.240    86718996.12707
  20577736.700   110154226.53009  20577738.560    85675522.47408
  22097926.620   118001711.27608  22097932.600    91779128.72304
  21394925.580   114287853.79108  21394931.460    88890572.08907
  21641125.580   115806023.34108  21641129.720    90071370.25807
  20522851.340   109552374.10509  20522855.940    85207421.67208
 15 03 04 09 06 30.0000000  0 16G02G03G06G07G09G10G17G20G23G30R06R07
                                R09R16R21R22
  23999923.540   126120443.22106  23999921.420    98275655.22143
  22902433.620   120353095.00208  22902437.320    93781647.88246
  20696729.220   108762041.80709  20696731.180    84749653.44349
  22192141.220   116620490.18109  22192141.560    90873114.38348
  20325000.440   106808595.69109  20325001.020    83227480.33749
  21480185.720   112879137.37808  21480185.780    87957772.41047
  23415842.040   123051077.04908  23415844.580    95883957.53947
  21105462.840   110909958.04609  21105461.520    86423338.13448
  21603021.940   113524649.82809  21603019.580    88460752.01447
  24178092.860   127056754.10207  24178100.380    99005267.35746
  20902720.380   111540912.02809  20902725.020    86754058.70007
  20573357.480   110130783.94108  20573359.080    85657289.34308
  22077126.360   117890642.18008  22077133.120    91692741.78104
  21390253.180   114262893.96408  21390258.940    88871158.92808
  21662776.060   115921880.93107  21662779.460    90161481.59806
  20526492.800   109571811.38709  20526497.320    85222539.54808
 15 03 04 09 07  0.0000000  0 17G02G03G06G07G09G10G17G20G23G30R06R07
                                R09R16R21R22R23
  23981022.480   126021118.25806  23981021.260    98198259.19943
  22914537.860   120416702.33208  22914540.940    93831211.91446
  20689303.020   108723017.03309  20689304.980    84719244.52948
  22176346.760   116537489.42809  22176347.620    90808438.55848
  20328331.500   106826100.98709  20328332.120    83241120.81949
  21469511.240   112823041.56909  21469511.520    87914061.39447
  23431760.620   123134729.42308  23431763.020    95949141.05146
  21096018.360   110860326.79508  21096017.420    86384664.46748
  21614780.980   113586443.14409  21614779.020    88508902.62548
  24157682.360   126949496.92407  24157689.840    98921690.49745
  20911189.280   111586103.50609  20911192.940    86789207.56807
  20569007.280   110107500.41108  20569009.420    85639179.99308
  22056380.260   117779861.12808  22056387.260    91606578.92104
  21385721.900   114238687.68008  21385727.520    88852331.88508
  21684486.520   116038060.14707  21684489.940    90251843.00307
  20530282.120   109592037.87109  20530286.240    85238271.18908
  23103256.840   123586843.36904                                
 15 03 04 09 07 30.0000000  0 17G02G03G06G07G09G10G17G20G23G30R06R07
                                R09R16R21R22R23
  23962147.420   125921930.04706  23962146.980    98120969.72945
  22926669.140   120480453.45008  22926672.720    93880887.99246
  20681972.840   108684496.77509  20681974.580    84689228.73448
  22160608.760   116454784.87609  22160609.900    90743993.49948
  20331738.000   106844002.50909  20331738.660    83255070.04149
  21458870.920   112767125.57209  21458871.480    87870490.51147
  23447708.700   123218537.69906  23447711.320    96014446.04746
  21086608.240   110810877.30008  21086607.720    86346132.40748
  21626582.760   113648461.15209  21626580.900    88557228.27448
  24137273.260   126842246.49707  24137280.540    98838118.93545
  20919679.460   111631407.64209  20919682.640    86824444.06407
  20564687.200   110084377.32108  20564689.800    85621195.31108
  22035689.740   117669374.73508  22035696.780    91520645.23204
  21381332.040   114215239.07808  21381337.800    88834094.11908
  21706256.740   116154558.24408  21706261.140    90342452.55707
  20534219.620   109613054.49009  20534223.540    85254617.39708
  23086477.500   123497083.00303  23086483.200                  
 15 03 04 09 08  0.0000000  0 16G02G03G06G07G09G10G17G20G23G30R06R07
                                R09R16R21R22
  23943298.440   125822878.91105  23943299.200    98043787.08744
  22938827.540   120544346.46308  22938831.460    93930674.63247
  20674738.720   108646480.89409  20674740.100    84659605.95048
  22144927.120   116372376.73409  22144928.440    90679779.41248
  20335219.400   106862296.68809  20335219.940    83269325.24449
  21448264.420   112711387.90209  21448264.880    87827058.57747
  23463685.540   123302496.70407  23463688.560    96079868.53646
  21077232.480   110761608.37608  21077232.080    86307741.06848
  21638426.380   113710699.84009  21638424.380    88605725.91848
  24116865.920   126735003.52808  24116872.760    98754553.17545
  20928190.240   111676821.93309  20928193.360    86859766.23907
  20560397.140   110061412.32408  20560399.760    85603333.64508
  22015054.980   117559185.60808  22015062.100    91434942.73405
  21377083.960   114192547.67108  21377090.060    88816445.26108
  21728085.680   116271368.49508  21728090.900    90433304.88907
  20538304.240   109634857.49809  20538307.840    85271575.30407
 15 03 04 09 08 30.0000000  0 17G02G03G06G07G09G10G17G20G23G30R06R07
                                R09R16R21R22R23
  23924472.540   125723950.68204  23924474.500    97966721.10943
  22951009.940   120608364.77608  22951014.020    93980558.89147
  20667597.480   108608954.39209  20667599.100    84630364.52849
  22129298.980   116290250.89809  22129300.560    90615785.29148
  20338772.000   106880965.28109  20338772.480    83283872.17649
  21437688.780   112655812.42009  21437689.040    87783753.01147
  23479687.540   123386586.58107  23479690.900    96145392.95646
  21067888.260   110712504.10609  21067887.740    86269478.02148
  21650308.520   113773140.59209  21650306.560    88654381.02948
  24096457.540   126627753.96908  24096464.060    98670982.28245
  20936718.420   111722329.55209  20936721.880    86895161.00707
  20556133.460   110038588.23508  20556136.200    85585581.59008
  21994473.320   117449281.71208  21994480.900    91349462.07305
  21372975.000   114170598.46708  21372981.140    88799373.70207
  21749969.060   116388469.27908  21749974.140    90524383.13306
  20542532.620   109657428.55209  20542535.700    85289130.55607
  23053213.820   123319148.98103                                
 15 03 04 09 09  0.0000000  0 16G03G06G07G09G10G17G20G23G30R06R07R09
                                R16R21R22R23
  22963220.380   120672531.06108  22963224.800    94030558.46847
  20660553.720   108571941.72909  20660556.200    84601523.51649
  22113729.240   116208433.01709  22113730.720    90552031.14148
  20342399.840   106900029.41409  20342400.380    83298727.32349
  21427148.560   112600422.53609  21427148.440    87740592.06047
  23495718.060   123470826.69407  23495721.380    96211034.50045
  21058580.000   110663587.81309  21058579.140    86231361.43548
  21662233.360   113835804.57209  21662231.460    88703210.05948
  24076052.700   126520523.11008  24076059.360    98587425.96746
  20945268.080   111767952.52509  20945271.720    86930645.47807
  20551900.100   110015927.28708  20551902.920    85567956.39008
  21973950.240   117339690.58708  21973957.760    91264224.69604
  21369009.720   114149416.03108  21369015.800    88782898.51908
  21771910.360   116505879.03407  21771915.420    90615701.65406
  20546908.740   109680789.24208  20546912.160    85307300.00207
  23036739.920   123231017.82604                                
 15 03 04 09 09 30.0000000  0 16G03G06G07G09G10G17G20G23G30R06R07R09
                                R16R21R22R23
  22975458.740   120736844.21408  22975463.280    94080672.49747
  20653608.140   108535443.46609  20653610.980    84573083.31648
  22098218.440   116126924.60309  22098219.240    90488518.14247
  20346102.280   106919486.26509  20346102.980    83313888.48449
  21416643.500   112545217.78409  21416642.980    87697575.36647
  23511776.020   123555212.53107  23511779.760    96276789.61645
  21049307.560   110614859.80309  21049306.580    86193391.55948
  21674200.080   113898688.61309  21674198.000    88752210.56148
  24055651.640   126413312.50108  24055658.460    98503885.39747
  20953839.260   111813690.28009  20953842.780    86966219.19207
  20547696.920   109993427.76909  20547699.880    85550456.75208
  21953486.600   117230415.79508  21953493.280    91179233.34004
  21365187.780   114129000.78908  21365193.920    88767019.99207
  21793908.440   116623591.80306  21793913.240    90707255.87206
  20551432.260   109704936.44308  20551436.060    85326081.14807
  23020371.920   123143444.63303                                
 15 03 04 09 10  0.0000000  0 16G02G03G06G07G09G10G17G20G23G30R06R07
                                R09R16R21R22
  23868168.800   125428070.88904                                
  22987725.160   120801305.04808  22987729.820    94130901.59447
  20646761.180   108499462.07609  20646764.020    84545045.86848
  22082767.300   116045728.87909  22082767.080    90425248.80047
  20349879.440   106939335.07009  20349880.040    83329355.06149
  21406173.780   112490199.59909  21406173.140    87654704.04747
  23527861.320   123639741.56408  23527864.660    96342656.26444
  21040071.040   110566321.20009  21040070.020    86155569.27148
  21686208.420   113961791.68509  21686205.900    88801381.73347
  24035254.660   126306125.55107  24035261.960    98420363.28046
  20962431.700   111859542.77108  20962435.700    87001882.16007
  20543524.200   109971090.34708  20543526.980    85533083.16708
  21933083.300   117121462.86608  21933089.500    91094492.31204
  21361509.680   114109355.16808  21361515.900    88751740.07607
  21815961.880   116741603.76507  21815966.540    90799042.80806
  20556102.620   109729869.52807  20556106.920    85345473.42907
 15 03 04 09 10 30.0000000  0 17G02G03G06G07G09G10G17G20G23G30R06R07
                                R09R16R21R22R23
  23849456.040   125329736.56305                                
  23000018.180   120865904.36908  23000022.940    94181238.61047
  20640011.120   108463989.98209  20640013.880    84517405.29449
  22067374.600   115964839.55609  22067373.920    90362218.22848
  20353729.060   106959564.90909  20353729.800    83345118.56449
  21395737.960   112435359.22109  21395737.440    87611971.28747
  23543972.020   123724401.39908  23543973.260    96408624.74544
  21030868.920   110517963.70409  21030867.980    86117888.12048
  21698256.260   114025102.46109  21698253.440    88850714.76648
  24014860.060   126198955.66306  24014868.340    98336854.44146
  20971043.920   111905500.56709  20971048.300    87037627.05307
  20539379.840   109948904.71008  20539382.420    85515827.68108
  21912739.560   117012826.93408  21912745.520    91009997.88105
  21357974.400   114090471.31708  21357980.840    88737052.63708
  21838068.760   116859900.76507  21838072.940    90891051.45906
  20560918.360   109755577.28207  20560922.620    85365468.28207
  22987943.000   122970001.56304                                
 15 03 04 09 11  0.0000000  0 17G02G03G06G07G09G10G17G20G23G30R06R07
                                R09R16R21R22R23
  23830770.800   125231551.03104                                
  23012338.000   120930643.58908  23012342.620    94231684.60247
  20633358.640   108429030.23609  20633361.160    84490163.91749
  22052040.960   115884260.43909  22052040.500    90299429.36848
  20357650.940   106980175.49209  20357652.080    83361178.75549
  21385336.300   112380698.47009  21385335.960    87569378.50447
  23560107.300   123809190.39807  23560108.300    96474693.99545
  21021701.640   110469788.96009  21021700.600    86080349.37148
  21710343.500   114088620.35609  21710340.600    88900209.19747
  23994469.120   126091806.84306  23994478.100    98253362.00946
  20979676.340   111951564.87009  20979680.980    87073454.76007
  20535264.040   109926871.79808  20535266.600    85498690.93708
  21892456.140   116904514.00508  21892462.480    90925754.67405
  21354582.560   114072352.09408  21354588.820    88722959.93707
  21860227.960   116978479.38306  21860231.880    90983279.21206
  20565878.960   109782059.11107  20565883.900    85386065.22108
  22971885.260   122884109.37104                                
 15 03 04 09 11 30.0000000  0 16G03G06G07G09G10G17G20G23G30R06R07R09
                                R16R21R22R23
  23024685.240   120995526.49808  23024689.580    94282242.55746
  20626804.740   108394588.24709  20626806.880    84463325.99649
  22036767.580   115803997.78609  22036767.780    90236887.08248
  20361645.800   107001169.03809  20361646.940    83377537.34849
  21374969.760   112326222.01309  21374969.560    87526929.31747
  23576266.860   123894108.88906  23576268.680    96540864.20245
  21012570.100   110421802.18609  21012568.940    86042957.07948
  21722470.460   114152347.50609  21722467.300    88949866.67847
  23974083.840   125984685.61507  23974092.700    98169891.07246
  20988329.320   111997739.54708  20988334.020    87109368.33107
  20531177.520   109904995.13208  20531180.080    85481675.71908
  21872234.280   116796532.85708  21872241.460    90841769.48505
  21351335.120   114055002.79608  21351340.800    88709466.04907
  21882439.820   117097339.09107  21882442.080    91075725.45604
  20570984.800   109809317.29807  20570990.200    85407266.07107
  22955934.940   122798785.60705                                
 15 03 04 09 12  0.0000000  0 16G03G06G07G09G10G17G20G23G30R06R07R09
                                R16R21R22R23
  23037059.240   121060551.51408  23037063.280    94332911.25747
  20620349.240   108360664.04509  20620351.200    84436891.53449
  22021554.720   115724052.86309  22021555.580    90174592.37348
  20365712.860   107022542.30509  20365714.020    83394191.82149
  21364638.060   112271928.68709  21364637.700    87484622.80547
  23592450.000   123979152.21806  23592452.340    96607131.58845
  21003473.980   110374002.84909  21003472.960    86005710.86548
  21734636.580   114216280.40209  21734632.960    88999684.47647
  23953704.800   125877592.86608  23953712.600    98086442.37346
  20997002.680   112044022.26308  20997007.280    87145365.91407
  20527119.620   109883272.57308  20527122.180    85464780.41608
  21852074.860   116688886.64408  21852082.640    90758044.75805
  21348231.800   114038423.19808  21348236.700    88696570.81607
  21904702.880   117216473.36607  21904705.160    91168385.21504
  20576235.760   109837348.16808  20576241.300    85429067.85607
  22940090.680   122714032.31903                                
 15 03 04 09 12 30.0000000  0 16G03G06G07G09G10G17G20G23G30R06R07R09
                                R16R21R22R23
  23049460.020   121125719.13208  23049464.080    94383691.09946
  20613992.640   108327259.68709  20613994.600    84410862.15249
  22006402.800   115644428.82109  22006404.180    90112547.70848
  20369852.020   107044294.05609  20369853.380    83411141.22949
  21354341.560   112217819.89609  21354341.020    87442460.11548
  23608656.140   124064317.37505  23608659.340    96673493.99744
  20994413.600   110326391.89608  20994412.880    85968611.44048
  21746841.760   114280417.59509  21746837.920    89049661.46248
  23933332.240   125770531.82408  23933338.960    98003018.37246
  21005696.220   112090413.10109  21005701.120    87181447.62507
  20523090.580   109861703.94209  20523092.720    85448004.80408
  21831979.600   116581580.15808  21831986.780    90674584.33904
  21345272.520   114022615.30108  21345276.560    88684275.79607
  21927016.140   117335877.88806  21927020.120    91261255.35704
  20581632.060   109866150.51708  20581637.160    85451469.68907
  22924354.560   122629852.86605                                
 15 03 04 09 13  0.0000000  0 17G02G03G06G07G09G10G17G20G23G30R06R07
                                R09R16R21R22R23
  23756332.440   124840360.94906  23756330.020    97278183.69241
  23061886.960   121191023.60008  23061891.380    94434577.55146
  20607734.180   108294370.94209  20607736.360    84385234.56549
  21991311.000   115565122.19809  21991312.860    90050750.35848
  20374061.860   107066416.86209  20374063.300    83428379.75449
  21344079.200   112163890.45009  21344078.520    87400437.20648
  23624884.580   124149595.57307  23624887.680    96739944.36144
  20985388.440   110278964.58109  20985387.760    85931655.09248
  21759084.140   114344751.22609  21759080.440    89099791.50747
  23912965.320   125663499.30308  23912971.300    97919616.56646
  21014409.240   112136906.69309  21014414.160    87217609.20407
  20519089.120   109840283.10708  20519091.020    85431344.15608
  21811948.200   116474612.16808  21811954.120    90591387.17104
  21342456.740   114007574.28908  21342460.520    88672577.23707
  21949377.860   117455542.35607  21949382.640    91354327.61704
  20587171.800   109895716.38007  20587175.440    85474465.34807
  22908727.480   122546245.36103                                
 15 03 04 09 13 30.0000000  0 16G02G03G06G07G09G10G17G20G23G30R06R07
                                R09R16R21R22
  23737798.160   124742960.83006  23737794.800    97202305.45542
  23074340.980   121256468.91808  23074345.180    94485573.73346
  20601574.960   108262003.41109  20601577.180    84360013.08949
  21976280.820   115486139.49109  21976282.800    89989205.44448
  20378342.640   107088912.99309  20378344.160    83445909.18149
  21333851.680   112110144.79209  21333851.000    87358557.48348
  23641134.580   124234987.26607  23641136.840    96806483.14644
  20976399.320   110231725.28309  20976398.440    85894845.24648
  21771364.120   114409283.90809  21771360.600    89150076.66447
  23892605.000   125556502.03008  23892610.840    97836242.23646
  21023142.140   112183506.27509  21023146.440    87253853.24506
  20515115.940   109819013.50408  20515117.980    85414801.14008
  21791981.860   116367991.33408  21791986.620    90508460.02204
  21339785.620   113993305.79808  21339789.520    88661479.50507
  21971788.680   117575465.97607  21971794.380    91447601.37105
  20592854.140   109926047.80006  20592857.180    85498056.31406
 15 03 04 09 14  0.0000000  0 17G02G03G06G07G09G10G17G20G23G30R06R07
                                R09R16R21R22R23
  23719294.360   124645721.55106  23719290.580    97126534.75441
  23086821.480   121322052.28608  23086825.600    94536677.51847
  20595514.460   108230155.82009  20595516.700    84335196.81148
  21961312.560   115407480.56409  21961314.000    89927912.83248
  20382693.600   107111778.02809  20382695.240    83463726.08149
  21323658.820   112056580.79109  21323658.280    87316819.29948
  23657405.080   124320486.54107  23657406.300    96873105.74543
  20967445.740   110184672.70209  20967444.660    85858180.90348
  21783681.100   114474010.95709  21783677.840    89200513.25747
  23872251.120   125449539.89808  23872256.840    97752895.24846
  21031894.600   112230209.39809  21031898.400    87290177.78107
  20511170.260   109797892.00009  20511172.320    85398373.29708
  21772080.780   116261719.80608  21772085.420    90425804.52604
  21337258.780   113979807.89108  21337263.840    88650981.11808
  21994246.740   117695641.21907  21994254.000    91541070.86305
  20598678.640   109957140.05706  20598681.360    85522239.21106
  22877792.120   122380773.88806                                
 15 03 04 09 14 30.0000000  0 17G02G03G06G07G09G10G17G20G23G30R06R07
                                R09R16R21R22R23
  23700826.760   124548673.91306  23700823.500    97050909.20151
  23099333.680   121387802.25208  23099337.380    94587911.09547
  20589558.580   108198858.21309  20589560.840    84310809.09748
  21946412.140   115329176.59709  21946412.780    89866896.82348
  20387120.120   107135038.78309  20387121.620    83481851.33949
  21313506.160   112003227.62509  21313505.820    87275245.40748
  23673700.740   124406118.39004  23673701.960    96939831.65044
  20958533.100   110137835.81909  20958531.960    85821684.62648
  21796040.020   114538958.80009  21796037.200    89251121.92447
  23851909.640   125342644.06608  23851915.380    97669599.92446
  21040671.800   112277044.56709  21040676.300    87326605.09807
  20507257.560   109776947.17309  20507259.560    85382082.87208
  21752251.120   116155831.02008  21752256.240    90343446.72404
  21334881.880   113967110.90408  21334887.680    88641105.64508
  22016755.600   117816092.28605  22016764.000    91634754.99705
  20604650.640   109989020.02406  20604654.720    85547034.68907
  22862493.280   122298936.08406                                
 15 03 04 09 15  0.0000000  0 16G02G03G06G07G09G10G20G23G30R06R07R09
                                R16R21R22R23
  23682387.100   124451774.77105  23682381.760    96975412.50244
  23111868.560   121453673.08908  23111872.320    94639238.87747
  20583699.060   108168066.40909  20583701.200    84286815.48348
  21931570.960   115251184.37209  21931571.140    89806123.72448
  20391613.020   107158647.81909  20391614.240    83500247.96749
  21303384.940   111950040.07909  21303384.840    87233800.56848
  20949652.740   110091169.75609  20949651.700    85785321.46648
  21808431.960   114604079.98809  21808429.460    89301865.62747
  23831572.460   125235771.43708  23831577.940    97586322.72146
  21049464.720   112323965.27909  21049469.400    87363098.92707
  20503369.100   109756131.87809  20503371.300    85365893.20308
  21732484.720   116050283.00708  21732491.020    90261353.91704
  21332646.300   113955169.30408  21332652.420    88631817.71907
  22039306.440   117936767.96206  22039315.940    91728613.73604
  20610761.100   110021639.13908  20610765.780    85572404.96306
  22847300.600   122217666.90606                                
 15 03 04 09 15 30.0000000  0 17G02G03G06G07G09G10G17G20G23G30R06R07
                                R09R16R21R22R23
  23663986.180   124355084.34904  23663983.280    96900069.28344
  23124437.300   121519722.69508  23124441.840    94690705.98947
  20577947.060   108137839.76009  20577949.360    84263262.26549
  21916800.240   115173564.44809  21916800.500    89745640.73848
  20396182.700   107182661.37609  20396183.880    83518959.80949
  21293306.260   111897076.78609  21293306.360    87192530.50247
  23706349.940   124577697.62906  23706352.080    97073545.40445
  20940816.080   110044733.27509  20940815.140    85749137.18348
  21820867.500   114669430.08709  21820865.300    89352787.72547
  23811251.120   125128982.64708  23811256.460    97503110.82746
  21058284.540   112371030.20009  21058288.700    87399704.88407
  20499515.840   109735504.87509  20499518.160    85349849.97008
  21712794.420   115945139.28408  21712801.040    90179575.60104
  21330563.400   113944043.31208  21330569.840    88623164.17007
  22061909.820   118057722.65805  22061918.520    91822689.33903
  20617020.960   110055054.01908  20617025.860    85598394.34707
  22832225.380   122137028.16106                                
 15 03 04 09 16  0.0000000  0 16G03G06G07G09G10G17G20G23G30R06R07R09
                                R16R21R22R23
  23137027.100   121585883.21808  23137032.180    94742259.50547
  20572289.960   108108111.86709  20572292.340    84240097.68748
  21902087.640   115096251.30909  21902088.220    89685396.76948
  20400816.220   107207009.78609  20400817.360    83537932.58949
  21283257.420   111844270.67708  21283257.620    87151382.93247
  23722700.960   124663619.58106  23722702.060    97140497.35245
  20932010.320   109998459.49309  20932009.560    85713079.70348
  21833333.500   114734939.66409  21833331.680    89403834.09648
  23790933.340   125022212.48208  23790938.980    97419913.45046
  21067118.620   112418170.13109  21067123.040    87436369.21307
  20495684.680   109714996.18809  20495687.140    85333898.75808
  21693168.240   115840335.63508  21693174.600    90098061.81105
  21328620.340   113933664.96708  21328626.800    88615092.14207
  22084552.500   118178882.54805  22084559.380    91916924.59904
  20623416.740   110089193.58707  20623421.280    85624947.29007
  22817256.500   122056953.92306                                
 15 03 04 09 16 30.0000000  0 16G03G06G07G09G10G17G20G23G30R06R07R09
                                R16R21R22R23
  23149645.400   121652194.07808  23149650.860    94793930.16147
  20566735.640   108078923.65009  20566737.800    84217353.61148
  21887441.580   115019286.93509  21887442.300    89625424.57848
  20405520.520   107231730.90509  20405521.700    83557195.79249
  21273246.080   111791661.68609  21273246.180    87110388.92147
  23739072.180   124749645.18007  23739071.960    97207530.01943
  20923243.300   109952388.73609  20923242.500    85677180.40448
  21845837.260   114800646.41509  21845835.520    89455034.09048
  23770627.080   124915503.11708  23770633.400    97336763.40846
  21075974.060   112465424.74608  21075978.540    87473122.72407
  20491883.140   109694645.76808  20491885.560    85318070.61808
  21673613.980   115735916.75608  21673620.120    90016847.21505
  21326824.660   113924075.33108  21326831.400    88607633.49908
  22107240.220   118300283.17304  22107242.720    92011346.96804
  20629955.400   110124095.45207  20629959.780    85652093.15807
  22802402.080   121977487.16205                                
 15 03 04 09 17  0.0000000  0 15G03G06G07G09G10G17G20G23G30R06R07R09
                                R16R21R22
  23162291.200   121718648.29208  23162296.440    94845712.50046
  20561282.900   108050269.53909  20561285.040    84195025.72149
  21872861.200   114942666.85709  21872862.060    89565720.66448
  20410294.020   107256815.97709  20410295.240    83576742.58549
  21263271.220   111739243.55309  21263271.160    87069543.61747
  23755460.860   124835764.10206  23755459.400    97274635.46844
  20914513.840   109906514.96409  20914512.960    85641434.62448
  21858376.860   114866541.92509  21858375.060    89506381.18147
  23750331.160   124808850.19107  23750338.180    97253657.34547
  21084849.700   112512787.15509  21084854.300    87509960.10607
  20488109.540   109674446.25108  20488111.640    85302359.88908
  21654131.380   115631880.17708  21654137.380    89935929.95705
  21325175.740   113915268.18308  21325182.700    88600783.48908
  22129970.700   118421912.60905  22129972.260    92105947.37904
  20636634.760   110159750.63405  20636639.260    85679824.86508
 15 03 04 09 17 30.0000000  0 15G03G06G07G09G10G17G20G23G30R06R07R09
                                R16R21R22
  23174965.360   121785250.67208  23174969.860    94897610.28246
  20555933.120   108022155.80409  20555935.260    84173118.89949
  21858347.820   114866398.48909  21858348.620    89506290.82248
  20415137.340   107282268.04809  20415138.600    83596575.36149
  21253333.760   111687021.78309  21253333.660    87028851.34747
  23771866.800   124921977.93206  23771865.340    97341814.88844
  20905822.900   109860843.63509  20905821.860    85605846.56548
  21870952.680   114932628.49909  21870950.920    89557877.13947
  23730047.320   124702261.20507  23730054.620    97170601.12446
  21093746.520   112560261.79509  21093751.180    87546884.74107
  20484364.900   109654402.07209  20484366.980    85286769.96408
  21634722.320   115528235.27708  21634728.000    89855317.38805
  21323674.700   113907249.30408  21323681.660    88594546.57908
  22152742.740   118543770.94606  22152745.300    92200725.96105
  20643455.680   110196161.22105  20643460.300    85708144.15207
 15 03 04 09 18  0.0000000  0 17G02G03G06G07G09G10G17G20G23G30R06R07
                                R09R16R21R22R23
  23572476.580   123874198.45304  23572476.940    96525339.97041
  23187671.480   121852020.59308  23187675.820    94949638.59846
  20550690.280   107994603.15109  20550692.080    84151649.28948
  21843905.340   114790503.75009  21843906.340    89447152.12648
  20420054.040   107308104.79309  20420055.180    83616707.86949
  21243437.500   111635016.73509  21243437.420    86988327.95447
  23788293.180   125008302.93905  23788292.960    97409080.97546
  20897174.140   109815395.05309  20897173.180    85570432.08648
  21883568.200   114998923.80109  21883566.420    89609535.75347
  23709779.940   124595758.25807  23709787.140    97087611.92946
  21102668.220   112607868.53509  21102672.220    87583912.13707
  20480653.260   109634532.46508  20480655.440    85271315.80408
  21615390.900   115425006.47408  21615396.720    89775028.40205
  21322325.280   113900039.46208  21322331.720    88588938.94707
  22175560.220   118665873.25607  22175564.180    92295694.33805
  20650420.240   110233344.63807  20650425.800    85737064.67707
  22758526.000   121742742.48806                                
 15 03 04 09 18 30.0000000  0 16G03G06G07G09G10G17G20G23G30R06R07R09
                                R16R21R22R23
  23200395.880   121918886.41808  23200400.500    95001741.67847
  20545540.740   107967541.39509  20545542.440    84130562.22749
  21829520.680   114714913.54909  21829521.820    89388250.73048
  20425030.000   107334252.93209  20425030.920    83637083.01049
  21233568.800   111583157.07609  21233568.900    86947917.85048
  23804726.580   125094664.58607  23804727.320    97476375.59344
  20888554.340   109770098.57409  20888553.360    85535136.11548
  21896209.720   115065354.75409  21896207.780    89661300.06447
  23689516.140   124489272.50508  23689522.920    97004636.14446
  21111601.060   112655534.16309  21111604.720    87620985.33207
  20476960.240   109614764.24808  20476962.460    85255940.51008
  21596124.340   115322125.58208  21596129.900    89695010.03405
  21321113.520   113893566.45508  21321119.580    88583904.41107
  22198408.860   118788142.07507  22198413.400    92390792.14305
  20657516.600   110271226.15707  20657522.180    85766528.06407
  22744121.040   121665690.93505                                
 15 03 04 09 19  0.0000000  0 16G03G06G07G09G10G17G20G23G30R06R07R09
                                R16R21R22R23
  23213152.580   121985921.68208  23213157.600    95053976.79347
  20540498.900   107941045.41909  20540500.620    84109916.02749
  21815208.560   114639703.98309  21815209.440    89329645.92348
  20430078.640   107360784.15309  20430079.360    83657756.67448
  21223742.100   111531517.02009  21223742.380    86907678.86648
  23821180.560   125181132.55507  23821181.740    97543752.99445
  20879977.960   109725028.87709  20879976.720    85500016.86348
  21908890.620   115131992.91609  21908888.420    89713225.84547
  23669270.380   124382879.98208  23669276.420    96921733.01946
  21120558.880   112703333.62809  21120562.900    87658162.63107
  20473299.940   109595171.70909  20473302.300    85240701.84108
  21576938.040   115219672.02409  21576943.120    89615324.02905
  21320054.080   113887906.13108  21320059.920    88579501.97608
  22221301.480   118910647.65407  22221307.060    92486074.10306
  20664757.320   110309877.87405  20664762.800    85796590.37707
  22729835.620   121589282.15305  22729843.440    94569482.48402
 15 03 04 09 19 30.0000000  0 17G02G03G06G07G09G10G17G20G23G30R06R07
                                R09R16R21R22R23
  23517995.380   123587890.86405  23517988.400    96302242.77444
  23225936.240   122053098.85208  23225941.520    95106322.50347
  20535559.680   107915089.08609  20535561.340    84089690.31449
  21800964.340   114564849.85009  21800964.860    89271318.05348
  20435194.700   107387669.30609  20435195.260    83678706.15049
  21213952.240   111480069.86809  21213952.320    86867590.18448
  23837648.940   125267676.43107  23837651.260    97611189.65245
  20871439.880   109680159.24109  20871438.500    85465053.50248
  21921605.440   115198808.80809  21921602.700    89765290.08847
  23649037.800   124276556.08708  23649043.260    96838883.33946
  21129536.500   112751238.86909  21129540.800    87695422.18307
  20469667.500   109575726.87708  20469669.600    85225578.04908
  21557827.500   115117622.26408  21557832.120    89535952.08705
  21319141.600   113883031.03408  21319147.080    88575710.22108
  22244232.460   119033357.34807  22244238.900    92581514.83105
  20672136.980   110349269.13707  20672142.060    85827228.00607
  22715666.560   121513491.39306                                
 15 03 04 09 20  0.0000000  0 17G02G03G06G07G09G10G17G20G23G30R06R07
                                R09R16R21R22R23
  23499909.220   123492848.64205  23499907.000    96228190.08244
  23238747.540   122120421.72608  23238752.660    95158781.68947
  20530723.780   107889677.45509  20530725.520    84069889.03448
  21786788.940   114490356.92609  21786789.140    89213271.67148
  20440378.560   107414910.36909  20440379.220    83699932.92648
  21204199.780   111428819.78009  21204199.640    86827655.05948
  23854132.040   125354296.82007  23854134.740    97678685.89145
  20862940.760   109635494.19809  20862939.120    85430249.55848
  21934354.460   115265804.51609  21934351.500    89817494.46547
  23628819.280   124170307.20708  23628824.440    96756092.11546
  21138534.680   112799253.29709  21138539.160    87732766.68007
  20466063.100   109556433.07608  20466065.040    85210571.75008
  21538793.560   115015984.84708  21538798.360    89456900.81705
  21318377.120   113878945.84208  21318382.420    88572532.86608
  22267201.960   119156270.24907  22267207.400    92677113.49204
  20679655.080   110389401.60206  20679659.900    85858442.13706
  22701614.720   121438325.30506                                
 15 03 04 09 20 30.0000000  0 17G02G03G06G07G09G10G17G20G23G30R06R07
                                R09R16R21R22R23
  23481862.180   123398014.52005  23481860.040    96154293.29643
  23251588.060   122187899.00908  23251592.980    95211361.18746
  20525993.600   107864820.57309  20525995.500    84050520.04249
  21772684.460   114416236.93409  21772684.520    89155515.88048
  20445631.240   107442514.34309  20445632.240    83721442.49949
  21194486.480   111377776.42009  21194486.340    86787881.02448
  23870630.780   125440999.31907  23870633.460    97746246.14944
  20854482.100   109591043.20109  20854480.560    85395612.43848
  21947138.760   115332986.95509  21947136.420    89869844.35347
  23608617.100   124064144.80508  23608622.260    96673368.30246
  21147554.960   112847386.07909  21147559.460    87770203.23207
  20462488.720   109537298.89708  20462490.980    85195689.59808
  21519839.200   114914773.22408  21519844.540    89378180.70705
  21317761.960   113875659.97108  21317767.360    88569977.18707
  22290210.480   119279390.57907  22290214.740    92772873.51105
  20687313.460   110430281.31807  20687318.380    85890237.42406
  22687682.120   121363795.82806                                
 15 03 04 09 21  0.0000000  0 17G02G03G06G07G09G10G17G20G23G30R06R07
                                R09R16R21R22R23
  23463851.620   123303370.01706  23463849.540    96080544.38042
  23264453.880   122255509.77008  23264458.580    95264044.72146
  20521365.280   107840498.82109  20521367.460    84031568.04249
  21758647.280   114342471.25009  21758647.460    89098036.16548
  20450948.600   107470458.56909  20450949.820    83743217.21748
  21184808.560   111326919.66309  21184808.580    86748252.39547
  23887141.000   125527759.65007  23887143.460    97813851.45244
  20846060.300   109546786.55609  20846058.840    85361126.75348
  21959954.380   115400333.70309  21959952.520    89922322.29447
  23588427.860   123958050.68408  23588432.900    96590697.70846
  21156593.160   112895615.48309  21156597.900    87807714.92607
  20458940.080   109518302.56408  20458942.960    85180914.69108
  21500961.960   114813970.66008  21500967.420    89299778.79705
  21317292.240   113873152.80008  21317298.020    88568027.16108
  22313252.700   119402692.44306  22313257.140    92868774.74206
  20695107.240   110471884.69806  20695112.360    85922595.54206
  22673864.540   121289884.42705  22673875.000    94336630.48803
 15 03 04 09 21 30.0000000  0 17G02G03G06G07G09G10G17G20G23G30R06R07
                                R09R16R21R22R23
  23445879.120   123208923.89506  23445876.840    96006950.03444
  23277346.400   122323260.64908  23277351.180    95316837.42946
  20516840.200   107816720.07909  20516842.420    84013039.14349
  21744679.400   114269069.23509  21744679.720    89040839.84148
  20456331.760   107498747.96209  20456333.240    83765260.88449
  21175167.520   111276256.64109  21175167.700    86708774.72847
  23903663.380   125614581.45708  23903665.960    97881504.62644
  20837676.980   109502731.83309  20837675.420    85326798.41848
  21972802.120   115467849.30809  21972800.260    89974931.80347
  23568253.020   123852034.27607  23568258.820    96508087.60646
  21165650.500   112943948.47909  21165655.580    87845307.20807
  20455418.320   109499450.72008  20455421.400    85166252.18908
  21482163.600   114713588.70408  21482168.940    89221704.03405
  21316969.880   113871431.77008  21316975.620    88566688.58207
  22336328.060   119526177.77005  22336333.820    92964818.76505
  20703037.500   110514215.79806  20703042.860    85955519.71506
  22660165.180   121216600.62006  22660174.000    94279631.95102
 15 03 04 09 22  0.0000000  0 17G02G03G06G07G09G10G17G20G23G30R06R07
                                R09R16R21R22R23
  23427946.760   123114689.47205  23427945.160    95933520.61744
  23290267.780   122391162.26808  23290272.720    95369747.61447
  20512420.860   107793496.33309  20512423.040    83994942.67649
  21730783.240   114196043.59909  21730783.800    88983936.79748
  20461782.340   107527391.37909  20461784.100    83787580.40749
  21165565.560   111225799.08308  21165566.000    86669457.14448
  23920198.800   125701472.04707  23920201.160    97949211.38544
  20829334.340   109458890.56709  20829332.740    85292636.38448
  21985683.640   115535542.65709  21985682.000    90027679.80447
  23548095.060   123746108.92807  23548102.460    96425548.44847
  21174729.440   112992396.29109  21174734.820    87882988.78207
  20451925.720   109480753.79308  20451928.320    85151710.10108
  21463446.800   114613642.39908  21463451.840    89143968.12104
  21316797.020   113870508.08408  21316802.700    88565970.15508
  22359438.920   119649852.90207  22359445.700    93061010.38706
  20711105.860   110557282.72706  20711110.200    85989016.18305
  22646585.780   121143958.36906                                
 15 03 04 09 22 30.0000000  0 17G02G03G06G07G09G10G17G20G23G30R06R07
                                R09R16R21R22R23
  23410054.360   123020669.97405  23410053.920    95860258.64744
  23303218.200   122459215.34008  23303223.120    95422775.81647
  20508107.400   107770829.44709  20508109.760    83977280.17449
  21716959.380   114123397.58409  21716959.900    88927329.54948
  20467300.220   107556387.79509  20467301.820    83810174.99249
  21156002.940   111175548.32409  21156003.600    86630300.72348
  23936746.260   125788428.86606  23936748.540    98016969.77744
  20821032.620   109415264.45609  20821030.960    85258642.00648
  21998598.960   115603412.79109  21998597.480    90080565.57547
  23527955.520   123640278.06108  23527964.200    96343082.89846
  21183830.240   113040959.28209  21183835.400    87920759.90007
  20448462.400   109462212.18808  20448464.580    85137288.82208
  21444812.900   114514137.32309  21444817.240    89066575.40705
  21316773.860   113870383.03408  21316779.560    88565872.87607
  22382585.400   119773714.17007  22382591.960    93157346.70105
  20719311.820   110601083.55505  20719315.920    86023083.46706
  22633126.520   121071961.51605  22633135.780    94167123.95603
 15 03 04 09 23  0.0000000  0 17G02G03G06G07G09G10G17G20G23G30R06R07
                                R09R16R21R22R23
  23392201.460   122926854.33506  23392201.500    95787155.53544
  23316195.020   122527406.61608  23316200.040    95475911.69547
  20503897.600   107748707.52409  20503899.960    83960042.26248
  21703205.720   114051120.61209  21703206.240    88871009.86548
  20472882.440   107585722.21309  20472883.840    83833032.96549
  21146477.460   111125491.69209  21146478.140    86591295.57347
  23953302.680   125875435.71106  23953305.980    98084767.21644
  20812769.460   109371841.18609  20812767.640    85224805.68148
  22011545.260   115671444.64609  22011543.460    90133577.34247
  23507832.700   123534531.13408  23507841.500    96260682.78646
  21192950.160   113089623.75109  21192954.700    87958609.96107
  20445025.260   109443812.22108  20445027.520    85122977.74108
  21426260.020   114415064.48708  21426264.040    88989518.85605
  21316897.800   113871043.74808  21316903.100    88566386.79407
  22405763.900   119897743.28107  22405768.500    93253813.53605
  20727651.320   110645602.21105  20727655.240    86057709.10904
  22619786.420   121000598.93305  22619795.560    94111619.78303
 15 03 04 09 23 30.0000000  0 16G02G03G06G07G09G10G17G20G23G30R06R07
                                R09R16R21R22
  23374389.240   122833247.30007  23374388.840    95714215.02344
  23329198.520   122595738.33708  23329203.860    95529157.02847
  20499792.240   107727133.90909  20499794.540    83943231.61648
  21689523.100   113979216.96509  21689523.460    88814981.10348
  20478529.280   107615395.12209  20478530.480    83856154.68549
  21136989.720   111075632.20909  21136990.320    86552444.02247
  23969868.600   125962491.71107  23969872.320    98152602.84142
  20804545.480   109328623.86909  20804543.660    85191129.85648
  22024522.460   115739638.54209  22024520.400    90186715.38247
  23487727.400   123428873.18408  23487735.200    96178352.02246
