     2.11           OBSERVATION DATA    M                   RINEX VERSION / TYPE
SPIDER V4,0,0,3554                      2015 03 19 03:15    PGM / RUN BY / DATE 
OBHM                                                        MARKER NAME         
OBHM                                                        MARKER NUMBER       
                                                            OBSERVER / AGENCY   
496638              LEICA GRX1200+GNSS  8.20/4.007          REC # / TYPE / VERS 
10321015            LEIAR25         NONE                    ANT # / TYPE        
  5268006.0133   -44062.8765  3585543.8986                  APPROX POSITION XYZ 
        0.1200        0.0000        0.0000                  ANTENNA: DELTA H/E/N
     1     1                                                WAVELENGTH FACT L1/2
     4    C1    L1    P2    L2                              # / TYPES OF OBSERV 
    30.000                                                  INTERVAL            
  2015    03    04    00    00    0.0000000     GPS         TIME OF FIRST OBS   
  2015    03    04    23    59   30.0000000     GPS         TIME OF LAST OBS    
    16                                                      LEAP SECONDS        
    54                                                      # OF SATELLITES     
   G 1   845   845   845   845                              PRN / # OF OBS      
   G 2   920   920   918   918                              PRN / # OF OBS      
   G 3   842   842   842   842                              PRN / # OF OBS      
   G 4   853   853   853   853                              PRN / # OF OBS      
   G 5   682   682   682   682                              PRN / # OF OBS      
   G 6   645   645   645   645                              PRN / # OF OBS      
   G 7   740   740   740   740                              PRN / # OF OBS      
   G 9   780   780   780   780                              PRN / # OF OBS      
   G10   796   796   795   795                              PRN / # OF OBS      
   G11   809   809   809   809                              PRN / # OF OBS      
   G12   812   812   812   812                              PRN / # OF OBS      
   G13   833   833   833   833                              PRN / # OF OBS      
   G14   929   929   929   929                              PRN / # OF OBS      
   G15   743   743   743   743                              PRN / # OF OBS      
   G16   702   702   702   702                              PRN / # OF OBS      
   G17   925   924   924   924                              PRN / # OF OBS      
   G18   945   943   943   943                              PRN / # OF OBS      
   G19   803   803   802   802                              PRN / # OF OBS      
   G20   806   806   806   806                              PRN / # OF OBS      
   G21   695   679   669   662                              PRN / # OF OBS      
   G22   817   817   817   817                              PRN / # OF OBS      
   G23   723   722   722   722                              PRN / # OF OBS      
   G24   853   853   853   853                              PRN / # OF OBS      
   G25   862   861   861   861                              PRN / # OF OBS      
   G27   843   843   843   843                              PRN / # OF OBS      
   G28   917   917   917   917                              PRN / # OF OBS      
   G29   738   738   738   738                              PRN / # OF OBS      
   G30   688   688   688   688                              PRN / # OF OBS      
   G31   747   744   738   736                              PRN / # OF OBS      
   G32   735   735   735   735                              PRN / # OF OBS      
   R 1   694   694   694   694                              PRN / # OF OBS      
   R 2   945   945   945   934                              PRN / # OF OBS      
   R 3   980   980   980   979                              PRN / # OF OBS      
   R 4   875   875   874   874                              PRN / # OF OBS      
   R 5   653   653   653   653                              PRN / # OF OBS      
   R 6   763   763   763   763                              PRN / # OF OBS      
   R 7   788   788   788   788                              PRN / # OF OBS      
   R 8   707   707   707   704                              PRN / # OF OBS      
   R 9   899   899   898   892                              PRN / # OF OBS      
   R10   663   663   663   663                              PRN / # OF OBS      
   R11   644   644   644   644                              PRN / # OF OBS      
   R12   758   758   758   758                              PRN / # OF OBS      
   R13   787   787   786   786                              PRN / # OF OBS      
   R14   740   740   740   740                              PRN / # OF OBS      
   R15   958   958   957   955                              PRN / # OF OBS      
   R16  1012  1012  1011  1011                              PRN / # OF OBS      
   R17   929   929   929   929                              PRN / # OF OBS      
   R18  1000  1000   985   985                              PRN / # OF OBS      
   R19   858   858   858   858                              PRN / # OF OBS      
   R20   605   605   604   604                              PRN / # OF OBS      
   R21   741   741   740   740                              PRN / # OF OBS      
   R22   822   822   822   817                              PRN / # OF OBS      
   R23   800   800   795   794                              PRN / # OF OBS      
   R24   672   672   672   672                              PRN / # OF OBS      
BIT 2 OF LLI FLAGS DATA COLLECTED UNDER A/S CONDITION       COMMENT             
SNR is mapped to RINEX snr flag value [2-9]                 COMMENT             
Lx:     = 25dBHz -> 1; 26-27dBHz -> 2; 28-31dBHz -> 3       COMMENT             
       32-35dBHz -> 4; 36-38dBHz -> 5; 39-41dBHz -> 6       COMMENT             
       42-44dBHz -> 7; 45-48dBHz -> 8; >=49dBHz -> 9        COMMENT             
                                                            END OF HEADER       
 15 03 04 00 00  0.0000000  0  7G16G18G19G21G22G27G31
  21165346.080   111224669.66109  21165343.360    86668570.88348
  22493193.180   118202667.97709  22493191.220    92106040.21547
  24288563.660   127637279.28708  24288562.440    99457620.98146
  21814486.900   114635915.10009  21814483.740    89326680.34748
  23350972.780   122710371.62009  23350972.360    95618543.09147
  22172966.120   116519893.12309  22172966.300    90794777.80348
  23284543.280   122361018.36209  23284545.420    95346214.85347
 15 03 04 00 00 30.0000000  0  7G16G18G19G21G22G27G31
  21154445.000   111167384.55009  21154442.380    86623933.14748
  22484428.160   118156607.09209  22484426.140    92070148.65547
  24274065.140   127561089.33908  24274063.840    99398252.34846
  21824881.300   114690537.85909  21824878.140    89369243.53248
  23334256.020   122622525.33108  23334255.460    95550091.74647
  22162784.140   116466387.59809  22162784.460    90753085.21848
  23302900.960   122457486.96109  23302903.200    95421384.72347
 15 03 04 00 01  0.0000000  0  7G16G18G19G21G22G27G31
  21143603.900   111110414.48509  21143601.320    86579540.88448
  22475730.800   118110902.11009  22475728.720    92034534.41147
  24259585.240   127484997.07708  24259583.820    99338959.82446
  21835326.520   114745427.85308  21835323.340    89412014.94348
  23317556.400   122534769.03408  23317555.700    95481710.52147
  22152626.040   116413007.48109  22152626.480    90711490.35048
  23321279.300   122554064.01408  23321281.680    95496639.08047
 15 03 04 00 01 30.0000000  0  7G16G18G19G21G22G27G31
  21132823.340   111053762.53309  21132820.860    86535396.51648
  22467101.780   118065556.28309  22467099.720    91999200.04147
  24245124.100   127409003.74608  24245122.620    99279744.39546
  21845822.460   114800584.48708  21845819.320    89454994.13748
  23300874.640   122447106.69008  23300873.780    95413402.51047
  22142492.140   116359754.05009  22142492.640    90669994.20348
  23339677.980   122650747.94008  23339680.500    95571976.70547
 15 03 04 00 02  0.0000000  0  7G16G18G19G21G22G27G31
  21122104.160   110997433.03309  21122101.740    86491503.41348
  22458541.960   118020573.96709  22458539.860    91964148.93247
  24230682.120   127333111.30508  24230680.600    99220607.56946
  21856369.180   114856008.09109  21856366.040    89498181.36848
  23284211.580   122359543.24008  23284210.740    95345171.56347
  22132382.900   116306629.36909  22132383.300    90628598.39748
  23358096.800   122747537.54008  23358099.420    95647396.67147
 15 03 04 00 02 30.0000000  0  7G16G18G19G21G22G27G31
  21111446.440   110941426.33109  21111444.060    86447861.83048
  22450051.340   117975955.35009  22450049.220    91929381.21347
  24216259.100   127257318.33008  24216257.460    99161548.23546
  21866965.860   114911694.47708  21866962.780    89541573.35148
  23267567.480   122272079.66208  23267566.640    95277018.39847
  22122297.940   116253631.65409  22122298.140    90587301.50548
  23376535.020   122844428.80708  23376537.700    95722895.82747
 15 03 04 00 03  0.0000000  0  7G16G18G19G21G22G27G31
  21100850.920   110885746.26609  21100848.520    86404474.78148
  22441630.560   117931703.96009  22441628.420    91894899.65847
  24201855.260   127181626.05308  24201853.540    99102567.35846
  21877612.680   114967644.14309  21877609.640    89585170.49448
  23250943.260   122184720.52008  23250942.520    95208946.64347
  22112237.420   116200762.46809  22112237.440    90546104.77448
  23394992.220   122941420.08808  23394995.020    95798472.90147
 15 03 04 00 03 30.0000000  0  7G16G18G19G21G22G27G31
  21090317.380   110830391.74109  21090314.960    86361341.39048
  22433279.460   117887818.75709  22433277.220    91860703.43847
  24187470.060   127106031.75508  24187468.260    99043662.84446
  21888308.660   115023851.87409  21888305.600    89628968.72648
  23234338.900   122097465.44008  23234338.120    95140955.93847
  22102200.720   116148018.71209  22102200.620    90505005.77448
  23413467.360   123038505.65108  23413470.320    95874123.41947
 15 03 04 00 04  0.0000000  0  7G16G18G19G21G22G27G31
  21079846.760   110775367.79609  21079844.260    86318465.59548
  22424998.940   117844304.68809  22424996.700    91826796.40647
  24173103.960   127030537.75008  24173102.060    98984836.46346
  21899053.940   115080318.60709  21899050.840    89672968.77348
  23217755.420   122010319.77308  23217754.580    95073050.47747
  22092188.280   116095402.98809  22092188.160    90464006.53448
  23431960.380   123135685.12008  23431963.520    95949847.08447
 15 03 04 00 04 30.0000000  0  7G16G18G19G21G22G27G31
  21069439.060   110720674.74009  21069436.520    86275847.65048
  22416789.080   117801162.10309  22416786.860    91793178.85947
  24158756.700   126955142.59008  24158754.680    98926087.11046
  21909847.960   115137041.24909  21909844.840    89717168.23748
  23201193.020   121923284.67808  23201192.080    95005231.18247
  22082199.820   116042913.79409  22082199.760    90423105.90748
  23450470.520   123232954.23408  23450473.780    96025640.59747
 15 03 04 00 05  0.0000000  0  7G16G18G19G21G22G27G31
  21059094.940   110666315.90709  21059092.360    86233490.12248
  22408650.400   117758393.99909  22408648.340    91759853.11147
  24144428.360   126879847.19908  24144426.260    98867415.49046
  21920690.500   115194018.65409  21920687.260    89761566.21048
  23184652.440   121836364.19508  23184651.380    94937501.17547
  22072235.560   115990552.04209  22072235.580    90382304.57348
  23468997.320   123330310.76808  23469000.600    96101502.19947
 15 03 04 00 05 30.0000000  0  7G16G18G19G21G22G27G31
  21048814.960   110612294.41009  21048812.380    86191395.46348
  22400583.580   117716003.38409  22400581.560    91726821.49547
  24130119.200   126804652.66708  24130117.100    98808822.46346
  21931581.300   115251249.91509  21931578.040    89806161.99648
  23168134.280   121749561.78408  23168133.140    94869863.18547
  22062295.760   115938318.74209  22062295.860    90341603.33148
  23487540.480   123427752.96308  23487543.760    96177430.54547
 15 03 04 00 06  0.0000000  0  7G16G18G19G21G22G27G31
  21038598.980   110558609.39109  21038596.420    86149562.98948
  22392588.480   117673989.42009  22392586.460    91694083.38247
  24115828.700   126729556.17408  24115826.620    98750305.83446
  21942519.520   115308730.45208  21942516.280    89850952.01748
  23151638.600   121662877.82208  23151637.440    94802317.48847
  22052379.940   115886211.09809  22052380.080    90300999.99248
  23506098.880   123525275.26708  23506102.180    96253421.28847
 15 03 04 00 06 30.0000000  0  7G16G18G19G21G22G27G31
  21028448.080   110505266.18609  21028445.500    86107996.85748
  22384666.040   117632357.18409  22384664.020    91661642.70847
  24101557.420   126654560.80908  24101555.300    98691867.99846
  21953505.220   115366460.78708  21953501.980    89895936.69048
  23135166.400   121576317.58708  23135165.260    94734868.18847
  22042488.600   115834232.06509  22042488.820    90260496.87648
  23524672.600   123622877.89208  23524675.960    96329474.59747
 15 03 04 00 07  0.0000000  0  7G16G18G19G21G22G27G31
  21018362.020   110452263.66109  21018359.380    86066696.20148
  22376816.020   117591105.39509  22376813.980    91629498.49947
  24087304.760   126579663.12708  24087302.600    98633506.28446
  21964537.480   115424436.09108  21964534.320    89941112.25347
  23118717.820   121489881.33508  23118716.640    94667515.50247
  22032621.160   115782378.52609  22032621.440    90220091.55648
  23543260.420   123720554.67908  23543263.940    96405585.69547
 15 03 04 00 07 30.0000000  0  7G16G18G19G21G22G27G31
  21008341.680   110399606.35609  21008339.020    86025664.54348
  22369039.220   117550238.29209  22369037.160    91597654.03547
  24073071.160   126504865.61608  24073069.000    98575222.61646
  21975616.560   115482657.79108  21975613.540    89986479.81147
  23102293.800   121403573.87808  23102292.540    94600263.16747
  22022778.060   115730652.79109  22022778.380    90179785.81948
  23561862.260   123818305.00708  23561865.880    96481754.05846
 15 03 04 00 08  0.0000000  0  7G16G18G19G21G22G27G31
  20998386.900   110347293.61009  20998384.180    85984901.36648
  22361335.440   117509755.06309  22361333.460    91566108.69647
  24058856.180   126430165.62908  24058853.860    98517014.93446
  21986741.460   115541120.41508  21986738.580    90032035.09947
  23085894.500   121317395.37609  23085893.000    94533111.29347
  22012958.840   115679052.13409  22012959.080    90139577.54648
  23580477.020   123916123.22508  23580480.720    96557975.30947
 15 03 04 00 08 30.0000000  0  7G16G18G19G21G22G27G31
  20988498.740   110295331.05809  20988496.000    85944411.07848
  22353705.740   117469661.23109  22353703.840    91534866.78647
  24044660.420   126355566.54608  24044658.160    98458885.87946
  21997912.640   115599825.80108  21997909.840    90077779.55947
  23069520.960   121231352.10009  23069519.200    94466064.79347
  22003164.120   115627580.16609  22003164.260    90099469.55348
  23599104.920   124014010.46808  23599108.760    96634250.33946
 15 03 04 00 09  0.0000000  0  7G16G18G19G21G22G27G31
  20978677.300   110243718.93509  20978674.520    85904193.84148
  22346150.180   117429956.65009  22346148.240    91503928.18647
  24030483.460   126281066.37608  24030481.240    98400833.90746
  22009129.300   115658769.97308  22009126.480    90123710.07747
  23053173.280   121145444.60108  23053171.240    94399124.07147
  21993393.520   115576234.81209  21993393.500    90059460.20748
  23617744.940   124111961.53708  23617749.000    96710575.07146
 15 03 04 00 09 30.0000000  0  7G16G18G19G21G22G27G31
  20968922.600   110192457.65109  20968919.820    85864249.99248
  22338668.820   117390641.85609  22338666.820    91473293.32347
  24016325.080   126206663.57608  24016322.840    98342857.79746
  22020390.960   115717950.22008  22020388.040    90169824.55348
  23036851.740   121059674.55309  23036849.620    94332290.46847
  21983646.740   115525014.63509  21983646.540    90019548.39948
  23636396.240   124209971.82408  23636400.500    96786945.94946
 15 03 04 00 10  0.0000000  0  7G16G18G19G21G22G27G31
  20959235.640   110141552.35609  20959232.880    85824583.53448
  22331262.520   117351721.62609  22331260.440    91442965.90447
  24002185.820   126132361.09208  24002183.540    98284959.85246
  22031697.660   115777367.07408  22031694.660    90216123.40147
  23020557.320   120974047.22909  23020555.180    94265568.07047
  21973924.320   115473922.68409  21973924.020    89979736.50848
  23655059.000   124308042.26508  23655063.420    96863363.67547
 15 03 04 00 10 30.0000000  0  7G16G18G19G21G22G27G31
  20949616.560   110091003.90209  20949613.860    85785195.13948
  22323931.420   117313196.34909  22323929.200    91412946.24447
  23988065.380   126058157.69008  23988062.940    98227139.11146
  22043048.840   115837017.52609  22043045.700    90262604.27447
  23004290.420   120888564.60509  23004288.280    94198958.42647
  21964225.980   115422957.62909  21964225.700    89940023.50348
  23673732.360   124406168.27108  23673736.960    96939824.69546
 15 03 04 00 11  0.0000000  0  7G16G18G19G21G22G27G31
  20940066.020   110040815.64609  20940063.360    85746087.40748
  22316676.140   117275069.46909  22316673.820    91383237.01147
  23973964.080   125984054.86308  23973961.460    98169396.73745
  22054444.420   115896901.07008  22054441.100    90309266.76747
  22988051.800   120803231.03208  22988049.660    94132464.90947
  21954551.960   115372120.93609  21954551.840    89900410.52048
  23692416.000   124504348.19608  23692420.740    97016327.70346
 15 03 04 00 11 30.0000000  0  7G16G18G19G21G22G27G31
  20930583.900   109990986.85309  20930581.220    85707259.78048
  22309496.380   117237339.54209  22309493.940    91353837.10347
  23959881.200   125910049.31808  23959878.400    98111730.16546
  22065883.440   115957012.92108  22065879.980    90356107.16347
  22971841.420   120718045.82209  22971839.320    94066087.00147
  21944901.760   115321409.50809  21944901.840    89860895.14848
  23711108.820   124602576.45408  23711113.720    97092868.37146
 15 03 04 00 12  0.0000000  0  7G16G18G19G21G22G27G31
  20921171.220   109941523.22209  20921168.600    85668716.70448
  22302393.280   117200012.21809  22302390.680    91324750.90947
  23945817.480   125836144.72208  23945814.640    98054142.26246
  22077366.160   116017354.64108  22077362.600    90403126.68147
  22955660.560   120633015.65109  22955658.400    93999829.90747
  21935276.120   115270827.15609  21935276.360    89821480.35048
  23729811.000   124700854.12508  23729816.200    97169447.62446
 15 03 04 00 12 30.0000000  0  7G16G18G19G21G22G27G31
  20911828.400   109892426.60009  20911825.860    85630459.59848
  22295366.980   117163088.86009  22295364.300    91295979.49447
  23931772.840   125762340.83408  23931770.040    97996632.82945
  22088892.220   116077924.33808  22088888.680    90450323.83547
  22939509.660   120548142.85309  22939507.440    93933695.41547
  21925675.000   115220373.42609  21925675.300    89782165.77748
  23748521.880   124799177.67008  23748527.400    97246062.65646
 15 03 04 00 13  0.0000000  0  7G16G18G19G21G22G27G31
  20902555.120   109843695.20309  20902552.600    85592487.08348
  22288417.240   117126568.11309  22288414.600    91267521.80447
  23917746.760   125688634.14308  23917743.920    97939199.13546
  22100460.580   116138716.59008  22100457.180    90497694.41547
  22923388.560   120463426.61309  22923386.280    93867682.92047
  21916097.800   115170045.03709  21916098.040    89742948.87748
  23767240.260   124897540.48808  23767246.020    97322708.30846
 15 03 04 00 13 30.0000000  0  7G16G18G19G21G22G27G31
  20893352.300   109795334.10809  20893349.800    85554803.11848
  22281544.960   117090454.41909  22281542.360    91239381.29447
  23903739.760   125615027.44708  23903736.940    97881843.36546
  22112071.520   116199732.57808  22112068.240    90545239.33747
  22907298.380   120378872.81909  22907296.020    93801797.00047
  21906545.060   115119844.87409  21906545.180    89703831.87448
  23785966.240   124995943.28708  23785972.240    97399385.16146
 15 03 04 00 14  0.0000000  0  7G16G18G19G21G22G27G31
  20884220.140   109747344.28809  20884217.620    85517408.46648
  22274750.180   117054747.74309  22274747.540    91211557.94147
  23889751.600   125541519.38808  23889748.760    97824564.44845
  22123724.280   116260968.53408  22123721.100    90592955.66447
  22891239.360   120294482.83209  22891236.900    93736038.72547
  21897016.460   115069771.54809  21897016.460    89664813.72348
  23804698.960   125094381.45808  23804705.100    97476089.47747
 15 03 04 00 14 30.0000000  0  7G16G18G19G21G22G27G31
  20875159.100   109699727.98409  20875156.520    85480304.86248
  22268033.280   117019450.44009  22268030.620    91184053.57747
  23875782.240   125468110.16608  23875779.340    97767362.54546
  22135418.700   116322423.38108  22135415.620    90640842.55847
  22875212.140   120210259.67709  22875209.580    93670410.43747
  21887512.100   115019825.33209  21887511.960    89625894.60648
  23823437.960   125192852.77708  23823444.260    97552819.85547
 15 03 04 00 15  0.0000000  0 15G16G18G19G21G22G27G31R01R02R14R15R16
                                R17R18R24
  20866170.020   109652489.79209  20866167.400    85443495.88848
  22261395.120   116984566.83109  22261392.460    91156871.58347
  23861832.140   125394802.61808  23861829.340    97710239.87046
  22147154.920   116384098.00908  22147151.980    90688900.71247
  22859217.780   120126209.06609  22859215.180    93604916.60847
  21878032.460   114970009.19809  21878032.260    89587076.85848
  23842183.200   125291357.12708  23842189.640    97629576.04546
  22956866.980   122717623.00807  22956871.180    95447064.87205
  22317764.920   119091902.86708  22317769.400    92627067.90507
  22495660.860   119914422.05806  22495672.080    93266769.23306
  19948543.560   106598968.04908  19948547.300    82910324.25408
  21364980.200   114127897.24708  21364982.520    88766158.64808
  20297503.540   108616060.63109  20297503.860    84479170.96308
  21054596.660   112391193.71009  21054600.000    87415506.02808
  23445979.740   125376178.38407  23445980.820    97514801.12405
 15 03 04 00 15 30.0000000  0 15G16G18G19G21G22G27G31R01R02R14R15R16
                                R17R18R24
  20857252.520   109605627.72409  20857249.820    85406980.00148
  22254835.240   116950094.78909  22254832.600    91130010.29147
  23847900.540   125321592.26008  23847897.860    97653192.93446
  22158931.780   116445986.05508  22158928.920    90737125.16147
  22843256.000   120042329.50109  22843253.360    93539556.05647
  21868576.740   114920318.97509  21868576.480    89548357.22448
  23860933.240   125389887.34208  23860939.860    97706352.37545
  22959415.100   122731244.09208  22959419.180    95457659.07205
  22302924.020   119012709.02108  22302928.440    92565472.76007
  22520754.020   120048181.88706  22520765.380    93370803.90506
  19959796.940   106659102.37908  19959800.580    82957095.36808
  21350794.480   114052120.02108  21350796.840    88707220.81608
  20304020.820   108650935.75209  20304021.020    84506296.06108
  21047234.180   112351892.08909  21047237.480    87384938.12608
  23461354.700   125458394.03907  23461355.500    97578746.62505
 15 03 04 00 16  0.0000000  0 15G16G18G19G21G22G27G31R01R02R14R15R16
                                R17R18R24
  20848407.360   109559146.03409  20848404.600    85370760.51148
  22248354.320   116916037.87909  22248351.740    91103472.46747
  23833988.000   125248481.73908  23833985.180    97596223.76946
  22170749.400   116508088.05908  22170746.520    90785516.32347
  22827327.660   119958625.61409  22827324.960    93474332.38947
  21859145.440   114870757.09409  21859145.180    89509737.60948
  23879688.080   125488443.29608  23879694.860    97783148.97546
  22962098.240   122745587.52408  22962102.380    95468815.08405
  22288165.900   118933957.12909  22288170.300    92504221.34607
  22545878.920   120182109.98807  22545890.500    93474969.44106
  19971186.800   106719966.16209  19971190.400    83004433.82808
  21336732.100   113977001.94208  21336734.600    88648795.65808
  20310567.840   108685970.59109  20310568.020    84533545.38208
  21039916.100   112312827.67809  21039919.400    87354554.72208
  23476717.160   125540543.06007  23476717.780    97642640.28905
 15 03 04 00 16 30.0000000  0 15G16G18G19G21G22G27G31R01R02R14R15R16
                                R17R18R24
  20839634.720   109513045.12709  20839631.840    85334837.74048
  22241952.460   116882396.40609  22241949.940    91077258.37847
  23820094.120   125175469.09808  23820091.160    97539330.89446
  22182607.140   116570400.52509  22182604.180    90834071.50347
  22811433.060   119875099.03009  22811430.300    93409246.88047
  21849738.180   114821321.78509  21849737.940    89471216.61348
  23898446.920   125587020.59608  23898453.900    97859962.37847
  22964916.200   122760651.54708  22964920.500    95480531.58405
  22273491.040   118855649.68808  22273495.460    92443315.63208
  22571034.480   120316200.62407  22571046.200    93579261.37906
  19982712.320   106781555.01408  19982715.940    83052336.23108
  21322793.520   113902544.84308  21322796.160    88590884.60008
  20317143.980   108721161.77008  20317144.280    84560916.30808
  21032641.980   112273997.96609  21032645.220    87324353.86808
  23492066.780   125622623.68607  23492067.300    97706480.76605
 15 03 04 00 17  0.0000000  0 15G16G18G19G21G22G27G31R01R02R14R15R16
                                R17R18R24
  20830935.220   109467328.67209  20830932.160    85299214.53548
  22235630.240   116849173.39109  22235627.740    91051370.34347
  23806219.180   125102556.01708  23806216.220    97482515.59246
  22194504.900   116632923.15609  22194501.840    90882790.43647
  22795573.000   119791754.26209  22795570.280    93344303.04747
  21840355.320   114772014.77509  21840355.080    89432795.58348
  23917209.520   125685617.77108  23917216.540    97936791.57847
  22967869.200   122776437.50308  22967873.700    95492809.57505
  22258900.580   118777792.56409  22258904.980    92382760.15908
  22596220.100   120450450.92307  22596231.940    93683677.46506
  19994373.420   106843868.24209  19994377.040    83100802.03308
  21308979.680   113828753.71208  21308982.400    88533491.51008
  20323749.400   108756509.23108  20323749.820    84588408.78008
  21025411.900   112235403.41709  21025415.100    87294335.91108
  23507403.820   125704637.32807  23507404.280    97770269.15605
 15 03 04 00 17 30.0000000  0 15G16G18G19G21G22G27G31R01R02R14R15R16
                                R17R18R24
  20822309.300   109421999.02809  20822306.100    85263892.73648
  22229388.100   116816370.96009  22229385.600    91025810.03647
  23792363.200   125029742.76608  23792360.220    97425778.08046
  22206442.400   116695654.75809  22206439.200    90931672.19647
  22779748.040   119708594.11909  22779745.380    93279503.07147
  21830996.920   114722836.46609  21830996.720    89394474.83148
  23935975.200   125784231.89005  23935982.140    98013633.75041
  22970957.400   122792946.08107  22970962.140    95505649.59005
  22244395.360   118700390.44008  22244399.700    92322558.56107
  22621435.060   120584857.36006  22621446.940    93788214.97806
  20006169.520   106906902.68208  20006173.160    83149828.77608
  21295291.260   113755632.15108  21295293.960    88476619.19508
  20330383.980   108792012.69308  20330384.500    84616022.57908
  21018225.780   112197043.66109  21018228.960    87264500.55708
  23522728.300   125786583.75207  23522728.720    97834005.26805
 15 03 04 00 18  0.0000000  0 15G16G18G19G21G22G27G31R01R02R14R15R16
                                R17R18R24
  20813756.520   109377053.78709  20813753.240    85228870.47648
  22223225.480   116783986.09709  22223222.960    91000575.11747
  23778525.400   124957025.04108  23778522.380    97369114.98746
  22218418.420   116758588.88908  22218415.140    90980711.77547
  22763957.880   119625616.89609  22763955.260    93214845.62947
  21821662.160   114673782.50209  21821662.040    89356250.98648
  23954742.720   125882855.99708  23954749.000    98090690.89946
  22974179.960   122810172.62108  22974184.840    95519048.02905
  22229975.380   118623442.93809  22229979.580    92262710.56007
  22646677.700   120719410.92806  22646689.540    93892866.88306
  20018099.180   106970651.14908  20018102.940    83199410.88208
  21281727.960   113683179.08208  21281730.680    88420266.82108
  20337046.600   108827666.06408  20337047.220    84643752.98508
  21011082.580   112158913.19909  21011085.840    87234843.56008
  23538039.200   125868458.28807  23538039.740    97897685.45005
 15 03 04 00 18 30.0000000  0 15G16G18G19G21G22G27G31R01R02R14R15R16
                                R17R18R24
  20805279.200   109332504.98109  20805275.840    85194157.11948
  22217144.580   116752030.58409  22217142.020    90975674.74347
  23764707.560   124884412.45108  23764704.540    97312533.82446
  22230434.420   116821733.51908  22230431.140    91029915.36847
  22748204.880   119542835.26609  22748202.340    93150340.58647
  21812353.000   114624862.88609  21812352.920    89318131.82248
  23973513.360   125981496.46307  23973519.700    98167553.34245
  22977538.680   122828126.92507  22977543.660    95533012.50305
  22215643.220   118546964.26408  22215647.320    92203227.20307
  22671949.060   120854117.68706  22671960.880    93997637.92905
  20030163.780   107035120.61508  20030167.600    83249553.76108
  21268292.380   113611407.85008  21268295.080    88364444.75608
  20343738.940   108863478.13008  20343739.600    84671606.80508
  21003984.040   112121021.04409  21003987.380    87205371.90508
  23553338.500   125950271.03407  23553339.180    97961317.54605
 15 03 04 00 19  0.0000000  0 15G16G18G19G21G22G27G31R01R02R14R15R16
                                R17R18R24
  20796875.640   109288344.02209  20796872.280    85159745.98448
  22211143.760   116720495.47609  22211141.040    90951101.95447
  23750907.800   124811894.77408  23750904.920    97256026.62146
  22242488.160   116885076.57908  22242484.920    91079273.58847
  22732487.620   119460241.67909  22732485.140    93085982.08247
  21803067.520   114576067.37209  21803067.440    89280109.36548
  23992284.760   126080140.32808  23992291.200    98244418.23746
  22981031.560   122846798.38108  22981036.520    95547534.76705
  22201397.720   118470948.18908  22201401.780    92144103.65607
  22697246.360   120988962.60507  22697258.240    94102516.40805
  20042360.500   107100296.08709  20042364.360    83300245.76308
  21254983.040   113540311.12808  21254985.660    88309147.31408
  20350458.800   108899437.12909  20350459.480    84699574.91008
  20996928.060   112083355.88509  20996931.420    87176076.81508
  23568624.160   126032010.96907  23568624.980    98024893.03405
 15 03 04 00 19 30.0000000  0 15G16G18G19G21G22G27G31R01R02R14R15R16
                                R17R18R24
  20788547.260   109244578.18409  20788543.940    85125642.74048
  22205224.220   116689387.72609  22205221.440    90926862.19047
  23737127.140   124739477.37408  23737124.300    97199597.56046
  22254580.300   116948621.36408  22254577.100    91128788.99947
  22716807.720   119377844.33409  22716805.300    93021776.47947
  21793806.700   114527401.39209  21793806.620    89242187.84348
  24011057.440   126178790.25008  24011063.940    98321287.60646
  22984659.540   122866192.02208  22984664.460    95562618.73405
  22187240.680   118395404.04808  22187244.640    92085347.17007
  22722569.820   121123947.27706  22722581.880    94207503.56405
  20054690.460   107166183.10709  20054694.280    83351491.19608
  21241801.480   113469897.59008  21241804.060    88254381.23708
  20357206.940   108935547.13108  20357207.580    84727660.46508
  20989915.420   112045922.18209  20989918.820    87146961.75208
  23583897.300   126113683.36606  23583898.140    98088415.98505
 15 03 04 00 20  0.0000000  0 15G16G18G19G21G22G27G31R01R02R14R15R16
                                R17R18R24
  20780294.520   109201209.91609  20780291.260    85091849.28548
  22199386.220   116658708.75609  22199383.380    90902956.52347
  23723365.700   124667160.52708  23723362.800    97143246.83046
  22266710.400   117012365.71408  22266707.300    91178459.91147
  22701165.780   119295646.15409  22701163.320    92957726.05847
  21784570.600   114478865.30909  21784570.500    89204367.52648
  24029830.900   126277443.43908  24029837.580    98398159.20147
  22988422.640   122886307.85408  22988427.460    95578264.39005
  22173172.940   118320336.53408  22173176.860    92026961.37407
  22747918.700   121259067.53206  22747930.980    94312596.16705
  20067152.580   107232776.32609  20067156.360    83403285.89308
  21228748.440   113400170.88408  21228751.020    88200149.34808
  20363983.160   108971807.38908  20363983.740    84755862.88208
  20982945.980   112008719.34809  20982949.440    87118026.24308
  23599157.840   126195288.64706  23599158.760    98151886.71504
 15 03 04 00 20 30.0000000  0 15G16G18G19G21G22G27G31R01R02R14R15R16
                                R17R18R24
  20772117.200   109158237.94609  20772114.020    85058364.64148
  22193629.600   116628457.30309  22193626.660    90879383.99847
  23709622.860   124594941.11608  23709619.860    97086972.04646
  22278877.780   117076306.05808  22278874.800    91228283.55247
  22685561.780   119213646.95609  22685559.140    92893830.69247
  21775358.640   114430456.14309  21775358.520    89166646.12348
  24048604.260   126376095.72507  24048611.280    98475030.64043
  22992320.180   122907142.41808  22992324.980    95594469.08205
  22159194.760   118245746.60509  22159198.620    91968947.04007
  22773291.620   121394316.22206  22773304.160    94417788.66806
  20079745.900   107300070.51509  20079749.600    83455625.78508
  21215823.840   113331130.73308  21215826.440    88146451.45508
  20370786.580   109008213.24909  20370787.060    84784178.55608
  20976018.980   111971743.12509  20976022.480    87089266.99808
  23614405.140   126276823.14906  23614406.140    98215302.41604
 15 03 04 00 21  0.0000000  0 15G16G18G19G21G22G27G31R01R02R14R15R16
                                R17R18R24
  20764015.280   109115662.24009  20764012.200    85025188.77248
  22187954.280   116598632.97509  22187951.260    90856144.29047
  23695898.180   124522816.81808  23695894.980    97030771.37046
  22291081.640   117140437.95908  22291078.720    91278256.45147
  22669995.760   119131847.36109  22669992.980    92830090.85747
  21766170.420   114382171.86609  21766170.280    89129022.02948
  24067376.480   126474742.02708  24067383.620    98551897.79547
  22996351.880   122928693.73508  22996356.580    95611231.23405
  22145306.440   118171636.16708  22145310.260    91911305.63807
  22798687.480   121529686.98706  22798700.300    94523076.11605
  20092469.260   107368060.08008  20092473.000    83508506.51408
  21203028.000   113262778.30208  21203030.580    88093288.44508
  20377616.540   109044761.53008  20377617.000    84812605.00008
  20969133.940   111934990.65809  20969137.500    87060681.77308
  23629638.860   126358284.22806  23629639.720    98278661.00804
 15 03 04 00 21 30.0000000  0 15G16G18G19G21G22G27G31R01R02R14R15R16
                                R17R18R24
  20755990.240   109073490.67509  20755987.300    84992327.82148
  22182361.640   116569242.98509  22182358.520    90833243.03447
  23682192.700   124450793.18308  23682189.200    96974649.12547
  22303322.560   117204764.44908  22303319.660    91328380.98947
  22654469.280   119050255.67809  22654466.420    92766513.04147
  21757007.040   114334018.12609  21757006.860    89091499.64948
  24086147.740   126573383.61208  24086154.800    98628760.95546
  23000518.520   122950966.52508  23000523.060    95628554.54005
  22131509.800   118098014.94308  22131513.620    91854044.74707
  22824106.560   121665181.12006  22824119.540    94628459.57305
  20105323.180   107436747.73608  20105327.020    83561930.20708
  21190362.600   113195122.61208  21190365.160    88040667.34608
  20384473.880   109081456.63808  20384474.360    84841145.63308
  20962291.720   111898466.37309  20962295.240    87032274.02008
  23644859.920   126439677.95806  23644860.660    98341967.22804
 15 03 04 00 22  0.0000000  0 14G16G18G19G21G22G27G31R01R02R14R15R16
                                R17R18
  20748041.840   109031721.56209  20748038.960    84959780.45748
  22176851.100   116540284.50809  22176847.860    90810678.01647
  23668505.680   124378866.79808  23668501.980    96918602.67546
  22315599.620   117269280.97208  22315596.720    91378653.59847
  22638982.220   118968871.13509  22638979.240    92703096.63647
  21747867.880   114285991.59009  21747867.660    89054076.39248
  24104916.960   126672014.90508  24104924.100    98705616.14747
  23004819.440   122973956.97908  23004823.800    95646436.03005
  22117804.980   118024883.65408  22117808.760    91797164.91507
  22849547.300   121800790.89407  22849560.440    94733932.95305
  20118306.240   107506125.71608  20118310.200    83615890.80208
  21177827.580   113128162.88908  21177830.120    87988587.56808
  20391357.780   109118293.83408  20391358.260    84869796.78308
  20955491.500   111862165.98909  20955494.920    87004040.40808
 15 03 04 00 22 30.0000000  0 14G16G18G19G21G22G27G31R01R02R14R15R16
                                R17R18
  20740171.480   108990362.37509  20740168.600    84927552.52248
  22171424.240   116511765.68809  22171420.960    90788455.59047
  23654838.240   124307043.73208  23654834.440    96862636.72546
  22327913.760   117333991.95908  22327910.800    91429077.74647
  22623536.200   118887702.36509  22623533.140    92639848.35147
  21738754.080   114238098.32409  21738753.860    89016756.97048
  24123684.780   126770639.31908  24123692.060    98782465.97847
  23009255.700   122997670.83708  23009259.820    95664880.14705
  22104193.880   117952252.15808  22104197.660    91740673.80507
  22875010.060   121936518.29506  22875023.360    94839497.86305
  20131419.140   107576197.51608  20131423.180    83670391.04108
  21165424.660   113061908.42008  21165427.160    87937056.31708
  20398269.100   109155277.94408  20398269.660    84898562.19608
  20948734.220   111826094.60109  20948737.520    86975984.90408
 15 03 04 00 23  0.0000000  0 14G16G18G19G21G22G27G31R01R02R14R15R16
                                R17R18
  20732378.480   108949409.70209  20732375.580    84895641.35048
  22166080.200   116483682.23709  22166076.900    90766572.41247
  23641189.240   124235318.08108  23641185.520    96806746.68346
  22340263.300   117398888.71008  22340260.240    91479646.64447
  22608130.700   118806746.45409  22608127.620    92576765.92847
  21729664.560   114190332.84709  21729664.420    88979537.14948
  24142449.640   126869248.21508  24142457.080    98859303.65346
  23013825.980   123022101.56808  23013829.920    95683881.85205
  22090676.120   117880118.85908  22090679.900    91684570.18607
  22900493.020   122072353.70406  22900506.560    94945146.80905
  20144660.360   107646954.80608  20144664.420    83725424.45708
  21153153.240   112996356.54008  21153155.780    87886071.53308
  20405206.520   109192401.91308  20405207.180    84927436.39408
  20942018.580   111790245.62909  20942021.800    86948102.39108
 15 03 04 00 23 30.0000000  0 14G16G18G19G21G22G27G31R01R02R14R15R16
                                R17R18
  20724663.900   108908869.53209  20724661.040    84864051.60548
  22160819.880   116456039.14309  22160816.620    90745032.36147
  23627559.460   124163694.11608  23627555.900    96750935.87746
  22352648.780   117463974.31009  22352645.580    91530362.69347
  22592766.980   118726010.11809  22592763.940    92513854.59147
  21720600.080   114142699.23209  21720600.100    88942420.06748
  24161211.780   126967842.46808  24161219.240    98936129.65945
  23018531.080   123047253.11208  23018534.840    95703444.17705
  22077253.200   117808491.94608  22077257.020    91628860.40707
  22925996.120   122208296.74206  22926009.940    95050879.48905
  20158029.840   107718397.37608  20158033.920    83780990.85308
  21141014.640   112931514.24808  21141017.260    87835638.63308
  20412170.660   109229668.83408  20412171.400    84956421.76908
  20935345.120   111754622.09709  20935348.320    86920395.22708
 15 03 04 00 24  0.0000000  0 14G16G18G19G21G22G27G31R01R02R14R15R16
                                R17R18
  20717027.320   108868739.31109  20717024.480    84832781.30148
  22155642.820   116428833.89209  22155639.660    90723833.49147
  23613948.160   124092167.44208  23613944.800    96695200.87246
  22365069.020   117529242.68608  22365065.740    91581221.16347
  22577444.780   118645491.91809  22577441.780    92451113.24147
  21711559.900   114095193.39909  21711560.120    88905402.55748
  24179970.000   127066415.46408  24179977.520    99012939.18846
  23023370.020   123073120.21008  23023373.620    95723563.03005
  22063925.140   117737371.17608  22063929.020    91573544.30407
  22951517.780   122344338.95306  22951531.940    95156689.36205
  20171526.100   107790517.25008  20171530.200    83837084.03808
  21129008.680   112867380.40408  21129011.360    87785756.75308
  20419160.440   109267072.99808  20419161.240    84985513.89008
  20928712.920   111719218.68809  20928716.040    86892859.25608
 15 03 04 00 24 30.0000000  0 14G16G18G19G21G22G27G31R01R02R14R15R16
                                R17R18
  20709469.440   108829022.67309  20709466.600    84801833.27348
  22150549.600   116402069.21909  22150546.540    90702977.92647
  23600355.640   124020739.13708  23600352.360    96639542.52646
  22377523.880   117594692.88409  22377520.540    91632221.31147
  22562164.960   118565196.15009  22562161.940    92388545.20547
  21702544.360   114047816.76609  21702544.660    88868485.71648
  24198723.880   127164965.30907  24198731.440    99089730.47145
  23028343.040   123099704.00708  23028346.540    95744239.34805
  22050692.880   117666761.68509  22050696.800    91518625.85107
  22977057.560   122480477.57206  22977071.880    95262574.26005
  20185148.820   107863312.84409  20185152.980    83893702.79408
  21117136.080   112803959.06608  21117138.780    87736429.04708
  20426175.940   109304614.78908  20426176.760    85014713.06108
  20922122.000   111684035.88309  20922125.060    86865494.86708
 15 03 04 00 25  0.0000000  0 14G16G18G19G21G22G27G31R01R02R14R15R16
                                R17R18
  20701990.720   108789722.26509  20701987.920    84771209.58348
  22145540.680   116375747.65009  22145537.780    90682467.64347
  23586782.100   123949410.52508  23586779.000    96583961.85946
  22390013.260   117660324.65408  22390009.800    91683362.94247
  22546928.120   118485126.19409  22546925.060    92326153.12447
  21693553.740   114000570.63409  21693553.980    88831670.56748
  24217473.340   127263491.95408  24217481.060    99166504.12345
  23033450.140   123127004.47908  23033453.600    95765473.07005
  22037557.360   117596668.70608  22037561.340    91464109.13507
  23002614.800   122616709.43106  23002629.460    95368531.72305
  20198897.680   107936782.18309  20198901.840    83950845.57008
  21105397.720   112741254.44808  21105400.300    87687658.78108
  20433217.120   109342294.07908  20433217.920    85044019.16908
  20915572.400   111649073.76109  20915575.460    86838302.13108
 15 03 04 00 25 30.0000000  0 14G16G18G19G21G22G27G31R01R02R14R15R16
                                R17R18
  20694591.540   108750839.91109  20694588.820    84740911.63848
  22140616.200   116349869.94809  22140613.420    90662303.22047
  23573227.480   123878180.80308  23573224.440    96528458.24746
  22402536.640   117726135.36009  22402533.140    91734644.00347
  22531734.700   118405284.63309  22531731.720    92263939.01447
  21684587.980   113953454.59009  21684588.000    88794956.77348
  24236217.720   127361992.33109  24236225.520    99243257.85448
  23038691.160   123155020.59308  23038694.620    95787263.39505
  22024519.280   117527095.58908  22024523.280    91409996.75207
  23028188.600   122753029.87306  23028203.600    95474558.11805
  20212772.020   108010921.59109  20212776.060    84008509.51708
  21093793.900   112679268.88208  21093796.440    87639447.78708
  20440283.720   109380109.23108  20440284.540    85073430.94308
  20909063.820   111614331.04809  20909067.000    86811280.03708
 15 03 04 00 26  0.0000000  0 14G16G18G19G21G22G27G31R01R02R14R15R16
                                R17R18
  20687272.020   108712376.21209  20687269.380    84710939.93548
  22135776.280   116324436.44109  22135773.600    90642484.93447
  23559691.560   123807049.45208  23559688.580    96473031.28046
  22415093.620   117792122.86409  22415090.160    91786062.83447
  22516585.100   118325673.53109  22516582.100    92201904.47947
  21675646.880   113906468.00409  21675646.640    88758343.87348
  24254955.940   127460461.04309  24254963.640    99319986.81948
  23044065.820   123183750.77708  23044069.220    95809609.11805
  22011579.240   117458045.60609  22011583.260    91356291.25107
  23053778.180   122889433.94306  23053793.360    95580649.61705
  20226770.780   108085726.25809  20226774.680    84066690.88908
  21082325.060   112618004.36808  21082327.560    87591797.61908
  20447375.440   109418058.22409  20447376.260    85102946.82108
  20902596.000   111579805.83109  20902599.280    86784427.12408
 15 03 04 00 26 30.0000000  0 14G16G18G19G21G22G27G31R01R02R14R15R16
                                R17R18
  20680032.080   108674330.44909  20680029.520    84681293.89448
  22131020.700   116299446.14109  22131018.120    90623012.00547
  23546173.940   123736013.95508  23546170.980    96417679.00846
  22427683.200   117858281.77908  22427679.800    91837615.23547
  22501479.280   118246292.58109  22501476.300    92140049.29247
  21666729.920   113859608.35909  21666729.480    88721829.88048
  24273687.100   127558893.97408  24273694.800    99396723.17045
  23049573.440   123213191.51508  23049576.720    95832507.51205
  21998737.460   117389519.79709  21998741.560    91302993.45808
  23079382.180   123025915.09906  23079397.520    95686801.13005
  20240892.800   108161189.79709  20240896.680    84125384.71508
  21070991.220   112557461.03708  21070993.680    87544708.37608
  20454491.560   109456137.31609  20454492.320    85132563.89208
  20896168.280   111545494.38009  20896171.540    86757740.46408
 15 03 04 00 27  0.0000000  0 14G16G18G19G21G22G27G31R01R02R14R15R16
                                R17R18
  20672874.780   108636718.43109  20672872.220    84651985.82948
  22126352.260   116274913.83009  22126349.800    90603895.94447
  23532677.100   123665087.52708  23532674.140    96362411.72346
  22440307.880   117924624.73909  22440304.480    91889311.04647
  22486420.380   118167158.25509  22486417.520    92078386.27148
  21657839.720   113812889.44909  21657839.140    88685425.55348
  24292413.220   127657300.93808  24292421.040    99473404.02346
  23055216.420   123243356.12208  23055219.660    95855968.89405
  21985997.260   117321535.92808  21986001.460    91250117.16208
  23105002.240   123162482.35406  23105017.800    95793019.64005
  20255140.060   108237322.88908  20255144.000    84184599.30008
  21059795.560   112497655.49708  21059797.940    87498192.95608
  20461634.380   109494359.23409  20461635.100    85162292.04708
  20889783.080   111511409.79409  20889786.240    86731230.25008
 15 03 04 00 27 30.0000000  0 14G16G18G19G21G22G27G31R01R02R14R15R16
                                R17R18
  20665796.840   108599523.15109  20665794.220    84623002.49148
  22121767.540   116250821.60709  22121765.200    90585122.81047
  23519197.460   123594251.59408  23519194.380    96307214.94746
  22452963.740   117991131.57708  22452960.320    91941134.55047
  22471405.480   118088254.79309  22471402.620    92016903.14447
  21648972.760   113766292.86009  21648972.140    88649116.54248
  24311130.360   127755661.11807  24311138.180    99550031.37744
  23060991.000   123274224.66308  23060994.300    95879977.78205
  21973355.800   117254079.21708  21973360.060    91197650.87808
  23130634.300   123299113.60806  23130649.940    95899287.96604
  20269508.380   108314102.97909  20269512.420    84244317.10008
  21048734.940   112438571.54608  21048737.320    87452238.78108
  20468800.180   109532703.98709  20468800.820    85192115.73508
  20883436.660   111477532.10909  20883439.700    86704880.94708
 15 03 04 00 28  0.0000000  0 14G16G18G19G21G22G27G31R01R02R14R15R16
                                R17R18
  20658800.940   108562759.06409  20658798.280    84594355.15348
  22117269.360   116227184.04509  22117267.160    90566703.95947
  23505737.380   123523518.71408  23505734.200    96252098.47046
  22465652.660   118057812.33408  22465649.180    91993093.57947
  22456437.360   118009597.02809  22456434.380    91955611.47147
  21640131.420   113719831.19709  21640130.820    88612912.67548
  24329840.440   127853983.94607  24329848.740    99626643.68345
  23066899.320   123305808.77608  23066902.680    95904543.23405
  21960816.320   117187166.08009  21960820.400    91145607.37307
  23156279.780   123435816.93706  23156295.540    96005612.39304
  20283999.520   108391538.81809  20284003.580    84304544.93108
  21037812.320   112380224.80908  21037814.720    87406857.99808
  20475991.100   109571183.23309  20475991.640    85222044.03308
  20877131.220   111443873.22409  20877134.140    86678701.83908
 15 03 04 00 28 30.0000000  0 14G16G18G19G21G22G27G31R01R02R14R15R16
                                R17R18
  20651886.920   108526425.07409  20651884.160    84566042.95348
  22112857.340   116203999.13609  22112855.200    90548637.82147
  23492296.340   123452885.86308  23492293.040    96197059.93746
  22478373.720   118124662.14208  22478370.260    92045184.33447
  22441516.000   117931184.73909  22441512.900    91894511.06647
  21631315.160   113673501.48009  21631314.580    88576811.61548
  24348542.160   127952449.41909                                
  23072940.740   123338104.40008  23072944.100    95929662.07404
  21948378.820   117120796.93809  21948382.700    91093986.97507
  23181937.420   123572584.98106  23181953.360    96111987.18205
  20298612.240   108469623.99109  20298616.280    84365277.79208
  21027027.640   112322614.67408  21027030.000    87362050.11508
  20483206.240   109609792.66708  20483206.740    85252073.59108
  20870865.860   111410428.70409  20870868.800    86652689.45208
 15 03 04 00 29  0.0000000  0 14G16G18G19G21G22G27G31R01R02R14R15R16
                                R17R18
  20645054.820   108490521.42109  20645051.920    84538066.07448
  22108531.460   116181266.70209  22108529.300    90530924.25447
  23478874.080   123382351.56108  23478870.740    96142098.18846
  22491126.300   118191677.82008  22491122.920    92097404.33347
  22426641.580   117853019.10809  22426638.340    91833602.85647
  21622523.780   113627302.67909  21622523.240    88540812.56448
  24367235.220   128050682.19408  24367240.560    99779776.65155
  23079114.880   123371109.49008  23079118.300    95955332.71105
  21936043.880   117054974.71609  21936047.440    91042791.94607
  23207606.180   123709412.33306  23207622.300    96218408.08505
  20313345.400   108548352.94308  20313349.400    84426511.36308
  21016381.040   112265742.30408  21016383.400    87317816.05608
  20490445.240   109648529.92408  20490445.720    85282202.56508
  20864640.260   111377196.59209  20864643.300    86626842.27808
 15 03 04 00 29 30.0000000  0 14G16G18G19G21G22G27G31R01R02R14R15R16
                                R17R18
  20638305.020   108455050.32309  20638301.980    84510426.26248
  22104291.960   116158988.01809  22104289.720    90513564.26347
  23465470.680   123311916.36808  23465467.360    96087213.67146
  22503910.220   118258858.26708  22503906.940    92149752.72547
  22411814.760   117775103.46509  22411811.400    91772889.44347
  21613757.380   113581235.28609  21613756.880    88504915.90848
  24385918.660                                                  
  23085421.680   123404823.42008  23085425.120    95981554.67405
  21923812.120   116989703.34009  21923815.440    90992025.36207
  23233285.280   123846295.29806  23233301.600    96324872.27405
  20328198.400   108627722.90608  20328202.440    84488243.49708
  21005873.180   112209611.01708  21005875.480    87274158.39708
  20497707.900   109687394.33508  20497708.500    85312430.43908
  20858454.360   111344176.27809  20858457.480    86601159.84308
 15 03 04 00 30  0.0000000  0 15G16G18G19G21G22G27G31R01R02R03R14R15
                                R16R17R18
  20631637.880   108420013.57709  20631634.680    84483124.90649
  22100139.120   116137164.80209  22100136.820    90496559.18847
  23452086.180   123241580.49308  23452082.920    96032406.54747
  22516725.200   118326202.02208  22516722.000    92202228.37847
  22397036.100   117697440.91909  22397032.640    91712373.26448
  21605016.080   113535299.80909  21605015.640    88469122.05348
  24404592.880   128246994.39909  24404600.200    99932757.74947
  23091860.900   123439245.23108  23091864.340    96008327.20804
  21911684.360   116924986.78509  21911687.500    90941690.31307
  23579669.400   126223824.24205  23579679.680    98174070.13505
  23258974.160   123983230.20206  23258990.600    96431376.86705
  20343170.740   108707730.66608  20343174.840    84550471.70108
  20995504.560   112154223.60908  20995506.740    87231079.30608
  20504994.100   109726384.89108  20504994.800    85342756.43608
  20852308.020   111311366.98809  20852311.180    86575641.53108
 15 03 04 00 30 30.0000000  0 15G16G18G19G21G22G27G31R01R02R03R14R15
                                R16R17R18
  20625054.040   108385414.85709  20625050.740    84456164.86048
  22096073.420   116115799.40709  22096071.020    90479910.84347
  23438720.760   123171345.03908  23438717.660    95977677.66146
  22529571.160   118393708.49908  22529568.040    92254830.81247
  22382306.220   117620035.15109  22382302.780    91652057.15447
  21596300.140   113489497.58809  21596299.820    88433432.02648
  24423255.580   128345075.98108                                
  23098432.620   123474375.08608  23098435.960    96035650.44804
  21899661.500   116860830.28909  21899664.540    90891790.85207
  23557813.700   126106829.57106  23557823.820    98083074.60906
  23284672.320   124120213.97706  23284688.680    96537919.49205
  20358261.840   108788372.96108  20358266.020    84613193.42308
  20985275.800   112099583.58808  20985277.920    87188581.51108
  20512303.960   109765502.19708  20512304.780    85373181.00308
  20846201.360   111278768.99809  20846204.460    86550287.55608
 15 03 04 00 31  0.0000000  0 15G16G18G19G21G22G27G31R01R02R03R14R15
                                R16R17R18
  20618553.180   108351252.43709  20618549.800    84429544.79248
  22092094.420   116094889.88109  22092091.980    90463617.73447
  23425373.900   123101206.94508  23425370.900    95923024.64846
  22542447.200   118461372.87708  22542444.160    92307556.29147
  22367625.080   117542885.64109  22367621.740    91591940.73447
  21587609.020   113443825.82509  21587608.780    88397843.66448
  24441907.820   128443105.03908                                
  23105136.060   123510208.91408  23105139.380    96063521.23104
  21887743.620   116797234.42209  21887746.580    90842327.44807
  23535953.400   125989807.86607  23535962.940    97992058.34206
  23310378.280   124257239.64206  23310394.560    96644494.71105
  20373470.580   108869643.55709  20373474.760    84676403.83308
  20975186.900   112045690.77808  20975188.980    87146664.89408
  20519636.740   109804741.96408  20519637.620    85403700.82008
  20840133.520   111246378.30709  20840136.600    86525094.82708
 15 03 04 00 31 30.0000000  0 15G16G18G19G21G22G27G31R01R02R03R14R15
                                R16R17R18
  20612136.320   108317531.73609  20612132.880    84403268.92748
  22088202.920   116074440.27509  22088200.500    90447683.00547
  23412046.140   123031169.28308  23412043.200    95868449.91147
  22555353.540   118529196.49608  22555350.540    92360405.86847
  22352993.860   117465998.49009  22352990.560    91532028.75148
  21578943.300   113398287.69009  21578943.180    88362359.43048
  24460548.900   128541053.98107  24460555.020   100161876.94644
  23111971.460   123546748.33808  23111974.940    96091940.80205
  21875932.060   116734205.92309  21875935.020    90793305.33707
  23514089.380   125872765.49907  23514098.120    97901025.80006
  23336091.860   124394305.92006  23336108.160    96751101.55705
  20388796.800   108951541.82709  20388800.920    84740102.44708
  20965238.800   111992550.51308  20965240.980    87105333.59608
  20526992.820   109844106.24408  20526993.700    85434317.48808
  20834104.880   111214197.00109  20834107.880    86500064.94708
 15 03 04 00 32  0.0000000  0 15G16G18G19G21G22G27G31R01R02R03R14R15
                                R16R17R18
  20605803.240   108284251.48109  20605799.820    84377336.25148
  22084398.600   116054448.90409  22084396.260    90432105.33047
  23398737.020   122961229.87408  23398734.180    95813951.72246
  22568289.380   118597174.99308  22568286.380    92413376.11847
  22338412.560   117389373.63809  22338409.340    91472321.14048
  21570302.560   113352880.91209  21570302.540    88326977.54948
  24479177.660   128638949.44908                                
  23118938.120   123583989.77008  23118941.760    96120906.36905
  21864227.080   116671746.02909  21864229.980    90744725.45207
  23492221.800   125755704.15607  23492229.840    97809978.37506
  23361811.940   124531406.50606  23361828.200    96857735.07905
  20404239.280   109034061.36009  20404243.300    84804284.25008
  20955431.540   111940162.76208  20955433.900    87064587.56408
  20534371.640   109883591.45708  20534372.400    85465028.19108
  20828114.840   111182221.81409  20828117.860    86475195.37408
 15 03 04 00 32 30.0000000  0 15G16G18G19G21G22G27G31R01R02R03R14R15
                                R16R17R18
  20599554.800   108251416.15109  20599551.440    84351750.28049
  22080682.440   116034920.45409  22080680.140    90416888.39047
  23385446.960   122891391.04408  23385444.200    95759531.91347
  22581254.840   118665308.93008  22581251.800    92466467.50947
  22323882.160   117313016.40609  22323879.020    91412822.07648
  21561687.440   113307608.55309  21561687.460    88291700.41348
  24497795.180   128736789.02808                                
  23126036.460   123621934.88808  23126040.140    96150419.25504
  21852629.820   116609860.98809  21852632.680    90696592.69107
  23470351.820   125638631.48207  23470359.620    97718922.35506
  23387538.080   124668540.08006  23387554.380    96964394.27404
  20419797.860   109117201.30909  20419801.760    84868948.61808
  20945766.180   111888532.78208  20945768.740    87024430.92008
  20541773.380   109923199.53508  20541774.060    85495834.47408
  20822163.760   111150454.40109  20822166.800    86450487.41508
 15 03 04 00 33  0.0000000  0 15G16G18G19G21G22G27G31R01R02R03R14R15
                                R16R17R18
  20593391.260   108219026.99009  20593388.040    84326511.96848
  22077054.420   116015855.04809  22077052.140    90402032.25347
  23372175.900   122821652.16408  23372173.280    95705189.98347
  22594249.500   118733596.31308  22594246.460    92519678.44947
  22309403.140   117236928.99209  22309400.000    91353533.24648
  21553097.820   113262470.10209  21553097.880    88256527.59948
  24516398.360   128834545.93408  24516404.420   100390577.23656
