     2.11           OBSERVATION DATA    M                   RINEX VERSION / TYPE
SPIDER V4,0,0,3554                      2015 03 24 07:21    PGM / RUN BY / DATE 
OJGS                                                        MARKER NAME         
OJGS                                                        MARKER NUMBER       
                                                            OBSERVER / AGENCY   
496552              LEICA GRX1200+GNSS  8.20/4.007          REC # / TYPE / VERS 
10401003            LEIAR25         NONE                    ANT # / TYPE        
  5198100.9450    88691.2920  3684205.7148                  APPROX POSITION XYZ 
        0.1200        0.0000        0.0000                  ANTENNA: DELTA H/E/N
     1     1                                                WAVELENGTH FACT L1/2
     4    C1    L1    P2    L2                              # / TYPES OF OBSERV 
    30.000                                                  INTERVAL            
  2015    03    04    00    00    0.0000000     GPS         TIME OF FIRST OBS   
  2015    03    04    23    59   30.0000000     GPS         TIME OF LAST OBS    
    16                                                      LEAP SECONDS        
    54                                                      # OF SATELLITES     
   G 1   833   833   832   832                              PRN / # OF OBS      
   G 2   926   925   925   925                              PRN / # OF OBS      
   G 3   840   839   839   839                              PRN / # OF OBS      
   G 4   845   845   844   844                              PRN / # OF OBS      
   G 5   674   673   673   673                              PRN / # OF OBS      
   G 6   732   732   732   732                              PRN / # OF OBS      
   G 7   721   721   721   721                              PRN / # OF OBS      
   G 9   783   783   783   783                              PRN / # OF OBS      
   G10   784   784   784   784                              PRN / # OF OBS      
   G11   797   797   797   797                              PRN / # OF OBS      
   G12   811   811   811   811                              PRN / # OF OBS      
   G13   821   821   821   821                              PRN / # OF OBS      
   G14   933   932   932   932                              PRN / # OF OBS      
   G15   733   733   733   733                              PRN / # OF OBS      
   G16   693   693   693   693                              PRN / # OF OBS      
   G17   931   931   931   931                              PRN / # OF OBS      
   G18   939   939   939   939                              PRN / # OF OBS      
   G19   791   791   790   790                              PRN / # OF OBS      
   G20   795   795   794   794                              PRN / # OF OBS      
   G21   711   711   711   711                              PRN / # OF OBS      
   G22   804   804   804   804                              PRN / # OF OBS      
   G23   727   727   727   727                              PRN / # OF OBS      
   G24   842   841   841   841                              PRN / # OF OBS      
   G25   853   853   853   853                              PRN / # OF OBS      
   G27   832   831   831   831                              PRN / # OF OBS      
   G28   912   912   911   911                              PRN / # OF OBS      
   G29   741   741   741   741                              PRN / # OF OBS      
   G30   692   692   691   691                              PRN / # OF OBS      
   G31   796   796   796   796                              PRN / # OF OBS      
   G32   739   737   736   736                              PRN / # OF OBS      
   R 1   699   699   699   699                              PRN / # OF OBS      
   R 2   956   956   956   949                              PRN / # OF OBS      
   R 3   983   983   983   980                              PRN / # OF OBS      
   R 4   873   873   873   873                              PRN / # OF OBS      
   R 5   659   659   659   659                              PRN / # OF OBS      
   R 6   762   762   762   761                              PRN / # OF OBS      
   R 7   779   779   779   779                              PRN / # OF OBS      
   R 8   697   697   697   695                              PRN / # OF OBS      
   R 9   899   899   898   891                              PRN / # OF OBS      
   R10   664   664   663   663                              PRN / # OF OBS      
   R11   651   651   651   648                              PRN / # OF OBS      
   R12   758   758   758   757                              PRN / # OF OBS      
   R13   777   777   777   777                              PRN / # OF OBS      
   R14   724   724   724   723                              PRN / # OF OBS      
   R15   969   969   968   968                              PRN / # OF OBS      
   R16  1011  1011  1011  1011                              PRN / # OF OBS      
   R17   929   929   929   929                              PRN / # OF OBS      
   R18   991   991   986   986                              PRN / # OF OBS      
   R19   838   838   837   837                              PRN / # OF OBS      
   R20   599   599   599   598                              PRN / # OF OBS      
   R21   759   759   759   759                              PRN / # OF OBS      
   R22   825   825   824   824                              PRN / # OF OBS      
   R23   799   799   794   793                              PRN / # OF OBS      
   R24   683   683   672   672                              PRN / # OF OBS      
BIT 2 OF LLI FLAGS DATA COLLECTED UNDER A/S CONDITION       COMMENT             
SNR is mapped to RINEX snr flag value [2-9]                 COMMENT             
Lx:     = 25dBHz -> 1; 26-27dBHz -> 2; 28-31dBHz -> 3       COMMENT             
       32-35dBHz -> 4; 36-38dBHz -> 5; 39-41dBHz -> 6       COMMENT             
       42-44dBHz -> 7; 45-48dBHz -> 8; >=49dBHz -> 9        COMMENT             
                                                            END OF HEADER       
 15 03 04 00 00  0.0000000  0  7G16G18G19G21G22G27G31
  21156930.480   111180436.80809  21156927.520    86634112.89548
  22446715.040   117958443.02909  22446713.080    91915739.01746
  24411095.480   128281175.36408  24411093.040    99959355.86145
  21714485.100   114110399.93408  21714481.880    88917186.55447
  23411716.740   123029558.07608  23411714.840    95867230.87346
  22234698.600   116844210.17509  22234697.660    91047462.41448
  23425646.780   123102542.11608  23425647.300    95924031.94447
 15 03 04 00 00 30.0000000  0  7G16G18G19G21G22G27G31
  21146050.080   111123259.84909  21146047.140    86589559.43548
  22437469.240   117909855.84809  22437467.360    91877878.91446
  24396142.380   128202596.22007  24396140.020    99898125.46946
  21724351.480   114162248.04808  21724348.140    88957587.68048
  23394601.300   122939616.56709  23394599.200    95797146.83546
  22223898.860   116787457.43209  22223897.900    91003239.51848
  23444095.060   123199487.25708  23444095.640    95999573.28547
 15 03 04 00 01  0.0000000  0  7G16G18G19G21G22G27G31
  21135233.000   111066415.46609  21135230.000    86545265.11248
  22428291.420   117861626.05809  22428289.640    91840297.29846
  24381206.100   128124106.04608  24381203.800    99836964.43245
  21734270.200   114214371.31608  21734266.800    88998203.21747
  23377502.340   122849761.79008  23377500.080    95727130.37546
  22213122.960   116730829.95009  22213122.020    90959114.24248
  23462561.360   123296527.30908  23462562.120    96075188.58047
 15 03 04 00 01 30.0000000  0  7G16G18G19G21G22G27G31
  21124479.960   111009907.59909  21124476.800    86501233.01148
  22419182.380   117813757.75609  22419180.580    91802997.35546
  24366287.120   128045707.18608  24366284.940    99775874.54245
  21744241.300   114266770.07308  21744237.840    89039033.42047
  23360420.840   122759998.53008  23360418.460    95657185.22746
  22202371.280   116674329.96109  22202370.440    90915088.30348
  23481045.620   123393661.50608  23481046.500    96150877.19846
 15 03 04 00 02  0.0000000  0  7G16G18G19G21G22G27G31
  21113790.480   110953733.85809  21113787.240    86457461.26848
  22410141.680   117766248.58809  22410139.760    91765977.25946
  24351384.760   127967394.86608  24351382.660    99714852.06545
  21754263.620   114319437.95408  21754260.140    89080073.32347
  23343356.400   122670324.97809  23343353.920    95587309.97246
  22191643.040   116617952.87109  22191642.340    90871158.12448
  23499546.280   123490881.94308  23499547.340    96226633.03346
 15 03 04 00 02 30.0000000  0  7G16G18G19G21G22G27G31
  21103166.420   110897904.08509  21103163.240    86413957.55848
  22401171.160   117719108.27109  22401169.100    91729244.57546
  24336500.300   127889177.17908  24336497.980    99653903.32145
  21764338.220   114372380.32908  21764334.740    89121327.12347
  23326311.020   122580751.60609  23326308.360    95517512.75246
  22180939.660   116561706.50809  22180939.080    90827329.80548
  23518064.440   123588194.07508  23518065.580    96302460.28946
 15 03 04 00 03  0.0000000  0  7G16G18G19G21G22G27G31
  21092606.320   110842410.47409  21092603.180    86370715.78748
  22392269.260   117672328.67609  22392267.240    91692792.97746
  24321632.060   127811043.82408  24321629.140    99593020.25145
  21774462.920   114425586.06808  21774459.460    89162786.14147
  23309283.340   122491271.27409  23309280.600    95447788.04346
  22170259.240   116505580.86109  22170258.680    90783595.56848
  23536597.520   123685584.62808  23536598.740    96378348.65346
 15 03 04 00 03 30.0000000  0  7G16G18G19G21G22G27G31
  21082112.160   110787263.13409  21082109.020    86327743.85048
  22383437.980   117625920.01809  22383435.920    91656630.42446
  24306781.360   127733003.28107  24306778.300    99532209.54745
  21784638.880   114479061.23508  21784635.500    89204455.10947
  23292275.420   122401894.87409  23292272.620    95378144.33146
  22159603.300   116449584.15909  22159602.940    90739961.80548
  23555146.580   123783059.09008  23555147.780    96454302.40146
 15 03 04 00 04  0.0000000  0  7G16G18G19G21G22G27G31
  21071684.620   110732465.88409  21071681.460    86285044.70048
  22374678.000   117579886.02009  22374675.880    91620759.81146
  24291948.460   127655056.71708  24291945.420    99471472.10745
  21794866.080   114532805.58108  21794862.740    89246333.83047
  23275288.100   122312626.46709  23275285.240    95308584.74846
  22148972.260   116393717.86909  22148971.860    90696429.65748
  23573711.320   123880615.84408  23573712.520    96530320.25747
 15 03 04 00 04 30.0000000  0  7G16G18G19G21G22G27G31
  21061322.700   110678013.50609  21061319.500    86242614.28648
  22365988.340   117534221.54909  22365986.140    91585177.14346
  24277132.160   127577197.31608  24277129.020    99410802.55845
  21805142.880   114586810.53008  21805139.560    89288415.60647
  23258320.440   122223461.67409  23258317.540    95239105.89947
  22138364.720   116337975.06209  22138364.380    90652993.73548
  23592289.840   123978245.15708  23592291.160    96606394.63147
 15 03 04 00 05  0.0000000  0  7G16G18G19G21G22G27G31
  21051028.640   110623917.68409  21051025.420    86200461.69848
  22357371.160   117488937.98809  22357368.860    91549891.28046
  24262333.960   127499434.27008  24262331.160    99350208.07645
  21815470.620   114641083.35408  21815467.400    89330706.11247
  23241374.860   122134412.85409  23241371.920    95169717.41147
  22127782.440   116282365.09409  22127782.220    90609661.32548
  23610883.380   124075953.08808  23610884.740    96682530.25946
 15 03 04 00 05 30.0000000  0  7G16G18G19G21G22G27G31
  21040800.140   110570166.41509  21040796.840    86158577.59648
  22348824.160   117444023.21309  22348821.880    91514892.77946
  24247551.740   127421753.74508  24247549.100    99289677.90945
  21825846.240   114695608.04108  21825843.160    89373192.86947
  23224449.120   122045468.34109  23224446.120    95100410.17746
  22117222.660   116226873.90409  22117222.560    90566421.45048
  23629488.640   124173722.77608  23629490.080    96758713.99746
 15 03 04 00 06  0.0000000  0  7G16G18G19G21G22G27G31
  21030639.440   110516771.66509  21030636.140    86116971.30648
  22340349.660   117399489.25509  22340347.280    91480191.02646
  24232787.040   127344165.72608  24232784.580    99229219.82346
  21836271.440   114750392.91808  21836268.500    89415882.37847
  23207545.760   121956641.36209  23207542.640    95031194.53846
  22106687.380   116171511.66409  22106687.500    90523282.06148
  23648107.020   124271561.57208  23648108.560    96834951.56046
 15 03 04 00 06 30.0000000  0  7G16G18G19G21G22G27G31
  21020546.740   110463734.39509  21020543.480    86075643.56248
  22331947.680   117355336.83609  22331945.300    91445786.58246
  24218039.860   127266669.05308  24218037.540    99168832.91045
  21846745.500   114805434.17808  21846742.540    89458771.67347
  23190664.940   121867932.78509  23190661.800    94962071.15346
  22096176.400   116116277.05009  22096176.700    90480242.13348
  23666737.780   124369465.22208  23666739.420    96911239.66046
 15 03 04 00 07  0.0000000  0  7G16G18G19G21G22G27G31
  21010522.400   110411056.27409  21010519.120    86034595.68748
  22323618.580   117311567.48309  22323616.220    91411680.61946
  24203310.020   127189263.10608  24203307.660    99108516.71045
  21857267.940   114860729.82408  21857265.040    89501859.18148
  23173807.180   121779345.62309  23173804.000    94893042.37946
  22085689.700   116061169.83409  22085690.160    90437301.46648
  23685380.280   124467430.43908  23685382.080    96987575.71746
 15 03 04 00 07 30.0000000  0  7G16G18G19G21G22G27G31
  21000566.820   110358739.29809  21000563.560    85993829.23048
  22315362.720   117268182.93509  22315360.360    91377874.51747
  24188597.360   127111947.93408  24188594.860    99048271.18545
  21867838.620   114916278.81708  21867835.740    89545144.10548
  23156972.980   121690882.17909  23156969.780    94824109.99047
  22075227.200   116006189.87709  22075227.820    90394459.96748
  23704033.940   124565454.06108  23704035.880    97063957.26546
 15 03 04 00 08  0.0000000  0  7G16G18G19G21G22G27G31
  20990680.220   110306784.81209  20990677.000    85953345.21148
  22307180.280   117225184.42409  22307178.020    91344369.20646
  24173901.900   127034722.92108  24173899.440    98988095.94245
  21878456.820   114972077.71908  21878453.980    89588623.75747
  23140162.740   121602544.62309  23140159.580    94755275.69146
  22064788.820   115951336.56309  22064789.620    90351717.13848
  23722698.060   124663532.44208  23722700.100    97140381.47246
 15 03 04 00 08 30.0000000  0  7G16G18G19G21G22G27G31
  20980863.460   110255197.28509  20980860.180    85913147.14848
  22299072.160   117182576.32009  22299069.940    91311168.11946
  24159223.960   126957590.33508  24159221.360    98927992.73545
  21889122.740   115028127.27408  21889119.900    89632298.73847
  23123377.420   121514338.02809  23123374.280    94686543.45147
  22054375.020   115896612.41809  22054375.900    90309074.97448
  23741372.600   124761665.55008  23741374.660    97216848.30746
 15 03 04 00 09  0.0000000  0  7G16G18G19G21G22G27G31
  20971116.520   110203976.60909  20971113.200    85873234.94348
  22291038.260   117140358.15609  22291036.100    91278270.87946
  24144563.140   126880547.99408  24144560.680    98867959.82645
  21899835.580   115084423.19708  21899832.580    89676165.69547
  23106617.040   121426262.58809  23106613.900    94617913.39946
  22043985.400   115842015.18809  22043986.380    90266531.70048
  23760056.480   124859847.90608  23760058.620    97293353.50446
 15 03 04 00 09 30.0000000  0  7G16G18G19G21G22G27G31
  20961439.580   110153123.96209  20961436.180    85833609.50448
  22283078.860   117098531.28009  22283076.740    91245678.54347
  24129919.380   126803595.18108  24129917.020    98807996.67945
  21910594.880   115140963.60308  21910591.860    89720223.13648
  23089882.120   121338320.78309  23089878.940    94549387.46947
  22033619.960   115787544.27309  22033620.940    90224086.84148
  23778749.000   124958075.63608  23778751.160    97369894.03147
 15 03 04 00 10  0.0000000  0  7G16G18G19G21G22G27G31
  20951833.940   110102645.97809  20951830.560    85794276.01448
  22275195.120   117057102.01209  22275193.060    91213396.02346
  24115293.400   126726736.31408  24115291.280    98748106.75545
  21921401.060   115197750.58308  21921398.080    89764472.72047
  23073173.880   121250519.35409  23073170.760    94480970.91447
  22023279.460   115733204.33409  22023280.380    90181744.06248
  23797450.640   125056351.23908  23797452.920    97446471.84446
 15 03 04 00 10 30.0000000  0  7G16G18G19G21G22G27G31
  20942298.900   110052538.96809  20942295.540    85755231.59348
  22267386.260   117016066.19709  22267384.200    91181420.10046
  24100684.380   126649965.84508  24100682.160    98688285.71145
  21932252.740   115254776.63508  21932249.720    89808908.60647
  23056491.900   121162855.68709  23056488.840    94412661.71547
  22012962.780   115678989.58409  22012963.600    90139498.81348
  23816159.640   125154665.56408  23816162.100    97523079.82346
 15 03 04 00 11  0.0000000  0  7G16G18G19G21G22G27G31
  20932835.620   110002808.98609  20932832.220    85716480.95948
  22259653.440   116975430.00909  22259651.380    91149755.56446
  24086093.000   126573287.91508  24086090.680    98628536.73845
  21943150.300   115312043.96808  21943147.340    89853532.49347
  23039837.480   121075336.85009  23039834.480    94344465.36646
  22002670.720   115624904.24609  22002671.480    90097354.41648
  23834876.240   125253019.62708  23834878.780    97599718.73946
 15 03 04 00 11 30.0000000  0  7G16G18G19G21G22G27G31
  20923443.500   109953453.36709  20923440.160    85678022.04148
  22251996.060   116935190.13409  22251993.920    91118399.84347
  24071518.340   126496697.39708  24071516.120    98568855.90345
  21954092.580   115369545.98208  21954089.480    89898339.25947
  23023210.120   120987960.21409  23023207.100    94276379.80747
  21992402.380   115570943.49309  21992403.060    90055307.10448
  23853599.000   125351406.00408  23853601.640    97676382.82246
 15 03 04 00 12  0.0000000  0  7G16G18G19G21G22G27G31
  20914123.620   109904477.28509  20914120.320    85639858.87348
  22244415.080   116895351.70509  22244412.860    91087356.94447
  24056961.060   126420197.63808  24056958.860    98509245.77146
  21965079.700   115427283.73508  21965076.600    89943329.71047
  23006611.020   120900731.97708  23006607.920    94208409.87547
  21982158.420   115517110.65709  21982159.040    90013359.46348
  23872327.980   125449825.06708  23872330.740    97753072.35646
 15 03 04 00 12 30.0000000  0  7G16G18G19G21G22G27G31
  20904876.420   109855883.07609  20904873.160    85601993.26448
  22236910.820   116855916.65509  22236908.500    91056628.36446
  24042421.000   126343788.81308  24042418.380    98449706.50645
  21976111.380   115485255.90108  21976108.240    89988502.83147
  22990040.660   120813654.92309  22990037.520    94140557.76046
  21971938.900   115463405.87909  21971939.240    89971511.60248
  23891062.640   125548273.87108  23891065.600    97829785.04246
 15 03 04 00 13  0.0000000  0  7G16G18G19G21G22G27G31
  20895702.900   109807676.10009  20895699.660    85564429.38648
  22229484.420   116816890.77809  22229482.020    91026218.62247
  24027899.000   126267474.73308  24027896.080    98390241.08045
  21987188.000   115543464.25508  21987184.760    90033859.99247
  22973500.280   120726735.40708  22973497.140    94072828.39847
  21961744.560   115409833.18609  21961744.640    89929766.67348
  23909803.120   125646753.05208  23909806.320    97906521.39146
 15 03 04 00 13 30.0000000  0  7G16G18G19G21G22G27G31
  20886602.260   109759851.95309  20886599.080    85527163.83248
  22222134.920   116778269.07309  22222132.480    90996123.81046
  24013393.740   126191248.78608  24013390.860    98330844.30145
  21998308.100   115601900.54409  21998304.840    90079394.76447
  22956989.220   120639969.85209  22956986.020    94005219.00646
  21951574.140   115356386.01709  21951573.920    89888119.54748
  23928547.700   125745253.81008  23928551.000    97983274.52846
 15 03 04 00 14  0.0000000  0  7G16G18G19G21G22G27G31
  20877575.740   109712417.73809  20877572.640    85490202.12048
  22214863.480   116740057.71609  22214861.120    90966348.76246
  23998906.080   126115115.82108  23998903.020    98271519.99145
  22009472.060   115660567.19508  22009468.680    90125109.04246
  22940508.860   120553365.70908  22940505.700    93937735.38547
  21941428.500   115303069.30509  21941428.020    89846574.09248
  23947296.740   125843777.93208  23947300.220    98060045.85646
 15 03 04 00 14 30.0000000  0  7G16G18G19G21G22G27G31
  20868623.760   109665375.13109  20868620.740    85453545.55348
  22207670.460   116702258.45409  22207668.100    90936894.83046
  23984436.040   126039075.50008  23984432.980    98212267.86845
  22020679.500   115719462.59008  22020676.060    90171001.55947
  22924059.660   120466925.43109  22924056.560    93870379.44547
  21931307.580   115249882.80209  21931306.900    89805130.07448
  23966049.600   125942321.98408  23966053.260    98136832.68046
 15 03 04 00 15  0.0000000  0  7G16G18G19G21G22G27G31
  20859746.560   109618725.31109  20859743.500    85417195.05948
  22200556.040   116664872.32109  22200553.680    90907762.80146
  23969983.440   125963127.44108  23969980.780    98153087.65745
  22031929.880   115778584.34308  22031926.680    90217070.43547
  22907642.080   120380651.37009  22907639.100    93803153.01047
  21921211.340   115196826.21909  21921210.580    89763787.29348
  23984805.680   126040882.90408  23984809.480    98213632.63146
 15 03 04 00 15 30.0000000  0 15G16G18G19G21G22G27G31R01R02R14R15R16
                                R17R18R24
  20850944.080   109572468.20909  20850941.080    85381150.57648
  22193520.220   116627899.12609  22193517.900    90878952.54646
  23955547.920   125887269.08608  23955545.140    98093977.31245
  22043222.520   115837928.03708  22043219.480    90263312.26947
  22891256.200   120294543.89808  22891253.280    93736056.39247
  21911139.360   115143897.42609  21911138.580    89722544.10848
  24003563.960   126139455.55308  24003567.900    98290441.71246
  22788678.780   121818550.42108  22788683.500    94747775.73105
  22214275.320   118539631.75508  22214279.280    92197504.43707
  22639601.980   120681808.00607  22639612.100    93863654.01605
  20060072.100   107194942.84808  20060075.800    83373859.58108
  21350614.080   114051144.15309  21350615.620    88706451.65808
  20217263.300   108186655.62108  20217263.680    84145181.18308
  21114917.300   112712862.55109  21114920.640    87665571.34408
  23288267.060   124532834.26006  23288269.060    96858875.49705
 15 03 04 00 16  0.0000000  0 15G16G18G19G21G22G27G31R01R02R14R15R16
                                R17R18R24
  20842220.120   109526623.97809  20842217.180    85345427.81148
  22186566.720   116591358.34809  22186564.400    90850479.24447
  23941132.980   125811519.11108  23941130.100    98034951.42945
  22054560.640   115897510.12808  22054557.560    90309739.86647
  22874905.920   120208623.60308  22874903.080    93669105.62147
  21901095.140   115091114.84309  21901094.380    89681414.84948
  24022327.400   126238055.30308  24022331.520    98367271.90546
  22791314.460   121832638.98907  22791318.840    94758733.54905
  22199067.600   118458480.28208  22199071.400    92134386.66807
  22664893.560   120816624.81106  22664903.480    93968510.91105
  20072094.040   107259184.74208  20072097.840    83423825.46508
  21337160.040   113979275.53309  21337161.620    88650553.84807
  20223118.000   108217985.00108  20223118.040    84169548.50108
  21106801.820   112669541.71509  21106805.240    87631877.39308
  23303623.500   124614949.88806  23303625.100    96922743.13505
 15 03 04 00 16 30.0000000  0 15G16G18G19G21G22G27G31R01R02R14R15R16
                                R17R18R24
  20833567.880   109481156.48609  20833564.980    85309998.59948
  22179688.640   116555213.84009  22179686.360    90822314.72647
  23926731.540   125735839.13308  23926728.460    97975980.07345
  22065936.600   115957290.70008  22065933.480    90356322.13247
  22858584.640   120122855.58308  22858581.960    93602273.49247
  21891071.400   115038440.31509  21891070.720    89640369.79148
  24041088.260   126336641.41608  24041092.680    98444091.44646
  22794082.960   121847439.03707  22794087.480    94770244.68305
  22183940.260   118377757.07209  22183943.620    92071601.98507
  22690207.960   120951563.57106  22690217.900    94073462.60805
  20084245.440   107324118.28108  20084249.340    83474329.29108
  21323828.980   113908064.42908  21323830.600    88595167.43608
  20229000.980   108249466.37908  20229001.180    84194034.00908
  21098725.160   112626428.03809  21098728.660    87598344.56008
  23318966.620   124696995.71307  23318968.020    96986556.48205
 15 03 04 00 17  0.0000000  0 15G16G18G19G21G22G27G31R01R02R14R15R16
                                R17R18R24
  20824992.580   109436093.02009  20824989.720    85274884.21148
  22172891.040   116519492.29009  22172888.760    90794479.76447
  23912348.200   125660254.51508  23912345.100    97917083.02745
  22077354.780   116017293.13608  22077351.640    90403077.26447
  22842297.680   120037267.97408  22842295.100    93535581.94147
  21881072.980   114985899.28309  21881072.440    89599428.74148
  24059850.800   126435235.86308  24059855.240    98520917.48646
  22796989.240   121862975.88607  22796994.020    94782328.89105
  22168898.680   118297492.03709  22168902.160    92009173.66707
  22715549.340   121086645.40106  22715559.380    94178525.56105
  20096530.560   107389766.66508  20096534.620    83525389.11008
  21310626.400   113837539.79108  21310628.160    88540314.93608
  20234916.900   108281123.81208  20234917.360    84218656.43808
  21090691.900   112583546.09209  21090695.340    87564991.95808
  23334301.560   124778997.18907  23334302.840    97050335.40005
 15 03 04 00 17 30.0000000  0 15G16G18G19G21G22G27G31R01R02R14R15R16
                                R17R18R24
  20816494.280   109391434.15509  20816491.440    85240085.09848
  22166173.960   116484194.06709  22166171.700    90766974.68847
  23897982.760   125584763.84508  23897979.580    97858259.17945
  22088814.560   116077514.53708  22088811.480    90450003.02347
  22826045.300   119951861.83208  22826042.740    93469031.79647
  21871099.740   114933490.52009  21871099.340    89558590.76248
  24078614.240   126533834.71908  24078618.700    98597746.94546
  22800033.260   121879248.42308  22800038.020    94794985.33105
  22153943.360   118217688.08209  22153947.200    91947103.98107
  22740916.660   121221865.03107  22740926.760    94283695.66505
  20108948.540   107456124.76108  20108952.600    83577000.93608
  21297552.640   113767703.25508  21297554.540    88485997.63608
  20240865.360   108312955.38608  20240865.820    84243414.33108
  21082701.660   112540893.88809  21082705.040    87531818.04308
  23349627.860   124860952.30807  23349628.700    97114078.27704
 15 03 04 00 18  0.0000000  0 15G16G18G19G21G22G27G31R01R02R14R15R16
                                R17R18R24
  20808072.300   109347176.53509  20808069.540    85205598.65148
  22159536.700   116449315.27209  22159534.460    90739796.43547
  23883634.280   125509362.02608  23883631.080    97799504.56246
  22100314.560   116137947.54208  22100311.580    90497093.66647
  22809826.920   119866634.51808  22809824.460    93402621.01347
  21861150.700   114881208.78909  21861150.400    89517851.76648
  24097376.820   126632429.58708  24097381.440    98674573.32246
  22803214.020   121896250.97008  22803218.460    94808209.60904
  22139074.240   118138343.94509  22139078.180    91885391.92607
  22766308.000   121357212.49706  22766318.220    94388965.17205
  20121497.820   107523184.23108  20121501.900    83629158.27408
  21284607.280   113698552.70508  21284609.440    88432213.89408
  20246845.100   108344954.15608  20246845.560    84268302.26708
  21074753.260   112498465.11509  21074756.580    87498817.91308
  23364944.180   124942855.41807  23364945.020    97177780.72904
 15 03 04 00 18 30.0000000  0 15G16G18G19G21G22G27G31R01R02R14R15R16
                                R17R18R24
  20799728.200   109303328.14909  20799725.480    85171431.07948
  22152980.780   116414863.68809  22152978.480    90712951.07146
  23869303.680   125434054.65308  23869300.620    97740823.56946
  22111855.620   116198596.16908  22111852.660    90544352.34147
  22793644.180   119781594.64408  22793641.860    93336356.27647
  21851227.020   114829060.18709  21851226.780    89477216.50648
  24116139.320   126731024.08208  24116144.180    98751399.40446
  22806532.360   121913989.23807  22806536.680    94822006.05904
  22124293.260   118059469.76609  22124297.100    91824045.38407
  22791723.720   121492689.78506  22791734.040    94494335.59605
  20134178.880   107590947.80508  20134182.960    83681863.23708
  21271792.080   113630097.23508  21271794.440    88378970.76707
  20252856.920   108377124.90308  20252857.540    84293323.95308
  21066847.700   112456264.84309  21066850.940    87465995.49208
  23380251.800   125024712.55606  23380252.760    97241447.37104
 15 03 04 00 19  0.0000000  0 15G16G18G19G21G22G27G31R01R02R14R15R16
                                R17R18R24
  20791461.320   109259885.56109  20791458.580    85137579.72348
  22146505.440   116380835.55709  22146503.100    90686435.66747
  23854990.220   125358836.76408  23854987.420    97682212.30446
  22123436.420   116259453.53108  22123433.400    90591773.65647
  22777496.700   119696739.84208  22777494.460    93270235.74347
  21841327.780   114777039.76309  21841327.540    89436681.12948
  24134900.180   126829609.97908  24134905.220    98828218.77745
  22809987.240   121932457.82508  22809991.620    94836370.53605
  22109600.180   117981064.59609  22109603.840    91763063.63007
  22817161.960   121628287.10106  22817172.340    94599799.37105
  20146989.900   107659405.58708  20146993.960    83735108.13708
  21259106.580   113562334.63108  21259109.180    88326266.54008
  20258899.720   108409461.22908  20258900.320    84318474.43308
  21058983.780   112414287.14409  21058987.080    87433346.18508
  23395549.520   125106517.87706  23395550.760    97305073.67705
 15 03 04 00 19 30.0000000  0 15G16G18G19G21G22G27G31R01R02R14R15R16
                                R17R18R24
  20783272.800   109216854.73009  20783270.060    85104049.21748
  22140111.720   116347236.61309  22140109.400    90660254.69247
  23840694.520   125283712.52108  23840691.780    97623673.98646
  22135057.360   116320521.73608  22135054.260    90639359.26847
  22761385.800   119612077.04308  22761383.580    93204264.83147
  21831453.700   114725151.76109  21831453.540    89396248.93848
  24153659.680   126928188.73208  24153664.880    98905032.64346
  22813579.600   121951660.42708  22813584.040    94851305.92505
  22094996.440   117903136.52708  22094999.920    91702452.95507
  22842622.860   121764004.75006  22842633.340    94705356.67605
  20159931.600   107728561.71508  20159935.660    83788896.20308
  21246552.180   113495272.15108  21246554.960    88274106.84608
  20264974.040   108441965.99208  20264974.620    84343755.92408
  21051162.180   112372535.35509  21051165.520    87400872.59208
  23410838.420   125188275.30907  23410839.940    97368662.74905
 15 03 04 00 20  0.0000000  0 15G16G18G19G21G22G27G31R01R02R14R15R16
                                R17R18R24
  20775163.000   109174237.52509  20775160.260    85070841.00748
  22133799.900   116314067.73509  22133797.540    90634408.83847
  23826416.560   125208681.73508  23826414.000    97565208.52046
  22146717.880   116381798.05908  22146714.660    90687107.05047
  22745311.920   119527608.57508  22745309.700    93138445.33847
  21821604.820   114673396.07309  21821604.700    89355919.84548
  24172417.240   127026757.10708  24172422.640    98981838.43145
  22817309.220   121971596.47808  22817313.620    94866811.77705
  22080482.800   117825689.73408  22080486.380    91642216.61307
  22868105.500   121899838.05106  22868116.040    94811003.93205
  20173002.880   107798410.12808  20173006.860    83843222.71508
  21234129.420   113428912.72308  21234132.320    88222493.96408
  20271079.520   108474638.01608  20271080.140    84369167.49208
  21043382.720   112331008.45709  21043386.180    87368573.89508
  23426118.600   125269984.68907  23426120.180    97432214.47105
 15 03 04 00 20 30.0000000  0 15G16G18G19G21G22G27G31R01R02R14R15R16
                                R17R18R24
  20767131.900   109132033.58109  20767129.080    85037954.81548
  22127569.860   116281328.63109  22127567.460    90608897.87247
  23812156.020   125133742.29308  23812153.460    97506814.22846
  22158417.480   116443279.93208  22158414.300    90735014.99547
  22729275.180   119443335.17608  22729272.920    93072777.82847
  21811780.800   114621770.74609  21811780.700    89315692.31348
  24191171.900   127125310.32008  24191177.440    99058632.47445
  22821175.500   121992263.42008  22821179.840    94882886.09705
  22066059.740   117748726.13009  22066063.400    91582356.07807
  22893608.660   122035780.74207  22893619.280    94916736.22205
  20186202.840   107868946.33508  20186206.820    83898084.18808
  21221838.440   113363256.89108  21221841.360    88171428.32508
  20277215.620   108507473.67108  20277216.060    84394706.32608
  21035644.840   112289703.30909  21035648.280    87336447.70308
  23441389.240   125351643.29507  23441390.780    97495726.71304
 15 03 04 00 21  0.0000000  0 15G16G18G19G21G22G27G31R01R02R14R15R16
                                R17R18R24
  20759179.560   109090243.64909  20759176.720    85005391.23648
  22121421.680   116249019.73709  22121419.260    90583722.14047
  23797912.640   125058892.80308  23797909.920    97448490.01145
  22170155.540   116504963.78808  22170152.400    90783080.33147
  22713275.860   119359258.30108  22713273.540    93007263.46247
  21801981.400   114570274.67009  21801981.300    89275565.51148
  24209922.880   127223844.37408  24209928.580    99135411.58545
  22825178.100   122013660.08407  22825182.440    94899527.96105
  22051727.840   117672248.49409  22051731.500    91522873.51507
  22919131.340   122171827.36406  22919142.140    95022549.32905
  20199530.580   107940165.41908  20199534.540    83953476.78408
  21209679.600   113298306.49408  21209682.460    88120911.35108
  20283381.940   108540470.73208  20283382.300    84420370.71108
  21027948.140   112248618.01509  21027951.560    87304492.48008
  23456650.040   125433249.37806  23456651.340    97559198.10104
 15 03 04 00 21 30.0000000  0 15G16G18G19G21G22G27G31R01R02R14R15R16
                                R17R18R24
  20751307.280   109048874.50709  20751304.480    84973155.55348
  22115356.540   116217147.22209  22115354.120    90558886.43847
  23783687.200   124984137.70808  23783684.240    97390239.35645
  22181932.440   116566851.58409  22181929.200    90831304.58847
  22697315.360   119275385.14908  22697312.900    92941907.84747
  21792207.540   114518912.57409  21792207.480    89235543.11048
  24228670.460   127322360.64008  24228676.300    99212176.81445
  22829317.760   122035790.03507  22829322.520    94916740.11805
  22037488.580   117596265.49308  22037492.140    91463775.67307
  22944673.480   122307978.10506  22944684.580    95128443.37105
  20212986.340   108012068.84008  20212990.320    84009401.64308
  21197654.360   113234069.32908  21197657.060    88070949.12008
  20289579.000   108573632.54008  20289579.500    84446163.23108
  21020293.260   112207756.03409  21020296.720    87272710.96608
  23471901.840   125514807.82006  23471902.960    97622632.46004
 15 03 04 00 22  0.0000000  0 15G16G18G19G21G22G27G31R01R02R14R15R16
                                R17R18R24
  20743514.860   109007925.00109  20743512.060    84941246.84748
  22109374.040   116185708.85109  22109371.560    90534389.03347
  23769479.360   124909474.36608  23769476.040    97332060.16945
  22193747.400   116628939.37908  22193744.140    90879684.68547
  22681393.580   119191715.53108  22681391.060    92876710.83047
  21782458.660   114467681.68709  21782458.600    89195622.95348
  24247413.580   127420853.71208  24247419.680    99288923.96045
  22833594.040   122058649.97007  22833599.020    94934520.06305
  22023342.220   117520778.40509  22023345.620    91405063.54407
  22970233.860   122444225.76906  22970245.320    95234412.80405
  20226568.760   108084649.24908  20226572.780    84065853.04908
  21185762.600   113170545.00809  21185765.220    88021541.32808
  20295806.080   108606955.07708  20295806.600    84472080.75708
  21012679.560   112167113.80309  21012683.080    87241100.35908
  23487144.040   125596315.03207  23487145.180    97686026.93304
 15 03 04 00 22 30.0000000  0 15G16G18G19G21G22G27G31R01R02R14R15R16
                                R17R18R24
  20735802.780   108967397.49409  20735799.940    84909666.98048
  22103474.720   116154707.74209  22103472.200    90510232.35147
  23755289.100   124834903.78408  23755285.480    97273953.26145
  22205600.240   116691226.60808  22205596.920    90928220.19247
  22665511.240   119108252.99208  22665508.540    92811675.16647
  21772735.020   114416583.21009  21772734.960    89155805.97648
  24266152.000   127519321.93408  24266158.380    99365651.78745
  22838006.900   122082240.53407  22838011.980    94952868.27005
  22009289.780   117445792.02409  22009293.340    91346740.84007
  22995811.900   122580567.29106  22995823.680    95340455.19605
  20240277.520   108157904.84008  20240281.560    84122829.59108
  21174004.960   113107737.55208  21174007.480    87972691.09008
  20302063.140   108640438.08308  20302063.600    84498123.08908
  21005107.060   112126691.44709  21005110.680    87209660.76308
  23502377.000   125677772.05507  23502378.240    97749382.40105
 15 03 04 00 23  0.0000000  0 15G16G18G19G21G22G27G31R01R02R14R15R16
                                R17R18R24
  20728171.500   108927294.39809  20728168.580    84878417.81448
  22097658.920   116124145.48509  22097656.300    90486417.62247
  23741116.320   124760426.02408  23741112.740    97215918.70245
  22217490.500   116753710.46108  22217487.060    90976908.89947
  22649668.840   119025000.49809  22649666.000    92746803.17047
  21763036.660   114365617.51909  21763036.560    89116092.46948
  24284885.200   127617762.60508  24284891.600    99442358.15345
  22842556.480   122106561.04508  22842561.060    94971784.25604
  21995332.020   117371310.74209  21995335.680    91288810.99807
  23021406.820   122716998.91006  23021418.980    95446567.66805
  20254112.100   108231833.06808  20254116.220    84180329.29308
  21162382.020   113045650.08808  21162384.540    87924400.84908
  20308350.080   108674080.57308  20308350.600    84524289.46808
  20997575.740   112086488.42309  20997579.380    87178391.75108
  23517600.500   125759178.67507  23517601.840    97812698.65905
 15 03 04 00 23 30.0000000  0 15G16G18G19G21G22G27G31R01R02R14R15R16
                                R17R18R24
  20720621.700   108887619.66609  20720618.700    84847502.44048
  22091927.180   116094025.07809  22091924.540    90462947.20747
  23726961.560   124686043.42208  23726958.100    97157958.29745
  22229418.380   116816392.01508  22229414.940    91025751.67447
  22633867.320   118941962.71609  22633864.360    92682098.48247
  21753364.000   114314786.85909  21753363.820    89076484.19148
  24303612.980   127716174.88208  24303619.500    99519042.31145
  22847243.200   122131613.26908  22847247.360    94991269.40105
  21981470.020   117297340.72109  21981473.620    91231278.80307
  23047018.280   122853518.29606  23047030.640    95552748.39105
  20268072.140   108306431.58908  20268076.300    84238350.33108
  21150894.680   112984287.40408  21150897.240    87876674.32108
  20314667.060   108707883.66408  20314667.620    84550580.76808
  20990085.700   112046505.89409  20990089.380    87147294.25508
  23532814.920   125840536.65007  23532816.300    97875977.06404
 15 03 04 00 24  0.0000000  0 15G16G18G19G21G22G27G31R01R02R14R15R16
                                R17R18R24
  20713153.200   108848372.34209  20713150.180    84816920.11248
  22086279.360   116064345.70409  22086276.760    90439820.44147
  23712824.220   124611753.29108  23712821.000    97100069.93146
  22241383.060   116879266.90108  22241379.760    91074745.08847
  22618106.660   118859139.86209  22618103.640    92617561.26847
  21743716.560   114264088.84909  21743716.300    89036979.26348
  24322334.320   127814553.38408  24322341.000    99595700.18846
  22852066.220   122157393.72208  22852070.140    95011320.88604
  21967704.140   117223883.45909  21967707.480    91174145.41007
  23072644.860   122990118.69406  23072657.420    95658992.12105
  20282156.420   108381693.87608  20282160.660    84296887.62408
  21139543.100   112923649.91308  21139545.780    87829511.83808
  20321013.300   108741843.43808  20321013.920    84576993.91308
  20982636.360   112006740.37609  20982639.920    87116365.52308
  23548019.620   125921843.51906  23548021.100    97939215.69604
 15 03 04 00 24 30.0000000  0 15G16G18G19G21G22G27G31R01R02R14R15R16
                                R17R18R24
  20705766.320   108809553.99409  20705763.260    84786672.04248
  22080715.580   116035108.06609  22080713.000    90417037.89547
  23698704.500   124537554.74608  23698701.980    97042252.96846
  22253383.900   116942332.19508  22253380.820    91123886.85947
  22602387.300   118776534.14109  22602384.240    92553193.24748
  21734094.220   114213522.99009  21734093.900    88997577.30548
  24341048.580   127912894.80708  24341055.560    99672329.24546
  22857025.200   122183901.39507  22857028.820    95031938.00304
  21954034.920   117150941.99709  21954038.240    91117413.21007
  23098285.860   123126795.20206  23098298.580    95765295.04105
  20296364.220   108457616.15908  20296368.520    84355938.25108
  21128327.680   112863739.41708  21128330.360    87782914.78608
  20327388.480   108775958.26808  20327389.020    84603527.67008
  20975227.400   111967190.38309  20975230.820    87085604.44208
  23563214.560   126003098.16007  23563215.920    98002413.73704
 15 03 04 00 25  0.0000000  0 15G16G18G19G21G22G27G31R01R02R14R15R16
                                R17R18R24
  20698461.540   108771167.22609  20698458.500    84756760.27948
  22075236.320   116006314.71009  22075233.800    90394601.54047
  23684602.640   124463449.22908  23684600.120    96984508.47146
  22265420.960   117005587.68508  22265417.960    91173176.84747
  22586709.900   118694149.02209  22586706.760    92488997.13247
  21724497.280   114163090.64309  21724496.960    88958279.39748
  24359755.500   128011197.67008  24359762.680    99748928.25745
  22862120.040   122211136.21408  22862123.360    95053120.69704
  21940463.400   117078521.64609  21940466.840    91061086.31307
  23123940.500   123263544.77806  23123953.520    95871654.81505
  20310695.200   108534196.36508  20310699.520    84415500.61108
  21117249.220   112804559.97608  21117251.780    87736886.33208
  20333792.640   108810228.16308  20333793.080    84630182.03008
  20967858.860   111927856.19209  20967862.120    87055011.20308
  23578400.000   126084301.37407  23578401.200    98065571.84304
 15 03 04 00 25 30.0000000  0 15G16G18G19G21G22G27G31R01R02R14R15R16
                                R17R18R24
  20691238.860   108733211.87309  20691235.800    84727184.67848
  22069841.420   115977964.51609  22069838.940    90372510.50047
  23670518.040   124389434.03608  23670515.240    96926834.33346
  22277493.360   117069028.77708  22277490.300    91222611.45747
  22571074.580   118611985.05809  22571071.360    92424973.33747
  21714925.300   114112789.55909  21714925.000    88919083.76248
  24378454.080   128109456.93308  24378461.460    99825493.32946
  22867350.340   122239095.09807  22867353.680    95074866.51904
  21926989.780   117006623.79009  21926993.240    91005165.80307
  23149607.760   123400360.81306  23149620.860    95978066.27904
  20325148.260   108611428.63608  20325152.500    84475570.10108
  21106307.680   112746111.74909  21106310.100    87691426.60408
  20340225.020   108844649.53708  20340225.620    84656954.20008
  20960530.140   111888734.66409  20960533.320    87024583.37308
  23593575.500   126165451.11207  23593576.640    98128688.30704
 15 03 04 00 26  0.0000000  0 15G16G18G19G21G22G27G31R01R02R14R15R16
                                R17R18R24
  20684099.260   108695692.96909  20684096.180    84697949.17248
  22064531.760   115950062.27509  22064529.320    90350768.52547
  23656451.460   124315513.21508  23656448.680    96869233.74646
  22289601.560   117132657.87108  22289598.500    91272192.56347
  22555482.580   118530048.77609  22555479.340    92361126.95247
  21705379.040   114062623.67209  21705378.740    88879993.48848
  24397144.460   128207673.11808  24397151.920    99902024.87246
  22872716.560   122267781.02008  22872720.260    95097177.80205
  21913615.520   116935256.26109  21913618.940    90949657.75807
  23175287.240   123537242.88906  23175300.520    96084529.12705
  20339723.320   108689312.58908  20339727.440    84536146.47608
  21095504.240   112688401.18109  21095506.560    87646540.61308
  20346686.180   108879225.07408  20346687.020    84683846.28808
  20953241.800   111849828.59109  20953244.860    86994323.11708
  23608741.520   126246550.46007  23608742.720    98191765.57204
 15 03 04 00 26 30.0000000  0 15G16G18G19G21G22G27G31R01R02R14R15R16
                                R17R18R24
  20677043.120   108658612.60409  20677040.020    84669055.38148
  22059307.720   115922609.89109  22059305.280    90329377.08547
  23642402.920   124241687.11608  23642399.960    96811706.98246
  22301745.080   117196472.43908  22301742.040    91321918.19647
  22539934.400   118448342.73509  22539931.120    92297459.98547
  21695858.620   114012593.43809  21695858.360    88841008.92548
  24415826.080   128305843.63908  24415833.780    99978520.76745
  22878218.520   122297193.35007  22878222.820    95120054.02505
  21900341.400   116864423.05109  21900344.800    90894565.30307
  23200978.400   123674187.35106  23200991.920    96191040.51205
  20354419.620   108767844.60008  20354423.680    84597226.89308
  21084839.460   112631431.08409  21084841.680    87602230.53108
  20353176.000   108913953.92008  20353177.040    84710857.61708
  20945993.720   111811137.22809  20945996.680    86964229.85108
  23623898.120   126327599.63806  23623899.440    98254803.77405
 15 03 04 00 27  0.0000000  0 15G16G18G19G21G22G27G31R01R02R14R15R16
                                R17R18R24
  20670070.480   108621971.09909  20670067.380    84640503.55748
  22054169.160   115895606.75409  22054166.700    90308335.69147
  23628371.880   124167953.66408  23628368.820    96754252.39046
  22313923.380   117260469.77208  22313920.340    91371786.23947
  22524430.220   118366867.98009  22524426.920    92233973.23848
  21686363.740   113962697.28009  21686363.440    88802128.81148
  24434498.260   128403964.46508  24434506.160   100054978.01246
  22883856.000   122327329.56908  22883860.680    95143493.31306
  21887167.820   116794126.26409  21887171.280    90839890.06508
  23226680.040   123811187.69006  23226693.700    96297595.41505
  20369236.240   108847019.49108  20369240.200    84658807.33108
  21074313.400   112575202.21909  21074315.460    87558496.95908
  20359694.000   108948833.23208  20359695.180    84737985.96208
  20938785.380   111772658.21409  20938788.280    86934301.76208
  23639044.900   126408596.91106  23639046.400    98317801.57404
 15 03 04 00 27 30.0000000  0 14G16G18G19G21G22G27G31R01R02R14R15R16
                                R17R18
  20663181.220   108585767.65909  20663178.100    84612293.09548
  22049115.760   115869051.19509  22049113.280    90287643.07747
  23614357.980   124094310.56608  23614354.980    96696868.22246
  22326135.740   117324645.93408  22326132.720    91421793.64447
  22508970.140   118285624.94009  22508966.800    92170667.04548
  21676893.940   113912933.13509  21676893.580    88763351.58848
  24453159.960   128502030.45308  24453168.040   100131392.64445
  22889628.320   122358186.24808  22889633.200    95167492.95905
  21874095.020   116724367.67209  21874098.720    90785633.44307
  23252391.060   123948238.24006  23252405.000    96404189.37805
  20384172.000   108926831.12708  20384175.940    84720883.02908
  21063926.080   112519714.71008  21063928.180    87515340.00808
  20366239.520   108983859.64208  20366240.640    84765228.74008
  20931616.160   111734388.20109  20931618.940    86904536.22808
 15 03 04 00 28  0.0000000  0 14G16G18G19G21G22G27G31R01R02R14R15R16
                                R17R18
  20656376.380   108550008.12009  20656373.360    84584428.51548
  22044148.700   115842949.27109  22044146.260    90267303.93247
  23600362.060   124020761.94608  23600359.100    96639557.64846
  22338382.440   117389002.44008  22338379.420    91471941.55547
  22493555.380   118204619.88209  22493551.920    92107546.27047
  21667449.960   113863305.12709  21667449.640    88724680.43548
  24471811.380   128600042.59008  24471819.640   100207765.27045
  22895536.060   122389766.27908  22895541.000    95192055.21005
  21861124.500   116655155.00409  21861128.240    90731801.39107
  23278111.440   124085338.48806  23278125.760    96510822.02704
  20399226.820   109007279.40608  20399230.780    84783453.86408
  21053678.740   112464975.32609  21053681.040    87472764.93708
  20372813.080   109019036.15108  20372814.080    84792588.22808
  20924486.740   111696330.46209  20924489.320    86874935.77908
 15 03 04 00 28 30.0000000  0 14G16G18G19G21G22G27G31R01R02R14R15R16
                                R17R18
  20649656.580   108514695.55909  20649653.600    84556912.24148
  22039268.400   115817303.21009  22039266.000    90247320.01647
  23586384.400   123947309.04908  23586381.560    96582321.68446
  22350663.360   117453538.69808  22350660.260    91522229.55047
  22478186.660   118123856.84709  22478183.120    92044614.10648
  21658032.080   113813814.60309  21658031.840    88686116.41948
  24490452.260   128697999.55208  24490460.720   100284094.90246
  22901579.320   122422069.79108  22901583.840    95217180.20505
  21848257.120   116586493.00409  21848261.060    90678397.66507
  23303840.500   124222485.40406  23303855.100    96617491.06104
  20414400.360   109088362.07008  20414404.360    84846518.12508
  21043572.140   112410987.58709  21043574.580    87430774.47608
  20379414.720   109054362.86008  20379415.700    84820064.54908
  20917397.080   111658485.06609  20917399.500    86845500.50608
 15 03 04 00 29  0.0000000  0 14G16G18G19G21G22G27G31R01R02R14R15R16
                                R17R18
  20643021.620   108479829.04809  20643018.660    84529743.53348
  22034474.640   115792111.75309  22034472.240    90227690.32947
  23572424.540   123873949.35108  23572421.740    96525158.34646
  22362977.640   117518250.42108  22362974.440    91572654.26347
  22462863.920   118043335.87509  22462860.400    91981870.56347
  21648640.000   113764459.49609  21648639.760    88647657.91348
  24509081.600   128795895.76208  24509090.200   100360377.13345
  22907757.340   122455093.63808  22907761.400    95242865.44204
  21835493.380   116518383.48209  21835497.300    90625423.64007
  23329577.040   124359672.41706  23329591.780    96724191.33104
  20429691.380   109170072.27808  20429695.380    84910070.47908
  21033606.160   112357751.32708  21033608.760    87389368.50408
  20386043.760   109089836.31308  20386044.720    84847655.00408
  20910346.640   111620849.04209  20910349.000    86816228.06808
 15 03 04 00 29 30.0000000  0 14G16G18G19G21G22G27G31R01R02R14R15R16
                                R17R18
  20636471.840   108445409.85309  20636468.880    84502923.37548
  22029767.500   115767375.29709  22029765.060    90208415.20147
  23558482.380   123800682.58708  23558479.360    96468067.40946
  22375324.980   117583135.65008  22375321.540    91623214.19047
  22447587.700   117963059.33609  22447584.180    91919317.47748
  21639273.660   113715239.51809  21639273.400    88609304.70348
  24527698.920   128893728.77608  24527707.740   100436610.28244
  22914069.640   122488836.20307  22914073.260    95269109.70704
  21822833.800   116450829.52209  21822837.540    90572881.71207
  23355320.240   124496895.06806  23355335.100    96830919.38504
  20445099.120   109252406.19808  20445103.100    84974107.91308
  21023781.300   112305268.78709  21023784.000    87348548.74908
  20392699.940   109125455.01008  20392700.840    84875358.42908
  20903335.140   111583421.04609  20903337.380    86787117.42108
 15 03 04 00 30  0.0000000  0 14G16G18G19G21G22G27G31R01R02R14R15R16
                                R17R18
  20630007.800   108411441.09609  20630004.860    84476454.21848
  22025147.520   115743096.99609  22025144.980    90189497.06747
  23544558.160   123727510.47208  23544554.820    96411050.21946
  22387705.280   117648194.34808  22387701.840    91673909.27347
  22432358.920   117883031.79809  22432355.340    91856958.42148
  21629933.400   113666156.65409  21629933.100    88571058.34248
  24546303.860   128991497.07408  24546312.860   100512792.99245
  22920516.160   122523297.93107  22920519.920    95295913.26504
  21810279.280   116383836.47709  21810282.840    90520776.05307
  23381069.580   124634151.10406  23381084.680    96937673.46404
  20460623.180   109335361.89408  20460627.160    85038628.97308
  21014098.300   112253543.98708  21014100.940    87308318.34508
  20399383.400   109161219.44508  20399384.240    84903175.20608
  20896362.720   111546201.85009  20896364.960    86758169.18908
 15 03 04 00 30 30.0000000  0 15G16G18G19G21G22G27G31R01R02R03R14R15
                                R16R17R18
  20623629.900   108377925.05509  20623627.000    84450337.81948
  22020614.900   115719277.82309  22020612.320    90170936.69147
  23530651.800   123654432.74108  23530648.200    96354106.59346
  22400118.180   117713424.58508  22400114.720    91724738.02546
  22417177.960   117803255.52309  22417174.360    91794795.15347
  21620619.220   113617210.93809  21620618.880    88532918.83048
  24564896.060   129089198.33108  24564905.240   100588923.56345
  22927096.980   122558477.48408  22927100.900    95323275.14204
  21797830.660   116317408.25809  21797834.080    90469109.69107
  23590653.720   126282617.69206  23590661.380    98219832.92906
  23406824.320   124771436.08706  23406839.640    97044450.11204
  20476262.680   109418934.58208  20476266.660    85103629.90408
  21004557.460   112202578.83909  21004560.120    87268678.79408
  20406093.880   109197128.91108  20406094.740    84931104.78808
  20889429.180   111509190.43109  20889431.500    86729382.55208
 15 03 04 00 31  0.0000000  0 15G16G18G19G21G22G27G31R01R02R03R14R15
                                R16R17R18
  20617338.160   108344861.68009  20617335.240    84424574.15248
  22016169.600   115695917.61109  22016167.020    90152733.95547
  23516763.260   123581448.23008  23516759.440    96297235.57746
  22412563.160   117778823.32308  22412559.720    91775698.07947
  22402045.020   117723731.72009  22402041.380    91732828.61548
  21611330.980   113568401.42209  21611330.620    88494885.45748
  24583474.660   129186828.44308  24583484.020   100664998.95046
  22933811.840   122594372.47908  22933815.920    95351193.49605
  21785488.440   116251547.25009  21785491.860    90417884.50607
  23568375.900   126163362.29606  23568383.540    98127078.95305
  23432583.400   124908744.82606  23432598.960    97151245.32904
  20492016.760   109503119.76108  20492020.740    85169107.21408
  20995159.100   112152374.79709  20995161.760    87229631.20908
  20412831.060   109233180.98308  20412832.040    84959145.29108
  20882534.100   111472384.76509  20882536.500    86700755.95808
 15 03 04 00 31 30.0000000  0 15G16G18G19G21G22G27G31R01R02R03R14R15
                                R16R17R18
  20611133.140   108312254.06209  20611130.160    84399165.62048
  22011811.960   115673018.17109  22011809.420    90134890.25847
  23502892.760   123508557.77708  23502889.340    96240437.87746
  22425040.000   117844389.66508  22425036.520    91826788.72246
  22386960.840   117644464.20509  22386957.240    91671061.78148
  21602068.840   113519729.11609  21602068.540    88456959.00548
  24602039.360   129284385.73008  24602048.720   100741017.67945
  22940660.560   122630982.16008  22940664.580    95379667.72505
  21773253.260   116186257.89209  21773256.600    90367103.92508
  23546093.580   126044082.64206  23546101.140    98034305.71206
  23458346.320   125046073.71206  23458362.100    97258056.27204
  20507884.860   109587914.25508  20507888.900    85235058.43708
  20985903.720   112102934.65608  20985906.400    87191177.76008
  20419594.920   109269375.41908  20419595.760    84987296.52708
  20875677.520   111435784.73809  20875680.040    86672289.29108
 15 03 04 00 32  0.0000000  0 15G16G18G19G21G22G27G31R01R02R03R14R15
                                R16R17R18
  20605015.000   108280102.90909  20605011.960    84374112.77448
  22007542.060   115650579.89209  22007539.580    90117405.91047
  23489040.200   123435761.35508  23489036.680    96183713.43547
  22437548.280   117910121.28008  22437544.780    91878008.16746
  22371925.840   117565454.98609  22371922.260    91609496.21548
  21592832.820   113471193.85509  21592832.540    88419139.33248
  24620589.440   129381866.90808  24620598.800   100816977.20546
  22947642.760   122668305.03708  22947646.780    95408696.64205
  21761125.820   116121543.52709  21761129.240    90316770.57607
  23523807.600   125924782.80706  23523814.940    97941516.64505
  23484112.040   125183418.62406  23484128.020    97364879.76704
  20523866.200   109673313.69308  20523870.340    85301480.17508
  20976791.680   112054260.31108  20976794.460    87153319.94008
  20426385.100   109305710.88908  20426385.860    85015557.44008
  20868859.280   111399389.32409  20868861.920    86643981.77208
 15 03 04 00 32 30.0000000  0 15G16G18G19G21G22G27G31R01R02R03R14R15
                                R16R17R18
  20598984.580   108248412.64909  20598981.520    84349419.06348
  22003360.820   115628607.45109  22003358.380    90100284.54447
  23475206.000   123363061.30808  23475202.460    96127064.08347
  22450088.200   117976018.80708  22450084.740    91929356.88647
  22356941.040   117486709.36709  22356937.420    91548136.05048
  21583623.560   113422798.83309  21583623.280    88381428.94948
  24639124.740   129479270.64608  24639133.960   100892875.81446
  22954758.580   122706342.76708  22954762.640    95438281.55505
  21749107.280   116057410.45209  21749110.660    90266889.33908
  23501519.320   125805471.35806  23501526.820    97848719.31606
  23509880.600   125320778.19806  23509896.840    97471714.71004
  20539960.600   109759317.05708  20539964.800    85368371.63208
  20967823.960   112006356.81208  20967826.700    87116061.67408
  20433202.100   109342189.31308  20433202.780    85043929.54308
  20862079.660   111363200.30309  20862082.520    86615834.77008
 15 03 04 00 33  0.0000000  0 15G16G18G19G21G22G27G31R01R02R03R14R15
                                R16R17R18
  20593041.680   108217182.25409  20593038.560    84325083.69048
  21999267.840   115607098.82009  21999265.420    90083524.59347
  23461389.580   123290454.95308  23461385.840    96070487.73746
  22462658.900   118042078.06608  22462655.360    91980831.63746
  22342006.360   117408227.32809  22342002.720    91486981.27048
