     2.11           OBSERVATION DATA    M                   RINEX VERSION / TYPE
SPIDER V4,0,0,3554                      2015 03 16 01:32    PGM / RUN BY / DATE 
OLHC                                                        MARKER NAME         
OLHC                                                        MARKER NUMBER       
                                                            OBSERVER / AGENCY   
496563              LEICA GRX1200+GNSS  8.20/4.007          REC # / TYPE / VERS 
10401012            LEIAR25         NONE                    ANT # / TYPE        
  5213038.6056  -137570.4416  3660672.8464                  APPROX POSITION XYZ 
        0.0750        0.0000        0.0000                  ANTENNA: DELTA H/E/N
     1     1                                                WAVELENGTH FACT L1/2
     4    C1    L1    P2    L2                              # / TYPES OF OBSERV 
    30.000                                                  INTERVAL            
  2015    03    04    00    00    0.0000000     GPS         TIME OF FIRST OBS   
  2015    03    04    23    59   30.0000000     GPS         TIME OF LAST OBS    
    16                                                      LEAP SECONDS        
    54                                                      # OF SATELLITES     
   G 1   841   841   841   841                              PRN / # OF OBS      
   G 2   915   914   914   914                              PRN / # OF OBS      
   G 3   834   833   833   833                              PRN / # OF OBS      
   G 4   847   847   847   847                              PRN / # OF OBS      
   G 5   685   684   684   684                              PRN / # OF OBS      
   G 6   648   648   648   648                              PRN / # OF OBS      
   G 7   778   777   776   776                              PRN / # OF OBS      
   G 9   772   772   772   772                              PRN / # OF OBS      
   G10   796   796   796   796                              PRN / # OF OBS      
   G11   808   808   807   807                              PRN / # OF OBS      
   G12   802   802   801   801                              PRN / # OF OBS      
   G13   831   831   831   831                              PRN / # OF OBS      
   G14   926   926   926   926                              PRN / # OF OBS      
   G15   746   746   746   746                              PRN / # OF OBS      
   G16   706   706   706   706                              PRN / # OF OBS      
   G17   922   922   921   921                              PRN / # OF OBS      
   G18   948   946   946   946                              PRN / # OF OBS      
   G19   803   803   803   803                              PRN / # OF OBS      
   G20   806   806   805   805                              PRN / # OF OBS      
   G21   688   676   672   670                              PRN / # OF OBS      
   G22   838   838   837   837                              PRN / # OF OBS      
   G23   716   716   716   716                              PRN / # OF OBS      
   G24   849   848   848   848                              PRN / # OF OBS      
   G25   855   854   854   854                              PRN / # OF OBS      
   G27   841   841   841   841                              PRN / # OF OBS      
   G28   924   923   923   923                              PRN / # OF OBS      
   G29   731   731   730   730                              PRN / # OF OBS      
   G30   682   682   681   681                              PRN / # OF OBS      
   G31   733   725   720   719                              PRN / # OF OBS      
   G32   728   728   728   728                              PRN / # OF OBS      
   R 1   699   699   699   699                              PRN / # OF OBS      
   R 2   943   943   943   938                              PRN / # OF OBS      
   R 3   976   976   976   975                              PRN / # OF OBS      
   R 4   882   882   881   881                              PRN / # OF OBS      
   R 5   721   721   720   720                              PRN / # OF OBS      
   R 6   754   754   754   754                              PRN / # OF OBS      
   R 7   784   784   784   783                              PRN / # OF OBS      
   R 8   710   710   710   704                              PRN / # OF OBS      
   R 9   910   910   898   887                              PRN / # OF OBS      
   R10   693   693   693   692                              PRN / # OF OBS      
   R11   640   640   640   639                              PRN / # OF OBS      
   R12   749   749   748   748                              PRN / # OF OBS      
   R13   783   783   783   782                              PRN / # OF OBS      
   R14   738   737   734   733                              PRN / # OF OBS      
   R15   959   958   958   952                              PRN / # OF OBS      
   R16  1011  1011  1011  1011                              PRN / # OF OBS      
   R17   917   917   917   916                              PRN / # OF OBS      
   R18   991   991   981   981                              PRN / # OF OBS      
   R19   864   864   864   863                              PRN / # OF OBS      
   R20   608   608   608   608                              PRN / # OF OBS      
   R21   742   742   742   742                              PRN / # OF OBS      
   R22   822   822   821   819                              PRN / # OF OBS      
   R23   807   807   803   802                              PRN / # OF OBS      
   R24   700   700   685   685                              PRN / # OF OBS      
BIT 2 OF LLI FLAGS DATA COLLECTED UNDER A/S CONDITION       COMMENT             
SNR is mapped to RINEX snr flag value [2-9]                 COMMENT             
Lx:     = 25dBHz -> 1; 26-27dBHz -> 2; 28-31dBHz -> 3       COMMENT             
       32-35dBHz -> 4; 36-38dBHz -> 5; 39-41dBHz -> 6       COMMENT             
       42-44dBHz -> 7; 45-48dBHz -> 8; >=49dBHz -> 9        COMMENT             
                                                            END OF HEADER       
 15 03 04 00 00  0.0000000  0  7G16G18G19G21G22G27G31
  21091849.660   110838445.81309  21091846.680    86367612.74148
  22598047.040   118753654.70209  22598044.760    92535337.55246
  24192156.900   127130655.65108  24192154.640    99062854.99844
  21820532.340   114667684.97909  21820529.000    89351435.02847
  23463335.560   123300852.52908  23463334.640    96078683.20746
  22076655.220   116013746.73609  22076655.060    90400379.40847
  23342471.080   122665433.20009  23342472.180    95583422.72546
 15 03 04 00 00 30.0000000  0  7G16G18G19G21G22G27G31
  21081386.040   110783459.28209  21081383.020    86324766.10048
  22588992.540   118706073.61709  22588990.400    92498261.42146
  24177450.580   127053374.00308  24177448.320    99002635.63745
  21830819.280   114721742.78809  21830815.880    89393557.99247
  23446573.300   123212767.43008  23446572.160    96010045.76445
  22066502.280   115960393.30909  22066502.260    90358805.34147
  23361086.260   122763254.49008  23361087.500    95659646.63446
 15 03 04 00 01  0.0000000  0  7G16G18G19G21G22G27G31
  21070983.440   110728793.66209  21070980.420    86282169.51348
  22580003.980   118658838.83009  22580001.880    92461455.13146
  24162764.240   126976197.40408  24162761.880    98942498.15045
  21841158.840   114776076.97809  21841155.340    89435896.30548
  23429826.040   123124760.74708  23429824.660    95941469.39646
  22056375.460   115907176.95509  22056375.520    90317338.06648
  23379721.040   122861178.91708  23379722.460    95735950.90147
 15 03 04 00 01 30.0000000  0  7G16G18G19G21G22G27G31
  21060642.500   110674451.75609  21060639.460    86239825.17648
  22571081.960   118611953.35409  22571079.840    92424921.04846
  24148098.160   126899126.99608  24148095.800    98882443.42045
  21851550.860   114830686.70709  21851547.240    89478449.35347
  23413094.380   123036836.18708  23413092.880    95872957.01846
  22046274.960   115854098.77209  22046275.080    90275978.47348
  23398375.000   122959204.69108  23398376.700    95812334.13646
 15 03 04 00 02  0.0000000  0  7G16G18G19G21G22G27G31
  21050363.940   110620437.54009  21050360.860    86197736.17948
  22562227.240   118565421.30509  22562225.060    92388662.34446
  24133452.640   126822164.40608  24133450.300    98822472.68545
  21861995.280   114885572.00609  21861991.580    89521217.12747
  23396379.140   122948998.41108  23396377.700    95804512.26646
  22036201.160   115801160.45109  22036201.120    90234727.85847
  23417047.920   123057330.32108  23417049.900    95888795.16246
 15 03 04 00 02 30.0000000  0  7G16G18G19G21G22G27G31
  21040149.100   110566758.14609  21040146.020    86155908.08248
  22553441.140   118519249.77509  22553438.900    92352684.57146
  24118828.680   126745315.17708  24118826.400    98762590.29245
  21872492.640   114940735.55809  21872488.820    89564201.71147
  23379681.820   122861255.22808  23379680.440    95736141.22746
  22026154.960   115748367.16409  22026154.720    90193590.26248
  23435740.460   123155558.63908  23435742.740    95965336.18346
 15 03 04 00 03  0.0000000  0  7G16G18G19G21G22G27G31
  21029997.000   110513408.56609  21029993.980    86114336.99148
  22544722.660   118473433.53509  22544720.320    92316983.65947
  24104224.780   126668571.78508  24104222.600    98702790.35646
  21883041.360   114996169.08809  21883037.420    89607396.67548
  23363001.780   122773602.38208  23363000.400    95667840.55446
  22016135.020   115695711.66909  22016134.680    90152560.04148
  23454450.700   123253879.26209  23454453.120    96041949.11747
 15 03 04 00 03 30.0000000  0  7G16G18G19G21G22G27G31
  21019908.980   110460395.78709  21019906.020    86073028.34048
  22536073.160   118427979.72009  22536070.760    92281565.14647
  24089642.020   126591939.68108  24089639.800    98643077.14746
  21893641.960   115051875.50409  21893638.020    89650804.28048
  23346340.540   122686047.62408  23346338.940    95599616.30046
  22006142.220   115643198.99009  22006141.900    90111641.10048
  23473179.100   123352294.54209  23473181.460    96118635.79147
 15 03 04 00 04  0.0000000  0  7G16G18G19G21G22G27G31
  21009884.820   110407718.63609  21009881.880    86031981.21248
  22527492.360   118382887.19309  22527490.000    92246428.16447
  24075079.720   126515415.05007  24075077.520    98583447.66746
  21904293.460   115107849.60609  21904289.600    89694420.46247
  23329697.820   122598590.20208  23329696.140    95531467.90446
  21996175.900   115590825.63809  21996175.620    90070830.72848
  23491924.360   123450798.01909  23491926.520    96195391.16847
 15 03 04 00 04 30.0000000  0  7G16G18G19G21G22G27G31
  20999925.280   110355380.90509  20999922.360    85991198.57948
  22518981.040   118338159.88409  22518978.800    92211575.76847
  24060538.300   126439000.11107  24060536.140    98523903.65746
  21914995.960   115164091.85509  21914992.220    89738245.59548
  23313074.440   122511234.76208  23313072.760    95463398.97746
  21986236.480   115538593.63109  21986236.220    90030130.49448
  23510686.260   123549389.00608  23510688.240    96272214.71946
 15 03 04 00 05  0.0000000  0  7G16G18G19G21G22G27G31
  20990030.160   110303381.88209  20990027.220    85950679.85648
  22510539.020   118293796.86709  22510536.820    92177007.22047
  24046017.120   126362691.80607  24046015.100    98464442.75146
  21925748.460   115220597.10709  21925744.840    89782275.65547
  23296470.540   122423981.33808  23296468.740    95395409.52246
  21976323.340   115486499.92609  21976323.180    89989538.03348
  23529463.460   123648061.27808  23529465.420    96349101.57146
 15 03 04 00 05 30.0000000  0  7G16G18G19G21G22G27G31
  20980199.700   110251722.58509  20980196.800    85910425.86148
  22502166.440   118249799.09809  22502164.360    92142723.28147
  24031516.160   126286489.22308  24031514.140    98405064.19946
  21936550.400   115277362.41009  21936546.840    89826508.35948
  23279886.360   122336831.35708  23279884.440    95327500.65246
  21966436.280   115434543.47909  21966436.220    89949052.51348
  23548255.180   123746811.04108  23548257.380    96426048.79146
 15 03 04 00 06  0.0000000  0  7G16G18G19G21G22G27G31
  20970434.840   110200407.83609  20970431.900    85870440.35348
  22493864.300   118206171.59109  22493862.280    92108727.86847
  24017035.980   126210395.35508  24017033.920    98345770.37046
  21947402.020   115334388.97809  21947398.600    89870944.65448
  23263323.020   122249790.98008  23263321.000    95259677.19746
  21956575.820   115382727.25809  21956575.840    89908676.25548
  23567061.520   123845638.52008  23567064.140    96503056.57446
 15 03 04 00 06 30.0000000  0  7G16G18G19G21G22G27G31
  20960736.120   110149440.52409  20960733.120    85830725.57148
  22485633.140   118162917.08409  22485631.100    92075023.09047
  24002576.640   126134410.96308  24002574.440    98286561.86246
  21958303.060   115391674.94409  21958299.760    89915583.06147
  23246781.020   122162863.06408  23246779.000    95191941.37146
  21946742.180   115331051.89609  21946742.260    89868409.76248
  23585882.280   123944541.54808  23585885.340    96580123.19146
 15 03 04 00 07  0.0000000  0  7G16G18G19G21G22G27G31
  20951104.040   110098823.18709  20951100.900    85791283.50448
  22477473.460   118120038.02809  22477471.360    92041610.88647
  23988138.220   126058536.33108  23988135.800    98227438.88246
  21969253.260   115449219.16209  21969250.060    89960422.71148
  23230261.160   122076051.54408  23230259.260    95124296.23546
  21936935.480   115279517.93909  21936935.700    89828253.45848
  23604717.140   124043517.71608  23604720.520    96657246.78746
 15 03 04 00 07 30.0000000  0  7G16G18G19G21G22G27G31
  20941538.620   110048556.19009  20941535.400    85752114.43048
  22469385.240   118077534.63709  22469383.140    92008491.40146
  23973720.480   125982769.93108  23973717.700    98168400.23346
  21980252.080   115507018.98208  21980248.960    90005461.53047
  23213763.660   121989357.17708  23213761.780    95056742.37846
  21927155.460   115228123.62609  21927155.660    89788205.96848
  23623565.280   124142562.29108  23623568.760    96734423.66646
 15 03 04 00 08  0.0000000  0  7G16G18G19G21G22G27G31
  20932040.500   109998643.15109  20932037.280    85713221.16548
  22461369.180   118035410.47709  22461367.140    91975667.42247
  23959323.640   125907113.48008  23959320.560    98109447.26346
  21991299.400   115565073.27709  21991296.260    90050698.64247
  23197289.300   121902784.42708  23197287.400    94989283.28946
  21917402.380   115176870.60109  21917402.420    89748268.57248
  23642426.340   124241674.01508  23642429.860    96811652.82846
 15 03 04 00 08 30.0000000  0  7G16G18G19G21G22G27G31
  20922609.580   109949083.56809  20922606.440    85674603.32348
  22453425.140   117993665.03309  22453423.180    91943138.53947
  23944947.120   125831564.29408  23944943.900    98050577.88246
  22002394.400   115623377.80309  22002391.160    90096130.73347
  23180838.040   121816333.46608  23180836.160    94921919.08346
  21907675.780   115125756.36609  21907675.620    89708439.31548
  23661299.240   124340847.92508  23661302.780    96888930.42746
 15 03 04 00 09  0.0000000  0  7G16G18G19G21G22G27G31
  20913246.640   109899881.48009  20913243.640    85636264.05448
  22445553.880   117952302.08409  22445552.020    91910907.70847
  23930591.320   125756124.36308  23930588.120    97991793.63346
  22013537.040   115681932.48009  22013533.740    90141757.76048
  23164410.820   121730008.77208  23164408.880    94854653.26447
  21897975.920   115074782.80009  21897975.700    89668719.68848
  23680183.620   124440082.72208  23680187.260    96966255.46746
 15 03 04 00 09 30.0000000  0  7G16G18G19G21G22G27G31
  20903952.280   109851039.33909  20903949.260    85598205.25748
  22437755.940   117911324.30209  22437754.220    91878977.00947
  23916256.320   125680794.25008  23916253.280    97933094.94246
  22024727.120   115740736.63409  22024723.820    90187579.18148
  23148008.340   121643814.04609  23148006.260    94787488.72147
  21888302.880   115023950.48509  21888302.700    89629110.11648
  23699078.940   124539375.90508  23699082.880    97043625.97247
 15 03 04 00 10  0.0000000  0  7G16G18G19G21G22G27G31
  20894726.900   109802559.34809  20894723.800    85560428.65148
  22430031.780   117870733.67809  22430030.100    91847347.98547
  23901942.180   125605574.08208  23901939.280    97874481.93046
  22035964.220   115799787.95409  22035960.900    90233593.19047
  23131631.020   121557751.72008  23131628.780    94720427.34746
  21878656.680   114973259.64809  21878656.660    89589610.78148
  23717984.940   124638725.54008  23717989.220    97121040.46146
 15 03 04 00 10 30.0000000  0  7G16G18G19G21G22G27G31
  20885570.680   109754442.71409  20885567.440    85522935.17648
  22422381.460   117830531.04609  22422379.780    91816021.29247
  23887648.800   125530463.10308  23887646.000    97815953.98546
  22047247.860   115859083.86409  22047244.500    90279797.78348
  23115279.360   121471824.15308  23115276.940    94653470.97047
  21869037.180   114922709.38609  21869037.300    89550220.99148
  23736900.980   124738127.45308  23736905.480    97198495.66546
 15 03 04 00 11  0.0000000  0  7G16G18G19G21G22G27G31
  20876483.360   109706688.39109  20876480.040    85485724.03048
  22414804.820   117790715.56809  22414803.120    91784996.28347
  23873375.660   125455458.48108  23873373.060    97757508.90746
  22058577.180   115918619.50609  22058573.720    90326189.19448
  23098953.400   121386031.36609  23098950.780    94586619.60847
  21859443.900   114872296.78209  21859444.040    89510938.45748
  23755826.060   124837575.68808  23755830.580    97275986.93946
 15 03 04 00 11 30.0000000  0  7G16G18G19G21G22G27G31
  20867466.680   109659305.55709  20867463.380    85448802.34348
  22407303.420   117751295.80809  22407301.700    91754279.61547
  23859124.040   125380566.94808  23859121.580    97699151.94846
  22069953.080   115978400.03008  22069949.540    90372771.42147
  23082654.920   121300382.63508  23082652.060    94519880.50146
  21849878.260   114822028.78709  21849878.220    89471768.61148
  23774761.020   124937074.63808  23774765.260    97353517.72246
 15 03 04 00 12  0.0000000  0  7G16G18G19G21G22G27G31
  20858520.160   109612291.45309  20858516.960    85412167.99248
  22399876.800   117712269.09509  22399875.100    91723869.22946
  23844893.100   125305783.85208  23844890.820    97640879.49546
  22081374.260   116038418.66809  22081370.780    90419539.19747
  23066383.520   121214876.24508  23066380.540    94453252.32346
  21840339.300   114771900.79309  21840339.060    89432707.86848
  23793704.300   125036616.89608  23793708.280    97431082.24045
 15 03 04 00 12 30.0000000  0  7G16G18G19G21G22G27G31
  20849643.900   109565646.50309  20849640.800    85375821.28248
  22392525.020   117673635.48509  22392523.260    91693765.14447
  23830682.520   125231107.61408  23830680.340    97582690.28946
  22092840.100   116098672.13509  22092836.680    90466489.95047
  23050139.460   121129513.17809  23050136.360    94386735.79547
  21830826.680   114721910.94909  21830826.120    89393754.75748
  23812654.800   125136197.61408  23812658.660    97508676.71846
 15 03 04 00 13  0.0000000  0  7G16G18G19G21G22G27G31
  20840838.320   109519373.11709  20840835.300    85339764.10048
  22385248.580   117635397.92909  22385246.860    91663969.68047
  23816492.440   125156539.02308  23816490.280    97524584.97146
  22104350.420   116159159.25109  22104347.040    90513622.76647
  23033923.360   121044296.89009  23033920.200    94320333.64646
  21821340.440   114672060.34309  21821339.700    89354910.15348
  23831612.000   125235814.55708  23831616.080    97586299.39346
 15 03 04 00 13 30.0000000  0  7G16G18G19G21G22G27G31
  20832103.980   109473474.17909  20832101.040    85303998.69848
  22378047.980   117597558.79909  22378046.180    91634484.67947
  23802323.020   125082078.77608  23802320.980    97466564.09347
  22115905.000   116219879.07309  22115901.680    90560936.91148
  23017735.920   120959231.12209  23017732.680    94254048.77547
  21811880.700   114622349.64109  21811880.040    89316174.56848
  23850575.640   125335466.24408  23850580.200    97663949.12446
 15 03 04 00 14  0.0000000  0  7G16G18G19G21G22G27G31
  20823441.520   109427953.09609  20823438.640    85268527.72748
  22370923.700   117560120.66009  22370921.800    91605312.14047
  23788174.560   125007728.14008  23788172.380    97408628.61746
  22127503.640   116280830.35309  22127500.340    90608431.42448
  23001577.800   120874319.74909  23001574.660    94187884.21247
  21802447.840   114572780.03709  21802447.280    89277548.92148
  23869545.480   125435150.77808  23869550.640    97741624.45247
 15 03 04 00 14 30.0000000  0  7G16G18G19G21G22G27G31
  20814850.520   109382807.58809  20814847.700    85233349.40748
  22363875.360   117523081.38109  22363873.360    91576450.38647
  23774046.260   124933482.79208  23774043.700    97350775.16546
  22139145.220   116342007.51109  22139141.960    90656101.93047
  22985448.700   120789561.30509  22985445.720    94121838.81547
  21793041.080   114523347.28509  21793040.620    89239029.90948
  23888520.240   125534860.88708  23888525.980    97819319.69846
 15 03 04 00 15  0.0000000  0  7G16G18G19G21G22G27G31
  20806332.680   109338046.06609  20806329.880    85198470.29848
  22356904.540   117486449.29009  22356902.400    91547905.93947
  23759939.260   124859349.58108  23759936.460    97293009.11046
  22150830.680   116403415.35708  22150827.440    90703952.19947
  22969350.460   120704965.41909  22969347.620    94055920.07147
  21783661.740   114474058.25809  21783661.320    89200622.90848
  23907500.720   125634600.73008  23907506.920    97897038.12647
 15 03 04 00 15 30.0000000  0 15G16G18G19G21G22G27G31R01R02R14R15R16
                                R17R18R24
  20797886.880   109293662.91909  20797884.060    85163886.02848
  22350010.280   117450218.73709  22350007.900    91519674.37446
  23745852.120   124785320.45908  23745849.060    97235324.16646
  22162558.160   116465043.93208  22162554.980    90751974.46647
  22953282.100   120620526.98308  22953279.420    93990124.01947
  21774308.320   114424905.24709  21774307.880    89162321.87348
  23926484.880   125734359.70108  23926491.440    97974771.45246
  22971046.400   122793407.06708  22971051.920    95506006.73405
  22408618.380   119576680.00808  22408620.440    93004094.77507
  22606198.360   120503758.37906  22606210.180    93725173.19405
  19957029.060   106644312.97708  19957033.320    82945591.83508
  21243189.380   113477305.74408  21243192.460    88260135.86607
  20255189.100   108389603.98108  20255189.560    84303028.98708
  20954596.180   111857056.15609  20954599.060    86999944.34208
  23487779.460   125599715.35207  23487779.160    97688663.40804
 15 03 04 00 16  0.0000000  0 15G16G18G19G21G22G27G31R01R02R14R15R16
                                R17R18R24
  20789517.980   109249683.75909  20789515.080    85129616.55248
  22343197.180   117414414.74609  22343194.600    91491775.19147
  23731789.400   124711419.56508  23731785.900    97177739.11746
  22174331.800   116526915.17808  22174328.740    90800185.81847
  22937248.620   120536272.10108  22937246.080    93924471.00147
  21764985.260   114375912.06809  21764984.820    89124145.39448
  23945476.640   125834158.81008  23945483.480    98052536.12146
  22973172.140   122804769.50808  22973177.600    95514844.21906
  22393489.240   119495948.46908  22393491.360    92941303.63207
  22631470.500   120638472.42106  22631482.360    93829949.99105
  19968822.080   106707329.63608  19968826.020    82994604.76208
  21229336.140   113403302.97808  21229339.200    88202578.16508
  20262064.280   108426395.78208  20262065.100    84331644.82008
  20947169.960   111817415.14009  20947173.000    86969112.46208
  23503589.860   125684260.81307  23503589.880    97754420.95305
 15 03 04 00 16 30.0000000  0 15G16G18G19G21G22G27G31R01R02R14R15R16
                                R17R18R24
  20781220.460   109206079.68109  20781217.480    85095639.35848
  22336459.740   117379008.45109  22336457.000    91464185.90547
  23717744.980   124637615.73208  23717741.300    97120229.70946
  22186145.380   116588996.36708  22186142.500    90848560.76247
  22921244.860   120452173.12508  22921242.320    93858939.46947
  21755686.620   114327047.80009  21755686.160    89086069.37248
  23964469.520   125933964.49108  23964476.600    98130305.90746
  22975430.980   122816843.94908  22975436.380    95524235.47605
  22378438.460   119415636.34908  22378441.020    92878838.70807
  22656770.060   120773330.93506  22656781.880    93934839.12705
  19980747.560   106771054.90908  19980751.400    83044168.82808
  21215605.720   113329956.45208  21215608.760    88145530.87908
  20268969.540   108463347.38408  20268970.460    84360384.94608
  20939788.680   111778014.23109  20939791.840    86938467.34208
  23519385.480   125768727.86407  23519386.260    97820117.54405
 15 03 04 00 17  0.0000000  0 15G16G18G19G21G22G27G31R01R02R14R15R16
                                R17R18R24
  20772997.400   109162866.84709  20772994.300    85061967.02148
  22329800.840   117344015.51409  22329798.000    91436918.71047
  23703721.680   124563923.25308  23703718.120    97062807.07646
  22198001.260   116651299.78608  22197998.500    90897108.87547
  22905274.120   120368247.19509  22905271.500    93793542.77747
  21746415.220   114278326.65309  21746414.700    89048104.85248
  23983465.660   126033788.18808  23983473.120    98208089.98246
  22977825.580   122829644.68007  22977830.920    95534191.63005
  22363469.700   119335762.30108  22363472.640    92816714.50007
  22682098.760   120908343.92906  22682110.440    94039848.36905
  19992807.760   106835500.87008  19992811.700    83094293.43608
  21202001.300   113257283.93208  21202004.440    88089007.82308
  20275907.100   108500471.38208  20275907.900    84389259.16108
  20932454.900   111738866.64809  20932458.140    86908019.24708
  23535168.980   125853130.51907  23535170.680    97885764.04705
 15 03 04 00 17 30.0000000  0 15G16G18G19G21G22G27G31R01R02R14R15R16
                                R17R18R24
  20764848.620   109120044.16209  20764845.340    85028598.69948
  22323220.220   117309434.71109  22323217.400    91409972.66047
  23689718.980   124490339.03608  23689715.600    97005468.78846
  22209898.580   116713820.82208  22209895.900    90945826.56347
  22889336.220   120284493.64609  22889333.500    93728280.40747
  21737170.460   114229745.68109  21737169.980    89010249.56248
  24002464.020   126133624.08208  24002471.880    98285883.77646
  22980355.500   122843169.02608  22980360.780    95544710.57506
  22348583.300   119256327.59008  22348586.520    92754931.99507
  22707455.160   121043504.46206  22707466.840    94144972.31605
  20005001.560   106900660.83008  20005005.520    83144973.39208
  21188522.920   113185285.51108  21188526.120    88033009.07408
  20282876.160   108537764.00808  20282876.980    84418264.52908
  20925167.920   111699968.64109  20925171.260    86877765.27608
  23550939.780   125937465.12007  23550942.380    97951357.60505
 15 03 04 00 18  0.0000000  0 15G16G18G19G21G22G27G31R01R02R14R15R16
                                R17R18R24
  20756774.400   109077613.63909  20756771.040    84995535.95848
  22316718.240   117275267.59709  22316715.540    91383348.96447
  23675736.900   124416863.34008  23675733.660    96948215.05646
  22221836.960   116776557.53708  22221834.280    90994712.32347
  22873431.740   120200915.33609  22873428.880    93663154.58247
  21727952.440   114181305.01909  21727952.020    88972503.60448
  24021464.360   126233469.72708  24021472.620    98363685.44846
  22983020.880   122857417.05508  22983026.060    95555792.39405
  22333780.200   119177336.48208  22333783.620    92693494.52606
  22732838.460   121178808.11506  22732850.240    94250207.55105
  20017328.420   106966532.16108  20017332.380    83196206.61808
  21175171.280   113113964.75808  21175174.400    87977537.39307
  20289876.400   108575223.68208  20289877.200    84447399.83108
  20917927.580   111661319.32909  20917931.020    86847704.72708
  23566697.960   126021731.47107  23566701.160    98016898.08904
 15 03 04 00 18 30.0000000  0 14G16G18G19G21G22G27R01R02R14R15R16R17
                                R18R24
  20748774.680   109035574.68209  20748771.280    84962778.33649
  22310294.840   117241513.41709  22310292.340    91357047.03247
  23661774.900   124343493.19908  23661771.740    96891043.58846
  22233815.520   116839505.27108  22233812.800    91043762.50648
  22857560.640   120117512.31609  22857557.720    93598165.33547
  21718760.720   114133002.03409  21718760.440    88934864.93648
  22985821.120   122872385.84408  22985826.220    95567434.79806
  22319060.640   119098790.38808  22319064.180    92632403.18907
  22758247.400   121314248.26506  22758259.260    94355548.94105
  20029787.320   107033108.94508  20029791.260    83247988.54108
  21161946.640   113043322.15208  21161949.520    87922593.15308
  20296907.020   108612846.28408  20296907.820    84476661.85008
  20910733.180   111622914.98409  20910736.640    86817834.71408
  23582442.980   126105926.79107  23582446.360    98082383.32205
 15 03 04 00 19  0.0000000  0 15G16G18G19G21G22G27G31R01R02R14R15R16
                                R17R18R24
  20740850.680   108993933.96009  20740847.320    84930331.03048
  22303951.300   117208178.61709  22303948.880    91331071.88447
  23647834.040   124270233.79808  23647830.860    96833958.39346
  22245834.940   116902667.33209  22245832.080    91092979.68447
  22841724.320   120034292.41309  22841721.500    93533318.77847
  21709596.200   114084841.88509  21709596.060    88897337.56948
  24059467.560   126433354.00308                                
  22988757.120   122888080.56908  22988762.200    95579641.81905
  22304426.360   119020698.74908  22304429.800    92571665.30706
  22783682.140   121449825.42106  22783694.020    94460996.87904
  20042378.380   107100391.80808  20042382.380    83300319.61908
  21148850.560   112973365.96108  21148853.180    87868182.78407
  20303968.760   108650635.60608  20303969.720    84506053.53908
  20903585.460   111584759.90809  20903588.880    86788158.56908
  23598175.640   126190055.51207  23598178.720    98147816.74704
 15 03 04 00 19 30.0000000  0 15G16G18G19G21G22G27G31R01R02R14R15R16
                                R17R18R24
  20733002.640   108952692.57009  20732999.360    84898194.88448
  22297687.800   117175264.15109  22297685.440    91305424.27547
  23633914.180   124197084.44308  23633910.960    96776958.94746
  22257894.660   116966040.90808  22257891.660    91142361.68747
  22825923.220   119951257.75209  22825920.520    93468616.54947
  21700458.720   114036823.90409  21700458.640    88859920.96248
  24078470.080   126533214.26508  24078477.780    98597337.63545
  22991828.800   122904500.17108  22991833.720    95592412.62705
  22289877.820   118943064.72508  22289881.160    92511283.34407
  22809141.760   121585535.06106  22809153.620    94566547.84004
  20055101.460   107168380.10108  20055105.500    83353199.34808
  21135883.480   112904098.69008  21135885.920    87814308.23107
  20311061.200   108688589.42108  20311062.440    84535573.17108
  20896484.220   111546852.43309  20896487.420    86758674.99408
  23613895.640   126274116.71606  23613898.200    98213197.64804
 15 03 04 00 20  0.0000000  0 15G16G18G19G21G22G27G31R01R02R14R15R16
                                R17R18R24
  20725230.540   108911850.27709  20725227.360    84866369.72948
  22291504.120   117142768.84409  22291501.740    91280103.28647
  23620014.800   124124042.77108  23620011.580    96720043.42247
  22269993.700   117029621.14308  22269990.640    91191904.72747
  22810157.440   119868408.57109  22810154.720    93404058.85447
  21691347.780   113988945.83109  21691347.680    88822613.39248
  24097471.720   126633069.06707  24097479.340    98675138.79646
  22995035.720   122921642.11408  22995040.180    95605745.27005
  22275415.340   118865890.37408  22275418.740    92451258.91307
  22834624.860   121721370.41606  22834636.820    94672196.57005
  20067955.100   107237065.72708  20067959.140    83406621.47508
  21123045.580   112835521.26108  21123047.960    87760970.24207
  20318183.880   108726704.24008  20318185.220    84565218.03208
  20889428.700   111509189.33209  20889431.740    86729381.50808
  23629602.520   126358107.94407  23629604.480    98278524.13505
 15 03 04 00 20 30.0000000  0 15G16G18G19G21G22G27G31R01R02R14R15R16
                                R17R18R24
  20717535.740   108871414.18009  20717532.620    84834861.09648
  22285401.600   117110699.96609  22285399.180    91255114.58847
  23606136.960   124051114.23208  23606133.780    96663216.05346
  22282132.980   117093412.95408  22282129.820    91241612.63647
  22794428.580   119785753.16109  22794425.740    93339652.14447
  21682264.460   113941213.08209  21682264.300    88785419.05948
  24116473.700                                                  
  22998378.700   122939511.68107  22998382.840    95619643.86605
  22261040.680   118789185.29508  22261044.380    92391599.47407
  22860131.860   121857333.01806  22860143.940    94777944.25905
  20080939.840   107306452.04308  20080943.900    83460588.57608
  21110338.480   112767641.98908  21110340.740    87708175.26507
  20325337.420   108764983.92408  20325338.800    84594991.13408
  20882419.740   111471774.94709  20882422.800    86700281.46208
  23645297.280   126442034.11907  23645298.720    98343800.02705
 15 03 04 00 21  0.0000000  0 14G16G18G19G21G22G27G31R01R02R14R15R16
                                R17R18
  20709916.860   108831376.93709  20709913.800    84803663.24248
  22279378.740   117079049.92309  22279376.320    91230452.23947
  23592278.860   123978289.28608  23592275.660    96606469.39247
  22294310.260   117157404.65109  22294307.040    91291476.28347
  22778735.420   119703284.91809  22778732.380    93275391.27147
  21673207.100   113893616.43409  21673206.820    88748330.76448
  24135471.340   126832756.94908  24135478.880    98830741.24446
  23001855.840   122958099.65707  23001859.880    95634101.20005
  22246752.940   118712944.10608  22246756.960    92332300.82307
  22885660.080   121993409.10206  22885672.500    94883780.18505
  20094053.160   107376526.05608  20094057.300    83515090.53808
  21097760.960   112700454.66508  21097763.160    87655918.45707
  20332519.820   108803417.88409  20332521.080    84624884.20408
  20875455.460   111434599.13709  20875458.600    86671366.96008
 15 03 04 00 21 30.0000000  0 14G16G18G19G21G22G27G31R01R02R14R15R16
                                R17R18
  20702376.860   108791753.88509  20702373.800    84772788.14348
  22273438.360   117047833.52209  22273435.980    91206127.80347
  23578442.880   123905580.96208  23578439.700    96549813.62146
  22306527.560   117221606.73509  22306524.320    91341503.87447
  22763080.960   119621019.66009  22763077.620    93211288.57747
  21664178.100   113846169.03409  21664177.740    88711358.78748
  24154469.680   126932591.69306  24154478.700    98908534.41944
  23005469.680   122977418.48108  23005473.820    95649126.98305
  22232555.460   118637184.18408  22232559.760    92273376.49007
  22911211.260   122129607.68706  22911224.100    94989711.39605
  20107297.180   107447298.07508  20107301.340    83570135.41508
  21085316.060   112633975.94608  21085318.360    87604212.79108
  20339733.300   108842018.04609  20339734.380    84654906.54608
  20868538.140   111397673.98609  20868541.340    86642647.42708
 15 03 04 00 22  0.0000000  0 14G16G18G19G21G22G27G31R01R02R14R15R16
                                R17R18
  20694914.380   108752537.79409  20694911.280    84742230.15849
  22267578.900   117017042.51409  22267576.600    91182134.83347
  23564627.420   123832980.51108  23564624.180    96493241.90847
  22318783.000   117286009.18909  22318779.680    91391687.60248
  22747463.840   119538951.17709  22747460.240    93147339.21947
  21655175.820   113798862.04609  21655175.500    88674496.22148
  24173465.620                                                  
  23009218.600   122997458.94408  23009222.860    95664714.05105
  22218447.360   118561900.74508  22218451.800    92214822.75107
  22936782.840   122265915.49606  22936796.300    95095727.56005
  20120669.280   107518754.78508  20120673.500    83625712.82108
  21073002.580   112568199.45308  21073005.120    87553053.31308
  20346975.820   108880774.06809  20346976.820    84685050.11608
  20861665.920   111360989.67309  20861669.140    86614115.20208
 15 03 04 00 22 30.0000000  0 14G16G18G19G21G22G27G31R01R02R14R15R16
                                R17R18
  20687530.120   108713732.68909  20687526.940    84711992.40648
  22261801.240   116986681.77009  22261799.080    91158477.13547
  23550833.020   123760490.67008  23550829.620    96436756.37046
  22331076.760   117350613.08509  22331073.400    91442028.28947
  22731885.020   119457084.74009  22731881.280    93083547.30247
  21646200.800   113751698.23109  21646200.560    88637745.21148
  24192459.920   127132235.10708                                
  23013103.020   123018223.52308  23013107.460    95680864.29005
  22204429.860   118487100.25208  22204434.320    92156644.63808
  22962374.780   122402331.18406  22962388.760    95201827.63805
  20134169.640   107590896.23908  20134173.820    83681822.80308
  21060821.580   112503131.08208  21060824.440    87502444.58808
  20354247.720   108919687.24109  20354248.580    84715315.89908
  20854839.100   111324547.95109  20854842.340    86585771.65808
 15 03 04 00 23  0.0000000  0 14G16G18G19G21G22G27G31R01R02R14R15R16
                                R17R18
  20680224.460   108675340.82709  20680221.220    84682076.67348
  22256105.700   116956752.78509  22256103.680    91135155.87447
  23537059.540   123688111.28308  23537056.160    96380356.91047
  22343408.240   117415415.44908  22343404.880    91492523.63447
  22716345.120   119375423.15509  22716341.400    93019914.99447
  21637253.100   113704677.78709  21637252.940    88601105.91448
  24211451.020   127232023.37708                                
  23017122.740   123039711.61008  23017127.280    95697577.26005
  22190503.640   118412787.00108  22190508.060    92098845.49308
  22987986.200   122538850.97906  22988000.700    95308008.70105
  20147797.700   107663719.86108  20147801.840    83738463.35408
  21048773.760   112438773.96608  21048776.800    87452389.06808
  20361548.700   108958756.29209  20361549.620    84745702.94008
  20848057.640   111288348.06009  20848060.800    86557616.20108
 15 03 04 00 23 30.0000000  0 14G16G18G19G21G22G27G31R01R02R14R15R16
                                R17R18
  20672997.500   108637362.80609  20672994.160    84652483.40648
  22250492.320   116927255.29609  22250490.380    91112170.83647
  23523306.920   123615841.34408  23523303.620    96324042.72247
  22355777.040   117480414.00608  22355773.700    91543171.85247
  22700844.320   119293967.88708  22700840.940    92956443.45647
  21628332.440   113657799.51009  21628332.420    88564577.39548
  24230437.080   127331809.90609  24230442.420    99219605.89348
  23021277.620   123061921.85108  23021282.260    95714851.91105
  22176669.120   118338963.86708  22176673.600    92041427.54007
  23013616.060   122675469.22105  23013630.920    95414266.33605
  20161552.320   107737220.08308  20161556.500    83795630.15008
  21036859.440   112375129.69508  21036862.520    87402887.97508
  20368878.340   108997978.77008  20368879.320    84776209.30808
  20841321.040   111252387.68209  20841324.160    86529647.04308
 15 03 04 00 24  0.0000000  0 14G16G18G19G21G22G27G31R01R02R14R15R16
                                R17R18
  20665849.260   108599798.81109  20665845.860    84623212.76348
  22244961.260   116898189.66309  22244959.260    91089522.31847
  23509574.860   123543679.32108  23509571.520    96267812.62346
  22368182.580   117545605.48208  22368179.280    91593970.39147
  22685383.020   119212720.23908  22685380.080    92893133.70247
  21619438.660   113611062.11609  21619438.580    88528158.66448
  24249418.520                                                  
  23025567.300   123084851.95708  23025572.020    95732686.45305
  22162926.760   118265633.48908  22162931.440    91984392.85007
  23039263.420   122812180.29206  23039278.380    95520596.19705
  20175432.600   107811391.68208  20175436.800    83853319.13908
  21025078.980   112312199.95608  21025081.880    87353942.62908
  20376236.100   109037351.81208  20376237.140    84806832.79108
  20834628.860   111216664.39809  20834631.820    86501862.28508
 15 03 04 00 24 30.0000000  0 14G16G18G19G21G22G27G31R01R02R14R15R16
                                R17R18
  20658780.700   108562653.70909  20658777.300    84594268.53148
  22239513.280   116869559.99109  22239511.080    91067213.51347
  23495863.780   123471627.60308  23495860.340    96211668.48646
  22380624.920   117610990.23408  22380621.580    91644919.54647
  22669962.540   119131685.84209  22669959.800    92829990.10447
  21610572.240   113564468.31209  21610571.940    88491851.81348
  24268395.920   127531278.56109  24268398.840    99375036.06156
  23029992.160   123108504.60508  23029996.860    95751082.97105
  22149277.840   118192802.36608  22149282.760    91927746.46707
  23064928.100   122948982.81406  23064942.820    95626997.22604
  20189438.440   107886234.43408  20189442.760    83911530.13408
  21013433.280   112249990.14308  21013435.920    87305557.22108
  20383622.340   109076877.02308  20383623.340    84837574.61608
  20827981.420   111181180.00509  20827984.340    86474263.33008
 15 03 04 00 25  0.0000000  0 14G16G18G19G21G22G27G31R01R02R14R15R16
                                R17R18
  20651791.200   108525924.29509  20651787.900    84565648.20748
  22234147.740   116841363.08709  22234145.260    91045241.93247
  23482172.900   123399681.80608  23482169.340    96155606.88646
  22393102.900   117676562.20409  22393099.540    91696014.58347
  22654582.400   119050862.32209  22654579.640    92767010.82647
  21601732.280   113518013.58309  21601731.700    88455653.33948
  24287367.100   127630967.16208  24287372.560    99452710.03046
  23034550.920   123132873.99107  23034555.680    95770036.95205
  22135722.460   118120469.94708  22135727.580    91871487.95808
  23090608.340   123085867.84806  23090622.720    95733462.47205
  20203568.380   107961740.45008  20203572.740    83970256.99008
  21001921.940   112188498.54808  21001924.320    87257730.42308
  20391035.900   109116548.31208  20391036.840    84868430.07108
  20821377.600   111145928.79209  20821380.640    86446845.74108
 15 03 04 00 25 30.0000000  0 14G16G18G19G21G22G27G31R01R02R14R15R16
                                R17R18
  20644883.060   108489622.22409  20644879.880    84537360.88548
  22228866.600   116813609.69709  22228863.900    91023615.94947
  23468503.940   123327851.04108  23468500.280    96099634.92146
  22405617.840   117742328.65209  22405614.480    91747261.16647
  22639244.900   118970262.17209  22639241.960    92704205.61347
  21592920.580   113471707.44309  21592919.860    88419570.65548
  24306333.380   127730649.78209  24306338.540    99530391.98146
  23039245.400   123157969.23808  23039250.340    95789555.50505
  22122263.320   118048649.66108  22122268.460    91815627.79208
  23116305.120   123222840.77706  23116319.200    95839996.13305
  20217823.600   108037916.09108  20217828.000    84029504.68308
  20990547.320   112127737.56508  20990549.460    87210471.88808
  20398478.300   109156374.03908  20398479.180    84899405.64108
  20814819.120   111110919.57809  20814822.220    86419616.36008
 15 03 04 00 26  0.0000000  0 14G16G18G19G21G22G27G31R01R02R14R15R16
                                R17R18
  20638055.220   108453741.60909  20638052.060    84509401.97048
  22223668.700   116786293.78809  22223665.800    91002330.85647
  23454855.540   123256128.42308  23454851.840    96043747.23446
  22418168.160   117808280.99208  22418164.800    91798652.59447
  22623949.120   118889881.02109  22623945.940    92641571.03947
  21584135.780   113425542.81009  21584135.040    88383598.22648
  24325292.560   127830275.51509  24325298.680    99608029.66845
  23044074.260   123183782.37708  23044079.200    95809632.44705
  22108899.840   117977338.31509  22108904.760    91760163.46507
  23142016.080   123359890.22406  23142030.180    95946589.33904
  20232201.980   108114750.00208  20232206.460    84089264.34908
  20979308.540   112067702.65508  20979310.680    87163778.07607
  20405948.000   109196345.57509  20405948.760    84930494.61708
  20808304.460   111076143.92409  20808307.580    86392568.64308
 15 03 04 00 26 30.0000000  0 14G16G18G19G21G22G27G31R01R02R14R15R16
                                R17R18
  20631308.500   108418287.16409  20631305.300    84481775.12648
  22218554.840   116759419.94409  22218551.860    90981390.21947
  23441228.340   123184516.97708  23441224.500    95987946.15246
  22430753.880   117874419.32308  22430750.540    91850188.94647
  22608695.960   118809724.09909  22608692.460    92579111.18247
  21575378.460   113379522.74609  21575377.760    88347738.44248
  24344246.400                                                  
  23049037.920   123210315.67208  23049042.840    95830269.47505
  22095633.160   117906542.62009  22095637.700    91705100.18507
  23167740.980   123497015.25606  23167755.460    96053241.35205
  20246703.500   108192241.38909  20246707.940    84149535.37608
  20968206.720   112008399.51908  20968209.060    87117653.41808
  20413445.320   109236464.69009  20413445.980    84961698.36908
  20801834.000   111041603.73909  20801837.060    86365704.06808
 15 03 04 00 27  0.0000000  0 13G16G18G19G21G22G27R01R02R14R15R16R17
                                R18
  20624642.820   108383258.32009  20624639.560    84454479.92648
  22213524.820   116732986.72409  22213521.780    90960792.92947
  23427621.780   123113013.63008  23427617.820    95932229.31847
  22443374.260   117940740.00408  22443371.000    91901867.39447
  22593485.320   118729791.59709  22593481.600    92516826.20347
  21566648.140   113333644.67309  21566647.540    88311989.30948
  23054135.720   123237565.94408  23054140.560    95851464.14805
  22082463.280   117836263.82709  22082467.620    91650438.95108
  23193478.660   123634208.43106  23193493.640    96159946.40605
  20261326.980   108270384.31908  20261331.320    84210313.16908
  20957241.920   111949828.19308  20957244.480    87072097.95508
  20420969.420   109276727.43008  20420969.920    84993013.83608
  20795407.000   111007295.57409  20795410.000    86339019.95408
 15 03 04 00 27 30.0000000  0 14G16G18G19G21G22G27G31R01R02R14R15R16
                                R17R18
  20618059.320   108348661.71509  20618056.020    84427521.54148
  22208579.740   116706999.99309  22208576.660    90940543.55947
  23414036.720   123041623.56108  23414032.820    95876600.76647
  22456030.000   118007246.51408  22456026.820    91953690.64147
  22578318.720   118650091.43709  22578314.840    92454722.26347
  21557945.820   113287913.87509  21557945.300    88276354.93148
  24382130.120   128128952.38906  24382136.340    99840774.71745
  23059368.420   123265537.48908  23059373.240    95873219.81305
  22069391.880   117766511.31008  22069396.020    91596187.04107
  23219229.360   123771471.77506  23219244.940    96266706.05104
  20276072.680   108349180.34308  20276076.880    84271598.91508
  20946415.660   111891996.56208  20946418.340    87027117.80207
  20428521.000   109317137.88008  20428521.540    85024444.18408
  20789024.200   110973223.59609  20789027.240    86312519.54108
 15 03 04 00 28  0.0000000  0 14G16G18G19G21G22G27G31R01R02R14R15R16
                                R17R18
  20611557.260   108314493.56109  20611554.040    84400897.00648
  22203718.920   116681456.23309  22203715.880    90920639.35346
  23400472.140   122970341.21708  23400468.260    95821056.13246
  22468719.580   118073930.73308  22468716.440    92005652.36246
  22563195.580   118570620.33209  22563191.640    92392796.79246
  21549270.420   113242324.82109  21549269.940    88240831.00748
  24401059.020   128228426.52208                                
  23064734.880   123294223.63108  23064739.500    95895531.26205
  22056418.520   117697283.11408  22056422.520    91542342.93007
  23244991.400   123908794.98706  23245007.360    96373512.29505
  20290938.740   108428619.75008  20290942.860    84333385.06908
  20935727.480   111834901.76608  20935730.180    86982710.73308
  20436098.840   109357689.09908  20436099.500    85055984.01108
  20782684.280   110939381.24909  20782687.460    86286197.72008
 15 03 04 00 28 30.0000000  0 14G16G18G19G21G22G27G31R01R02R14R15R16
                                R17R18
  20605137.540   108280758.28809  20605134.480    84374609.79449
  22198943.100   116656359.10009  22198940.160    90901083.17447
  23386928.560   122899169.21608  23386924.660    95765597.48547
  22481443.100   118140793.39508  22481440.000    92057753.13947
  22548117.040   118491383.70109  22548113.160    92331054.04947
  21540622.460   113196880.10009  21540621.980    88205419.55648
  24419976.980                                                  
  23070235.340   123323626.06808  23070239.800    95918399.85605
  22043544.380   117628585.38908  22043548.300    91488911.41707
  23270764.360   124046176.38706  23270780.480    96480363.84604
  20305925.020   108508701.76708  20305929.080    84395671.03408
  20925178.200   111778548.89308  20925180.920    86938880.71808
  20443703.200   109398382.41108  20443704.000    85087634.36808
  20776387.580   110905769.88609  20776390.880    86260055.56908
 15 03 04 00 29  0.0000000  0 14G16G18G19G21G22G27G31R01R02R14R15R16
                                R17R18
  20598801.300   108247461.25609  20598798.320    84348664.05348
  22194253.200   116631713.67809  22194250.380    90881878.97547
  23373406.580   122828111.27808  23373402.900    95710227.71646
  22494200.900   118207836.47008  22494197.900    92109994.48247
  22533084.400   118412387.90609  22533080.700    92269498.96847
  21532002.760   113151583.88809  21532002.300    88170123.82348
  24438890.980   128427223.62306  24438898.680   100073191.94543
  23075870.300   123353748.20708  23075874.800    95941828.19005
  22030771.160   117560426.38408  22030775.100    91435898.89607
  23296548.160   124183615.88206  23296564.260    96587260.61804
  20321031.580   108589426.09809  20321035.520    84458456.57908
  20914769.060   111722944.33208  20914771.680    86895632.72608
  20451334.700   109439220.63908  20451335.560    85119397.42608
  20770134.860   110872392.78609  20770138.020    86234095.61508
 15 03 04 00 29 30.0000000  0 14G16G18G19G21G22G27G31R01R02R14R15R16
                                R17R18
  20592548.420   108214601.83709  20592545.380    84323059.31148
  22189648.900   116607518.55109  22189646.240    90863025.65047
  23359905.820   122757165.26208  23359902.400    95654945.15947
  22506992.240   118275056.07008  22506989.440    92162373.38947
  22518097.760   118333633.45609  22518094.240    92208131.93847
  21523410.940   113106433.86109  21523410.480    88134941.99448
  24457793.520                                                  
  23081639.080   123384586.73208  23081643.760    95965813.70405
  22018099.240   117492807.30808  22018103.340    91383306.33107
  23322341.560   124321107.07806  23322357.620    96694197.62404
  20336257.320   108670787.16008  20336261.220    84521737.34708
  20904500.080   111668088.59008  20904502.560    86852967.15008
  20458992.660   109480200.21308  20458993.580    85151270.43508
  20763925.400   110839246.55809  20763928.480    86208315.24508
 15 03 04 00 30  0.0000000  0 14G16G18G19G21G22G27G31R01R02R14R15R16
                                R17R18
  20586378.620   108182178.84909  20586375.420    84297794.64948
  22185130.040   116583772.60409  22185127.600    90844522.34447
  23346425.860   122686328.49808  23346422.580    95599747.71846
  22519816.360   118342447.81908  22519813.700    92214886.43647
  22503157.200   118255120.65209  22503153.800    92146953.20547
  21514846.540   113061427.65109  21514846.060    88099872.24248
  24476685.180   128625842.32308                                
  23087541.220   123416137.81008  23087546.020    95990353.43905
  22005528.820   117425729.22408  22005533.140    91331134.54407
  23348143.320   124458643.31506  23348159.420    96801169.67404
  20351601.020   108752778.80508  20351604.960    84585508.57708
  20894371.160   111613981.50908  20894373.520    86810883.86108
  20466676.380   109521317.11608  20466677.240    85183250.24808
  20757758.620   110806327.57409  20757761.640    86182711.62108
 15 03 04 00 30 30.0000000  0 14G16G18G19G21G22G27G31R01R02R14R15R16
                                R17R18
  20580292.200   108150194.28309  20580288.920    84272871.61748
  22180696.800   116560476.65309  22180694.540    90826369.67747
  23332966.700   122615600.45008  23332963.420    95544634.99647
  22532672.820   118410009.50608  22532670.300    92267531.90047
  22488263.080   118176851.54909  22488259.740    92085964.37347
  21506309.480   113016564.94809  21506309.040    88064914.31348
  24495564.100   128725060.17607  24495570.200   100305264.74355
  23093576.480   123448400.10208  23093581.220    96015446.37705
  21993060.460   117359195.81808  21993065.040    91279386.38707
  23373952.700   124596220.04805  23373969.020    96908173.20504
  20367061.720   108835396.07208  20367065.640    84649766.40908
  20884382.620   111560624.90008  20884384.980    86769384.28107
  20474385.620   109562570.17708  20474386.380    85215335.96208
  20751634.260   110773634.36909  20751637.220    86157283.59208
 15 03 04 00 31  0.0000000  0 13G16G18G19G21G22G27R01R02R14R15R16R17
                                R18
  20574289.780   108118651.33009  20574286.500    84248292.68448
  22176349.780   116537633.80509  22176347.680    90808570.07447
  23319528.740   122544983.17808  23319525.340    95489608.60047
  22545561.620   118477741.26908  22545559.160    92320309.89147
  22473416.220   118098830.67109  22473412.960    92025168.95547
  21497800.140   112971847.94609  21497799.700    88030069.90648
  23099745.060   123481374.71608  23099749.660    96041093.32405
  21980695.280   117293212.80808  21980699.960    91228066.29508
  23399769.160   124733835.26505  23399785.980    97015206.60304
  20382639.160   108918637.80508  20382643.180    84714509.92608
  20874535.460   111508023.68408  20874537.820    86728472.21308
  20482120.460   109603960.15109  20482121.100    85247528.15408
  20745552.320   110741168.11709  20745555.320    86132032.07708
 15 03 04 00 31 30.0000000  0 13G16G18G19G21G22G27G31R01R02R15R16R17
                                R18
  20568371.500   108087550.50809  20568368.220    84224058.27848
  22172088.920   116515243.34409  22172086.880    90791122.99046
  23306111.540   122474474.91708  23306108.000    95434667.15546
  22558482.100   118545639.62008  22558479.700    92373217.69746
  22458616.820   118021059.22209  22458613.600    91964567.90747
  21489318.200   112927275.00609  21489317.740    87995337.76748
  24533289.640   128923302.58908  24533295.880   100459740.84246
  23106046.320   123515058.51908  23106050.740    96067291.87205
  21968433.680   117227782.07509  21968438.300    91177175.76507
  20398332.480   109002498.41408  20398336.520    84779734.80608
  20864829.820   111456178.25508  20864832.240    86688147.99307
  20489880.260   109645484.04209  20489880.880    85279824.51908
  20739512.300   110708926.03209  20739515.500    86106954.92108
 15 03 04 00 32  0.0000000  0 14G16G18G19G21G22G27G31R01R02R14R15R16
                                R17R18
  20562538.380   108056896.98509  20562535.040    84200172.41648
  22167915.200   116493310.19309  22167913.060    90774032.25347
  23292715.900   122404080.03308  23292712.060    95379814.05046
  22571434.760   118613706.63908  22571432.360    92426256.93047
  22443866.120   117943543.76309  22443862.820    91904166.31747
  21480864.480   112882850.32909  21480863.980    87960721.16248
  24552133.780                    24552139.540                  
  23112480.800   123549454.66808  23112485.240    96094044.47005
  21956277.160   117162911.55809  21956281.560    91126720.95707
  23451420.520                    23451440.140                  
  20414141.720   109086978.15408  20414145.800    84845441.22208
  20855266.940   111405095.16308  20855269.440    86648416.70108
  20497665.640   109687144.88308  20497666.180    85312227.39408
  20733514.860   110676911.46909  20733518.200    86082054.72108
 15 03 04 00 32 30.0000000  0 14G16G18G19G21G22G27G31R01R02R03R15R16
                                R17R18
  20556789.620   108026686.88209  20556786.200    84176632.08248
  22163827.940   116471830.80309  22163825.640    90757295.09547
  23279340.660   122333792.59908  23279336.660    95325044.65747
  22584418.100   118681934.62408  22584415.620    92479421.59347
  22429163.580   117866281.30409  22429160.100    91843961.87048
  21472437.980   112838568.67209  21472437.460    87926216.00448
  24570964.720                                                  
  23119047.300   123584556.51608  23119051.720    96121345.93605
  21944225.220   117098599.15709  21944229.400    91076700.24708
  23597116.340   126317214.80007  23597125.340    98246754.15706
  20430065.100   109172067.70808  20430069.340    84911621.93308
  20845846.180   111354771.25208  20845848.840    86609275.88408
  20505475.320   109728936.02608  20505475.820    85344731.63308
  20727558.760   110645117.68509  20727562.020    86057326.24008
 15 03 04 00 33  0.0000000  0 15G16G18G19G21G22G27G31R01R02R03R14R15
                                R16R17R18
  20551126.620   107996927.36109  20551123.120    84153442.83848
  22159828.280   116450811.38609  22159825.700    90740916.34747
  23265986.860   122263618.03008  23265982.860    95270363.22846
  22597432.880   118750327.58408  22597430.340    92532714.79647
  22414510.800   117789280.08409  22414507.100    91783960.97247
  21464039.780   112794435.58909  21464039.220    87891826.60748
  24589782.580   129220176.02508  24589789.840   100691064.45544
  23125746.640   123620368.14608  23125751.000    96149199.43005
  21932279.640   117034854.31209  21932283.460    91027120.95807
  23575224.100   126200027.94306  23575233.900    98155609.50206
  23503091.260   125284701.16606                                
  20446102.800   109257767.82308  20446107.160    84978277.52008
  20836569.040   111305214.21408  20836571.680    86570731.51908
  20513310.100   109770861.83508  20513310.680    85377340.58708
  20721644.920   110613549.40109  20721648.000    86032773.14208
 15 03 04 00 33 30.0000000  0 15G16G18G19G21G22G27G31R01R02R03R14R15
                                R16R17R18
  20545549.120   107967617.24109  20545545.640    84130603.77948
  22155915.780   116430250.04809  22155912.940    90724894.55047
  23252654.000   122193553.73008  23252649.980    95215767.72746
  22610478.180   118818880.84908  22610475.580    92586132.92047
  22399907.620   117712539.58209  22399903.820    91724163.24247
  21455669.380   112750448.56209  21455668.800    87857551.02248
  24608586.260   129318989.37908                                
  23132578.080   123656886.11608  23132582.360    96177602.30605
  21920440.480   116971677.96809  21920443.940    90977983.84907
  23553328.300   126082821.53107  23553338.240    98064449.76706
  23528931.540   125422446.62404                                
