     2.11           OBSERVATION DATA    G                   RINEX VERSION / TYPE
SPIDER V4,0,0,3554                      2015 03 16 01:07    PGM / RUN BY / DATE 
ABKD                                                        MARKER NAME         
ABKD                                                        MARKER NUMBER       
                                                            OBSERVER / AGENCY   
496503              LEICA GRX1200+GNSS  8.20/4.007          REC # / TYPE / VERS 
10301028            LEIAR25         NONE                    ANT # / TYPE        
  5126847.8297   206786.8373  3776118.0908                  APPROX POSITION XYZ 
        0.0000        0.0000        0.0000                  ANTENNA: DELTA H/E/N
     1     1                                                WAVELENGTH FACT L1/2
     4    C1    L1    P2    L2                              # / TYPES OF OBSERV 
    30.000                                                  INTERVAL            
  2015    02    27    00    00    0.0000000     GPS         TIME OF FIRST OBS   
  2015    02    27    23    59   30.0000000     GPS         TIME OF LAST OBS    
    16                                                      LEAP SECONDS        
    30                                                      # OF SATELLITES     
   G 1   823   823   822   822                              PRN / # OF OBS      
   G 2   931   931   931   931                              PRN / # OF OBS      
   G 3   827   827   826   826                              PRN / # OF OBS      
   G 4   837   837   837   837                              PRN / # OF OBS      
   G 5   666   665   665   665                              PRN / # OF OBS      
   G 6   734   734   734   734                              PRN / # OF OBS      
   G 7   704   704   704   704                              PRN / # OF OBS      
   G 9   784   784   782   782                              PRN / # OF OBS      
   G10   774   773   773   773                              PRN / # OF OBS      
   G11   788   788   788   788                              PRN / # OF OBS      
   G12   808   808   808   808                              PRN / # OF OBS      
   G13   811   810   810   810                              PRN / # OF OBS      
   G14   934   933   933   933                              PRN / # OF OBS      
   G15   724   723   723   723                              PRN / # OF OBS      
   G16   687   686   686   686                              PRN / # OF OBS      
   G17   934   934   934   934                              PRN / # OF OBS      
   G18   933   933   933   933                              PRN / # OF OBS      
   G19   772   772   772   772                              PRN / # OF OBS      
   G20   793   792   792   792                              PRN / # OF OBS      
   G21   682   675   669   668                              PRN / # OF OBS      
   G22   791   790   790   790                              PRN / # OF OBS      
   G23   717   717   716   716                              PRN / # OF OBS      
   G24   831   831   831   831                              PRN / # OF OBS      
   G25   845   844   844   844                              PRN / # OF OBS      
   G27   821   821   821   821                              PRN / # OF OBS      
   G28   910   910   910   910                              PRN / # OF OBS      
   G29   738   738   737   737                              PRN / # OF OBS      
   G30   688   688   688   688                              PRN / # OF OBS      
   G31   786   786   785   785                              PRN / # OF OBS      
   G32   736   736   733   733                              PRN / # OF OBS      
BIT 2 OF LLI FLAGS DATA COLLECTED UNDER A/S CONDITION       COMMENT             
SNR is mapped to RINEX snr flag value [2-9]                 COMMENT             
Lx:     = 25dBHz -> 1; 26-27dBHz -> 2; 28-31dBHz -> 3       COMMENT             
       32-35dBHz -> 4; 36-38dBHz -> 5; 39-41dBHz -> 6       COMMENT             
       42-44dBHz -> 7; 45-48dBHz -> 8; >=49dBHz -> 9        COMMENT             
                                                            END OF HEADER       
 15 02 27 00 00  0.0000000  0  7G16G18G21G22G27G29G31
  21633247.200   113683499.09309  21633243.340    88584533.38548
  22861365.080   120137361.91408  22861362.040    93613549.98246
  21287376.980   111866361.94408  21287372.540    87168784.56148
  24197859.560   127160667.35507  24197857.640    99086256.56846
  22774124.700   119678855.56608  22774124.140    93256255.18347
  24017562.500   126213547.94306  24017560.060    98348388.97945
  22831516.660   119980456.02009  22831513.480    93491262.07047
 15 02 27 00 00 30.0000000  0  7G16G18G21G22G27G29G31
  21620112.520   113614475.98109  21620108.560    88530749.15048
  22849292.160   120073918.15808  22849288.960    93564113.30546
  21294197.160   111902202.81008  21294192.820    87196712.50448
  24180187.320   127067800.61807  24180185.320    99013893.28745
  22761811.900   119614150.99208  22761811.400    93205836.04548
  24032166.620   126290292.78607  24032164.180    98408190.13545
  22848953.260   120072085.49309  22848950.140    93562661.62147
 15 02 27 00 01  0.0000000  0  7G16G18G21G22G27G29G31
  21607027.740   113545715.46809  21607023.820    88477169.54248
  22837269.400   120010738.11708  22837266.140    93514882.13346
  21301084.720   111938397.63408  21301080.500    87224916.25748
  24162510.400   126974909.41107  24162508.340    98941510.90446
  22749522.680   119549570.08008  22749522.300    93155513.26547
  24046773.520   126367052.28807  24046771.120    98468002.70944
  22866428.060   120163915.71609  22866424.880    93634217.60647
 15 02 27 00 01 30.0000000  0  7G16G18G21G22G27G29G31
  21593993.000   113477218.01509  21593989.140    88423794.91348
  22825296.920   119947822.80108  22825293.760    93465857.23446
  21308039.020   111974943.00108  21308034.900    87253393.17248
  24144828.900   126881993.94907  24144826.780    98869109.62545
  22737256.700   119485111.16308  22737256.300    93105285.56448
  24061382.740   126443824.42807  24061380.420    98527825.13345
  22883940.200   120255942.20208  22883936.860    93705926.53047
 15 02 27 00 02  0.0000000  0  7G16G18G21G22G27G29G31
  21581009.000   113408986.97909  21581005.120    88370627.86647
  22813375.560   119885175.98108  22813372.500    93417041.53046
  21315060.020   112011839.12508  21315056.040    87282143.39048
  24127143.420   126789058.07608  24127141.100    98796692.41045
  22725014.260   119420775.63009  22725013.680    93055153.98147
  24075994.720   126520610.88507  24075992.580    98587658.66744
  22901489.300   120348163.35608  22901485.820    93777787.14247
 15 02 27 00 02 30.0000000  0  7G16G18G21G22G27G29G31
  21568075.860   113341022.99809  21568071.940    88317668.92847
  22801505.320   119822797.99008  22801502.240    93368435.31546
  21322147.120   112049082.20808  21322143.220    87311163.97848
  24109454.300   126696102.68108  24109451.700    98724259.95045
  22712794.900   119356561.54009  22712793.820    93005117.03847
  24090609.040   126597409.26607  24090606.980    98647501.49745
  22919074.480   120440574.27908  22919070.980    93849795.62547
 15 02 27 00 03  0.0000000  0  7G16G18G21G22G27G29G31
  21555194.620   113273331.81909  21555190.660    88264922.56548
  22789687.640   119760695.86508  22789684.600    93320044.05946
  21329300.840   112086674.86308  21329296.880    87340456.95148
  24091762.800   126603134.63508  24091760.000    98651817.61745
  22700599.260   119292473.06408  22700597.800    92955177.97647
  24105226.460   126674223.82207  24105224.220    98707356.93845
  22936696.020   120533176.43608  22936692.640    93921953.10947
 15 02 27 00 03 30.0000000  0  7G16G18G21G22G27G29G31
  21542364.400   113205908.80509  21542360.480    88212385.15148
  22777921.640   119698865.31208  22777918.620    93271864.43646
  21336519.500   112124608.80208  21336515.440    87370015.86448
  24074068.120   126510150.05408  24074065.240    98579362.37845
  22688426.060   119228503.48308  22688424.400    92905331.56647
  24119845.620   126751047.52208  24119843.280    98767219.52945
  22954352.100   120625960.09108  22954348.860    93994252.03047
 15 02 27 00 04  0.0000000  0  7G16G18G21G22G27G29G31
  21529587.440   113138765.47409  21529583.620    88160065.69348
  22766209.540   119637317.87908  22766206.460    93223905.41646
  21343804.480   112162891.31808  21343800.320    87399846.39748
  24056372.580   126417160.32008  24056369.500    98506903.08045
  22676277.220   119164661.98008  22676275.740    92855584.96147
  24134468.060   126827889.22008  24134465.740    98827096.14445
  22972043.900   120718931.24008  22972040.720    94066697.04347
 15 02 27 00 04 30.0000000  0  7G16G18G21G22G27G29G31
  21516862.560   113071895.72409  21516858.800    88107959.39648
  22754550.160   119576047.24009  22754547.000    93176162.08146
  21351153.900   112201512.60208  21351149.680    87429940.90748
  24038675.020   126324159.49808  24038671.840    98434435.16345
  22664151.380   119100940.28509  22664150.120    92805931.70447
  24149092.360   126904740.45407  24149090.180    98886980.22045
  22989769.280   120812078.97208  22989766.180    94139279.65647
 15 02 27 00 05  0.0000000  0  7G16G18G21G22G27G29G31
  21504190.580   113005303.76709  21504186.840    88056069.56848
  22742944.380   119515058.32608  22742941.140    93128638.27746
  21358567.820   112240473.11408  21358563.600    87460299.74548
  24020976.400   126231152.61708  24020972.800    98361962.50245
  22652048.880   119037340.53208  22652047.760    92756373.46647
  24163718.960   126981603.78707  24163716.700    98946873.68845
  23007528.080   120905402.26708  23007524.980    94211999.05847
 15 02 27 00 05 30.0000000  0  7G16G18G21G22G27G29G31
  21491572.620   112938995.49309  21491568.820    88004400.77548
  22731393.440   119454357.68409  22731390.100    93081339.08246
  21366046.640   112279774.78608  21366042.520    87490924.41948
  24003277.760   126138145.73808  24003273.980    98289489.83145
  22639970.280   118973866.38308  22639969.140    92706913.10047
  24178348.440   127058482.38107  24178346.260    99006779.01044
  23025320.500   120998901.76508  23025317.220    94284855.77147
 15 02 27 00 06  0.0000000  0  7G16G18G21G22G27G29G31
  21479008.200   112872968.59709  21479004.340    87952951.24848
  22719896.860   119393942.92209  22719893.600    93034262.66046
  21373589.220   112319411.63208  21373585.200    87521810.26948
  23985578.860   126045137.52208  23985574.820    98217016.10145
  22627914.560   118910513.60408  22627913.420    92657547.30247
  24192980.000   127135371.84007  24192977.840    99066692.82144
  23043145.220   121092570.50508  23043141.700    94357844.36247
 15 02 27 00 06 30.0000000  0  7G16G18G21G22G27G29G31
  21466497.980   112807226.37209  21466494.020    87901723.53848
  22708455.500   119333817.79409  22708452.180    92987411.92346
  21381195.380   112359382.58808  21381191.400    87552956.46648
  23967880.400   125952131.33808  23967876.040    98144543.94045
  22615882.020   118847283.29608  22615880.800    92608276.95347
  24207613.840   127212272.96007  24207611.620    99126615.75144
  23061001.780   121186406.56008  23060998.000    94430963.33147
 15 02 27 00 07  0.0000000  0  7G16G18G21G22G27G29G31
  21454042.620   112741772.54809  21454038.560    87850720.55848
  22697069.980   119273985.93309  22697066.500    92940789.69846
  21388865.340   112399688.57108  21388861.360    87584363.72148
  23950183.080   125859131.65608  23950178.600    98072076.83446
  22603873.140   118784177.09108  22603871.900    92559103.28747
  24222250.300   127289187.77407  24222248.200    99186549.35444
  23078889.820   121280408.29808  23078885.920    94504211.40847
 15 02 27 00 07 30.0000000  0  7G16G18G21G22G27G29G31
  21441642.760   112676610.47609  21441638.540    87799944.91648
  22685741.000   119214451.29509  22685737.460    92894399.08746
  21396598.920   112440328.50608  21396594.880    87616031.20548
  23932487.740   125766142.26608  23932483.300    97999617.73945
  22591888.200   118721196.27108  22591886.920    92510027.33547
  24236889.460   127366116.89207  24236887.400    99246494.10144
  23096809.020   121374574.46908  23096805.280    94577587.59047
 15 02 27 00 08  0.0000000  0  7G16G18G21G22G27G29G31
  21429297.720   112611736.92909  21429293.440    87749394.10648
  22674467.920   119155210.79909  22674464.320    92848237.68646
  21404394.760   112481295.29908  21404390.540    87647953.38348
  23914793.820   125673160.39908  23914789.460    97927164.51046
  22579926.160   118658335.53208  22579924.940    92461044.97047
  24251530.300   127443055.10707  24251528.180    99306445.88744
  23114757.940   121468896.57008  23114754.260    94651085.28847
 15 02 27 00 08 30.0000000  0  7G16G18G21G22G27G29G31
  21417008.900   112547159.00209  21417004.640    87699073.64348
  22663252.040   119096271.41409  22663248.580    92802310.89946
  21412253.460   112522592.31509  21412249.080    87680132.87348
  23897102.580   125580193.23008  23897098.180    97854722.72246
  22567987.840   118595599.60508  22567986.820    92412159.84847
  24266173.780   127520006.97707  24266171.600    99366408.35043
  23132736.940   121563376.35309  23132733.320    94724705.84947
 15 02 27 00 09  0.0000000  0  7G16G18G21G22G27G29G31
  21404776.060   112482875.54309  21404771.860    87648982.63248
  22652093.240   119037632.34409  22652089.960    92756618.13246
  21420173.960   112564214.45609  21420169.500    87712565.70648
  23879414.000   125487240.33408  23879409.560    97782292.04546
  22556072.660   118532985.27108  22556071.880    92363369.47947
  24280819.260   127596969.18207  24280817.140    99426378.87343
  23150744.820   121658007.57609  23150741.200    94798444.41146
 15 02 27 00 09 30.0000000  0  7G16G18G21G22G27G29G31
  21392600.020   112418890.33609  21392595.960    87599124.04048
  22640992.540   118979298.23709  22640989.320    92711163.00046
  21428156.340   112606162.07509  21428151.840    87745252.16248
  23861728.960   125394306.29608  23861724.660    97709876.05145
  22544181.020   118470494.62308  22544180.320    92314675.46747
  24295467.040   127673943.44606  24295464.460    99486358.79845
  23168781.340   121752789.45309  23168777.660    94872300.37247
 15 02 27 00 10  0.0000000  0  7G16G18G21G22G27G29G31
  21380481.500   112355207.34409  21380477.560    87549500.93948
  22629950.780   118921273.37008  22629947.400    92665948.83846
  21436200.680   112648435.40108  21436196.180    87778192.41448
  23844048.440   125301395.60308  23844044.140    97637478.25746
  22532313.280   118408129.44108  22532312.560    92266079.23247
  24310117.380   127750931.67604  24310115.640    99546349.54143
  23186846.320   121847720.84708  23186842.440    94946272.84847
 15 02 27 00 10 30.0000000  0  7G16G18G21G22G27G29G31
  21368420.480   112291826.44509  21368416.560    87500113.21548
  22618967.660   118863556.69609  22618964.260    92620974.81846
  21444306.080   112691029.84408  21444301.560    87811382.88348
  23826372.280   125208508.24008  23826368.140    97565098.58046
  22520468.920   118345887.10108  22520468.080    92217578.71747
  24324769.960   127827931.13804  24324768.780    99606349.13242
  23204938.620   121942796.04708  23204934.600    95020357.37647
 15 02 27 00 11  0.0000000  0  7G16G18G21G22G27G29G31
  21356418.600   112228756.21109  21356414.700    87450967.58048
  22608045.000   118806157.50409  22608041.660    92576248.19846
  21452473.300   112733949.17208  21452468.820    87844826.51948
  23808702.240   125115653.21608  23808698.460    97492744.15346
  22508649.160   118283773.98508  22508648.180    92169178.90347
  24339425.800   127904947.98204                                
  23223058.840   122038018.48208  23223054.840    95094556.62347
 15 02 27 00 11 30.0000000  0  7G16G18G21G22G27G29G31
  21344472.760   112165980.26409  21344468.780    87402051.25448
  22597179.740   118749059.92209  22597176.460    92531756.58846
  21460698.840   112777175.03408  21460694.500    87878509.00148
  23791035.560   125022814.96608  23791031.920    97420402.76446
  22496850.720   118221772.11509  22496849.540    92120865.77047
  24354081.520   127981964.09204  24354083.820    99725901.68553
  23241202.980   122133367.17508  23241199.220    95168854.24747
 15 02 27 00 12  0.0000000  0  6G16G18G21G22G27G31
  21332586.500   112103517.09409  21332582.320    87353378.65648
  22586375.360   118692282.34109  22586372.140    92487514.32346
  21468985.440   112820721.76508  21468981.260    87912441.51948
  23773375.820   124930012.68208  23773372.300    97348089.41546
  22485076.560   118159897.83008  22485075.380    92072652.05947
  23259373.680   122228855.47108  23259370.160    95243260.66046
 15 02 27 00 12 30.0000000  0  6G16G18G21G22G27G31
  21320759.880   112041367.08009  21320755.520    87304950.07048
  22575631.960   118635825.34009  22575628.740    92443521.87246
  21477332.220   112864584.82108  21477328.220    87946620.51348
  23755723.160   124837246.91508  23755719.460    97275804.48845
  22473326.140   118098149.18408  22473325.160    92024536.24447
  23277570.000   122324478.29308  23277566.700    95317771.88246
 15 02 27 00 13  0.0000000  0  6G16G18G21G22G27G31
  21308993.080   111979531.63509  21308988.680    87256766.61048
  22564949.800   118579690.45009  22564946.540    92399780.41146
  21485738.820   112908762.09708  21485734.920    87981044.36048
  23738077.780   124744519.62308  23738073.880    97203549.56545
  22461599.420   118036525.55608  22461598.760    91976517.85147
  23295791.220   122420232.24608  23295788.200    95392385.29747
 15 02 27 00 13 30.0000000  0  6G16G18G21G22G27G31
  21297285.820   111918009.22709  21297281.440    87208827.07948
  22554328.700   118523876.30309  22554325.400    92356288.88446
  21494204.380   112953248.81208  21494200.460    88015709.32948
  23720439.560   124651830.10608  23720435.440    97131324.05245
  22449895.900   117975023.43009  22449895.360    91928594.10848
  23314036.160   122516110.84908  23314033.340    95467095.83147
 15 02 27 00 14  0.0000000  0  6G16G18G21G22G27G31
  21285638.880   111856803.71509  21285634.560    87161134.47748
  22543769.480   118468387.10909  22543766.120    92313050.57846
  21502728.680   112998044.24008  21502724.680    88050614.85348
  23702809.240   124559182.53108  23702805.000    97059131.22846
  22438216.040   117913644.48209  22438215.320    91880766.36748
  23332304.600   122612112.69608  23332301.940    95541902.39847
 15 02 27 00 14 30.0000000  0  6G16G18G21G22G27G31
  21274052.960   111795919.27909  21274048.700    87113692.06748
  22533272.880   118413226.85909  22533269.440    92270068.57146
  21511311.900   113043148.98508  21511307.760    88085761.41248
  23685187.820   124466581.35708  23685183.340    96986974.56346
  22426560.000   117852390.72709  22426559.040    91833036.18848
  23350596.400   122708236.70908  23350593.720    95616804.16046
 15 02 27 00 15  0.0000000  0  6G16G18G21G22G27G31
  21262528.480   111735358.23509  21262524.340    87066501.63748
  22522839.240   118358397.82209  22522835.760    92227344.65446
  21519953.620   113088561.19108  21519949.380    88121147.54248
  23667575.780   124374029.32208  23667571.060    96914856.17346
  22414927.780   117791262.31509  22414926.620    91785403.66648
  23368911.100   122804480.15908  23368908.180    95691799.00147
 15 02 27 00 15 30.0000000  0  6G16G18G21G22G27G31
  21251065.800   111675122.61709  21251061.940    87019564.80048
  22512469.080   118303902.46009  22512465.560    92184880.74447
  21528653.580   113134279.55508  21528649.320    88156772.23848
  23649973.640   124281529.63108  23649968.700    96842778.57746
  22403319.340   117730259.57709  22403318.100    91737869.07948
  23387248.020   122900840.22308  23387244.920    95766884.70446
 15 02 27 00 16  0.0000000  0  6G16G18G21G22G27G31
  21239665.160   111615212.75309  21239661.460    86972881.79048
  22502162.580   118249741.34509  22502159.000    92142677.28046
  21537411.040   113180300.01909  21537406.720    88192632.33148
  23632381.540   124189082.92408  23632376.320    96770742.24945
  22391734.440   117669380.71909  22391733.140    91690431.01248
  23405606.240   122997312.24808  23405603.100    95842057.63346
 15 02 27 00 16 30.0000000  0  6G16G18G21G22G27G31
  21228326.500   111555628.73609  21228322.980    86926452.68948
  22491919.640   118195914.37909  22491916.120    92100734.20247
  21546225.340   113226619.02609  21546221.000    88228725.06848
  23614799.560   124096689.86208  23614794.280    96698747.73646
  22380172.820   117608623.71809  22380171.580    91643087.90248
  23423984.760   123093891.12408  23423981.660    95917313.83447
 15 02 27 00 17  0.0000000  0  6G16G18G21G22G27G31
  21217050.740   111496374.68009  21217047.320    86880280.70648
  22481740.980   118142425.41509  22481737.560    92059054.51847
  21555096.380   113273236.60908  21555092.060    88265050.46148
  23597228.580   124004354.64608  23597223.360    96626798.28846
  22368634.700   117547990.38008  22368633.620    91595841.16248
  23442383.180   123190575.80708  23442380.400    95992652.46446
 15 02 27 00 17 30.0000000  0  6G16G18G21G22G27G31
  21205839.260   111437458.22509  21205835.960    86834371.77648
  22471628.240   118089283.02309  22471624.900    92017644.86846
  21564025.000   113320156.72908  21564020.680    88301611.58348
  23579670.340   123912086.18108  23579665.320    96554900.85146
  22357121.160   117487486.63709  22357120.320    91548695.40548
  23460802.180   123287368.89908  23460799.580    96068075.55146
 15 02 27 00 18  0.0000000  0  6G16G18G21G22G27G31
  21194691.460   111378876.25609  21194688.240    86788723.50348
  22461580.800   118036483.73409  22461577.520    91976502.59247
  21573009.720   113367371.94308  21573005.420    88338402.65548
  23562124.240   123819881.43608  23562119.640    96483053.06646
  22345631.220   117427107.11008  22345630.440    91501646.44548
  23479240.420   123384262.38608  23479237.820    96143576.89946
 15 02 27 00 18 30.0000000  0  6G16G18G21G22G27G31
  21183607.540   111320629.52509  21183604.240    86743336.42948
  22451598.900   117984028.44309  22451595.480    91935628.36046
  21582050.060   113414879.46309  21582045.800    88375421.48848
  23544590.600   123727741.89908  23544586.300    96411256.08346
  22334164.640   117366850.49008  22334163.660    91454693.25148
  23497697.000   123481251.86208  23497694.360    96219153.03247
 15 02 27 00 19  0.0000000  0  6G16G18G21G22G27G31
  21172588.580   111262724.00809  21172585.180    86698215.24748
  22441683.640   117931922.95409  22441680.060    91895026.68546
  21591146.340   113462681.02309  21591142.120    88412669.44948
  23527070.600   123635674.12408  23527066.400    96339515.01546
  22322722.280   117306720.81108  22322721.100    91407838.96448
  23516171.940   123578338.23508  23516169.360    96294804.66546
 15 02 27 00 19 30.0000000  0  7G16G18G19G21G22G27G31
  21161633.980   111205157.09609  21161630.520    86653357.91348
  22431834.360   117880164.58009  22431830.760    91854695.50047
  24544113.560   128980202.88407  24544111.220   100504036.82346
  21600297.440   113510770.33409  21600293.220    88450141.64148
  23509563.800   123543675.80508  23509559.460    96267828.07246
  22311303.220   117246713.22409  22311302.040    91361079.80348
  23534663.880   123675513.63308  23534661.320    96370525.66547
 15 02 27 00 20  0.0000000  0  7G16G18G19G21G22G27G31
  21150742.420   111147921.54909  21150738.900    86608758.78448
  22422049.820   117828746.64309  22422046.240    91814629.57946
  24528723.640   128899325.89907  24528721.600   100441015.84145
  21609501.220   113559136.62408  21609496.980    88487829.65148
  23492069.160   123451740.47608  23492064.440    96196190.21346
  22299905.800   117186818.80509  22299904.640    91314408.84248
  23553170.540   123772766.06808  23553168.020    96446306.69147
 15 02 27 00 20 30.0000000  0  7G16G18G19G21G22G27G31
  21139920.800   111091053.60709  21139917.320    86564446.10648
  22412336.920   117777705.02509  22412333.220    91774856.90446
  24513353.320   128818552.39607  24513351.360   100378075.47346
  21618763.800   113607811.92109  21618759.540    88525758.45648
  23474593.660   123359904.91108  23474588.500    96124630.10046
  22288536.260   117127071.51709  22288535.260    91267852.52348
  23571697.820   123870126.64908  23571695.260    96522171.97846
 15 02 27 00 21  0.0000000  0  7G16G18G19G21G22G27G31
  21129163.680   111034524.43209  21129160.240    86520397.39348
  22402690.100   117727010.73309  22402686.300    91735354.87346
  24497996.540   128737851.42108  24497994.500   100315191.64445
  21628079.020   113656763.66108  21628074.700    88563902.66348
  23457131.840   123268141.12908  23457126.320    96053125.90446
  22277188.760   117067440.60109  22277187.820    91221386.87448
  23590239.320   123967561.43608  23590236.480    96598095.09746
 15 02 27 00 21 30.0000000  0  7G16G18G19G21G22G27G31
  21118472.880   110978343.69109  21118469.460    86476620.20348
  22393111.260   117676673.51609  22393107.440    91696131.08546
  24482655.000   128657230.49307  24482652.840   100252370.20146
  21637447.800   113705997.10308  21637443.500    88602266.38248
  23439685.540   123176459.20508  23439679.700    95981685.49546
  22265864.820   117007933.68809  22265863.880    91175017.86848
  23608795.780   124065075.07708  23608792.620    96674079.66046
 15 02 27 00 22  0.0000000  0  7G16G18G19G21G22G27G31
  21107849.340   110922516.77209  21107845.980    86433118.71448
  22383601.300   117626698.80909  22383597.680    91657189.76947
  24467329.380   128576693.17208  24467326.780   100189613.89045
  21646870.520   113755513.92308  21646866.240    88640850.91148
  23422255.840   123084865.17708  23422249.940    95910313.58246
  22254565.200   116948554.17309  22254564.220    91128748.11848
  23627367.260   124162668.21708  23627363.900    96750126.15446
 15 02 27 00 22 30.0000000  0  7G16G18G19G21G22G27G31
  21097292.340   110867039.53809  21097289.000    86389889.70148
  22374159.640   117577082.71609  22374156.180    91618527.88347
  24452018.700   128496233.21408  24452015.320   100126917.81245
  21656345.700   113805306.38309  21656341.520    88679650.22648
  23404842.040   122993355.27208  23404836.300    95839007.21146
  22243288.780   116889295.88609  22243287.760    91082572.84048
  23645951.960   124260331.30108  23645948.540    96826227.11846
 15 02 27 00 23  0.0000000  0  7G16G18G19G21G22G27G31
  21086803.000   110811918.16509  21086799.740    86346937.97548
  22364787.360   117527831.16009  22364783.980    91580150.05847
  24436723.680   128415854.80308  24436719.460   100064285.32346
  21665873.720   113855376.53108  21665869.680    88718665.91448
  23387445.480   122901936.48108  23387440.060    95767771.83546
  22232036.300   116830163.01109  22232035.220    91036495.27948
  23664550.200   124358065.55708  23664546.800    96902383.53546
 15 02 27 00 23 30.0000000  0  7G16G18G19G21G22G27G31
  21076381.380   110757152.50309  21076378.180    86304263.43348
  22355484.480   117478943.72309  22355481.020    91542055.95747
  24421443.720   128335555.80408  24421438.580   100001714.73645
  21675453.800   113905720.39408  21675449.860    88757894.88748
  23370066.320   122810609.25108  23370061.180    95696607.79946
  22220807.280   116771153.47709  22220806.240    90990513.83048
  23683161.140   124455866.19708  23683157.820    96978591.66946
 15 02 27 00 24  0.0000000  0  7G16G18G19G21G22G27G31
  21066029.480   110702752.98509  21066026.220    86261874.20948
  22346252.960   117430431.34509  22346249.500    91504254.11047
  24406180.300   128255344.62908  24406174.560    99939212.57346
  21685087.220   113956344.53908  21685083.400    88797342.26548
  23352706.740   122719384.74908  23352701.660    95625523.81847
  22209603.220   116712275.77009  22209602.320    90944635.09148
  23701785.720   124553738.41908  23701782.480    97054855.60446
 15 02 27 00 24 30.0000000  0  7G16G18G19G21G22G27G31
  21055747.200   110648718.82409  21055743.760    86219769.67248
  22337092.480   117382292.55409  22337088.980    91466743.37447
  24390932.820   128175218.29208  24390926.700    99876776.53445
  21694773.140   114007244.24508  21694769.320    88837004.36348
  23335366.680   122628262.31308  23335361.420    95554519.37646
  22198423.580   116653526.94409  22198422.760    90898856.77748
  23720422.780   124651676.18608  23720419.600    97131170.61346
 15 02 27 00 25  0.0000000  0  7G16G18G19G21G22G27G31
  21045534.340   110595049.70409  21045530.800    86177949.59148
  22328003.040   117334527.12409  22327999.460    91429523.56547
  24375700.920   128095174.81608  24375694.860    99814405.07845
  21704510.740   114058415.53908  21704506.940    88876878.10148
  23318046.140   122537242.79008  23318040.860    95483595.10946
  22187268.200   116594904.92409  22187267.260    90853177.29148
  23739071.260   124749674.63408  23739068.080    97207532.92146
 15 02 27 00 25 30.0000000  0  7G16G18G19G21G22G27G31
  21035391.600   110541749.28009  21035388.040    86136416.78848
  22318985.400   117287139.10309  22318981.840    91392597.84447
  24360484.940   128015215.65508  24360479.140    99752099.26545
  21714299.980   114109858.19808  21714296.180    88916963.27548
  23300746.000   122446330.44708  23300740.700    95412754.35946
  22176137.400   116536411.33409  22176136.260    90807597.87748
  23757730.920   124847732.26908  23757727.840    97283941.35546
 15 02 27 00 26  0.0000000  0  7G16G18G19G21G22G27G31
  21025319.460   110488819.81609  21025315.880    86095173.05748
  22310039.920   117240130.73509  22310036.380    91355967.97047
  24345284.940   127935341.17808  24345279.580    99689859.45045
  21724140.440   114161569.88809  21724136.580    88957258.10748
  23283466.820   122355528.10408  23283461.540    95341999.34346
  22165031.100   116478046.54809  22165029.860    90762118.84348
  23776401.440   124945846.55608  23776398.560    97360393.93346
 15 02 27 00 26 30.0000000  0  7G16G18G19G21G22G27G31
  21015318.380   110436263.47309  21015314.720    86054220.06848
  22301166.940   117193503.50209  22301163.420    91319635.07946
  24330100.900   127855551.34407  24330096.060    99627685.54945
  21734031.840   114213549.06009  21734027.860    88997761.35248
  23266209.140   122264838.35108  23266203.880    95271332.05346
  22153949.260   116419810.63609  22153947.920    90716740.22548
  23795082.200   125044014.11308  23795079.520    97436887.98846
 15 02 27 00 27  0.0000000  0  7G16G18G19G21G22G27G31
  21005388.560   110384081.22409  21005384.780    86013558.57748
  22292366.640   117147258.38809  22292363.240    91283599.93647
  24314932.800   127775845.18407  24314928.580    99565576.88046
  21743973.760   114265793.52209  21743969.580    89038471.32048
  23248973.380   122174263.19608  23248968.000    95200754.03146
  22142891.800   116361702.96909  22142890.540    90671461.51348
  23813772.520   125142231.56108  23813770.000    97513420.89346
 15 02 27 00 27 30.0000000  0  7G16G18G19G21G22G27G31
  20995529.580   110332271.41109  20995525.680    85973187.30148
  22283638.820   117101393.87109  22283635.500    91247861.35347
  24299780.040   127696218.85807  24299776.260    99503530.43345
  21753965.120   114318297.82409  21753960.700    89079383.76548
  23231759.140   122083801.42308  23231753.680    95130264.37647
  22131857.920   116303719.71709  22131856.820    90626279.76848
  23832471.060   125240492.14608  23832468.600    97589987.45146
 15 02 27 00 28  0.0000000  0  7G16G18G19G21G22G27G31
  20985742.080   110280837.55209  20985738.080    85933108.97148
  22274984.000   117055912.79709  22274980.860    91212421.57447
  24284643.080   127616674.03008  24284639.340    99441547.47645
  21764005.560   114371060.60309  21764001.020    89120497.61548
  23214567.140   121993457.14008  23214561.760    95059866.26846
  22120847.880   116245862.31709  22120846.920    90581196.08848
  23851177.460   125338794.19808  23851175.140    97666586.22146
 15 02 27 00 28 30.0000000  0  7G16G18G19G21G22G27G31
  20976026.500   110229781.70309  20976022.420    85893325.19248
  22266402.660   117010817.42509  22266399.540    91177282.32947
  24269521.920   127537210.77108  24269518.240    99379628.08245
  21774094.820   114424080.44308  21774090.340    89161811.76947
  23197397.940   121903232.96608  23197392.740    94989561.76246
  22109861.880   116188130.98109  22109860.920    90536210.64248
  23869891.000   125437134.96608  23869888.980    97743215.18745
 15 02 27 00 29  0.0000000  0  7G16G18G19G21G22G27G31
  20966383.540   110179107.41409  20966379.380    85853838.74048
  22257895.400   116966111.25209  22257892.280    91142446.36447
  24254416.620   127457830.65108  24254413.040    99317773.47645
  21784232.960   114477357.64808  21784228.720    89203326.46647
  23180252.500   121813133.25708  23180247.280    94919354.22946
  22098900.180   116130527.50309  22098899.240    90491324.83748
  23888611.660   125535513.00608  23888609.780    97819873.20946
 15 02 27 00 29 30.0000000  0  7G16G18G19G21G22G27G31
  20956814.220   110128819.80409  20956809.940    85814653.58948
  22249463.180   116921799.28409  22249460.000    91107917.56447
  24239327.740   127378537.14808  24239323.580    99255986.33546
  21794420.300   114530893.04808  21794416.180    89245042.35548
  23163131.880   121723163.96208  23163126.640    94849248.33346
  22087963.460   116073055.17409  22087962.580    90446541.21248
  23907339.680   125633928.75008  23907337.800    97896560.64246
 15 02 27 00 30  0.0000000  0  7G16G18G19G21G22G27G31
  20947317.960   110078916.57909  20947313.680    85775767.95548
  22241105.440   116877878.76209  22241102.140    91073693.78947
  24224254.400   127299325.43408  24224249.720    99194262.95045
  21804655.620   114584680.26709  21804651.540    89286954.46148
  23146035.800   121633323.33509  23146030.400    94779242.67346
  22077050.880   116015709.65509  22077050.040    90401856.39648
  23926073.400   125732374.59608  23926071.500    97973271.44346
 15 02 27 00 30 30.0000000  0  7G16G18G19G21G22G27G31
  20937895.700   110029402.49209  20937891.440    85737185.55448
  22232823.020   116834354.46409  22232819.680    91039778.76647
  24209197.180   127220198.71408  24209192.300    99132605.85245
  21814939.200   114638720.69509  21814935.100    89329063.88648
  23128965.180   121543616.88908  23128959.780    94709341.59046
  22066162.960   115958493.95309  22066162.260    90357272.74748
  23944812.880   125830850.88908  23944811.220    98050006.00846
 15 02 27 00 31  0.0000000  0  7G16G18G19G21G22G27G31
  20928547.280   109980276.56009  20928543.000    85698905.60948
  22224615.860   116791225.68909  22224612.460    91006171.93847
  24194155.560   127141154.13408  24194150.160    99071012.66945
  21825270.000   114693009.04009  21825265.880    89371366.49248
  23111920.000   121454044.50708  23111914.740    94639544.95847
  22055299.240   115901405.23709  22055298.680    90312788.03948
  23963556.980   125929351.52308  23963555.500    98126759.45246
 15 02 27 00 31 30.0000000  0  7G16G18G19G21G22G27G31
  20919273.920   109931544.78509  20919269.640    85660932.80148
  22216484.960   116748497.58209  22216481.500    90972877.33247
  24179130.160   127062195.38408  24179124.620    99009486.38945
  21835648.440   114747547.54809  21835644.280    89413864.03748
  23094901.560   121364612.47408  23094896.380    94569857.69446
  22044460.440   115844447.40509  22044459.960    90268405.31748
  23982306.080   126027877.20608  23982304.260    98203532.42145
 15 02 27 00 32  0.0000000  0  7G16G18G19G21G22G27G31
  20910076.840   109883214.11609  20910072.720    85623272.53848
  22208431.660   116706177.20409  22208428.180    90939900.42147
  24164121.740   126983327.63307  24164116.560    98948031.01945
  21846075.140   114802339.86609  21846071.000    89456559.34848
  23077911.220   121275328.26808  23077906.120    94500285.61646
  22033647.660   115787625.84409  22033647.140    90224128.77648
  24001060.660   126126430.58508  24001058.260    98280326.86945
 15 02 27 00 32 30.0000000  0  7G16G18G19G21G22G27G31
  20900954.420   109835275.84609  20900950.440    85585918.03948
  22200454.220   116664255.48509  22200450.720    90907234.15247
  24149128.560   126904540.35007  24149124.000    98886638.33446
  21856547.620   114857373.15709  21856543.580    89499442.41948
  23060947.560   121186184.46608  23060942.460    94430822.95446
  22022858.800   115730929.93109  22022858.260    90179950.15948
  24019818.000   126224998.47608  24019815.100    98357132.90746
 15 02 27 00 33  0.0000000  0  7G16G18G19G21G22G27G31
  20891907.960   109787736.69809  20891904.080    85548874.55648
  22192553.940   116622739.25709  22192550.460    90874883.85047
  24134151.680   126825838.35307  24134147.800    98825312.14846
  21867066.440   114912650.10309  21867062.520    89542515.36448
  23044011.960   121097188.06808  23044006.860    94361475.14246
  22012094.740   115674364.53809  22012094.200    90135873.24148
  24038578.300   126323581.94608  24038575.140    98433950.88246
 15 02 27 00 33 30.0000000  0  7G16G18G19G21G22G27G31
  20882936.620   109740591.95909  20882932.700    85512138.39648
  22184729.880   116581623.48609  22184726.420    90842845.59247
  24119190.140   126747214.77808  24119186.520    98764047.04746
  21877629.900   114968161.72509  21877626.040    89585771.16348
  23027103.800   121008335.48708  23027098.740    94292239.40147
  22001354.360   115617923.19409  22001353.740    90091892.98048
  24057339.780   126422171.36908  24057336.600    98510773.32245
 15 02 27 00 34  0.0000000  0  7G16G18G19G21G22G27G31
  20874042.120   109693850.62609  20874038.160    85475716.58648
  22176983.680   116540916.87309  22176980.240    90811126.15647
  24104245.160   126668676.49408  24104241.500    98702848.43146
  21888239.280   115023914.40909  21888235.360    89629214.81548
  23010225.000   120919636.50209  23010219.940    94223123.34747
  21990639.040   115561613.16109  21990638.320    90048015.04348
  24076103.220   126520771.56608  24076100.260    98587604.24846
 15 02 27 00 34 30.0000000  0  7G16G18G19G21G22G27G31
  20865224.160   109647511.55009  20865220.200    85439608.21748
  22169315.040   116500618.05509  22169311.620    90779724.49947
  24089316.140   126590221.38908  24089312.180    98641714.60245
  21898893.520   115079903.04108  21898889.580    89672842.32748
  22993375.420   120831090.67609  22993370.280    94154126.63047
  21979948.120   115505431.55609  21979947.320    90004237.18148
  24094867.500   126619376.91208  24094864.800    98664439.42546
 15 02 27 00 35  0.0000000  0  7G16G18G19G21G22G27G31
  20856483.980   109601581.70709  20856480.060    85403818.72548
  22161725.320   116460733.73109  22161721.880    90748645.80947
  24074403.540   126511853.69908  24074399.460    98580648.90046
  21909593.120   115136130.07108  21909589.160    89716655.58448
  22976556.320   120742705.57008  22976551.200    94085255.14347
  21969282.540   115449383.44709  21969281.720    89960563.33048
  24113632.840   126717988.58808  24113630.360    98741279.42846
 15 02 27 00 35 30.0000000  0  7G16G18G19G21G22G27G31
  20847822.860   109556067.42209  20847818.980    85368353.04448
  22154215.680   116421270.02809  22154212.240    90717894.87647
  24059508.000   126433577.89407  24059503.920    98519654.81346
  21920338.620   115192598.48308  21920334.680    89760656.93647
  22959769.040   120654488.30208  22959763.980    94016514.44747
  21958643.220   115393473.33009  21958642.380    89916997.01348
  24132399.620   126816608.79508  24132397.400    98818126.20046
 15 02 27 00 36  0.0000000  0  7G16G18G19G21G22G27G31
  20839238.920   109510958.54909  20839235.000    85333203.26948
  22146784.140   116382216.38109  22146780.600    90687463.47047
  24044627.560   126355382.15708  24044623.460    98458723.07446
  21931127.560   115249294.91109  21931123.640    89804835.95447
  22943011.860   120566429.30409  22943006.840    93947897.06746
  21948027.860   115337689.33209  21948026.980    89873528.96048
  24151165.260   126915222.50208  24151163.240    98894967.94146
 15 02 27 00 36 30.0000000  0  7G16G18G19G21G22G27G31
  20830734.180   109466265.88609  20830730.200    85298377.82548
  22139432.640   116343583.55409  22139429.000    90657359.97947
  24029763.920   126277275.40907  24029759.720    98397860.69646
  21941961.140   115306225.57708  21941957.180    89849197.50847
  22926287.080   120478540.28408  22926281.960    93879412.13647
  21937438.180   115282040.67909  21937437.220    89830166.37348
  24169930.800   127013835.55508  24169928.960    98971809.11546
 15 02 27 00 37  0.0000000  0  7G16G18G19G21G22G27G31
  20822307.280   109421982.23609  20822303.240    85263871.07748
  22132159.700   116305364.01709  22132156.100    90627578.53047
  24014915.680   126199248.63708  24014911.080    98337060.66145
  21952837.280   115363379.89208  21952833.260    89893733.33448
  22909593.460   120390814.94208  22909588.340    93811054.74447
  21926872.480   115226518.32909  21926871.600    89786902.21248
  24188693.880   127112436.01208  24188692.260    99048640.51946
 15 02 27 00 37 30.0000000  0  7G16G18G19G21G22G27G31
  20813960.060   109378117.40109  20813956.020    85229690.68248
  22124967.020   116267566.71209  22124963.600    90598126.08347
  24000084.340   126121309.46908  24000079.500    98276328.87245
  21963757.160   115420763.92809  21963753.140    89938448.15747
  22892932.900   120303263.41008  22892927.880    93742832.80447
  21916332.460   115171130.23409  21916331.580    89743742.67048
  24207455.440   127211028.79008  24207453.980    99125465.93045
 15 02 27 00 38  0.0000000  0  7G16G18G19G21G22G27G31
  20805692.240   109334669.61909  20805688.200    85195835.26948
  22117854.380   116230190.33809  22117851.100    90569001.64147
  23985269.320   126043454.79408  23985264.040    98215662.90845
  21974719.540   115478371.35809  21974715.500    89983337.05847
  22876305.420   120215885.03009  22876300.320    93674745.77447
  21905817.380   115115873.08409  21905816.500    89700685.16548
  24226214.300   127309607.49607  24226212.940    99202280.32846
 15 02 27 00 38 30.0000000  0  7G16G18G19G21G22G27G31
  20797504.380   109291641.77709  20797500.320    85162307.08148
  22110822.300   116193237.13409  22110819.100    90540206.95747
  23970470.520   125965685.39608  23970465.320    98155063.40645
  21985724.400   115536201.94609  21985720.320    90028399.84348
  22859711.620   120128683.41509  22859706.500    93606796.48347
  21895327.500   115060748.04509  21895326.580    89657730.60448
  24244970.120   127408170.01908  24244968.920    99279082.07945
 15 02 27 00 39  0.0000000  0  7G16G18G19G21G22G27G31
  20789397.360   109249038.50609  20789393.240    85129109.72948
  22103871.760   116156711.87009  22103868.540    90511745.72947
  23955688.360   125888003.88008  23955683.280    98094532.36946
  21996772.000   115594257.44409  21996767.880    90073637.89447
  22843152.500   120041664.34009  22843147.440    93538989.44147
  21884863.340   115005758.20109  21884862.360    89614881.38548
  24263723.080   127506716.67708  24263721.780    99355871.39145
 15 02 27 00 39 30.0000000  0  7G16G18G19G21G22G27G31
  20781370.760   109206858.00509  20781366.580    85096241.80448
  22097002.220   116120612.04709  22096998.940    90483616.00147
  23940922.260   125810407.21108  23940917.240    98034067.46946
  22007861.200   115652531.29709  22007857.000    90119046.08748
  22826627.820   119954826.77509  22826622.820    93471323.82147
  21874424.100   114950900.09709  21874423.120    89572134.82548
  24282472.060   127605241.40408  24282470.560    99432643.66445
 15 02 27 00 40  0.0000000  0  7G16G18G19G21G22G27G31
  20773425.580   109165105.89909  20773421.380    85063707.69848
  22090214.560   116084942.57709  22090211.140    90455821.62347
  23926172.780   125732898.67308  23926167.840    97973671.22446
  22018992.480   115711026.18509  22018988.260    90164626.51347
  22810138.840   119868176.84208  22810133.780    93403804.41847
  21864010.600   114896177.53409  21864009.800    89529493.87948
  24301217.000   127703744.57408  24301215.360    99509399.11045
 15 02 27 00 40 30.0000000  0  7G16G18G19G21G22G27G31
  20765561.880   109123782.33109  20765557.760    85031507.51948
  22083508.860   116049704.04009  22083505.360    90428363.04247
  23911439.760   125655476.68408  23911434.860    97913342.41446
  22030165.080   115769738.24209  22030160.760    90210376.16147
  22793685.800   119781715.62309  22793680.620    93336432.06147
  21853622.660   114841588.98509  21853622.140    89486957.36648
  24319956.880   127802221.76508  24319955.220    99586134.37845
 15 02 27 00 41  0.0000000  0  7G16G18G19G21G22G27G31
  20757779.860   109082887.89009  20757775.820    84999641.71448
  22076885.040   116014896.14609  22076881.580    90401240.01747
  23896722.960   125578140.03308  23896718.240    97853080.12146
  22041378.300   115828664.02709  22041373.960    90256292.35147
  22777268.860   119695444.06009  22777263.560    93269207.49047
  21843260.040   114787133.34409  21843259.640    89444524.40748
  24338690.960   127900668.48008  24338689.320    99662845.82545
 15 02 27 00 41 30.0000000  0  7G16G18G19G21G22G27G31
  20750080.420   109042427.03609  20750076.420    84968113.77848
  22070343.980   115980522.98609  22070340.500    90374455.74047
  23882022.900   125500891.62908  23882018.260    97792886.58445
  22052632.360   115887804.87108  22052628.040    90302376.11047
  22760889.140   119609368.10309  22760883.900    93202135.33447
  21832923.260   114732813.61309  21832922.860    89402197.35448
  24357419.160   127999084.91108  24357417.680    99739533.57845
 15 02 27 00 42  0.0000000  0  7G16G18G19G21G22G27G31
  20742463.760   109002400.96809  20742459.740    84936924.63448
  22063885.960   115946585.97209  22063882.460    90348011.33047
  23867339.580   125423730.78408  23867334.840    97732761.28146
  22063926.820   115947158.34008  22063922.620    90348625.55747
  22744547.000   119523489.72009  22744541.840    93135217.13547
  21822612.380   114678629.60009  21822611.900    89359976.05948
  24376140.820   128097467.66207  24376139.840    99816194.94046
 15 02 27 00 42 30.0000000  0  7G16G18G19G21G22G27G31
  20734929.980   108962810.55509  20734925.940    84906074.97048
  22057510.960   115913085.31809  22057507.480    90321906.92347
  23852672.880   125346656.72408  23852668.100    97672703.59846
  22075261.160   116006721.35309  22075257.100    90395038.28047
  22728242.760   119437810.51009  22728237.640    93068454.13147
  21812327.280   114624580.29909  21812326.580    89317859.72748
  24394855.440   128195813.30408  24394854.940    99892827.60546
 15 02 27 00 43  0.0000000  0  7G16G18G19G21G22G27G31
  20727478.880   108923654.92609  20727474.840    84875564.08848
  22051218.800   115880019.82309  22051215.320    90296141.60647
  23838022.280   125269666.66808  23838017.260    97612711.38645
  22086634.680   116066489.59808  22086630.660    90441610.93147
  22711976.480   119352330.37409  22711971.260    93001846.24847
  21802067.440   114570663.40409  21802066.560    89275846.58048
  24413562.040   128294116.35708  24413561.700    99969427.05546
 15 02 27 00 43 30.0000000  0  7G16G18G19G21G22G27G31
  20720111.780   108884940.69609  20720107.740    84845397.16048
  22045010.700   115847395.90609  22045007.240    90270720.38847
  23823388.540   125192765.72708  23823383.600    97552788.60346
  22098047.840   116126465.74909  22098043.740    90488345.59647
  22695749.640   119267057.13709  22695744.280    92935399.59647
  21791833.760   114516884.13809  21791832.820    89233940.66948
  24432261.020   128392378.46508  24432260.660   100045994.46546
 15 02 27 00 44  0.0000000  0  7G16G18G19G21G22G27G31
  20712828.160   108846665.19609  20712824.140    84815572.10548
  22038885.920   115815209.89109  22038882.480    90245640.38547
  23808770.840   125115949.23508  23808766.200    97492931.62746
  22109499.460   116186643.95309  22109495.300    90535237.70147
  22679561.680   119181988.41609  22679556.180    92869112.30747
  21781625.340   114463238.05309  21781624.360    89192138.53948
  24450950.960   128490592.66608  24450950.620   100122524.57945
 15 02 27 00 44 30.0000000  0  7G16G18G19G21G22G27G31
  20705629.660   108808836.77609  20705625.680    84786095.40848
  22032846.120   115783470.11509  22032842.640    90220908.09647
  23794170.500   125039223.89108  23794166.080    97433145.65746
  22120990.460   116247029.04009  22120986.260    90582291.00248
  22663414.420   119097133.76809  22663408.900    92802991.81347
  21771443.560   114409731.99109  21771442.380    89150445.50648
  24469632.540   128588762.80907  24469632.020   100199020.48145
 15 02 27 00 45  0.0000000  0  7G16G18G19G21G22G27G31
  20698515.740   108771452.57209  20698511.720    84756964.85948
  22026890.620   115752173.52509  22026887.140    90196521.15547
  23779586.700   124962585.19408  23779582.340    97373427.20746
  22132519.560   116307614.60709  22132515.360    90629500.53647
  22647307.540   119012491.58709  22647302.060    92737036.89147
  21761287.600   114356361.65109  21761286.360    89108858.23748
  24488304.280   128686881.73608  24488303.460   100275476.68545
 15 02 27 00 45 30.0000000  0  7G16G18G19G21G22G27G31
  20691486.840   108734515.38509  20691482.840    84728182.63348
  22021019.800   115721321.96909  22021016.220    90172480.99047
  23765019.760   124886034.30208  23765015.260    97313777.18146
  22144086.580   116368399.54509  22144082.320    90676865.41647
  22631241.680   118928065.13809  22631236.220    92671250.06047
  21751157.680   114303128.25509  21751156.320    89067377.68048
  24506965.760   128784947.63707  24506964.740   100351891.67745
 15 02 27 00 46  0.0000000  0  7G16G18G19G21G22G27G31
  20684543.480   108698027.61909  20684539.480    84699750.60648
  22015234.060   115690917.72609  22015230.440    90148789.37447
  23750469.620   124809571.87808  23750464.720    97254196.07746
  22155691.280   116429382.71808  22155686.960    90724384.76847
  22615217.480   118843857.80109  22615212.060    92605633.96947
  21741054.020   114250032.82709  21741052.480    89026004.62648
  24525616.440   128882957.81108  24525615.420   100428263.02045
 15 02 27 00 46 30.0000000  0  7G16G18G19G21G22G27G31
  20677685.820   108661989.93109  20677681.700    84671669.29748
  22009533.540   115660961.16009  22009529.900    90125446.61447
  23735935.960   124733196.94708  23735931.120    97194683.18246
  22167333.120   116490561.27608  22167328.820    90772056.36347
  22599235.300   118759871.03309  22599229.880    92540189.76847
  21730976.320   114197074.52109  21730974.720    88984738.42248
  24544255.820   128980908.76908  24544255.140   100504588.18045
 15 02 27 00 47  0.0000000  0  7G16G18G19G21G22G27G31
  20670914.560   108626406.15409  20670910.260    84643941.67948
  22003919.000   115631456.18809  22003915.240    90102455.73247
  23721419.360   124656911.63608  23721414.460    97135240.11946
  22179012.280   116551935.83608  22179008.060    90819880.68647
  22583296.020   118676109.72209  22583290.600    92474921.23247
  21720925.160   114144255.85809  21720923.560    88943581.02848
  24562883.920   129078799.81108  24562883.540   100580866.57245
 15 02 27 00 47 30.0000000  0  7G16G18G19G21G22G27G31
  20664229.560   108591276.08709  20664225.240    84616567.60748
  21998390.120   115602401.27309  21998386.220    90079815.54747
  23706919.560   124580714.10308  23706914.380    97075865.43046
  22190728.000   116613502.31009  22190723.840    90867854.56047
  22567399.660   118592574.48009  22567394.340    92409828.85847
  21710900.220   114091574.90809  21710898.700    88902530.94548
  24581499.820   129176626.38008  24581499.780   100657094.78445
 15 02 27 00 48  0.0000000  0  7G16G18G19G21G22G27G31
  20657631.380   108556602.81109  20657627.140    84589549.46448
  21992947.380   115573798.86109  21992943.400    90057527.95147
  23692436.820   124504605.96808  23692431.200    97016560.41446
  22202480.260   116675260.70908  22202476.100    90915977.97747
  22551547.080   118509269.49809  22551541.920    92344915.89547
  21700901.880   114039033.46509  21700900.520    88861589.56748
  24600103.280   129274386.95008  24600103.500   100733271.57446
 15 02 27 00 48 30.0000000  0  7G16G18G19G21G22G27G31
  20651120.140   108522386.78709  20651116.040    84562887.62848
  21987590.820   115545649.65609  21987586.760    90035593.51347
  23677970.720   124428585.82408  23677964.980    96957323.96146
  22214268.420   116737207.81308  22214264.260    90964248.43647
  22535738.620   118426196.00109  22535733.500    92280183.30847
  21690929.920   113986630.73309  21690928.640    88820756.27748
  24618693.480   129372077.60807  24618693.940   100809393.71246
 15 02 27 00 49  0.0000000  0  7G16G18G19G21G22G27G31
  20644696.420   108488630.59909  20644692.440    84536584.10548
  21982320.840   115517955.84609  21982316.800    90014013.92447
  23663521.420   124352654.68408  23663515.880    96898156.84946
  22226092.260   116799342.66208  22226088.100    91012665.19547
  22519974.920   118343357.40009  22519969.760    92215633.77447
  21680984.580   113934367.84109  21680983.260    88780031.95748
  24637270.120   129469696.83607  24637270.900   100885460.23146
 15 02 27 00 49 30.0000000  0  7G16G18G19G21G22G27G31
  20638360.940   108455337.75509  20638356.960    84510641.61948
  21977138.080   115490720.65209  21977134.060    89992791.69747
  23649089.540   124276815.17308  23649084.220    96839061.14546
  22237951.900   116861665.71108  22237947.840    91061228.58947
  22504256.780   118260758.57708  22504251.620    92151271.07747
  21671066.280   113882247.04109  21671064.960    88739418.35848
  24655833.060   129567243.79708  24655833.880   100961470.36345
 15 02 27 00 50  0.0000000  0  7G16G18G19G21G22G27G31
  20632113.360   108422507.08709  20632109.540    84485059.28248
  21972042.260   115463942.05509  21972038.260    89971925.25847
  23634674.520   124201063.61408  23634669.460    96780033.97046
  22249846.500   116924172.02509  22249842.400    91109934.80647
  22488584.240   118178399.28809  22488579.140    92087095.02447
  21661174.460   113830265.65209  21661173.260    88698913.38848
  24674381.180   129664713.40107  24674382.120   101037420.40545
 15 02 27 00 50 30.0000000  0  7G16G18G19G21G22G27G31
  20625954.480   108390142.48709  20625950.860    84459840.11248
  21967033.900   115437623.33709  21967030.040    89951417.18747
  23620276.700   124125402.93208  23620271.820    96721077.61146
  22261776.060   116986861.99409  22261771.900    91158784.12447
  22472958.280   118096284.37209  22472953.260    92023109.39847
  21651309.720   113778426.24809  21651308.620    88658519.05248
  24692914.420   129762104.58707  24692915.360   101113309.51045
 15 02 27 00 51  0.0000000  0  6G16G18G19G21G22G27
  20619883.000   108358236.89109  20619879.440    84434978.60448
  21962111.640   115411757.19109  21962107.900    89931261.74447
  23605894.460   124049824.22908  23605889.520    96662185.12946
  22273738.640   117049725.61108  22273734.440    91207768.76147
  22457377.680   118014407.37009  22457372.560    91959309.16147
  21641470.500   113726720.63809  21641469.360    88618228.97448
 15 02 27 00 51 30.0000000  0  6G16G18G19G21G22G27
  20613901.620   108326804.58009  20613898.040    84410485.89648
  21957278.180   115386357.49509  21957274.460    89911469.79347
  23591530.320   123974340.52108  23591525.200    96603366.67846
  22285736.240   117112773.38009  22285732.000    91256896.88247
  22441845.420   117932784.01209  22441840.000    91895706.55147
  21631659.300   113675161.85309  21631658.000    88578053.31448
 15 02 27 00 52  0.0000000  0  6G16G18G19G21G22G27
  20608010.340   108295845.88109  20608006.780    84386362.23748
  21952533.340   115361423.32109  21952529.660    89892040.57147
  23577183.980   123898950.76308  23577178.600    96544621.42846
  22297768.380   117176002.66009  22297764.160    91306166.46147
  22426361.580   117851415.50509  22426355.960    91832302.53847
  21621875.740   113623748.65109  21621874.320    88537991.09948
 15 02 27 00 52 30.0000000  0  6G16G18G19G21G22G27
  20602208.700   108265358.21509  20602205.160    84362605.62448
  21947876.640   115336952.28409  21947872.980    89872972.24347
  23562854.720   123823650.79208  23562849.260    96485946.16946
  22309833.900   117239407.23309  22309829.680    91355572.62047
  22410925.880   117770300.31009  22410920.300    91769095.91647
  21612119.100   113572477.38609  21612117.700    88498039.47848
 15 02 27 00 53  0.0000000  0  6G16G18G19G21G22G27
  20596497.120   108235343.83809  20596493.640    84339217.79048
  21943308.460   115312946.33609  21943304.780    89854266.31547
  23548542.660   123748440.76108  23548537.100    96427340.97546
  22321932.480   117302985.69408  22321928.260    91405114.26447
  22395538.800   117689441.29709  22395533.480    91706088.91047
  21602389.680   113521348.88809  21602388.240    88458199.09248
 15 02 27 00 53 30.0000000  0  6G16G18G19G21G22G27
  20590876.020   108205804.79009  20590872.560    84316200.35248
  21938829.000   115289406.66009  21938825.360    89835923.71947
  23534248.060   123673321.86808  23534242.620    96368806.80446
  22334063.960   117366737.27008  22334059.840    91454790.81447
  22380201.060   117608841.66209  22380195.900    91643284.01047
  21592687.700   113470364.18709  21592686.080    88418470.76448
 15 02 27 00 54  0.0000000  0  6G16G18G19G21G22G27
  20585345.740   108176742.93309  20585342.240    84293554.74748
  21934438.540   115266334.57909  21934434.980    89817945.47247
  23519970.720   123598293.99808  23519965.540    96310343.53246
  22346228.060   117430660.31208  22346224.000    91504600.96747
  22364913.300   117528504.54609  22364908.260    91580683.65747
  21583013.140   113419523.84509  21583011.440    88378854.91348
 15 02 27 00 54 30.0000000  0  6G16G18G19G21G22G27
  20579907.320   108148163.53009  20579903.740    84271285.08448
  21930137.920   115243735.09609  21930134.480    89800335.49847
  23505711.400   123523361.14408  23505706.440    96251954.30846
  22358425.200   117494756.78408  22358421.200    91554546.27047
  22349676.740   117448436.09509  22349671.700    91518292.67547
  21573366.640   113368831.76509  21573365.100    88339354.59348
 15 02 27 00 55  0.0000000  0  6G16G18G19G21G22G27
  20574559.720   108120061.40009  20574556.040    84249387.32548
  21925926.100   115221602.24509  21925922.700    89783089.12747
  23491468.900   123448517.10008  23491464.360    96193634.31246
  22370653.720   117559018.31408  22370649.780    91604620.18747
  22334490.520   117368632.12009  22334485.480    91456107.78447
  21563747.220   113318281.87909  21563745.900    88299965.08248
 15 02 27 00 55 30.0000000  0  6G16G18G19G21G22G27
  20569303.700   108092440.80009  20569300.040    84227864.78348
  21921803.800   115199939.72809  21921800.400    89766209.24747
  23477243.840   123373764.68608  23477239.420    96135385.69246
  22382913.880   117623446.18608  22382909.960    91654823.72847
  22319355.560   117289097.69209  22319350.600    91394132.91547
  21554155.480   113267877.30809  21554154.360    88260688.79248
 15 02 27 00 56  0.0000000  0  6G16G18G19G21G22G27
  20564139.660   108065303.86509  20564136.020    84206719.12248
  21917771.380   115178749.36209  21917767.960    89749697.29247
  23463036.460   123299104.53608  23463031.840    96077208.98346
  22395205.460   117688038.98608  22395201.540    91705155.78347
  22304272.660   117209836.67809  22304267.720    91332371.11147
  21544591.560   113217619.01109  21544590.560    88221526.49948
