     2.11           OBSERVATION DATA    G                   RINEX VERSION / TYPE
SPIDER V4,0,0,3554                      2015 03 17 00:00    PGM / RUN BY / DATE 
ABZH                                                        MARKER NAME         
ABZH                                                        MARKER NUMBER       
                                                            OBSERVER / AGENCY   
462405              LEICA GRX1200PRO    8.20/2.127          REC # / TYPE / VERS 
103261              LEIAT504                                ANT # / TYPE        
  5106694.6829   270584.9059  3799508.1083                  APPROX POSITION XYZ 
        0.0770        0.0000        0.0000                  ANTENNA: DELTA H/E/N
     1     1                                                WAVELENGTH FACT L1/2
     4    C1    L1    P2    L2                              # / TYPES OF OBSERV 
    30.000                                                  INTERVAL            
  2015    02    27    00    00    0.0000000     GPS         TIME OF FIRST OBS   
  2015    02    27    23    59   30.0000000     GPS         TIME OF LAST OBS    
    16                                                      LEAP SECONDS        
    30                                                      # OF SATELLITES     
   G 1   818   818   818   818                              PRN / # OF OBS      
   G 2   920   920   915   915                              PRN / # OF OBS      
   G 3   833   833   833   833                              PRN / # OF OBS      
   G 4   834   834   834   834                              PRN / # OF OBS      
   G 5   662   662   662   662                              PRN / # OF OBS      
   G 6   787   787   787   787                              PRN / # OF OBS      
   G 7   652   652   652   652                              PRN / # OF OBS      
   G 9   786   786   786   786                              PRN / # OF OBS      
   G10   769   769   769   769                              PRN / # OF OBS      
   G11   784   784   784   784                              PRN / # OF OBS      
   G12   805   805   805   805                              PRN / # OF OBS      
   G13   806   806   806   806                              PRN / # OF OBS      
   G14   902   902   902   902                              PRN / # OF OBS      
   G15   719   719   719   719                              PRN / # OF OBS      
   G16   678   678   678   678                              PRN / # OF OBS      
   G17   923   923   917   917                              PRN / # OF OBS      
   G18   913   913   911   911                              PRN / # OF OBS      
   G19   768   768   768   768                              PRN / # OF OBS      
   G20   787   787   787   787                              PRN / # OF OBS      
   G21   687   687   684   684                              PRN / # OF OBS      
   G22   765   765   762   762                              PRN / # OF OBS      
   G23   733   733   733   733                              PRN / # OF OBS      
   G24   827   827   827   827                              PRN / # OF OBS      
   G25   830   830   830   830                              PRN / # OF OBS      
   G27   817   817   817   817                              PRN / # OF OBS      
   G28   879   879   879   879                              PRN / # OF OBS      
   G29   743   743   743   743                              PRN / # OF OBS      
   G30   698   698   698   698                              PRN / # OF OBS      
   G31   820   820   820   820                              PRN / # OF OBS      
   G32   746   746   746   746                              PRN / # OF OBS      
BIT 2 OF LLI FLAGS DATA COLLECTED UNDER A/S CONDITION       COMMENT             
SNR is mapped to RINEX snr flag value [2-9]                 COMMENT             
Lx:     = 25dBHz -> 1; 26-27dBHz -> 2; 28-31dBHz -> 3       COMMENT             
       32-35dBHz -> 4; 36-38dBHz -> 5; 39-41dBHz -> 6       COMMENT             
       42-44dBHz -> 7; 45-48dBHz -> 8; >=49dBHz -> 9        COMMENT             
                                                            END OF HEADER       
 15 02 27 00 00  0.0000000  0  7G16G18G21G22G27G29G31
  21647753.380   113759721.14408  21647752.220    88643945.34746
  22835850.360   120003276.74908  22835850.100    93509073.92145
  21260553.220   111724967.05708  21260551.860    87058413.37047
  24210574.920   127227500.94406  24210575.180    99138329.62643
  22823206.560   119936766.87107  22823208.500    93457236.81245
  23949684.000   125856423.48107  23949683.840    98069934.87644
  22876773.860   120218249.25208  22876773.340    93676549.52345
 15 02 27 00 00 30.0000000  0  7G16G18G21G22G27G29G31
  21634531.420   113690239.38609  21634530.320    88589803.72546
  22823638.400   119939102.44808  22823638.060    93459067.99544
  21267181.080   111759796.72208  21267179.720    87085553.36948
  24192771.460   127133944.00206  24192771.740    99065428.45944
  22810693.000   119871007.61408  22810694.940    93405995.84545
  23964261.880   125933031.43307  23964261.780    98129629.36944
  22894229.480   120309979.17808  22894229.020    93748027.35946
 15 02 27 00 01  0.0000000  0  7G16G18G21G22G27G29G31
  21621360.480   113621025.71809  21621359.400    88535871.01047
  22811477.120   119875194.32808  22811476.640    93409269.45944
  21273876.580   111794981.47908  21273875.180    87112970.06248
  24174963.580   127040363.95706  24174963.700    98992509.30644
  22798202.460   119805369.49907  22798204.480    93354849.26446
  23978843.860   126009660.92006  23978843.780    98189340.59845
  22911722.740   120401906.50908  22911722.300    93819659.01946
 15 02 27 00 01 30.0000000  0  7G16G18G21G22G27G29G31
  21608240.600   113552080.07609  21608239.460    88482147.13346
  22799366.540   119811552.80508  22799366.140    93359678.70044
  21280638.900   111830517.43708  21280637.460    87140660.41947
  24157151.220   126946760.55006  24157151.220    98919571.90444
  22785734.440   119739850.37407  22785736.640    93303795.41045
  23993429.560   126086309.39006  23993429.520    98249066.63044
  22929252.560   120494026.15608  22929252.160    93891440.54445
 15 02 27 00 02  0.0000000  0  7G16G18G21G22G27G29G31
  21595171.900   113483403.22809  21595170.560    88428632.70647
  22787306.880   119748179.08008  22787306.560    93310296.57044
  21287467.600   111866402.17708  21287466.100    87168622.55547
  24139334.640   126853134.93406  24139334.480    98846617.18544
  22773288.860   119674449.04807  22773291.160    93252833.35546
  24008018.800   126162975.87006  24008018.700    98308806.68144
  22946818.200   120586333.97308  22946817.880    93963368.68845
 15 02 27 00 02 30.0000000  0  7G16G18G21G22G27G29G31
  21582155.180   113414999.68009  21582153.700    88375331.24046
  22775298.980   119685077.36308  22775298.740    93261126.43144
  21294362.700   111902635.79408  21294361.140    87196856.53647
  24121514.760   126759491.88306  24121514.380    98773648.84644
  22760866.120   119609167.44507  22760868.420    93201964.58346
  24022611.640   126239661.80706  24022611.460    98368561.97444
  22964419.480   120678828.90108  22964419.200    94035442.61346
 15 02 27 00 03  0.0000000  0  7G16G18G21G22G27G29G31
  21569190.560   113346870.22909  21569189.060    88322243.36046
  22763343.200   119622249.63508  22763343.000    93212169.76544
  21301323.680   111939215.92708  21301322.120    87225360.54047
  24103692.020   126665833.31206  24103691.300    98700668.42443
  22748465.980   119544004.80007  22748468.320    93151188.52345
  24037207.980   126316366.48506  24037207.780    98428331.82744
  22982055.720   120771507.34208  22982055.280    94107659.55445
 15 02 27 00 03 30.0000000  0  7G16G18G21G22G27G29G31
  21556278.560   113279017.63409  21556277.160    88269371.21246
  22751440.140   119559699.10008  22751440.100    93163429.10544
  21308350.360   111976141.72208  21308348.900    87254133.87647
  24085866.920   126572162.68806  24085866.020    98627678.56944
  22736088.560   119478961.86007  22736090.900    93100505.73545
  24051808.000   126393090.23206  24051807.860    98488116.52244
  22999726.460   120864367.02708  22999725.840    94180017.70745
 15 02 27 00 04  0.0000000  0  7G16G18G21G22G27G29G31
  21543419.420   113211443.15109  21543418.160    88216715.78347
  22739590.060   119497426.94108  22739590.140    93114905.35245
  21315442.300   112013410.19708  21315440.880    87283174.24847
  24068039.620   126478481.01306  24068038.760    98554680.09344
  22723733.780   119414037.45807  22723736.040    93049915.32045
  24066411.460   126469831.73206  24066411.460    98547915.01644
  23017430.860   120957403.64608  23017430.040    94252513.74145
 15 02 27 00 04 30.0000000  0  7G16G18G21G22G27G29G31
  21530613.740   113144148.97209  21530612.520    88164278.76447
  22727793.480   119435435.12908  22727793.540    93066600.05945
  21322599.160   112051019.82908  21322597.700    87312480.45547
  24050210.740   126384790.79406  24050209.840    98481674.96044
  22711401.740   119349231.65607  22711403.900    92999417.30946
  24081018.240   126546590.65606  24081018.340    98607727.11944
  23035168.320   121050614.54408  23035167.480    94325145.56845
 15 02 27 00 05  0.0000000  0  7G16G18G21G22G27G29G31
  21517862.320   113077139.70009  21517861.040    88112063.74747
  22716051.280   119373728.95208  22716051.300    93018517.35245
  21329821.140   112088971.46608  21329819.600    87342053.15548
  24032381.280   126291097.35006  24032380.360    98408667.30544
  22699092.800   119284547.05108  22699094.860    92949013.73446
  24095628.880   126623369.93706  24095628.940    98667555.13144
  23052938.720   121143999.06208  23052938.020    94397912.70145
 15 02 27 00 05 30.0000000  0  7G16G18G21G22G27G29G31
  21505164.640   113010413.09309  21505163.400    88060069.00147
  22704363.140   119312306.82608  22704362.900    92970655.96744
  21337107.000   112127258.94008  21337105.480    87371887.53447
  24014550.940   126197398.60906  24014549.840    98335655.48043
  22686806.100   119219979.10308  22686807.940    92898701.05746
  24110242.520   126700164.66406  24110242.560    98727395.11144
  23070740.780   121237549.71108  23070740.220    94470809.27745
 15 02 27 00 06  0.0000000  0  7G16G18G21G22G27G29G31
  21492522.060   112943975.77409  21492520.800    88008299.66247
  22692730.280   119251175.25908  22692729.700    92923020.99044
  21344457.300   112165885.15608  21344455.780    87401985.89047
  23996720.920   126103702.03406  23996719.620    98262645.38944
  22674542.460   119155532.55408  22674544.160    92848482.97946
  24124859.980   126776979.23306  24124859.960    98787250.59544
  23088574.940   121331268.38908  23088574.400    94543836.77845
 15 02 27 00 06 30.0000000  0  7G16G18G21G22G27G29G31
  21479934.760   112877828.84809  21479933.440    87956756.60047
  22681152.960   119190335.82708  22681152.260    92875613.66945
  21351871.420   112204846.89308  21351869.920    87432345.68547
  23978891.440   126010008.92906  23978890.120    98189637.93644
  22662301.620   119091206.32708  22662303.260    92798358.64946
  24139480.900   126853812.34706  24139481.020    98847120.52643
  23106440.400   121425151.00108  23106439.700    94616992.03345
 15 02 27 00 07  0.0000000  0  7G16G18G21G22G27G29G31
  21467402.820   112811972.78809  21467401.440    87905440.18247
  22669631.300   119129788.90008  22669630.520    92828434.26044
  21359348.920   112244141.82808  21359347.460    87462965.11347
  23961062.820   125916320.44106  23961061.580    98116634.08144
  22650083.380   119026998.78008  22650084.920    92748326.81446
  24154105.140   126930662.77406  24154105.280    98907003.92844
  23124336.160   121519192.65108  23124335.400    94690271.19645
 15 02 27 00 07 30.0000000  0  7G16G18G21G22G27G29G31
  21454926.660   112746410.20109  21454925.260    87854352.45247
  22658165.900   119069537.59808  22658164.960    92781485.21845
  21366889.540   112283768.10808  21366888.100    87493842.73247
  23943235.720   125822639.58606  23943234.520    98043636.18445
  22637887.840   118962910.52508  22637889.420    92698387.92246
  24168732.760   127007530.31106  24168732.840    98966900.67844
  23142261.740   121613391.26408  23142260.820    94763672.67145
 15 02 27 00 08  0.0000000  0  7G16G18G21G22G27G29G31
  21442506.880   112681144.12109  21442505.560    87803495.76847
  22646757.320   119009585.15808  22646756.400    92734769.02745
  21374493.100   112323724.93408  21374491.640    87524977.91347
  23925410.880   125728969.81406  23925409.600    97970646.88944
  22625715.100   118898942.48908  22625716.800    92648542.71946
  24183363.800   127084415.91806  24183363.820    99026811.49543
  23160216.620   121707744.64508  23160215.660    94837194.75445
 15 02 27 00 08 30.0000000  0  7G16G18G21G22G27G29G31
  21430143.840   112616176.34409  21430142.720    87752871.54047
  22635405.880   118949933.20408  22635405.160    92688287.00545
  21382159.200   112364010.35308  21382157.720    87556369.14747
  23907588.480   125635312.95606  23907586.920    97897667.65844
  22613565.220   118835094.06508  22613566.840    92598790.71646
  24197998.040   127161318.91906  24197997.980    99086735.87144
  23178200.060   121802249.15308  23178199.200    94910834.58445
 15 02 27 00 09  0.0000000  0  7G16G18G21G22G27G29G31
  21417838.280   112551510.45809  21417837.220    87702482.54447
  22624112.360   118890585.66808  22624111.800    92642042.18745
  21389887.800   112404624.02108  21389886.320    87588016.15448
  23889769.440   125541673.43106  23889767.740    97824701.91444
  22601438.380   118771366.85408  22601440.000    92549133.16946
  24212635.780   127238240.69106  24212635.740    99146674.89744
  23196211.900   121896903.29107  23196211.240    94984591.01445
 15 02 27 00 09 30.0000000  0  7G16G18G21G22G27G29G31
  21405590.460   112487147.80509  21405589.420    87652329.82847
  22612877.160   118831544.72208  22612876.680    92596036.26145
  21397678.440   112445563.84008  21397676.940    87619917.31247
  23871954.160   125448053.23807  23871952.280    97751751.23244
  22589334.400   118707760.51508  22589336.220    92499569.79846
  24227276.880   127315180.46406  24227276.940    99206627.92043
  23214251.640   121991703.81807  23214251.140    95058461.51845
 15 02 27 00 10  0.0000000  0  7G16G18G21G22G27G29G31
  21393400.620   112423090.04809  21393399.620    87602414.69447
  22601700.740   118772812.37008  22601700.200    92550270.81445
  21405530.740   112486827.75808  21405529.240    87652071.01447
  23854142.840   125354454.54207  23854140.720    97678817.30944
  22577253.380   118644274.53908  22577255.220    92450100.20846
  24241921.280   127392137.84706  24241921.340    99266594.66544
  23232318.760   122086647.31907  23232318.200    95132443.42945
 15 02 27 00 10 30.0000000  0  7G16G18G21G22G27G29G31
  21381269.240   112359338.96809  21381268.220    87552738.52747
  22590583.200   118714389.41908  22590582.540    92504746.44045
  21413444.160   112528413.08708  21413442.720    87684475.16747
  23836335.920   125260879.26307  23836333.700    97605901.60944
  22565195.140   118580908.19408  22565196.960    92400723.85046
  24256568.940   127469112.02706  24256568.980    99326574.49244
  23250412.460   122181729.86308  23250411.800    95206533.69545
 15 02 27 00 11  0.0000000  0  7G16G18G21G22G27G29G31
  21369196.720   112295897.33509  21369195.660    87503303.49847
  22579525.160   118656279.35708  22579524.440    92459465.89045
  21421418.300   112570317.81408  21421416.920    87717128.20347
  23818534.240   125167330.60107  23818531.900    97533006.66744
  22553159.760   118517662.10508  22553161.460    92351441.18446
  24271219.760   127546103.25006  24271219.860    99386567.62643
  23268532.200   122276949.19608  23268531.480    95280730.51245
 15 02 27 00 11 30.0000000  0  7G16G18G21G22G27G29G31
  21357183.380   112232766.65409  21357182.300    87454110.76047
  22568527.100   118598484.16208  22568526.320    92414430.68345
  21429453.140   112612541.46008  21429451.780    87750029.73947
  23800737.880   125073810.78407  23800735.620    97460134.19244
  22541147.200   118454536.13408  22541148.800    92302252.11746
  24285873.880   127623111.29106  24285873.920    99446573.81843
  23286677.420   122372302.13208  23286676.600    95355031.43645
 15 02 27 00 12  0.0000000  0  7G16G18G21G22G27G29G31
  21345229.960   112169950.54909  21345228.820    87405163.14147
  22557589.620   118541007.36408  22557588.880    92369643.58845
  21437548.600   112655083.50208  21437547.220    87783179.38247
  23782947.900   124980324.22107  23782945.540    97387287.59144
  22529157.780   118391531.84008  22529159.400    92253157.87046
  24300531.480   127700137.40906  24300531.780    99506594.12944
  23304847.860   122467787.09308  23304846.760    95429435.26745
 15 02 27 00 12 30.0000000  0  7G16G18G21G22G27G29G31
  21333336.180   112107448.18709  21333335.080    87356460.00647
  22546712.560   118483848.35408  22546711.860    92325104.10545
  21445703.560   112697938.19808  21445702.200    87816572.65447
  23765164.180   124886870.15207  23765161.620    97314466.32944
  22517190.940   118328646.04908  22517192.580    92204155.98246
  24315191.960   127777178.46306  24315192.280    99566626.09743
  23323042.020   122563397.84507  23323040.880    95503937.09445
 15 02 27 00 13  0.0000000  0  7G16G18G21G22G27G29G31
  21321503.020   112045264.23309  21321501.900    87308004.97047
  22535896.940   118427011.80008  22535896.160    92280815.89445
  21453918.200   112741106.68508  21453916.940    87850210.43447
  23747387.600   124793453.81407  23747384.940    97241674.46645
  22505247.180   118265881.40108  22505248.860    92155248.48246
  24329855.800   127854236.79506  24329855.900    99626671.51544
  23341260.080   122659134.21008  23341258.880    95578536.80744
 15 02 27 00 13 30.0000000  0  7G16G18G21G22G27G29G31
  21309731.620   111983404.82209  21309730.460    87259802.82847
  22525143.920   118370504.06508  22525143.080    92236783.90545
  21462193.100   112784591.84408  21462191.960    87884094.96747
  23729619.520   124700082.12607  23729616.960    97168917.41244
  22493327.200   118203242.05108  22493329.100    92106438.60546
  24344523.440   127931316.69606  24344523.540    99686733.75744
  23359502.100   122754997.27907  23359501.060    95653235.25344
 15 02 27 00 14  0.0000000  0  7G16G18G21G22G27G29G31
  21298021.440   111921867.32109  21298020.240    87211851.52947
  22514452.880   118314322.80908  22514452.100    92193006.31545
  21470526.900   112828386.47608  21470525.800    87918220.65347
  23711859.460   124606752.69907  23711857.060    97096193.28244
  22481430.060   118140723.19908  22481432.300    92057722.63546
  24359194.080   128008412.90606  24359194.480    99746808.70044
  23377766.720   122850979.24807  23377765.920    95728026.32345
 15 02 27 00 14 30.0000000  0  7G16G18G21G22G27G29G31
  21286372.360   111860651.14809  21286371.140    87164150.61647
  22503823.860   118258467.29208  22503823.120    92149482.54645
  21478918.820   112872486.45008  21478917.740    87952584.26747
  23694107.440   124513465.34807  23694105.180    97023501.90744
  22469555.480   118078322.16408  22469557.880    92009098.47746
  24373867.440   128085522.57505  24373868.120    99806894.07644
  23396052.900   122947074.20107  23396052.280    95802905.46445
 15 02 27 00 15  0.0000000  0  7G16G18G21G22G27G29G31
  21274785.180   111799760.59409  21274783.980    87116703.43847
  22493257.680   118202941.74608  22493256.980    92106215.91045
  21487368.860   112916891.87308  21487367.860    87987185.89547
  23676364.200   124420224.61007  23676361.960    96950846.87944
  22457703.820   118016041.06308  22457706.220    91960567.76346
  24388543.840   128162647.78206  24388544.740    99866991.63844
  23414360.580   123043281.39907  23414360.020    95877872.04645
 15 02 27 00 15 30.0000000  0  7G16G18G21G22G27G29G31
  21263261.160   111739201.70009  21263259.980    87069514.68947
  22482755.620   118147752.54708  22482754.840    92063211.34045
  21495877.600   112961605.46708  21495876.560    88022027.64847
  23658631.200   124327037.72907  23658629.000    96878233.81644
  22445875.840   117953884.20408  22445878.120    91912133.84346
  24403224.000   128239792.56705  24403225.100    99927104.42544
  23432690.000   123139601.97907  23432689.260    95952926.99044
 15 02 27 00 16  0.0000000  0  7G16G18G21G22G27G29G31
  21251799.660   111678971.04809  21251798.460    87022581.71847
  22472316.940   118092896.57908  22472316.140    92020466.44145
  21504443.520   113006619.38908  21504442.400    88057103.43147
  23640908.100   124233901.67307  23640905.840    96805660.33044
  22434070.540   117891846.14508  22434072.700    91863792.51546
  24417906.860   128316951.40706  24417907.980    99987228.17443
  23451039.420   123236027.56307  23451038.460    96028063.72344
 15 02 27 00 16 30.0000000  0  7G16G18G21G22G27G29G31
  21240401.760   111619074.53209  21240400.540    86975909.11247
  22461942.720   118038379.50908  22461942.020    91977985.62245
  21513067.060   113051935.97908  21513065.820    88092415.04847
  23623195.980   124140822.81107  23623193.420    96733131.38244
  22422288.580   117829930.59508  22422290.500    91815546.63546
  24432593.080   128394128.04506  24432594.360   100047365.78144
  23469408.920   123332558.81707  23469407.640    96103282.80744
 15 02 27 00 17  0.0000000  0  7G16G18G21G22G27G29G31
  21229067.760   111559514.20109  21229066.580    86929498.46747
  22451633.280   117984203.14708  22451632.660    91935770.27845
  21521747.840   113097553.16108  21521746.420    88127960.91047
  23605495.120   124047803.27607  23605492.200    96660648.69544
  22410529.880   117768137.44508  22410531.620    91767396.13746
  24447282.520   128471322.01005  24447283.980   100107516.89442
  23487797.780   123429192.58207  23487796.380    96178581.78744
 15 02 27 00 17 30.0000000  0  7G16G18G21G22G27G29G31
  21217797.880   111500290.84509  21217796.740    86883350.40347
  22441388.900   117930369.13708  22441388.420    91893821.72845
  21530485.220   113143468.04308  21530483.720    88163738.73447
  23587805.860   123954845.06207  23587802.780    96588213.77244
  22398794.180   117706465.68608  22398795.800    91719340.23746
  24461975.120   128548531.84206  24461976.440   100167680.38544
  23506205.100   123525924.61307  23506203.960    96253957.33245
 15 02 27 00 18  0.0000000  0  7G16G18G21G22G27G29G31
  21206592.780   111441407.47109  21206591.600    86837467.25147
  22431210.200   117876880.18808  22431209.800    91852142.03345
  21539278.980   113189679.30308  21539277.420    88199747.50247
  23570128.780   123861951.27207  23570125.720    96515829.07844
  22387081.720   117644916.06508  22387083.220    91671379.50646
  24476671.000   128625758.42405  24476671.840   100227856.89344
  23524630.700   123622752.99807  23524629.940    96329407.94845
 15 02 27 00 18 30.0000000  0  7G16G18G21G22G27G29G31
  21195453.140   111382868.23409  21195451.960    86791852.26047
  22421098.020   117823740.55208  22421097.520    91810734.53944
  21548129.240   113236187.62808  21548127.680    88235987.74947
  23552464.760   123769126.78507  23552461.720    96443498.37545
  22375392.860   117583490.77508  22375394.280    91623515.65646
  24491370.360   128703003.92705  24491371.400   100288048.22343
  23543074.580   123719676.78607  23543074.120    96404932.89544
 15 02 27 00 19  0.0000000  0  7G16G18G21G22G27G29G31
  21184378.740   111324671.84809  21184377.620    86746504.42747
  22411052.060   117770948.75508  22411051.400    91769598.07645
  21557035.020   113282987.42709  21557033.320    88272455.12947
  23534813.740   123676370.89207  23534810.660    96371221.10944
  22363727.060   117522186.53008  22363728.460    91575746.11447
  24506072.580   128780264.83605  24506073.880   100348251.46344
  23561535.560   123816689.53307  23561535.220    96480527.19345
 15 02 27 00 19 30.0000000  0  7G16G18G21G22G27G29G31
  21173369.880   111266819.89809  21173368.820    86701424.99247
  22401072.580   117718506.31008  22401071.860    91728733.85145
  21565995.840   113330076.69108  21565994.060    88309148.05647
  23517176.120   123583685.43807  23517173.000    96298998.72444
  22352084.220   117461002.74308  22352085.660    91528070.45246
  24520777.680   128857540.28206  24520778.980   100408466.02144
  23580012.960   123913787.67007  23580012.620    96556187.97645
 15 02 27 00 20  0.0000000  0  7G16G18G21G22G27G29G31
  21162427.680   111209318.43809  21162426.640    86656618.66047
  22391160.980   117666419.80908  22391160.160    91688146.98045
  21575012.200   113377457.90108  21575010.420    88346068.46547
  23499553.220   123491077.24407  23499550.200    96226836.53844
  22340465.080   117399943.82108  22340466.540    91480492.07046
  24535486.260   128934834.22606  24535487.460   100468695.09944
  23598506.960   124010972.38307  23598506.500    96631916.24045
 15 02 27 00 20 30.0000000  0  7G16G18G21G22G27G29G31
  21151552.040   111152166.39909  21151550.960    86612084.60547
  22381316.860   117614687.82908  22381315.920    91647836.35045
  21584083.140   113425125.75209  21584081.300    88383212.24547
  23481944.980   123398545.77807  23481942.200    96154734.13345
  22328869.120   117339006.41108  22328870.460    91433008.39046
  24550197.880   129012143.80406  24550198.780   100528936.26743
  23617016.220   124108237.45807  23617015.680    96707707.10545
 15 02 27 00 21  0.0000000  0  6G16G18G21G22G27G31
  21140737.280   111095334.73009  21140736.200    86567800.19047
  22371534.580   117563281.15408  22371533.680    91607779.22345
  21593202.340   113473047.53508  21593200.540    88420553.89247
  23464345.960   123306062.80507  23464343.420    96082669.54944
  22317290.300   117278159.56208  22317291.660    91385595.27147
  23635534.000   124205548.76807  23635533.620    96783533.99544
 15 02 27 00 21 30.0000000  0  7G16G18G19G21G22G27G31
  21129999.180   111038905.52809  21129998.060    86523829.37747
  22361829.740   117512281.91808  22361828.940    91568039.57545
  24543767.880   128978375.21406  24543767.180   100502622.06444
  21602384.580   113521300.90708  21602382.820    88458153.90847
  23446771.880   123213710.82807  23446769.600    96010707.02745
  22305743.980   117217483.33808  22305745.420    91338315.09046
  23654075.020   124302983.32407  23654074.820    96859456.94445
 15 02 27 00 22  0.0000000  0  7G16G18G19G21G22G27G31
  21119326.960   110982822.67309  21119325.820    86480128.45347
  22352191.720   117461634.09108  22352191.020    91528573.74645
  24528313.740   128897163.68006  24528313.240   100439340.40345
  21611618.620   113569826.07809  21611616.860    88495965.72747
  23429212.180   123121434.31207  23429209.880    95938803.27345
  22294219.120   117156919.68708  22294220.640    91291122.64947
  23672627.780   124400480.32007  23672627.800    96935428.54844
 15 02 27 00 22 30.0000000  0  7G16G18G19G21G22G27G31
  21108722.360   110927094.88809  21108721.200    86436704.20947
  22342622.200   117411346.60408  22342621.600    91489388.69645
  24512873.700   128816025.22606  24512873.180   100376115.68044
  21620905.380   113618628.18708  21620903.660    88533993.33647
  23411668.600   123029242.44807  23411666.320    95866965.50844
  22282716.980   117096475.31808  22282718.500    91244023.14746
  23691193.160   124498043.14107  23691193.460    97011451.42445
 15 02 27 00 23  0.0000000  0  7G16G18G19G21G22G27G31
  21098186.380   110871727.74709  21098185.200    86393560.98847
  22333122.220   117361424.76308  22333121.800    91450488.57845
  24497448.260   128734963.37706  24497447.640   100312950.64244
  21630245.060   113667708.66008  21630243.420    88572237.85547
  23394142.440   122937141.53507  23394140.280    95795198.61644
  22271238.200   117036153.85408  22271239.700    91197019.41347
  23709771.240   124595672.23007  23709771.980    97087525.93544
 15 02 27 00 23 30.0000000  0  7G16G18G19G21G22G27G31
  21087720.100   110816726.95609  21087718.800    86350703.22347
  22323693.000   117311873.99808  22323692.580    91411877.60345
  24482038.080   128653981.99006  24482037.180   100249848.29944
  21639638.020   113717069.41108  21639636.520    88610700.77147
  23376634.800   122845137.84507  23376632.660    95723507.46845
  22259783.460   116975959.05408  22259784.960    91150114.38446
  23728362.360   124693368.77907  23728363.160    97163653.02444
 15 02 27 00 24  0.0000000  0  7G16G18G19G21G22G27G31
  21077322.620   110762087.86709  21077321.300    86308127.31648
  22314333.640   117262690.14508  22314333.160    91373552.54345
  24466642.020   128573074.24506  24466640.820   100186803.34644
  21649082.700   113766701.92308  21649081.280    88649375.45647
  23359144.840   122753227.49307  23359142.640    95651889.05744
  22248351.520   116915884.32408  22248353.080    91103302.92146
  23746964.500   124791122.75907  23746965.240    97239824.84045
 15 02 27 00 24 30.0000000  0  7G16G18G19G21G22G27G31
  21066995.160   110707816.51209  21066993.760    86265837.94847
  22305045.160   117213878.56708  22305044.520    91335517.55245
  24451260.700   128492244.04806  24451259.400   100123818.82244
  21658579.500   113816608.32208  21658578.140    88688263.56147
  23341673.820   122661416.58407  23341671.540    95580348.13244
  22236943.220   116855933.64708  22236944.820    91056588.10846
  23765577.700   124888935.05807  23765578.540    97316042.08045
 15 02 27 00 25  0.0000000  0  7G16G18G19G21G22G27G31
  21056738.880   110653919.22009  21056737.460    86223840.05748
  22295828.660   117165445.65408  22295827.980    91297777.63945
  24435894.920   128411496.04506  24435893.480   100060898.35244
  21668128.880   113866791.28608  21668127.600    88727367.15547
  23324223.140   122569712.61607  23324220.740    95508890.53945
  22225559.340   116796111.56608  22225561.080    91009973.51646
  23784202.300   124986807.31907  23784203.060    97392306.06145
 15 02 27 00 25 30.0000000  0  7G16G18G19G21G22G27G31
  21046552.840   110600391.16109  21046551.500    86182129.88348
  22286683.420   117117387.00108  22286682.600    91260329.33745
  24420543.460   128330823.26606  24420542.040    99998036.45643
  21677729.300   113917242.10608  21677728.100    88766679.48147
  23306792.020   122478111.35407  23306789.540    95437512.96745
  22214198.760   116736411.26508  22214200.460    90963453.80146
  23802836.460   125084729.63607  23802837.020    97468609.04744
 15 02 27 00 26  0.0000000  0  7G16G18G19G21G22G27G31
  21036438.020   110547237.43409  21036436.700    86140711.39848
  22277610.320   117069707.63908  22277609.440    91223176.61145
  24405206.980   128250228.87106  24405205.420    99935235.67443
  21687380.860   113967961.34708  21687379.660    88806200.95847
  23289381.420   122386618.38607  23289379.080    95366219.79745
  22202861.920   116676835.99508  22202863.640    90917031.52846
  23821480.260   125182702.31307  23821480.540    97544951.27444
 15 02 27 00 26 30.0000000  0  7G16G18G19G21G22G27G31
  21026395.320   110494462.62309  21026394.040    86099588.17148
  22268610.180   117022411.49208  22268609.220    91186322.46945
  24389885.720   128169715.25806  24389884.160    99872497.82144
  21697083.660   114018949.82308  21697082.440    88845932.24347
  23271992.400   122295238.82907  23271990.220    95295014.97645
  22191549.320   116617388.20908  22191551.040    90870708.58346
  23840133.520   125280724.40307  23840133.520    97621331.95944
 15 02 27 00 27  0.0000000  0  7G16G18G19G21G22G27G31
  21016424.780   110442067.20809  21016423.580    86058760.58748
  22259683.060   116975499.03308  22259682.100    91149767.32145
  24374579.540   128089281.03906  24374578.120    99809821.81445
  21706837.200   114070204.94108  21706835.960    88885871.28747
  23254625.140   122203974.10207  23254623.120    95223899.64145
  22180260.760   116558066.83908  22180262.500    90824484.14846
  23858795.600   125378792.13607  23858795.200    97697748.24745
 15 02 27 00 27 30.0000000  0  7G16G18G19G21G22G27G31
  21006526.780   110390053.06209  21006525.660    86018230.07948
  22250829.320   116928972.24008  22250828.340    91113512.68245
  24359288.360   128008925.87406  24359287.100    99747207.39943
  21716641.040   114121724.72508  21716639.820    88926016.57047
  23237280.180   122112826.50807  23237278.140    95152875.57744
  22168996.220   116498871.62608  22168998.000    90778358.00846
  23877465.720   125476902.15007  23877465.040    97774197.47444
 15 02 27 00 28  0.0000000  0  7G16G18G19G21G22G27G31
  20996700.580   110338416.32109  20996699.560    85977993.66848
  22242048.080   116882826.60608  22242047.160    91077555.05445
  24344011.300   127928644.03206  24344010.020    99684650.19044
  21726493.580   114173500.46108  21726492.340    88966361.30147
  23219956.900   122021792.83807  23219954.860    95081940.27345
  22157754.540   116439796.65308  22157756.320    90732325.56446
  23896142.060   125575045.50007  23896141.340    97850672.65644
 15 02 27 00 28 30.0000000  0  7G16G18G19G21G22G27G31
  20986947.940   110287166.32809  20986947.020    85938058.61448
  22233341.200   116837071.66408  22233340.340    91041901.87145
  24328749.540   127848442.94705  24328748.140    99622155.85844
  21736395.980   114225538.05608  21736394.800    89006910.06247
  23202657.180   121930882.90007  23202655.220    95011101.40444
  22146537.300   116380849.48308  22146539.020    90686392.71046
  23914825.400   125673226.52007  23914824.660    97927177.22044
 15 02 27 00 29  0.0000000  0  7G16G18G19G21G22G27G31
  20977269.400   110236305.45409  20977268.520    85898426.76748
  22224709.100   116791709.73008  22224708.180    91006554.92445
  24313503.060   127768322.97906  24313501.720    99559724.70844
  21746348.040   114277836.63908  21746346.920    89047662.19947
  23185381.700   121840099.89207  23185379.740    94940361.42245
  22135344.440   116322030.65908  22135346.140    90640559.87946
  23933515.240   125771442.73107  23933514.720    98003709.17144
 15 02 27 00 29 30.0000000  0  7G16G18G19G21G22G27G31
  20967663.820   110185828.01309  20967662.920    85859093.69848
  22216150.660   116746734.99008  22216149.680    90971509.68646
  24298270.760   127688276.70806  24298269.240    99497351.02544
  21756347.960   114330386.23708  21756346.820    89088609.94847
  23168129.480   121749438.92107  23168127.440    94869716.57645
  22124174.680   116263332.78308  22124176.280    90594821.27846
  23952209.720   125869683.55907  23952209.460    98080260.28544
 15 02 27 00 30  0.0000000  0  7G16G18G19G21G22G27G31
  20958133.660   110135746.96309  20958132.720    85820069.50348
  22207668.280   116702159.95308  22207667.340    90936775.89745
  24283054.400   127608314.76105  24283053.020    99435043.05043
  21766397.360   114383195.77308  21766396.240    89129760.22347
  23150902.900   121658913.53907  23150900.960    94799177.35644
  22113030.060   116204766.76808  22113031.560    90549185.42746
  23970910.500   125967956.97107  23970910.400    98156836.80444
 15 02 27 00 30 30.0000000  0  7G16G18G19G21G22G27G31
  20948678.860   110086061.80609  20948677.940    85781353.80148
  22199261.800   116657984.10508  22199261.040    90902353.16846
  24267853.620   127528435.01405  24267852.500    99372799.10744
  21776495.500   114436261.36308  21776494.340    89171110.03747
  23133702.320   121568523.95708  23133700.240    94728743.92444
  22101910.080   116146330.42208  22101911.420    90503650.61147
  23989616.660   126066257.80407  23989616.580    98233434.63444
 15 02 27 00 31  0.0000000  0  7G16G18G19G21G22G27G31
  20939298.300   110036766.44409  20939297.320    85742941.82848
  22190930.220   116614201.63508  22190929.540    90868236.97045
  24252667.080   127448629.48605  24252666.040    99310612.99244
  21786640.420   114489572.63908  21786639.160    89212651.28747
  23116526.680   121478264.93908  23116524.460    94658412.25445
  22090813.200   116088015.81108  22090814.520    90458210.66147
  24008325.940   126164575.01207  24008325.960    98310045.19844
 15 02 27 00 31 30.0000000  0  7G16G18G19G21G22G27G31
  20929993.260   109987868.22109  20929992.340    85704839.32348
  22182674.740   116570819.02808  22182674.080    90834432.34645
  24237495.800   127368903.21206  24237494.740    99248488.66144
  21796832.700   114543133.20508  21796831.360    89254386.79447
  23099377.360   121388144.12107  23099375.100    94588188.27345
  22079740.560   116029828.19608  22079741.800    90412869.66247
  24027038.740   126262910.52006  24027038.900    98386670.05444
 15 02 27 00 32  0.0000000  0  7G16G18G19G21G22G27G31
  20920764.200   109939368.99909  20920763.280    85667047.72348
  22174495.780   116527838.26708  22174495.200    90800940.86046
  24222339.600   127289256.32605  24222338.160    99186426.16743
  21807072.120   114596941.62108  21807070.760    89296315.42547
  23082254.740   121298163.86708  23082252.520    94518073.82445
  22068692.140   115971767.93408  22068693.440    90367627.91047
  24045754.580   126361262.24507  24045754.940    98463307.53244
 15 02 27 00 32 30.0000000  0  7G16G18G19G21G22G27G31
  20911612.620   109891276.62009  20911611.560    85629573.13848
  22166394.720   116485266.80408  22166394.180    90767768.29545
  24207199.520   127209694.97606  24207197.860    99124430.29344
  21817359.440   114651001.61308  21817358.060    89338440.08847
  23065160.600   121208333.27908  23065158.360    94448075.97745
  22057668.980   115913840.93108  22057670.400    90322489.99247
  24064474.000   126459632.55207  24064474.500    98539959.48644
 15 02 27 00 33  0.0000000  0  7G16G18G19G21G22G27G31
  20902536.680   109843581.85009  20902535.480    85592408.38448
  22158369.780   116443095.49908  22158369.240    90734907.55745
  24192073.660   127130207.83206  24192071.940    99062492.31244
  21827692.120   114705299.91108  21827690.680    89380750.44847
  23048093.160   121118643.36908  23048090.940    94378187.77045
  22046669.020   115856036.16408  22046670.520    90277447.32247
  24083194.360   126558007.69107  24083194.940    98616615.19944
 15 02 27 00 33 30.0000000  0  7G16G18G19G21G22G27G31
  20893538.160   109796293.85309  20893536.800    85555560.58748
  22150422.680   116401333.25608  22150422.060    90702365.54846
  24176963.320   127050802.05506  24176961.560    99000617.69744
  21838071.020   114759841.49608  21838069.560    89423250.37847
  23031054.460   121029104.54308  23031052.340    94308417.29444
  22035693.720   115798361.07508  22035695.320    90232505.70747
  24101916.400   126656391.83106  24101917.200    98693277.94744
 15 02 27 00 34  0.0000000  0  7G16G18G19G21G22G27G31
  20884617.280   109749414.31509  20884615.960    85519031.08248
  22142553.680   116359981.41908  22142553.100    90670143.34746
  24161868.320   126971477.20306  24161866.500    98938806.16144
  21848496.060   114814625.39608  21848494.580    89465939.12547
  23014044.940   120939719.14107  23014042.820    94238766.34145
  22024743.120   115740815.63308  22024744.800    90187665.11147
  24120639.620   126754782.11007  24120640.440    98769945.59844
 15 02 27 00 34 30.0000000  0  7G16G18G19G21G22G27G31
  20875774.940   109702947.38909  20875773.620    85482823.08448
  22134763.440   116319043.91508  22134762.940    90638244.00845
  24146789.200   126892236.35706  24146787.280    98877060.07244
  21858967.240   114869651.81508  21858965.780    89508816.84947
  22997065.480   120850491.99907  22997063.540    94169238.73545
  22013817.760   115683402.27608  22013819.460    90142927.44147
  24139363.860   126853177.66507  24139364.340    98846617.33244
 15 02 27 00 35  0.0000000  0  7G16G18G19G21G22G27G31
  20867009.960   109656887.04309  20867008.700    85446931.91148
  22127050.960   116278514.47808  22127050.360    90606662.63445
  24131724.480   126813070.91906  24131722.620    98815372.76744
  21869482.580   114924910.25008  21869481.180    89551875.36947
  22980115.140   120761417.78208  22980113.360    94099830.28545
  22002916.040   115626113.15208  22002917.760    90098286.58247
  24158086.980   126951567.47307  24158087.260    98923284.53744
 15 02 27 00 35 30.0000000  0  7G16G18G19G21G22G27G31
  20858323.540   109611239.66609  20858322.300    85411362.52748
  22119417.340   116238399.25808  22119416.660    90575404.03545
  24116675.100   126733985.40507  24116673.140    98753747.71944
  21880042.580   114980403.76408  21880041.340    89595117.05447
  22963195.240   120672503.60608  22963193.580    94030546.53045
  21992038.780   115568952.81708  21992040.580    90053746.08047
  24176809.340   127049953.19807  24176809.240    98999948.57744
 15 02 27 00 36  0.0000000  0  7G16G18G19G21G22G27G31
  20849716.820   109566011.25509  20849715.580    85376119.60548
  22111863.560   116198703.81008  22111862.980    90544472.52446
  24101641.620   126654984.07306  24101639.760    98692188.28144
  21890647.880   115036135.13808  21890646.660    89638544.09347
  22946307.040   120583755.94708  22946305.440    93961392.54745
  21981186.800   115511925.61108  21981188.600    90009309.31347
  24195531.160   127148336.14607  24195530.660    99076610.44243
 15 02 27 00 36 30.0000000  0  7G16G18G19G21G22G27G31
  20841189.040   109521198.05209  20841187.900    85341200.23848
  22104388.980   116159424.39108  22104388.400    90513865.19246
  24086623.100   126576061.42307  24086621.140    98630690.13144
  21901296.880   115092096.05608  21901295.640    89682150.00547
  22929450.040   120495172.11108  22929448.460    93892366.19545
  21970359.160   115455026.17608  21970360.900    89964972.09747
  24214250.780   127246707.78006  24214250.300    99153263.39144
 15 02 27 00 37  0.0000000  0  7G16G18G19G21G22G27G31
  20832740.920   109476802.88109  20832739.800    85306606.59548
  22096994.040   116120563.47208  22096993.440    90483583.96546
  24071619.900   126497218.42007  24071617.780    98569254.06645
  21911989.440   115148285.98508  21911988.160    89725934.36147
  22912624.920   120406755.71908  22912623.340    93823470.34045
  21959555.940   115398255.54708  21959557.720    89920735.25547
  24232967.900   127345066.15606  24232967.680    99229905.97444
 15 02 27 00 37 30.0000000  0  7G16G18G19G21G22G27G31
  20824373.800   109432833.54509  20824372.680    85272344.77448
  22089679.960   116082128.01108  22089679.480    90453634.26846
  24056632.840   126418460.78307  24056630.720    98507884.48944
  21922726.360   115204708.99608  21922725.060    89769900.33147
  22895833.240   120318514.94707  22895831.580    93754711.31845
  21948778.380   115341619.72508  21948780.220    89876603.45747
  24251683.140   127443414.16507  24251683.220    99306540.55544
 15 02 27 00 38  0.0000000  0  7G16G18G19G21G22G27G31
  20816086.980   109389285.89109  20816085.800    85238411.53348
  22082446.180   116044114.27808  22082445.740    90424013.17846
  24041661.040   126339782.90207  24041658.820    98446577.05944
  21933505.980   115261356.39408  21933504.760    89814041.16147
  22879074.460   120230446.68808  22879072.700    93686086.72545
  21938025.480   115285113.04608  21938027.340    89832572.29947
  24270394.760   127541743.18406  24270395.000    99383160.28744
 15 02 27 00 38 30.0000000  0  7G16G18G19G21G22G27G31
  20807881.680   109346166.78309  20807880.500    85204812.23048
  22075293.820   116006528.53208  22075293.320    90394725.59545
  24026705.160   126261189.65607  24026702.880    98385335.58744
  21944329.080   115318231.95608  21944327.920    89858359.76847
  22862349.980   120142558.55608  22862348.000    93617602.48245
  21927298.200   115228740.68308  21927300.040    89788645.79847
  24289103.120   127640055.09406  24289103.780    99459766.74944
 15 02 27 00 39  0.0000000  0  7G16G18G19G21G22G27G31
  20799757.300   109303472.74409  20799756.100    85171544.13748
  22068222.240   115969367.38308  22068221.640    90365768.86646
  24011764.440   126182675.55007  24011762.060    98324155.76844
  21955194.320   115375329.30908  21955193.220    89902851.20447
  22845659.260   120054848.17008  22845657.160    93549256.75845
  21916595.520   115172497.62308  21916597.380    89744820.05547
  24307806.660   127738342.37106  24307807.800    99536354.14044
 15 02 27 00 39 30.0000000  0  7G16G18G19G21G22G27G31
  20791714.360   109261206.90309  20791713.240    85138609.72248
  22061232.040   115932633.31908  22061231.320    90337144.93046
  23996839.140   126104242.49107  23996836.740    98263039.11744
  21966101.460   115432646.90008  21966100.440    89947514.26047
  22829003.140   119967319.47108  22829000.900    93481052.60045
  21905917.780   115116385.43708  21905919.640    89701096.29047
  24326505.120   127836603.41006  24326506.680    99612921.04444
 15 02 27 00 40  0.0000000  0  7G16G18G19G21G22G27G31
  20783754.420   109219377.13109  20783753.300    85106015.09748
  22054324.340   115896333.46808  22054323.720    90308859.34646
  23981930.180   126025895.98706  23981928.180    98201989.92444
  21977051.400   115490189.65208  21977050.540    89992352.75647
  22812383.180   119879980.84508  22812380.860    93412996.55645
  21895266.060   115060410.17008  21895267.880    89657479.21247
  24345199.080   127934840.83006  24345200.780    99689469.48544
 15 02 27 00 40 30.0000000  0  7G16G18G19G21G22G27G31
  20775876.760   109177979.92409  20775875.700    85073757.53548
  22047498.640   115860464.77908  22047498.140    90280909.72546
  23967036.620   125947630.84606  23967034.940    98141004.16444
  21988042.820   115547950.05908  21988042.000    90037360.86547
  22795798.900   119792829.66308  22795796.500    93345086.55645
  21884639.320   115004566.69808  21884641.180    89613964.83047
  24363887.100   128033046.33207  24363888.440    99765992.94243
 15 02 27 00 41  0.0000000  0  7G16G18G19G21G22G27G31
  20768082.180   109137019.10609  20768081.100    85041840.01548
  22040755.640   115825030.21708  22040755.200    90253298.37946
  23952158.860   125869449.26605  23952157.400    98080083.45843
  21999075.580   115605927.95108  21999074.800    90082538.43547
  22779251.080   119705870.16408  22779248.580    93277325.93645
  21874038.060   114948857.16008  21874039.960    89570554.81547
  24382568.880   128131218.84406  24382569.800    99842490.55243
 15 02 27 00 41 30.0000000  0  7G16G18G19G21G22G27G31
  20760370.900   109096495.78609  20760369.780    85010263.39348
  22034095.380   115790030.43508  22034094.940    90226025.83546
  23937296.860   125791350.52106  23937295.760    98019227.35544
  22010149.340   115664121.32008  22010148.620    90127883.91147
  22762740.180   119619104.84108  22762737.660    93209716.60645
  21863462.280   114893281.25608  21863464.180    89527248.92447
  24401243.920   128229355.43106  24401244.760    99918960.13044
 15 02 27 00 42  0.0000000  0  7G16G18G19G21G22G27G31
  20752742.320   109056407.67409  20752741.320    84979025.91248
  22027517.540   115755463.48008  22027517.000    90199090.55246
  23922449.940   125713330.75206  23922449.100    97958432.75844
  22021263.100   115722524.27108  22021262.220    90173392.70446
  22746265.920   119532532.28008  22746263.460    93142257.49245
  21852911.320   114837835.39208  21852913.120    89484044.36147
  24419910.960   128327449.74906  24419912.080    99995396.90244
 15 02 27 00 42 30.0000000  0  7G16G18G19G21G22G27G31
  20745197.500   109016759.58809  20745196.600    84948131.29748
  22021022.880   115721333.40608  22021022.160    90172495.69046
  23907618.840   125635392.98206  23907618.040    97897702.07344
  22032416.920   115781137.69108  22032415.880    90219065.50346
  22729829.360   119446157.92908  22729826.880    93074952.82145
  21842385.680   114782522.46008  21842387.420    89440943.38547
  24438569.760   128425501.41606  24438570.920   100071800.53143
 15 02 27 00 43  0.0000000  0  7G16G18G19G21G22G27G31
  20737737.480   108977557.14109  20737736.620    84917583.93648
  22014612.320   115687645.58408  22014611.560    90146245.45546
  23892803.920   125557541.01905  23892803.320    97837038.22244
  22043611.220   115839963.81108  22043610.040    90264904.02646
  22713431.740   119359988.25708  22713429.240    93007807.63645
  21831886.200   114727346.80308  21831887.880    89397949.36447
  24457220.660   128523511.85106  24457221.920   100148172.07544
 15 02 27 00 43 30.0000000  0  7G16G18G19G21G22G27G31
  20730362.240   108938799.81509  20730361.320    84887383.42248
  22008285.780   115654399.25208  22008284.880    90120339.23945
  23878004.980   125479772.93906  23878004.580    97776439.73944
  22054845.120   115898998.14408  22054843.860    90310904.80146
  22697073.200   119274023.94308  22697070.840    92940822.48545
  21821412.480   114672306.44108  21821414.140    89355060.78647
  24475862.640   128621475.68806  24475864.220   100224507.19943
 15 02 27 00 44  0.0000000  0  7G16G18G19G21G22G27G31
  20723071.180   108900485.15909  20723070.180    84857527.84448
  22002042.600   115621590.99408  22002041.600    90094774.37346
  23863221.320   125402084.16606  23863220.940    97715903.03044
  22066117.640   115958235.08008  22066116.320    90357063.45246
  22680753.320   119188262.75708  22680751.120    92873995.61645
  21810963.600   114617397.20908  21810965.280    89312274.37547
  24494494.280   128719385.01105  24494496.120   100300799.39744
 15 02 27 00 44 30.0000000  0  7G16G18G19G21G22G27G31
  20715865.980   108862621.72509  20715865.000    84828023.87748
  21995884.440   115589229.31608  21995883.440    90069557.48546
  23848454.060   125324481.72206  23848453.520    97655433.60844
  22077429.520   116017679.71208  22077428.280    90403383.93146
  22664474.000   119102714.51308  22664471.820    92807334.66145
  21800541.020   114562626.21608  21800542.680    89269595.69147
  24513116.840   128817245.36906  24513118.660   100377053.86843
 15 02 27 00 45  0.0000000  0  7G16G18G19G21G22G27G31
  20708745.540   108825203.75509  20708744.620    84798867.02248
  21989810.140   115557308.29208  21989809.200    90044683.96846
  23833702.060   125246958.23307  23833701.380    97595025.72144
  22088779.220   116077322.72808  22088777.880    90449859.00046
  22648234.380   119017374.68208  22648232.260    92740836.11645
  21790143.400   114507986.27008  21790144.900    89227019.11447
  24531728.220   128915045.82506  24531729.760   100453261.54543
 15 02 27 00 45 30.0000000  0  7G16G18G19G21G22G27G31
  20701712.220   108788243.23509  20701711.260    84770066.61348
  21983821.780   115525838.98208  21983820.820    90020162.43246
  23818966.960   125169524.03507  23818966.320    97534687.39144
  22100168.280   116137172.25608  22100166.780    90496494.99746
  22632036.800   118932255.70908  22632034.700    92674509.65145
  21779772.760   114453487.86509  21779774.080    89184552.83947
  24550329.600   129012794.18506  24550331.180   100529428.77544
 15 02 27 00 46  0.0000000  0  7G16G18G19G21G22G27G31
  20694764.960   108751734.98809  20694764.000    84741618.63448
  21977918.220   115494816.01408  21977917.320    89995988.70946
  23804247.540   125092172.27007  23804246.840    97474413.31945
  22111595.020   116197219.59108  22111593.400    90543285.11746
  22615880.500   118847353.43008  22615878.200    92608352.05245
  21769427.780   114399124.48909  21769429.000    89142191.76147
  24568919.240   129110481.05906  24568920.780   100605548.40244
 15 02 27 00 46 30.0000000  0  7G16G18G19G21G22G27G31
  20687904.900   108715684.87209  20687903.880    84713527.63048
  21972100.680   115464245.05508  21972099.840    89972167.18746
  23789544.580   125014907.14707  23789543.640    97414206.74045
  22123059.840   116257467.09908  22123058.100    90590231.21246
  22599766.620   118762674.48208  22599764.140    92542368.46445
  21759109.240   114344900.46609  21759110.560    89099939.27547
  24587497.100   129208106.54406  24587498.440   100681619.79743
 15 02 27 00 47  0.0000000  0  7G16G18G19G21G22G27G31
  20681131.680   108680091.16609  20681130.560    84685792.27548
  21966368.820   115434124.40108  21966368.120    89948696.54546
  23774857.460   124937725.31607  23774856.400    97354065.08845
  22134561.800   116317909.87808  22134559.880    90637329.48246
  22583695.120   118678218.15308  22583692.560    92476558.36746
  21748816.680   114290812.87508  21748817.940    89057793.10047
  24606062.200   129305665.35206  24606063.740   100757639.19143
 15 02 27 00 47 30.0000000  0  7G16G18G19G21G22G27G31
  20674446.040   108644957.56209  20674444.880    84658415.43948
  21960723.080   115404456.47008  21960722.440    89925578.70146
  23760186.580   124860628.83807  23760185.300    97293989.92345
  22146100.900   116378547.76208  22146098.820    90684579.77646
  22567666.940   118593989.05208  22567664.240    92410925.31145
  21738550.500   114236863.70808  21738551.720    89015754.80747
  24624614.420   129403156.78106  24624616.460   100833606.29445
 15 02 27 00 48  0.0000000  0  7G16G18G19G21G22G27G31
  20667848.040   108610284.83309  20667846.920    84631397.73248
  21955163.560   115375241.37908  21955162.880    89902813.69746
  23745531.740   124783617.07907  23745530.360    97233980.79145
  22157676.660   116439378.51808  22157674.620    90731980.35546
  22551682.300   118509988.98608  22551679.480    92345470.73345
  21728310.540   114183052.51008  21728311.760    88973824.01547
  24643153.020   129500577.00606  24643155.540   100909517.95844
 15 02 27 00 48 30.0000000  0  7G16G18G19G21G22G27G31
  20661338.400   108576076.43309  20661337.320    84604741.83248
  21949690.920   115346482.83508  21949690.320    89880404.44246
  23730893.320   124706691.59907  23730891.980    97174038.86545
  22169289.060   116500401.85008  22169287.100    90779530.99847
  22535742.100   118426222.16508  22535739.060    92280197.89646
  21718097.260   114129381.47508  21718098.620    88932002.43947
  24661677.680   129597924.78006  24661680.660   100985372.96745
 15 02 27 00 49  0.0000000  0  7G16G18G19G21G22G27G31
  20654917.280   108542333.14109  20654916.200    84578448.36248
  21944305.240   115318181.22608  21944304.800    89858351.25546
  23716271.100   124629851.71707  23716269.940    97114163.62745
  22180937.540   116561615.12308  22180935.700    90827229.64146
  22519846.540   118342690.27108  22519843.520    92215108.13746
  21707910.540   114075850.03108  21707912.000    88890289.63647
  24680188.180   129695196.84006  24680191.480   101061168.90044
 15 02 27 00 49 30.0000000  0  7G16G18G19G21G22G27G31
  20648584.620   108509054.33909  20648583.420    84552516.81348
  21939006.440   115290335.63708  21939006.020    89836653.39946
  23701664.880   124553095.86707  23701663.660    97054353.90744
  22192621.380   116623014.61008  22192619.620    90875073.39446
  22503995.780   118259393.97808  22503992.800    92150201.95946
  21697749.940   114022456.30408  21697751.500    88848684.14947
  24698683.640   129792388.36907  24698686.860   101136902.04344
 15 02 27 00 50  0.0000000  0  6G16G18G19G21G22G27
  20642340.380   108476240.57809  20642339.160    84526947.65948
  21933794.420   115262945.80608  21933793.960    89815310.67846
  23687074.220   124476422.20106  23687073.040    96994608.23745
  22204340.100   116684597.19408  22204338.420    90923059.82746
  22488190.140   118176334.84208  22488187.160    92085480.55946
  21687615.380   113969199.38008  21687617.040    88807185.25447
 15 02 27 00 50 30.0000000  0  6G16G18G19G21G22G27
  20636186.260   108443900.53309  20636185.040    84501747.61848
  21928670.680   115236019.78508  21928670.160    89794329.37946
  23672500.780   124399838.39706  23672499.680    96934932.55345
  22216094.660   116746368.00508  22216093.040    90971192.92446
  22472431.380   118093522.40208  22472428.460    92020951.40046
  21677508.280   113916086.61408  21677510.040    88765798.69747
 15 02 27 00 51  0.0000000  0  6G16G18G19G21G22G27
  20630121.560   108412030.61109  20630120.380    84476913.91748
  21923634.440   115209553.73408  21923633.780    89773706.48746
  23657943.480   124323339.11606  23657942.400    96875322.75144
  22227883.780   116808320.55108  22227882.220    91019467.63546
  22456719.020   118010953.74708  22456716.240    91956612.21446
  21667427.800   113863113.42608  21667429.580    88724520.89848
 15 02 27 00 51 30.0000000  0  6G16G18G19G21G22G27
  20624147.760   108380638.22209  20624146.580    84452452.31748
  21918686.980   115183554.71708  21918686.240    89753447.51846
  23643403.240   124246930.55106  23643402.140    96815783.63345
  22239708.120   116870458.55708  22239706.660    91067886.85946
  22441054.740   117928637.69708  22441052.020    91892469.85546
  21657375.080   113810285.98108  21657376.880    88683356.67448
 15 02 27 00 52  0.0000000  0  6G16G18G19G21G22G27
  20618263.380   108349715.68809  20618262.180    84428356.83248
  21913826.720   115158013.77308  21913825.900    89733545.48846
  23628878.780   124170603.63907  23628877.540    96756308.14644
  22251565.720   116932771.34608  22251564.400    91116442.27346
  22425437.180   117846567.48308  22425434.640    91828519.06846
  21647348.340   113757595.09608  21647350.180    88642298.86048
 15 02 27 00 52 30.0000000  0  6G16G18G19G21G22G27
  20612469.840   108319270.36209  20612468.580    84404633.19548
  21909055.140   115132938.47808  21909054.280    89714006.30146
  23614370.920   124094364.20206  23614369.660    96696900.83545
  22263457.360   116995262.66008  22263456.040    91165136.81546
  22409868.020   117764751.48408  22409865.620    91764766.34946
  21637348.820   113705047.08508  21637350.700    88601352.37848
 15 02 27 00 53  0.0000000  0  6G16G18G19G21G22G27
  20606767.680   108289305.32709  20606766.480    84381283.82148
  21904372.680   115108331.60608  21904371.720    89694832.12646
  23599879.920   124018213.25906  23599878.480    96637562.45544
  22275382.840   117057931.97708  22275381.600    91213970.04746
  22394348.060   117683193.41708  22394345.620    91701214.62446
  21627376.860   113652643.66608  21627378.680    88560518.55647
 15 02 27 00 53 30.0000000  0  6G16G18G19G21G22G27
  20601156.820   108259820.03009  20601155.620    84358308.26348
  21899779.040   115084191.74408  21899777.960    89676021.84446
  23585405.520   123942149.40106  23585403.880    96578291.93745
  22287341.560   117120775.92408  22287340.360    91262939.36346
  22378877.320   117601893.85708  22378874.840    91637864.32946
  21617432.040   113600383.31108  21617433.840    88519796.20947
 15 02 27 00 54  0.0000000  0  6G16G18G19G21G22G27
  20595637.580   108230816.26209  20595636.380    84335707.92448
  21895274.420   115060520.18208  21895273.320    89657576.47946
  23570947.680   123866172.60207  23570945.980    96519089.26544
  22299333.280   117183792.83008  22299332.120    91312043.44546
  22363456.260   117520855.92308  22363453.840    91574717.90646
  21607514.520   113548266.57008  21607516.300    88479185.76047
 15 02 27 00 54 30.0000000  0  6G16G18G19G21G22G27
  20590210.360   108202296.15509  20590209.160    84313484.46248
  21890859.260   115037318.79308  21890858.160    89639497.48346
  23556506.520   123790283.62107  23556504.820    96459955.03745
  22311357.700   117246981.56708  22311356.580    91361281.42146
  22348085.560   117440082.64908  22348083.120    91511777.70646
  21597624.520   113496294.23208  21597626.220    88438687.84747
 15 02 27 00 55  0.0000000  0  6G16G18G19G21G22G27
  20584876.120   108174264.62609  20584874.940    84291641.71948
  21886534.360   115014591.71808  21886533.340    89621788.07446
  23542082.660   123714486.50306  23542081.040    96400892.34745
  22323415.140   117310343.86908  22323414.080    91410654.63846
  22332766.340   117359579.92008  22332763.900    91449048.31946
  21587762.760   113444470.42309  21587764.420    88398305.66847
 15 02 27 00 55 30.0000000  0  6G16G18G19G21G22G27
