     2.11           OBSERVATION DATA    G                   RINEX VERSION / TYPE
SPIDER V4,0,0,3554                      2015 03 13 04:26    PGM / RUN BY / DATE 
ADJF                                                        MARKER NAME         
ADJF                                                        MARKER NUMBER       
                                                            OBSERVER / AGENCY   
496631              LEICA GRX1200+GNSS  8.20/4.007          REC # / TYPE / VERS 
103293              LEIAT504                                ANT # / TYPE        
  5273000.2084   285396.0090  3566759.2257                  APPROX POSITION XYZ 
        0.0480        0.0000        0.0000                  ANTENNA: DELTA H/E/N
     1     1                                                WAVELENGTH FACT L1/2
     4    C1    L1    P2    L2                              # / TYPES OF OBSERV 
    30.000                                                  INTERVAL            
  2015    02    27    00    00    0.0000000     GPS         TIME OF FIRST OBS   
  2015    02    27    23    59   30.0000000     GPS         TIME OF LAST OBS    
    16                                                      LEAP SECONDS        
    30                                                      # OF SATELLITES     
   G 1   835   835   834   834                              PRN / # OF OBS      
   G 2   933   933   932   932                              PRN / # OF OBS      
   G 3   853   853   853   853                              PRN / # OF OBS      
   G 4   853   852   852   852                              PRN / # OF OBS      
   G 5   667   667   667   667                              PRN / # OF OBS      
   G 6   760   760   760   760                              PRN / # OF OBS      
   G 7   657   657   657   657                              PRN / # OF OBS      
   G 9   799   798   798   798                              PRN / # OF OBS      
   G10   781   781   781   781                              PRN / # OF OBS      
   G11   797   797   796   796                              PRN / # OF OBS      
   G12   827   827   827   827                              PRN / # OF OBS      
   G13   822   821   821   821                              PRN / # OF OBS      
   G14   935   926   928   925                              PRN / # OF OBS      
   G15   727   726   726   726                              PRN / # OF OBS      
   G16   676   676   676   676                              PRN / # OF OBS      
   G17   936   936   935   935                              PRN / # OF OBS      
   G18   929   929   929   929                              PRN / # OF OBS      
   G19   779   779   779   779                              PRN / # OF OBS      
   G20   801   800   800   800                              PRN / # OF OBS      
   G21   712   693   690   683                              PRN / # OF OBS      
   G22   726   722   722   722                              PRN / # OF OBS      
   G23   740   740   740   740                              PRN / # OF OBS      
   G24   844   844   844   844                              PRN / # OF OBS      
   G25   859   859   859   859                              PRN / # OF OBS      
   G27   831   831   831   831                              PRN / # OF OBS      
   G28   898   898   898   898                              PRN / # OF OBS      
   G29   762   762   762   762                              PRN / # OF OBS      
   G30   704   704   704   704                              PRN / # OF OBS      
   G31   808   808   808   808                              PRN / # OF OBS      
   G32   755   753   753   753                              PRN / # OF OBS      
BIT 2 OF LLI FLAGS DATA COLLECTED UNDER A/S CONDITION       COMMENT             
SNR is mapped to RINEX snr flag value [2-9]                 COMMENT             
Lx:     = 25dBHz -> 1; 26-27dBHz -> 2; 28-31dBHz -> 3       COMMENT             
       32-35dBHz -> 4; 36-38dBHz -> 5; 39-41dBHz -> 6       COMMENT             
       42-44dBHz -> 7; 45-48dBHz -> 8; >=49dBHz -> 9        COMMENT             
                                                            END OF HEADER       
 15 02 27 00 00  0.0000000  0  7G16G18G21G22G27G29G31
  21805712.280   114589808.77209  21805709.420    89290745.43948
  22670659.480   119135311.84308  22670657.000    92832789.00446
  21323935.200   112058403.26409  21323932.000    87318391.69448
  23939648.480   125803774.67107  23939649.060    98028934.81545
  22890150.040   120288578.93408  22890150.180    93731367.75747
  24030140.400   126279713.34107  24030139.380    98399993.33445
  22655071.300   119053223.77208  22655068.960    92768753.13248
 15 02 27 00 00 30.0000000  0  7G16G18G21G22G27G29G31
  21791981.020   114517650.55609  21791978.100    89234518.26648
  22659336.120   119075807.13208  22659333.640    92786421.72146
  21331495.360   112098132.20409  21331492.160    87349349.31448
  23922180.440   125711981.79707  23922180.640    97957408.51145
  22878385.280   120226754.88408  22878385.340    93683193.19147
  24044010.100   126352599.12207  24044008.880    98456787.42645
  22671820.680   119141241.80608  22671818.280    92837338.56247
 15 02 27 00 01  0.0000000  0  7G16G18G21G22G27G29G31
  21778294.540   114445727.57909  21778291.620    89178474.38348
  22648066.500   119016584.75008  22648064.020    92740274.42146
  21339118.980   112138194.61609  21339115.780    87380566.77848
  23904711.780   125620185.41907  23904711.360    97885879.42445
  22866640.680   120165036.92808  22866640.780    93635101.29447
  24057881.460   126425492.71207  24057880.280    98513587.60245
  22688611.820   119229479.12208  22688609.240    92906094.87147
 15 02 27 00 01 30.0000000  0  7G16G18G21G22G27G29G31
  21764653.060   114374041.05209  21764650.200    89122614.76248
  22636850.920   118957646.30608  22636848.500    92694348.38646
  21346805.520   112178587.73309  21346802.320    87412041.93449
  23887242.340   125528386.51607  23887241.920    97814348.39146
  22854916.140   120103424.03408  22854916.260    93587091.26747
  24071754.160   126498392.92107  24071752.800    98570392.94346
  22705443.900   119317931.90808  22705441.300    92975019.06748
 15 02 27 00 02  0.0000000  0  7G16G18G21G22G27G29G31
  21751056.500   114302590.65209  21751053.620    89066939.13048
  22625689.360   118898991.79108  22625686.880    92648643.58546
  21354554.320   112219307.92309  21354551.100    87443771.95649
  23869772.660   125436585.26607  23869772.260    97742815.51046
  22843211.120   120041913.69408  22843211.260    93539161.14847
  24085627.600   126571297.79406  24085626.360    98627201.89246
  22722315.940   119406594.85608  22722313.360    93044107.03148
 15 02 27 00 02 30.0000000  0  7G16G18G21G22G27G29G31
  21737506.240   114231383.57909  21737503.300    89011453.10948
  22614583.140   118840628.05108  22614580.680    92603165.37346
  21362365.860   112260357.79809  21362362.640    87475758.87848
  23852304.240   125344789.06307  23852303.740    97671286.52046
  22831526.420   119980510.37008  22831526.560    93491314.43147
  24099502.560   126644211.54506  24099501.600    98684017.75346
  22739228.240   119495469.57908  22739225.760    93113360.00347
 15 02 27 00 03  0.0000000  0  7G16G18G21G22G27G29G31
  21724002.280   114160419.74809  21723999.320    88956156.61148
  22603532.400   118782556.07808  22603529.880    92557914.49946
  21370239.480   112301733.95809  21370236.280    87508000.03149
  23834836.840   125252998.99907  23834836.280    97599762.30845
  22819861.740   119919212.25208  22819861.880    93443549.67447
  24113378.860   126717132.74007  24113378.200    98740839.40446
  22756180.040   119584551.59508  22756177.560    93182774.51247
 15 02 27 00 03 30.0000000  0  7G16G18G21G22G27G29G31
  21710544.740   114089699.82909  21710541.800    88901050.18848
  22592537.440   118724776.93708  22592534.720    92512891.80646
  21378174.620   112343433.34809  21378171.440    87540493.05649
  23817370.700   125161216.42507  23817369.780    97528243.86646
  22808216.820   119858017.78208  22808216.920    93395865.68347
  24127256.400   126790059.80707  24127255.260    98797665.71345
  22773170.440   119673836.51908  22773168.020    93252347.12447
 15 02 27 00 04  0.0000000  0  7G16G18G21G22G27G29G31
  21697134.600   114019229.06009  21697131.660    88846137.91448
  22581599.180   118667295.69808  22581596.360    92468101.25746
  21386171.440   112385456.78609  21386168.240    87573238.59749
  23799907.060   125069446.47508  23799906.000    97456735.25446
  22796592.140   119796929.64708  22796592.240    93348264.56247
  24141135.520   126862995.30607  24141133.920    98854498.56945
  22790199.400   119763323.95508  22790196.940    93322077.54747
 15 02 27 00 04 30.0000000  0  7G16G18G21G22G27G29G31
  21683770.920   113949002.46109  21683767.920    88791415.88548
  22570716.540   118610107.02308  22570713.640    92423538.66847
  21394228.220   112427795.45409  21394225.000    87606229.76249
  23782445.060   124977684.40607  23782443.900    97385232.73946
  22784986.320   119735940.53808  22784986.400    93300740.59347
  24155014.860   126935931.92207  24155012.860    98911332.23845
  22807265.000   119853004.06008  22807262.620    93391958.08148
 15 02 27 00 05  0.0000000  0  7G16G18G21G22G27G29G31
  21670455.800   113879031.05909  21670452.800    88736892.71948
  22559891.760   118553222.59908  22559888.860    92379213.16346
  21402346.340   112470456.47509  21402343.120    87639472.11749
  23764986.700   124885942.00007  23764985.700    97313745.58746
  22773401.000   119675059.30208  22773401.080    93253300.68247
  24168896.320   127008879.19006  24168894.540    98968174.25545
  22824368.340   119942882.56608  22824365.900    93461993.22147
 15 02 27 00 05 30.0000000  0  7G16G18G21G22G27G29G31
  21657188.900   113809313.00609  21657185.900    88682566.96948
  22549124.540   118496641.09608  22549121.760    92335123.71147
  21410524.660   112513433.91609  21410521.480    87672961.02948
  23747531.800   124794217.58107  23747530.700    97242272.39746
  22761835.440   119614281.64608  22761835.440    93205941.48547
  24182778.920   127081832.64807  24182777.640    99025021.02546
  22841508.100   120032952.35508  22841505.680    93532177.42147
 15 02 27 00 06  0.0000000  0  7G16G18G21G22G27G29G31
  21643970.520   113739850.11509  21643967.520    88628440.04648
  22538415.280   118440364.13908  22538412.620    92291271.54847
  21418762.800   112556725.73109  21418759.660    87706694.90948
  23730080.880   124702513.87007  23730079.280    97170815.29246
  22750289.520   119553607.29008  22750289.420    93158662.77247
  24196662.760   127154792.07007  24196661.540    99081872.47046
  22858683.640   120123210.46908  22858681.300    93602508.34747
 15 02 27 00 06 30.0000000  0  7G16G18G21G22G27G29G31
  21630801.360   113670645.67609  21630798.340    88574514.51448
  22527764.700   118384395.33908  22527762.140    92247659.52347
  21427060.560   112600330.70709  21427057.420    87740672.81048
  23712634.700   124610834.26907  23712632.700    97099376.99246
  22738763.320   119493037.16308  22738763.320    93111465.29347
  24210547.840   127227758.36907  24210546.580    99138729.26945
  22875894.700   120213654.90808  22875892.380    93672984.47847
 15 02 27 00 07  0.0000000  0  7G16G18G21G22G27G29G31
  21617681.680   113601701.33109  21617678.700    88520791.64948
  22517173.020   118328736.17108  22517170.540    92204288.75346
  21435417.660   112644247.54809  21435414.520    87774893.71948
  23695193.420   124519181.15107  23695191.480    97027959.31946
  22727256.860   119432570.59908  22727256.900    93064348.50747
  24224434.340   127300731.58107  24224432.840    99195591.52745
  22893140.460   120304281.96208  22893138.140    93743602.89247
 15 02 27 00 07 30.0000000  0  7G16G18G21G22G27G29G31
  21604612.280   113533021.46009  21604609.420    88467274.87448
  22506641.160   118273391.43008  22506638.680    92161162.99746
  21443834.060   112688476.03909  21443830.920    87809357.47948
  23677758.100   124427559.28707  23677756.200    96956565.98346
  22715770.540   119372209.82708  22715770.680    93017314.15547
  24238322.240   127373713.42207  24238320.780    99252460.40744
  22910420.920   120395091.20908  22910418.540    93814363.29147
 15 02 27 00 08  0.0000000  0  7G16G18G21G22G27G29G31
  21591593.040   113464605.09709  21591590.240    88413963.43048
  22496168.980   118218360.19908  22496166.580    92118281.54546
  21452308.840   112733011.20909  21452305.680    87844060.20848
  23660328.620   124335968.13307  23660326.600    96885196.54346
  22704303.740   119311951.55708  22704303.940    92970359.67747
  24252211.200   127446700.95906  24252209.660    99309333.80945
  22927734.860   120486076.45908  22927732.540    93885260.83147
 15 02 27 00 08 30.0000000  0  7G16G18G21G22G27G29G31
  21578624.480   113396454.74409  21578621.640    88360859.26348
  22485756.880   118163644.75408  22485754.660    92075646.15846
  21460841.700   112777851.68809  21460838.540    87879000.83748
  23642905.460   124244410.30707  23642903.440    96813853.06546
  22692856.500   119251795.72608  22692856.620    92923485.01847
  24266101.320   127519694.17907  24266100.000    99366211.58445
  22945081.720   120577234.72908  22945079.500    93956293.17447
 15 02 27 00 09  0.0000000  0  7G16G18G21G22G27G29G31
  21565707.600   113328576.05809  21565704.740    88307966.78048
  22475406.000   118109250.91708  22475403.900    92033261.36546
  21469432.980   112822999.02709  21469429.760    87914180.58048
  23625489.840   124152892.19107  23625487.980    96742540.51946
  22681429.480   119191745.85208  22681429.380    92876692.91147
  24279993.300   127592696.73807  24279992.100    99423096.66545
  22962461.600   120668566.51008  22962459.520    94027460.72347
 15 02 27 00 09 30.0000000  0  7G16G18G21G22G27G29G31
  21552841.560   113260964.60609  21552838.700    88255282.53848
  22465115.680   118055175.04108  22465113.680    91991124.33947
  21478081.120   112868445.22809  21478077.880    87949593.20248
  23608081.140   124061410.06307  23608079.120    96671256.02146
  22670021.320   119131795.55608  22670021.220    92829978.41547
  24293885.940   127665702.23907  24293884.580    99479984.02045
  22979872.820   120760062.73908  22979870.660    94098756.42347
 15 02 27 00 10  0.0000000  0  7G16G18G21G22G27G29G31
  21540028.040   113193628.90709  21540025.120    88202813.16248
  22454887.580   118001425.78508  22454885.540    91949241.81347
  21486787.000   112914194.93409  21486783.740    87985242.32148
  23590681.060   123969972.94307  23590678.820    96600006.55045
  22658633.260   119071951.02308  22658633.180    92783346.32447
  24307780.440   127738717.16007  24307778.900    99536878.75345
  22997315.980   120851726.75608  22997313.780    94170182.85847
 15 02 27 00 10 30.0000000  0  7G16G18G21G22G27G29G31
  21527267.600   113126572.20009  21527264.620    88150561.18348
  22444721.980   117948005.38308  22444720.100    91907615.55147
  21495550.400   112960246.76209  21495547.100    88021126.85748
  23573290.100   123878584.15807  23573287.740    96528794.75446
  22647265.400   119012212.81008  22647265.500    92736797.08747
  24321676.640   127811742.28106  24321675.220    99593781.38845
  23014790.580   120943556.13408  23014788.300    94241738.14347
 15 02 27 00 11  0.0000000  0  7G16G18G21G22G27G29G31
  21514559.940   113059792.70909  21514556.880    88098525.21448
  22434618.740   117894912.58008  22434616.880    91866244.54847
  21504369.980   113006593.97809  21504366.660    88057241.57048
  23555908.220   123787242.42208  23555905.780    96457619.60246
  22635917.040   118952576.79208  22635917.200    92690327.47747
  24335573.820   127884773.39107  24335572.820    99650688.67445
  23032295.360   121035543.84308  23032293.060    94313416.80847
 15 02 27 00 11 30.0000000  0  7G16G18G21G22G27G29G31
  21501905.260   112993291.86509  21501902.200    88046706.38048
  22424578.200   117842149.20708  22424576.260    91825130.24347
  21513245.620   113053235.90409  21513242.300    88093585.92148
  23538535.660   123695949.78607  23538533.120    96386482.71546
  22624588.100   118893042.59708  22624588.180    92643937.20247
  24349472.200   127957810.14606  24349471.100    99707600.42245
  23049829.600   121127686.66508  23049827.380    94385216.33047
 15 02 27 00 12  0.0000000  0  7G16G18G21G22G27G29G31
  21489304.340   112927073.65409  21489301.340    87995107.77748
  22414601.060   117789718.98008  22414599.100    91784275.54647
  21522177.260   113100172.22609  21522174.000    88130159.67848
  23521173.380   123604711.08508  23521170.800    96315387.83846
  22613278.800   118833611.92208  22613278.800    92597627.60347
  24363372.140   128030854.38506  24363370.800    99764518.00044
  23067393.100   121219983.35108  23067390.860    94457135.76047
 15 02 27 00 12 30.0000000  0  7G16G18G21G22G27G29G31
  21476758.040   112861142.33409  21476754.960    87943732.71648
  22404688.140   117737626.22808  22404686.140    91743683.80847
  21531164.780   113147402.11709  21531161.560    88166962.18448
  23503822.180   123513530.58608  23503819.500    96244338.30846
  22601989.520   118774286.47608  22601989.540    92551399.99747
  24377273.760   128103908.16207  24377272.600    99821442.94145
  23084985.620   121312432.56608  23084983.420    94529174.02947
 15 02 27 00 13  0.0000000  0  7G16G18G21G22G27G29G31
  21464265.740   112795494.92609  21464262.640    87892578.88948
  22394838.860   117685867.93108  22394836.860    91703352.67947
  21540206.920   113194918.94209  21540203.720    88203988.27348
  23486481.620   123422405.93207  23486478.860    96173332.25246
  22590719.300   118715061.07808  22590719.260    92505250.35147
  24391176.360   128176966.23507  24391175.060    99878371.30145
  23102605.700   121405026.50308  23102603.640    94601325.06147
 15 02 27 00 13 30.0000000  0  7G16G18G21G22G27G29G31
  21451829.220   112730140.64309  21451826.160    87841653.47848
  22385055.000   117634453.31008  22385053.080    91663289.35947
  21549304.800   113242728.50309  21549301.600    88241242.48048
  23469153.520   123331347.01408  23469150.660    96102377.46046
  22579469.440   118655942.76408  22579469.380    92459184.14548
  24405081.040   128250036.00006  24405080.100    99935308.70746
  23120254.080   121497769.26608  23120252.140    94673592.07247
 15 02 27 00 14  0.0000000  0  7G16G18G21G22G27G29G31
  21439447.520   112665074.54109  21439444.500    87790952.61848
  22375335.640   117583377.62908  22375333.680    91623490.14347
  21558456.540   113290821.13709  21558453.340    88278717.25248
  23451837.180   123240349.22508  23451834.080    96031470.23546
  22568238.620   118596924.28608  22568238.420    92413195.72447
  24418986.540   128323110.10906  24418985.660    99992249.52845
  23137928.840   121590650.59408  23137926.920    94745967.03847
 15 02 27 00 14 30.0000000  0  7G16G18G21G22G27G29G31
  21427121.760   112600302.46909  21427118.740    87740480.86748
  22365681.840   117532646.37308  22365679.840    91583959.30247
  21567662.540   113339198.98609  21567659.380    88316414.27148
  23434533.560   123149418.63208  23434530.520    95960615.38546
  22557027.480   118538009.09608  22557027.120    92367287.78347
  24432893.680   128396192.04506  24432892.500   100049196.47745
  23155630.120   121683670.97008  23155628.140    94818450.37647
 15 02 27 00 15  0.0000000  0  7G16G18G21G22G27G29G31
  21414852.840   112535828.72009  21414849.780    87690241.58248
  22356094.400   117482263.67308  22356092.380    91544700.06447
  21576922.820   113387862.00909  21576919.680    88354333.51048
  23417243.560   123058559.90708  23417240.540    95889816.54846
  22545836.260   118479199.11908  22545835.840    92321461.83547
  24446802.720   128469284.07006  24446801.380   100106151.28545
  23173357.700   121776829.55908  23173355.640    94891041.38247
 15 02 27 00 15 30.0000000  0  7G16G18G21G22G27G29G31
  21402640.140   112471650.62209  21402637.140    87640232.67948
  22346572.740   117432227.05408  22346570.760    91505710.51347
  21586236.180   113436804.05409  21586233.080    88392470.16948
  23399967.060   122967771.51008  23399963.900    95819072.51146
  22534664.200   118420489.82808  22534663.820    92275714.34547
  24460712.800   128542381.54506  24460711.600   100163110.30245
  23191110.160   121870118.69308  23191108.140    94963734.13247
 15 02 27 00 16  0.0000000  0  7G16G18G21G22G27G29G31
  21390485.140   112407775.78609  21390482.180    87590460.08048
  22337118.420   117382544.23308  22337116.420    91466996.63547
  21595603.260   113486028.15009  21595600.120    88430826.60148
  23382705.380   122877061.30808  23382702.000    95748389.36546
  22523512.360   118361886.51608  22523512.120    92230049.43447
  24474624.880   128615490.05906  24474623.340   100220078.00545
  23208887.920   121963540.91408  23208885.980    95036530.55947
 15 02 27 00 16 30.0000000  0  7G16G18G21G22G27G29G31
  21378387.280   112344200.99509  21378384.300    87540921.27348
  22327730.740   117333211.66808  22327728.700    91428555.68347
  21605022.640   113535527.37909  21605019.520    88469397.42248
  23365458.040   122786426.62908  23365454.560    95677765.07146
  22512379.640   118303383.67208  22512379.620    92184462.81748
  24488538.020   128688604.38406  24488536.640   100277050.15345
  23226689.380   122057087.72408  23226687.320    95109424.08747
 15 02 27 00 17  0.0000000  0  7G16G18G21G22G27G29G31
  21366347.900   112280933.35309  21366344.860    87491621.81848
  22318411.040   117284236.00408  22318408.800    91390392.84047
  21614494.900   113585304.54109  21614491.820    88508184.82148
  23348226.560   122695874.63008  23348223.020    95607205.19546
  22501266.960   118244985.95008  22501267.060    92138958.11748
  24502453.160   128761729.16706  24502452.000   100334030.44845
  23244514.840   122150760.93508  23244512.720    95182416.10447
 15 02 27 00 17 30.0000000  0  7G16G18G21G22G27G29G31
  21354366.440   112217970.22209  21354363.440    87442559.64248
  22309158.920   117235615.37509  22309156.600    91352506.65147
  21624018.840   113635353.18109  21624015.700    88547183.76148
  23331010.420   122605403.82108  23331006.820    95536708.58146
  22490173.440   118186688.75508  22490173.480    92093531.74748
  24516369.600   128834859.44606  24516368.300   100391015.11245
  23262362.860   122244552.74508  23262360.860    95255500.52947
 15 02 27 00 18  0.0000000  0  7G16G18G21G22G27G29G31
  21342444.760   112155321.21609  21342441.780    87393742.23048
  22299976.060   117187358.89409  22299973.740    91314904.20447
  21633595.420   113685678.44309  21633592.220    88586398.24748
  23313811.560   122515023.84808  23313807.960    95466282.73546
  22479100.360   118128499.26308  22479100.320    92048189.29147
  24530288.420   128908003.03707  24530287.320   100448010.03246
  23280234.340   122338467.79408  23280232.540    95328680.96547
 15 02 27 00 18 30.0000000  0  7G16G18G21G22G27G29G31
  21330581.580   112092979.81009  21330578.620    87345164.51848
  22290861.160   117139459.93208  22290858.900    91277580.35847
  21643222.720   113736270.13609  21643219.460    88625820.35048
  23296628.860   122424728.91208  23296625.500    95395923.16746
  22468046.080   118070408.70908  22468045.840    92002923.92947
  24544208.120   128981151.22806  24544207.180   100505008.61745
  23298127.180   122432494.28608  23298125.300    95401948.26347
 15 02 27 00 19  0.0000000  0  7G16G18G21G22G27G29G31
  21318778.760   112030955.80909  21318775.840    87296834.13348
  22281816.060   117091927.98608  22281813.840    91240542.49647
  21652901.740   113787133.63709  21652898.440    88665454.24748
  23279464.420   122334529.35208  23279461.080    95325637.90046
  22457012.060   118012424.75508  22457011.640    91957741.63248
  24558129.940   129054311.82206  24558129.040   100562016.83645
  23316042.000   122526636.87508  23316040.120    95475305.99647
 15 02 27 00 19 30.0000000  0  6G16G18G21G22G27G31
  21307038.480   111969260.56309  21307035.660    87248759.92448
  22272842.940   117044774.18008  22272840.700    91203799.28747
  21662633.920   113838276.54409  21662630.580    88705305.86248
  23262320.220   122244436.69608  23262316.700    95255435.94146
  22446000.020   117954556.34708  22445999.620    91912649.37648
  23333980.100   122620901.49308  23333977.920    95548758.85947
 15 02 27 00 20  0.0000000  0  6G16G18G21G22G27G31
  21295356.660   111907872.21809  21295353.800    87200924.85448
  22263937.720   116997976.98809  22263935.340    91167333.95547
  21672414.400   113889673.23409  21672411.080    88745355.22148
  23245192.420   122154429.91408  23245188.800    95185300.87147
  22435005.420   117896779.75708  22435005.200    91867628.66948
  23351936.300   122715261.44608  23351934.080    95622285.96647
 15 02 27 00 20 30.0000000  0  6G16G18G21G22G27G31
  21283734.880   111846799.35209  21283731.980    87153335.61048
  22255101.920   116951544.46709  22255099.420    91131152.78047
  21682243.980   113941327.94709  21682240.680    88785605.64148
  23228082.740   122064517.93108  23228079.040    95115239.67146
  22424029.560   117839101.09208  22424029.440    91822684.26748
  23369911.220   122809720.01008  23369909.100    95695889.92146
 15 02 27 00 21  0.0000000  0  6G16G18G21G22G27G31
  21272174.860   111786051.08709  21272171.940    87105999.30448
  22246337.200   116905485.41809  22246334.600    91095262.62947
  21692123.640   113993245.97109  21692120.420    88826061.24048
  23210992.940   121974710.78608  23210989.320    95045260.17046
  22413073.660   117781527.35408  22413073.600    91777821.62048
  23387905.680   122904281.16708  23387903.660    95769573.81946
 15 02 27 00 21 30.0000000  0  6G16G18G21G22G27G31
  21260677.300   111725630.91209  21260674.300    87058918.64848
  22237644.180   116859803.15809  22237641.500    91059666.07747
  21702053.220   114045426.19009  21702050.060    88866721.14648
  23193923.700   121885012.16308  23193920.260    94975365.24146
  22402137.940   117724059.77608  22402137.840    91733041.69948
  23405919.320   122998943.18508  23405917.480    95843336.30347
 15 02 27 00 22  0.0000000  0  6G16G18G21G22G27G31
  21249241.720   111665536.39409  21249238.660    87012091.75748
  22229022.340   116814495.18109  22229019.640    91024361.17547
  21712031.500   114097862.33109  21712028.340    88907580.48048
  23176874.860   121795420.31908  23176871.340    94905553.48846
  22391221.540   117666693.77008  22391221.480    91688340.93048
  23423950.740   123093698.79508  23423949.180    95917171.69646
 15 02 27 00 22 30.0000000  0  7G16G18G19G21G22G27G31
  21237868.640   111605770.51609  21237865.580    86965520.94148
  22220472.240   116769564.45109  22220469.600    90989350.22647
  24546235.360   128991331.29906  24546229.800   100512711.33145
  21722058.360   114150553.64709  21722055.160    88948638.63848
  23159846.920   121705938.49708  23159843.280    94835827.46946
  22380324.620   117609430.10608  22380324.560    91643719.89948
  23441999.540   123188545.52208  23441998.000    95991078.11647
 15 02 27 00 23  0.0000000  0  7G16G18G19G21G22G27G31
  21226550.620   111546293.89609  21226547.560    86919175.52448
  22211986.340   116724971.19209  22211983.780    90954602.25247
  24531628.940   128914575.75206  24531625.040   100452901.91245
  21732125.440   114203456.43909  21732122.200    88989861.58448
  23142832.580   121616528.07608  23142828.920    94766157.09347
  22369439.220   117552227.22908  22369439.120    91599146.23948
  23460057.220   123283438.81108  23460055.520    96065020.79146
 15 02 27 00 23 30.0000000  0  7G16G18G19G21G22G27G31
  21215307.940   111487213.42109  21215304.920    86873138.80348
  22203584.900   116680821.80309  22203582.420    90920200.14747
  24517048.600   128837955.48206  24517045.180   100393197.85145
  21742252.340   114256673.67309  21742249.100    89031329.55748
  23125852.320   121527296.49108  23125848.700    94696626.06347
  22358585.380   117495189.88608  22358585.260    91554701.56648
  23478143.340   123378480.82008  23478141.520    96139079.36646
 15 02 27 00 24  0.0000000  0  7G16G18G19G21G22G27G31
  21204125.020   111428446.89609  21204122.060    86827346.70548
  22195252.380   116637034.37209  22195249.900    90886080.09047
  24502478.000   128761385.80806  24502474.540   100333533.18445
  21752422.640   114310119.08909  21752419.400    89072975.33548
  23108890.560   121438162.12408  23108886.980    94627170.79047
  22347747.000   117438233.70908  22347746.880    91510320.13848
  23496240.980   123473583.93708  23496239.280    96213185.54247
 15 02 27 00 24 30.0000000  0  7G16G18G19G21G22G27G31
  21193006.540   111370018.79409  21193003.560    86781818.31549
  22186993.260   116593632.48009  22186990.780    90852260.43747
  24487921.180   128684888.86606  24487917.700   100273925.22045
  21762640.260   114363813.10809  21762637.040    89114814.81648
  23091951.960   121349149.51708  23091948.400    94557810.38747
  22336928.300   117381380.84708  22336928.200    91466019.21748
  23514354.000   123568767.27308  23514352.180    96287354.21946
 15 02 27 00 25  0.0000000  0  7G16G18G19G21G22G27G31
  21181953.960   111311937.04509  21181950.980    86736559.81048
  22178808.960   116550623.97708  22178806.460    90818747.32247
  24473379.300   128608470.67606  24473375.780   100214378.60245
  21772906.000   114417759.83809  21772902.720    89156851.21748
  23075038.300   121260267.73608  23075034.640    94488551.91846
  22326130.400   117324637.30008  22326130.200    91421803.46848
  23532482.880   123664034.04008  23532481.060    96361587.89446
 15 02 27 00 25 30.0000000  0  7G16G18G19G21G22G27G31
  21170965.980   111254194.89609  21170963.060    86691565.93548
  22170698.280   116508002.27909  22170695.860    90785535.62647
  24458850.700   128532122.02107  24458847.060   100154886.20245
  21783217.740   114471948.51909  21783214.480    89199076.16348
  23058148.400   121171510.51008  23058144.420    94419390.51146
  22315351.520   117267994.04208  22315351.340    91377665.87548
  23550625.280   123759372.22808  23550623.580    96435877.20346
 15 02 27 00 26  0.0000000  0  7G16G18G19G21G22G27G31
  21160043.780   111196798.33509  21160040.860    86646841.34148
  22162662.320   116465773.12909  22162659.980    90752629.80547
  24444335.960   128455846.69006  24444332.300   100095450.92844
  21793575.800   114526380.38109  21793572.560    89241490.59148
  23041283.300   121082884.30308  23041279.280    94350331.19847
  22304592.460   117211455.00008  22304592.260    91333609.48248
  23568781.520   123854782.90408  23568779.680    96510223.03946
 15 02 27 00 26 30.0000000  0  7G16G18G19G21G22G27G31
  21149187.880   111139750.24809  21149184.940    86602388.29348
  22154701.480   116423938.50609  22154699.120    90720031.41247
  24429835.140   128379645.18906  24429831.540   100036073.18245
  21803979.900   114581054.43209  21803976.680    89284093.74548
  23024443.780   120994392.33308  23024439.840    94281376.49447
  22293853.360   117155020.74808  22293853.180    91289634.74948
  23586951.060   123950263.33608  23586949.080    96584623.22246
 15 02 27 00 27  0.0000000  0  7G16G18G19G21G22G27G31
  21138398.340   111083050.93209  21138395.420    86558207.01048
  22146815.760   116382498.53409  22146813.260    90687740.53947
  24415348.000   128303515.76806  24415344.620    99976751.62045
  21814429.520   114635967.68709  21814426.340    89326883.29348
  23007630.100   120906035.85608  23007626.260    94212527.35947
  22283133.900   117098689.77908  22283133.820    91245740.49648
  23605133.000   124045809.38408  23605131.120    96659074.54346
 15 02 27 00 27 30.0000000  0  7G16G18G19G21G22G27G31
  21127676.100   111026705.30109  21127673.220    86514301.32149
  22139006.020   116341458.01309  22139003.340    90655760.92247
  24400875.000   128227460.80906  24400871.880    99917488.06045
  21824924.860   114691121.08409  21824921.680    89369859.95648
  22990843.200   120817820.14008  22990839.400    94143787.90147
  22272434.620   117042464.65708  22272434.580    91201928.71448
  23623327.420   124141420.64308  23623325.500    96733576.71546
 15 02 27 00 28  0.0000000  0  7G16G18G19G21G22G27G31
  21117021.480   110970714.85109  21117018.560    86470672.40148
  22131272.440   116300817.56809  22131269.660    90624093.05847
  24386416.180   128151479.68306  24386413.240    99858282.05145
  21835465.220   114746511.11009  21835462.080    89413021.01548
  22974083.380   120729747.16508  22974079.360    94075159.66846
  22261755.320   116986344.61008  22261755.320    91158198.81948
  23641533.460   124237093.25908  23641531.540    96808126.64246
 15 02 27 00 28 30.0000000  0  7G16G18G19G21G22G27G31
  21106434.040   110915077.47809  21106431.060    86427318.60048
  22123614.580   116260575.06909  22123611.780    90592735.27447
  24371970.620   128075568.11306  24371967.820    99799130.22845
  21846049.520   114802132.03209  21846046.420    89456361.98748
  22957350.540   120641815.33208  22957346.400    94006641.40647
  22251095.240   116930325.47208  22251095.200    91114547.54148
  23659749.740   124332820.03808  23659747.840    96882718.71546
 15 02 27 00 29  0.0000000  0  7G16G18G19G21G22G27G31
  21095914.780   110859798.48809  21095911.780    86384244.07349
  22116033.420   116220735.53109  22116030.600    90561691.49547
  24357538.920   127999729.07806  24357535.760    99740034.92345
  21856678.160   114857985.73909  21856675.080    89499884.35848
  22940645.660   120554030.60308  22940641.600    93938237.78447
  22240455.000   116874410.54108  22240454.860    91070977.47548
  23677976.460   124428601.36008  23677974.720    96957353.34146
 15 02 27 00 29 30.0000000  0  7G16G18G19G21G22G27G31
  21085463.960   110804879.20309  21085460.980    86341449.82049
  22108529.080   116181299.95509  22108526.360    90530962.48747
  24343120.980   127923962.10306  24343117.660    99680995.74845
  21867350.460   114914069.15109  21867347.440    89543585.71448
  22923969.120   120466395.06908  22923965.120    93869950.41147
  22229834.400   116818599.19208  22229834.300    91027488.11548
  23696212.840   124524433.68208  23696211.040    97032027.75546
 15 02 27 00 30  0.0000000  0  7G16G18G19G21G22G27G31
  21075082.560   110750324.45409  21075079.560    86298939.62249
  22101102.420   116142272.47309  22101099.880    90500551.47047
  24328717.080   127848269.21606  24328713.640    99622014.33345
  21878066.620   114970382.83709  21878063.600    89587466.49948
  22907322.000   120378913.97408  22907317.920    93801783.37247
  22219234.020   116762893.94308  22219233.960    90984081.43548
  23714458.800   124620316.30808  23714456.980    97106741.29746
 15 02 27 00 30 30.0000000  0  7G16G18G19G21G22G27G31
  21064770.980   110696136.67009  21064767.980    86256715.37949
  22093753.800   116103655.25609  22093751.400    90470460.15547
  24314327.400   127772651.09206  24314323.980    99563091.15845
  21888826.380   115026925.71009  21888823.400    89631525.87748
  22890704.820   120291590.42908  22890700.760    93733739.10747
  22208653.960   116707295.31808  22208653.860    90940757.83648
  23732714.000   124716246.80708  23732712.100    97181492.08346
 15 02 27 00 31  0.0000000  0  7G16G18G19G21G22G27G31
  21054528.300   110642310.98909  21054525.320    86214773.29449
  22086482.360   116065443.53609  22086479.940    90440684.79547
  24299950.580   127697100.59506  24299947.260    99504220.70145
  21899627.960   115083688.46909  21899624.980    89675756.59548
  22874116.800   120204420.31808  22874112.860    93665814.40147
  22198092.900   116651796.39008  22198092.740    90897511.91548
  23750976.520   124812215.69907  23750974.620    97256272.86246
 15 02 27 00 31 30.0000000  0  7G16G18G19G21G22G27G31
  21044356.600   110588858.23709  21044353.640    86173121.79949
  22079289.880   116027647.02709  22079287.460    90411232.98447
  24285588.340   127621626.16307  24285584.800    99445409.48746
  21910472.660   115140678.01309  21910469.720    89720164.02748
  22857560.100   120117414.65908  22857556.160    93598017.82247
  22187552.400   116596405.65408  22187552.240    90854350.30348
  23769247.140   124908227.85408  23769245.500    97331087.24747
 15 02 27 00 32  0.0000000  0  7G16G18G19G21G22G27G31
  21034254.880   110535773.30109  21034251.940    86131756.90949
  22072175.440   115990260.49809  22072173.100    90382100.62547
  24271239.200   127546220.48407  24271235.700    99386651.86745
  21921358.880   115197885.80509  21921355.980    89764741.51548
  22841033.840   120030568.77108  22841029.880    93530345.74947
  22177031.160   116541116.25708  22177031.040    90811267.65848
  23787524.240   125004274.25508  23787522.880    97405928.37246
 15 02 27 00 32 30.0000000  0  7G16G18G19G21G22G27G31
  21024224.700   110483064.34909  21024221.800    86090685.00349
  22065140.420   115953291.47809  22065138.140    90353293.61647
  24256904.360   127470889.86107  24256900.780    99327952.71345
  21932287.420   115255315.68109  21932284.500    89809492.06848
  22824539.840   119943891.94308  22824535.780    93462805.40447
  22166530.320   116485934.21408  22166530.260    90768268.67248
  23805808.360   125100357.40508  23805806.920    97480798.14046
 15 02 27 00 33  0.0000000  0  7G16G18G19G21G22G27G31
  21014266.540   110430733.86009  21014263.660    86049908.00349
  22058185.260   115916742.33409  22058183.040    90324813.77947
  24242583.800   127395634.52607  24242580.300    99269312.22946
  21943257.920   115312965.95809  21943254.940    89854414.35848
  22808078.480   119857386.85208  22808074.360    93395398.88547
  22156050.000   116430859.98708  22156049.900    90725353.70048
  23824099.160   125196475.04108  23824097.400    97555694.82146
 15 02 27 00 33 30.0000000  0  7G16G18G19G21G22G27G31
  21004379.860   110378778.93509  21004376.980    86009423.63749
  22051309.340   115880609.60309  22051307.100    90296658.40947
  24228276.440   127320449.05806  24228273.020    99210726.20145
  21954268.960   115370829.31909  21954265.960    89899502.68348
  22791649.380   119771051.62208  22791645.320    93328124.71647
  22145589.340   116375888.68208  22145589.180    90682518.90448
  23842394.960   125292619.00808  23842393.360    97630611.95846
 15 02 27 00 34  0.0000000  0  7G16G18G19G21G22G27G31
  20994566.060   110327207.17009  20994563.180    85969237.85549
  22044514.020   115844900.31009  22044511.760    90268833.00447
  24213983.300   127245338.78606  24213979.860    99152198.75345
  21965321.480   115428910.60209  21965318.420    89944760.82748
  22775254.160   119684894.46908  22775250.080    93260989.32247
  22135149.360   116321025.94408  22135149.180    90639768.72948
  23860696.340   125388792.17607  23860694.800    97705551.91546
 15 02 27 00 34 30.0000000  0  7G16G18G19G21G22G27G31
  20984824.820   110276016.64809  20984821.940    85929349.13449
  22037798.840   115809612.11409  22037796.540    90241335.71647
  24199703.800   127170300.52906  24199700.380    99093727.44145
  21976414.320   115487203.75609  21976411.260    89990184.05648
  22758892.540   119598914.06408  22758888.500    93193991.65147
  22124729.240   116266267.89908  22124729.100    90597100.12448
  23879001.820   125484987.69208  23879000.620    97780509.24346
 15 02 27 00 35  0.0000000  0  7G16G18G19G21G22G27G31
  20975156.220   110225207.82009  20975153.340    85889757.83649
  22031163.800   115774744.86409  22031161.420    90214166.44147
  24185437.660   127095331.78007  24185434.360    99035310.22945
  21987546.680   115545704.52709  21987543.620    90035769.06848
  22742564.760   119513111.34808  22742560.740    93127132.42247
  22114328.700   116211612.90508  22114328.600    90554511.81348
  23897310.640   125581200.58108  23897309.520    97855480.08646
 15 02 27 00 35 30.0000000  0  7G16G18G19G21G22G27G31
  20965562.000   110174789.78809  20965559.080    85850471.05749
  22024610.560   115740307.27409  22024608.160    90187331.96647
  24171186.000   127020439.51406  24171182.720    98976952.65345
  21998719.640   115604418.56009  21998716.560    90081520.25548
  22726272.680   119427496.11608  22726268.720    93060419.30247
  22103949.100   116157068.04908  22103949.060    90512009.33248
  23915623.640   125677435.16808  23915622.500    97930467.84246
 15 02 27 00 36  0.0000000  0  7G16G18G19G21G22G27G31
  20956040.900   110124755.97009  20956037.940    85811483.67149
  22018137.760   115706292.04209  22018135.240    90160826.60847
  24156947.380   126945615.15006  24156944.080    98918647.97245
  22009931.280   115663335.91309  22009928.200    90127429.88048
  22710015.100   119342062.18508  22710011.080    92993847.44647
  22093588.860   116102624.82008  22093588.900    90469586.04548
  23933938.620   125773680.15508  23933937.200    98005463.72546
 15 02 27 00 36 30.0000000  0  7G16G18G19G21G22G27G31
  20946594.580   110075115.22809  20946591.620    85772802.56949
  22011746.980   115672707.73009  22011744.380    90134657.02547
  24142723.000   126870865.50206  24142719.740    98860401.52246
  22021182.380   115722460.68009  22021179.300    90173501.12348
  22693793.860   119256819.20408  22693789.840    92927424.38147
  22083249.340   116048290.22608  22083249.380    90427247.40248
  23952256.300   125869939.50608  23952255.060    98080470.76846
 15 02 27 00 37  0.0000000  0  7G16G18G19G21G22G27G31
  20937222.680   110025865.59609  20937219.760    85734426.23849
  22005437.720   115639551.80909  22005435.040    90108821.26147
  24128512.080   126796186.51406  24128508.760    98802210.14045
  22032471.880   115781787.38709  22032468.840    90219729.72248
  22677608.720   119171765.97408  22677604.720    92861149.17647
  22072929.760   115994060.29108  22072929.760    90384990.31648
  23970575.360   125966206.04908  23970574.300    98155483.45246
 15 02 27 00 37 30.0000000  0  7G16G18G19G21G22G27G31
  20927926.320   109977012.91009  20927923.400    85696359.21349
  21999210.840   115606828.96309  21999208.060    90083322.95847
  24114315.240   126721581.56107  24114311.920    98744076.46145
  22043800.160   115841317.96309  22043797.140    90266117.18648
  22661460.920   119086908.57508  22661456.920    92795026.56847
  22062630.760   115939938.79108  22062630.740    90342817.73748
  23988895.940   126062480.54507  23988895.080    98230502.27846
 15 02 27 00 38  0.0000000  0  7G16G18G19G21G22G27G31
  20918705.320   109928556.24609  20918702.420    85658600.77349
  21993066.140   115574538.44909  21993063.400    90058161.53347
  24100132.060   126647048.08407  24100128.680    98685998.45845
  22055166.160   115901046.77009  22055163.140    90312659.10548
  22645350.300   119002247.00108  22645346.340    92729056.55147
  22052351.880   115885923.05108  22052351.840    90300727.56148
  24007216.980   126158757.54508  24007216.300    98305523.05546
 15 02 27 00 38 30.0000000  0  7G16G18G19G21G22G27G31
  20909560.520   109880500.04009  20909557.680    85621154.38149
  21987004.320   115542683.81209  21987001.660    90033339.74547
  24085962.900   126572588.18306  24085959.380    98627977.77146
  22066570.080   115960974.91609  22066567.080    90359356.35448
  22629277.900   118917786.29708  22629273.840    92663243.05347
  22042093.600   115832015.53308  22042093.520    90258721.71548
  24025538.380   126255036.23807  24025537.700    98380545.23646
 15 02 27 00 39  0.0000000  0  7G16G18G19G21G22G27G31
  20900492.400   109832846.69009  20900489.580    85584021.89849
  21981025.820   115511267.29709  21981023.280    90008859.35447
  24071807.700   126498201.98707  24071804.200    98570014.54045
  22078011.840   116021101.82009  22078008.800    90406208.47948
  22613244.400   118833529.83008  22613240.280    92597588.69247
  22031856.060   115778216.86608  22031855.960    90216800.67648
  24043859.660   126351314.71207  24043859.020    98455567.27945
 15 02 27 00 39 30.0000000  0  7G16G18G19G21G22G27G31
  20891500.800   109785595.41309  20891497.920    85547202.71949
  21975130.340   115480287.13409  21975128.060    89984718.97847
  24057666.060   126423887.10706  24057662.500    98512106.85145
  22089490.360   116081421.78209  22089487.260    90453211.04048
  22597249.760   118749477.47208  22597245.600    92532093.38447
  22021638.780   115724524.45808  22021638.660    90174962.44448
  24062179.840   126447587.23307  24062179.260    98530584.60446
 15 02 27 00 40  0.0000000  0  7G16G18G19G21G22G27G31
  20882586.600   109738751.01809  20882583.700    85510700.59549
  21969318.640   115449747.16409  21969316.580    89960921.61347
  24043538.340   126349645.83107  24043534.820    98454256.54545
  22101005.940   116141936.51809  22101002.820    90500365.37648
  22581295.020   118665634.37108  22581290.820    92466761.14147
  22011442.240   115670941.04008  22011442.160    90133209.14548
  24080498.760   126543853.16907  24080498.460    98605596.66946
 15 02 27 00 40 30.0000000  0  7G16G18G19G21G22G27G31
  20873749.520   109692311.87009  20873746.620    85474514.24449
  21963590.480   115419645.88509  21963588.440    89937466.07747
  24029423.940   126275474.50006  24029420.540    98396460.74046
  22112557.500   116202640.19208  22112554.340    90547666.93048
  22565379.900   118581999.67808  22565375.700    92401591.28947
  22001265.700   115617463.07108  22001265.700    90091538.01748
  24098815.260   126640106.37407  24098814.980    98680598.88146
 15 02 27 00 41  0.0000000  0  7G16G18G19G21G22G27G31
  20864990.860   109646285.00109  20864987.980    85438649.14949
  21957947.040   115389989.17909  21957944.840    89914356.96647
  24015323.820   126201378.14007  24015320.560    98338723.34746
  22124145.540   116263535.68209  22124142.360    90595117.95348
  22549505.800   118498580.67008  22549501.500    92336589.48747
  21991110.160   115564095.71408  21991110.180    90049953.08048
  24117129.780   126736348.66207  24117129.640    98755592.58345
 15 02 27 00 41 30.0000000  0  7G16G18G19G21G22G27G31
  20856310.120   109600667.55909  20856307.200    85403103.07749
  21952387.560   115360773.52509  21952385.180    89891591.51547
  24001237.180   126127351.97407  24001233.820    98281040.61445
  22135768.960   116324616.81509  22135765.740    90642713.62448
  22533672.400   118415375.75108  22533668.060    92271754.50847
  21980974.860   115510834.39209  21980974.760    90008450.74748
  24135440.740   126832572.87107  24135440.720    98830572.19045
 15 02 27 00 42  0.0000000  0  7G16G18G19G21G22G27G31
  20847708.020   109555463.33709  20847705.080    85367879.01649
  21946912.760   115332002.64009  21946910.160    89869172.67247
  23987164.180   126053397.65007  23987160.700    98223413.90946
  22147427.700   116385883.59709  22147424.440    90690453.98048
  22517880.540   118332389.39008  22517876.300    92207089.86047
  21970860.220   115457681.31409  21970860.000    89967032.77448
  24153748.240   126928778.11107  24153748.120    98905537.08546
 15 02 27 00 42 30.0000000  0  7G16G18G19G21G22G27G31
  20839185.740   109510678.47709  20839182.780    85332981.72449
  21941523.580   115303681.72709  21941520.800    89847104.43247
  23973105.500   125979519.41107  23973102.120    98165846.48546
  22159122.140   116447338.11009  22159118.860    90738340.60348
  22502131.560   118249628.28608  22502127.480    92142600.72147
  21960766.960   115404640.54409  21960766.660    89925702.31248
  24172052.260   127024965.09007  24172052.040    98980487.63245
 15 02 27 00 43  0.0000000  0  7G16G18G19G21G22G27G31
  20830742.940   109466311.07709  20830739.980    85298409.72049
  21936219.520   115275808.28309  21936216.640    89825384.87047
  23959060.600   125905713.23307  23959057.220    98108335.20946
  22170851.260   116508974.84609  22170848.040    90786369.22148
  22486425.240   118167091.16408  22486421.140    92078286.10547
  21950694.300   115351708.55808  21950694.080    89884456.62748
  24190351.600   127121127.83807  24190351.680    99055419.31246
 15 02 27 00 43 30.0000000  0  7G16G18G19G21G22G27G31
  20822379.860   109422362.46909  20822376.880    85264164.05649
  21931000.760   115248383.11709  21930997.800    89804014.62348
  23945029.320   125831978.59607  23945026.000    98050879.69445
  22182614.460   116570790.98709  22182611.260    90834537.63448
  22470762.020   118084780.38208  22470757.860    92014147.86247
  21940642.220   115298884.98309  21940642.160    89843295.42348
  24208645.560   127217262.60807  24208646.080    99130329.09446
 15 02 27 00 44  0.0000000  0  7G16G18G19G21G22G27G31
  20814097.320   109378837.41709  20814094.380    85230248.42549
  21925867.920   115221409.70909  21925864.980    89782996.38748
  23931012.120   125758318.00707  23931008.820    97993481.83246
  22194412.080   116632787.98308  22194408.880    90882846.97148
  22455142.800   118002700.81708  22455138.540    91950189.77847
  21930611.320   115246172.63709  21930611.400    89802220.87348
  24226934.300   127313369.35807  24226934.780    99205217.09046
 15 02 27 00 44 30.0000000  0  7G16G18G19G21G22G27G31
  20805895.220   109335735.30909  20805892.380    85196662.37649
  21920820.820   115194887.13209  21920818.020    89762329.46047
  23917008.540   125684728.91007  23917005.120    97936139.70446
  22206243.260   116694961.54008  22206240.140    90931293.88748
  22439567.580   117920852.94308  22439563.360    91886412.24647
  21920601.260   115193569.18509  21920601.240    89761231.18748
  24245216.540   127409442.67907  24245217.120    99280078.95545
 15 02 27 00 45  0.0000000  0  7G16G18G19G21G22G27G31
  20797774.200   109293059.34209  20797771.400    85163408.37449
  21915860.000   115168818.07609  21915857.300    89742015.91048
  23903018.840   125611212.62207  23903015.420    97878854.30545
  22218107.980   116757311.15608  22218104.880    90979877.99348
  22424037.280   117839240.97308  22424033.120    91822818.53047
  21910612.240   115141076.13109  21910612.020    89720327.50948
  24263492.380   127505481.19007  24263492.940    99354913.75345
 15 02 27 00 45 30.0000000  0  7G16G18G19G21G22G27G31
  20789734.680   109250811.48409  20789731.880    85130487.96649
  21910985.620   115143203.28809  21910982.980    89722056.33948
  23889042.980   125537769.11307  23889039.420    97821625.61946
  22230005.820   116819834.75108  22230002.680    91028597.66748
  22408552.400   117757867.23708  22408548.180    91759410.44348
  21900644.200   115088693.69608  21900643.800    89679510.03148
  24281761.160   127601481.98307  24281761.740    99429719.11846
 15 02 27 00 46  0.0000000  0  7G16G18G19G21G22G27G31
  20781776.980   109208993.41709  20781774.160    85097902.46349
  21906197.880   115118043.96809  21906195.400    89702451.68647
  23875080.920   125464398.17707  23875077.300    97764453.50046
  22241936.400   116882530.31409  22241933.220    91077451.34748
  22393113.300   117676734.21108  22393109.080    91696189.93447
  21890697.160   115036421.91609  21890696.740    89638778.78448
  24300022.080   127697442.26207  24300022.920    99504492.86245
 15 02 27 00 46 30.0000000  0  7G16G18G19G21G22G27G31
  20773901.500   109167607.29409  20773898.640    85065653.54249
  21901497.140   115093341.71209  21901494.680    89683203.18348
  23861132.720   125391099.90707  23861129.100    97707337.99146
  22253899.400   116945396.26208  22253896.220    91126437.79948
  22377720.460   117595844.63308  22377716.340    91633159.12247
  21880771.280   114984261.20909  21880770.980    89598134.09648
  24318274.740   127793359.49507  24318275.620    99579233.10446
 15 02 27 00 47  0.0000000  0  7G16G18G19G21G22G27G31
  20766108.900   109126656.68109  20766106.020    85033743.97749
  21896884.020   115069099.84209  21896881.600    89664313.42548
  23847198.620   125317875.94607  23847195.080    97650280.39646
  22265894.860   117008432.83508  22265891.700    91175557.20248
  22362374.800   117515202.94708  22362370.680    91570321.47047
  21870867.000   114932213.63309  21870866.780    89557577.55548
  24336519.080   127889232.56707  24336520.280    99653938.92346
 15 02 27 00 47 30.0000000  0  7G16G18G19G21G22G27G31
  20758399.320   109086142.43809  20758396.380    85002174.43849
  21892358.340   115045317.56709  21892355.940    89645781.79048
  23833278.480   125244725.26307  23833275.000    97593279.88546
  22277922.220   117071636.84608  22277919.000    91224807.07747
  22347076.620   117434810.68708  22347072.500    91507678.17047
  21860984.040   114880278.12009  21860983.820    89517108.33048
  24354754.160   127985057.41107  24354755.520    99728607.10845
 15 02 27 00 48  0.0000000  0  7G16G18G19G21G22G27G31
  20750772.660   109046064.07509  20750769.700    84970944.54049
  21887919.860   115021993.48109  21887917.480    89627607.18548
  23819371.860   125171645.60007  23819368.340    97536334.70345
  22289980.720   117135004.60008  22289977.480    91274184.54347
  22331826.020   117354668.29008  22331821.840    91445229.56847
  21851121.960   114828452.65309  21851121.760    89476724.85648
  24372979.160   128080829.02907  24372980.800    99803233.84646
 15 02 27 00 48 30.0000000  0  7G16G18G19G21G22G27G31
  20743229.740   109006425.87009  20743226.800    84940057.63049
  21883569.400   114999131.76709  21883567.020    89609792.86948
  23805479.160   125098639.02207  23805475.620    97479446.49345
  22302070.420   117198536.47008  22302067.240    91323689.89347
  22316623.920   117274780.57909  22316619.680    91382979.42247
  21841281.340   114776740.00009  21841281.080    89436429.29348
  24391194.160   128176547.28006  24391195.780    99877818.99644
 15 02 27 00 49  0.0000000  0  7G16G18G19G21G22G27G31
  20735771.140   108967230.58909  20735768.180    84909515.85249
  21879307.320   114976734.44609  21879304.880    89592340.42548
  23791600.500   125025706.48907  23791596.940    97422615.96246
  22314191.160   117262231.54608  22314188.080    91373322.40848
  22301470.920   117195150.99809  22301466.680    91320930.42047
  21831462.380   114725141.27009  21831462.080    89396222.50248
  24409398.580   128272210.27107  24409400.260    99952361.05945
 15 02 27 00 49 30.0000000  0  7G16G18G19G21G22G27G31
  20728396.640   108928477.49009  20728393.720    84879318.62449
  21875133.420   114954800.21909  21875130.900    89575248.82048
  23777735.620   124952846.11307  23777732.040    97365841.65046
  22326342.220   117326085.90308  22326339.140    91423079.03347
  22286367.060   117115779.95608  22286362.860    91259082.88048
  21821664.700   114673654.24809  21821664.420    89356102.74648
  24427591.660   128367812.91107  24427593.560   100026856.07445
 15 02 27 00 50  0.0000000  0  7G16G18G19G21G22G27G31
  20721106.640   108890168.35509  20721103.740    84849467.35849
  21871047.740   114933329.62109  21871045.120    89558518.50348
  23763884.320   124880056.81707  23763880.620    97309122.74246
  22338523.200   117390097.34308  22338520.140    91472958.07947
  22271312.860   117036669.95309  22271308.760    91197438.75248
  21811888.300   114622278.93509  21811888.080    89316070.04748
  24445772.640   128463352.26807  24445774.360   100101301.75645
 15 02 27 00 50 30.0000000  0  7G16G18G19G21G22G27G31
  20713902.380   108852309.78209  20713899.500    84819967.17149
  21867051.340   114912328.39409  21867048.700    89542153.92348
  23750047.540   124807343.98207  23750043.840    97252463.41446
  22350734.600   117454268.82208  22350731.620    91522961.82548
  22256309.780   116957828.36709  22256305.700    91136003.77548
  21802134.100   114571020.38109  21802133.940    89276128.33548
  24463941.860   128558830.13206  24463943.680   100175699.58345
 15 02 27 00 51  0.0000000  0  7G16G18G19G21G22G27G31
  20706783.200   108814898.27009  20706780.320    84790815.34649
  21863143.480   114891792.42809  21863140.840    89526151.88148
  23736224.320   124734701.98207  23736220.680    97195859.29146
  22362975.200   117518593.73008  22362972.260    91573085.11847
  22241357.240   116879252.12909  22241353.120    91074775.56048
  21792401.220   114519873.79809  21792401.020    89236273.86448
  24482097.940   128654238.79306  24482099.980   100250043.57445
 15 02 27 00 51 30.0000000  0  7G16G18G19G21G22G27G31
  20699750.300   108777940.21009  20699747.440    84762016.85149
  21859325.260   114871727.39709  21859322.640    89510516.79648
  23722415.340   124662135.64907  23722411.880    97139314.14246
  22375245.480   117583074.54708  22375242.480    91623329.89647
  22226456.640   116800948.84509  22226452.420    91013760.02848
  21782690.580   114468844.05409  21782690.320    89196510.42748
  24500241.060   128749580.38707  24500243.160   100324335.31545
 15 02 27 00 52  0.0000000  0  7G16G18G19G21G22G27G31
  20692803.200   108741432.93509  20692800.340    84733569.61749
  21855595.860   114852129.05509  21855593.220    89495245.36548
  23708620.000   124589640.61907  23708616.460    97082824.52046
  22387544.360   117647705.43008  22387541.280    91673691.61248
  22211607.600   116722916.54509  22211603.440    90952955.65748
  21773001.340   114417926.72309  21773001.040    89156834.58648
  24518370.120   128844847.65807  24518372.420   100398569.20345
 15 02 27 00 52 30.0000000  0  7G16G18G19G21G22G27G31
  20685942.720   108705380.70109  20685939.840    84705476.97449
  21851956.000   114833001.50309  21851953.380    89480340.79647
  23694838.740   124517219.33307  23694835.020    97026392.35846
  22399871.900   117712486.84008  22399868.840    91724170.63347
  22196811.080   116645160.28309  22196806.940    90892366.39548
  21763334.040   114367124.71009  21763333.780    89117248.61148
  24536485.040   128940040.19806  24536487.640   100472744.87046
 15 02 27 00 53  0.0000000  0  7G16G18G19G21G22G27G31
  20679169.620   108669787.68609  20679166.700    84677742.15549
  21848406.380   114814348.29209  21848403.800    89465805.83247
  23681071.820   124444873.51707  23681068.140    96970018.99946
  22412228.160   117777419.17508  22412225.060    91774767.25647
  22182067.940   116567684.67309  22182063.820    90831995.81248
  21753689.140   114316440.57609  21753688.940    89077754.48848
  24554585.580   129035157.37806  24554588.380   100546861.76845
 15 02 27 00 53 30.0000000  0  7G16G18G19G21G22G27G31
  20672483.820   108634653.49109  20672480.880    84650364.86049
  21844946.720   114796167.83209  21844944.200    89451639.25048
  23667318.880   124372601.61907  23667315.200    96913703.26546
  22424612.500   117842499.01608  22424609.380    91825478.81647
  22167378.340   116490490.26209  22167374.260    90771844.35148
  21744066.360   114265872.70709  21744066.220    89038350.96448
  24572670.700   129130194.53406  24572673.420   100620916.22246
 15 02 27 00 54  0.0000000  0  7G16G18G19G21G22G27G31
  20665885.660   108599979.89709  20665882.720    84623346.47149
  21841577.200   114778461.00909  21841574.720    89437841.73048
  23653579.820   124300403.25107  23653576.300    96857444.80146
  22437024.480   117907724.47708  22437021.340    91876303.84247
  22152742.780   116413579.88809  22152738.620    90711914.20048
  21734465.780   114215421.31909  21734465.660    88999038.19848
  24590740.180   129225148.94207  24590742.780   100694906.23345
 15 02 27 00 54 30.0000000  0  7G16G18G19G21G22G27G31
  20659375.180   108565767.23309  20659372.260    84596687.25149
  21838297.740   114761227.58509  21838295.260    89424413.09848
  23639854.520   124228277.04607  23639851.140    96801242.59846
  22449463.560   117973092.46708  22449460.460    91927239.93347
  22138161.400   116336954.60509  22138157.200    90652206.20648
  21724887.100   114165085.14709  21724886.940    88959815.21848
  24608793.460   129320017.13006  24608796.360   100768829.38645
 15 02 27 00 55  0.0000000  0  7G16G18G19G21G22G27G31
  20652952.840   108532017.83509  20652949.920    84570389.01649
  21835108.600   114744468.71709  21835106.060    89411354.24448
