     2.11           OBSERVATION DATA    G                   RINEX VERSION / TYPE
SPIDER V4,0,0,3554                      2015 04 17 03:59    PGM / RUN BY / DATE 
CABS                                                        MARKER NAME         
CABS                                                        MARKER NUMBER       
                                                            OBSERVER / AGENCY   
462287              LEICA GRX1200PRO    8.10/2.127          REC # / TYPE / VERS 
103298              LEIAT504                                ANT # / TYPE        
  5116912.3402   671231.6412  3737143.4301                  APPROX POSITION XYZ 
        0.0600        0.0000        0.0000                  ANTENNA: DELTA H/E/N
     1     1                                                WAVELENGTH FACT L1/2
     4    C1    L1    P2    L2                              # / TYPES OF OBSERV 
    30.000                                                  INTERVAL            
  2015    02    27    00    00    0.0000000     GPS         TIME OF FIRST OBS   
  2015    02    27    23    59   30.0000000     GPS         TIME OF LAST OBS    
    16                                                      LEAP SECONDS        
    30                                                      # OF SATELLITES     
   G 1   802   802   802   802                              PRN / # OF OBS      
   G 2   943   943   943   943                              PRN / # OF OBS      
   G 3   848   848   848   848                              PRN / # OF OBS      
   G 4   830   830   830   830                              PRN / # OF OBS      
   G 5   664   664   664   664                              PRN / # OF OBS      
   G 6   839   839   839   839                              PRN / # OF OBS      
   G 7   674   674   674   674                              PRN / # OF OBS      
   G 9   807   807   807   807                              PRN / # OF OBS      
   G10   749   749   749   749                              PRN / # OF OBS      
   G11   767   767   767   767                              PRN / # OF OBS      
   G12   829   829   829   829                              PRN / # OF OBS      
   G13   787   787   787   787                              PRN / # OF OBS      
   G14   940   940   940   940                              PRN / # OF OBS      
   G15   687   687   687   687                              PRN / # OF OBS      
   G16   664   664   664   664                              PRN / # OF OBS      
   G17   943   943   943   943                              PRN / # OF OBS      
   G18   901   901   901   901                              PRN / # OF OBS      
   G19   750   750   750   750                              PRN / # OF OBS      
   G20   771   771   771   771                              PRN / # OF OBS      
   G21   727   727   727   727                              PRN / # OF OBS      
   G22   666   666   666   666                              PRN / # OF OBS      
   G23   754   754   754   754                              PRN / # OF OBS      
   G24   796   796   796   796                              PRN / # OF OBS      
   G25   850   850   850   850                              PRN / # OF OBS      
   G27   801   801   801   801                              PRN / # OF OBS      
   G28   878   878   878   878                              PRN / # OF OBS      
   G29   764   764   764   764                              PRN / # OF OBS      
   G30   720   720   720   720                              PRN / # OF OBS      
   G31   873   873   873   873                              PRN / # OF OBS      
   G32   767   767   767   767                              PRN / # OF OBS      
BIT 2 OF LLI FLAGS DATA COLLECTED UNDER A/S CONDITION       COMMENT             
SNR is mapped to RINEX snr flag value [2-9]                 COMMENT             
Lx:     = 25dBHz -> 1; 26-27dBHz -> 2; 28-31dBHz -> 3       COMMENT             
       32-35dBHz -> 4; 36-38dBHz -> 5; 39-41dBHz -> 6       COMMENT             
       42-44dBHz -> 7; 45-48dBHz -> 8; >=49dBHz -> 9        COMMENT             
                                                            END OF HEADER       
 15 02 27 00 00  0.0000000  0  8G16G18G21G22G25G27G29G31
  21869220.800   114923537.53008  21869221.960    89550823.67747
  22558869.040   118547757.27308  22558870.220    92374955.46446
  21159822.960   111195885.02508  21159823.620    86646262.19148
  24082593.000   126554937.78006  24082595.200    98614265.67245
  24766321.220   130148036.71205  24766326.820   101414149.43044
  23178917.160   121806042.66907  23178921.400    94913824.42846
  23602418.120   124031933.35306  23602419.740    96648448.49946
  22987541.020   120800356.13108  22987542.000    94130169.75946
 15 02 27 00 00 30.0000000  0  8G16G18G21G22G25G27G29G31
  21855107.920   114849373.61908  21855109.060    89493033.62147
  22546524.860   118482888.95208  22546526.200    92324408.73546
  21165991.340   111228300.14408  21165992.020    86671520.72349
  24064283.700   126458723.17006  24064285.900    98539293.53845
  24785942.120   130251143.37805  24785947.440   101494492.13645
  23165805.100   121737138.33607  23165809.280    94860132.75346
  23616244.760   124104593.12606  23616246.700    96705066.45846
  23004530.820   120889638.02007  23004531.760    94199740.04346
 15 02 27 00 01  0.0000000  0  8G16G18G21G22G25G27G29G31
  21841046.660   114775481.14408  21841047.760    89435455.07347
  22534235.920   118418310.40208  22534237.360    92274087.78346
  21172224.560   111261055.88608  21172225.220    86697044.68248
  24045973.720   126362505.63606  24045976.120    98464319.12245
  24805588.320   130354382.81105  24805593.460   101574938.32744
  23152710.400   121668325.08207  23152714.440    94806512.04746
  23630080.720   124177302.27206  23630082.980    96761722.90746
  23021556.720   120979109.99107  23021557.740    94269458.44846
 15 02 27 00 01 30.0000000  0  7G16G18G21G22G27G29G31
  21827034.300   114701845.81608  21827035.420    89378076.89947
  22521999.560   118354007.66808  22522001.060    92223981.76646
  21178519.120   111294134.01708  21178519.780    86722819.84749
  24027660.560   126266270.54706  24027662.680    98389330.97946
  23139629.960   121599586.44007  23139633.780    94752949.48646
  23643922.860   124250044.07306  23643925.400    96818404.82046
  23038615.120   121068752.55108  23038616.240    94339309.77146
 15 02 27 00 02  0.0000000  0  7G16G18G21G22G27G29G31
  21813077.820   114628504.07908  21813078.960    89320927.50048
  22509822.740   118290017.38508  22509824.200    92174119.21846
  21184881.340   111327567.74308  21184882.000    86748872.10048
  24009351.160   126170054.58706  24009353.100    98314357.77145
  23126570.240   121530956.76807  23126573.900    94699471.82746
  23657777.860   124322853.08306  23657780.640    96875139.10846
  23055711.980   121158597.05908  23055713.180    94409318.45046
 15 02 27 00 02 30.0000000  0  7G16G18G21G22G27G29G31
  21799171.100   114555423.71408  21799172.260    89263981.77147
  22497699.140   118226306.88708  22497700.540    92124474.69146
  21191304.220   111361320.26008  21191304.880    86775172.76548
  23991039.340   126073825.66706  23991041.000    98239374.43145
  23113524.580   121462401.19107  23113528.140    94646051.90946
  23671639.020   124395694.03606  23671641.880    96931898.26746
  23072840.060   121248605.52507  23072841.340    94479454.89046
 15 02 27 00 03  0.0000000  0  7G16G18G21G22G27G29G31
  21785316.500   114482617.06808  21785317.600    89207249.33247
  22485631.260   118162889.54808  22485632.600    92075058.60546
  21197789.500   111395400.67908  21197790.160    86801728.94048
  23972727.600   125977597.12106  23972728.960    98164391.37345
  23100495.080   121393930.43007  23100498.540    94592698.08446
  23685508.440   124468577.70506  23685511.160    96988690.72646
  23090000.900   121338785.79307  23090002.180    94549725.21146
 15 02 27 00 03 30.0000000  0  7G16G18G21G22G27G29G31
  21771514.580   114410087.22108  21771515.580    89150732.57347
  22473619.700   118099768.71508  22473620.980    92025873.55146
  21204337.100   111429808.36208  21204337.700    86828540.12448
  23954416.680   125881372.67406  23954417.600    98089411.51045
  23087481.860   121325545.40007  23087485.300    94539411.06447
  23699386.220   124541504.72507  23699388.760    97045516.94146
  23107194.040   121429135.71808  23107195.240    94620127.72146
 15 02 27 00 04  0.0000000  0  7G16G18G21G22G27G29G31
  21757766.040   114337838.23208  21757767.020    89094434.66548
  22461665.220   118036948.22208  22461666.500    91976922.53746
  21210946.920   111464543.04308  21210947.460    86855606.10948
  23936107.160   125785156.08806  23936107.820    98014437.76845
  23074485.320   121257247.77707  23074488.720    94486192.15846
  23713272.500   124614476.43906  23713274.920    97102377.99446
  23124419.120   121519653.64608  23124420.200    94690661.14346
 15 02 27 00 04 30.0000000  0  7G16G18G21G22G27G29G31
  21744071.440   114265872.83608  21744072.440    89038357.73947
  22449768.260   117974430.31808  22449769.640    91928207.31046
  21217618.740   111499603.63908  21217619.260    86882926.06048
  23917799.560   125688950.10706  23917800.120    97939472.26945
  23061505.460   121189037.97707  23061508.860    94433041.66847
  23727167.280   124687493.08407  23727169.560    97159274.01845
  23141675.640   121610337.26607  23141676.640    94761323.66946
 15 02 27 00 05  0.0000000  0  7G16G18G21G22G27G29G31
  21730431.080   114194192.34508  21730432.080    88982502.81947
  22437929.300   117912216.90908  22437930.760    91879729.34046
  21224352.100   111534987.64508  21224352.580    86910498.01748
  23899494.300   125592756.83206  23899494.820    97864516.66545
  23048542.160   121120915.27007  23048545.540    94379959.05046
  23741070.500   124760554.31007  23741072.640    97216204.79645
  23158962.920   121701182.53007  23158963.880    94832112.16446
 15 02 27 00 05 30.0000000  0  7G16G18G21G22G27G29G31
  21716845.900   114122801.81508  21716846.960    88926873.85048
  22426149.440   117850313.51908  22426150.980    91831492.94446
  21231147.240   111570696.06308  21231147.680    86938322.76048
  23881192.240   125496581.23606  23881192.780    97789574.81045
  23035595.880   121052882.35707  23035599.320    94326946.40046
  23754982.520   124833662.36306  23754984.600    97273172.09246
  23176280.860   121792189.05307  23176281.800    94903026.30946
 15 02 27 00 06  0.0000000  0  7G16G18G21G22G27G29G31
  21703315.780   114051700.56008  21703316.840    88871470.27848
  22414428.480   117788719.13508  22414430.100    91783497.33546
  21238003.240   111606724.36308  21238003.660    86966396.76648
  23862893.460   125400423.42806  23862894.300    97714646.82446
  23022666.140   120984936.53507  23022669.700    94274001.59947
  23768902.760   124906814.41506  23768905.060    97330173.65146
  23193628.400   121883351.23507  23193629.380    94974061.73946
 15 02 27 00 06 30.0000000  0  7G16G18G21G22G27G29G31
  21689841.280   113980891.60608  21689842.300    88816294.48048
  22402767.000   117727437.08708  22402768.700    91735745.11046
  21244919.820   111643071.19908  21244920.240    86994718.97248
  23844598.680   125304286.47906  23844599.720    97639735.07545
  23009753.060   120917078.61907  23009756.760    94221125.31247
  23782831.460   124980010.99406  23782834.100    97387209.91046
  23211005.040   121974666.78307  23211006.200    95045216.67446
 15 02 27 00 07  0.0000000  0  7G16G18G21G22G27G29G31
  21676422.400   113910374.88908  21676423.380    88761346.39548
  22391164.900   117666467.02608  22391166.620    91688235.98946
  21251896.440   111679733.58508  21251896.880    87023287.06148
  23826307.960   125208170.81106  23826309.200    97564839.90346
  22996856.320   120849306.32907  22996860.100    94168315.74347
  23796768.240   125053250.22406  23796771.080    97444279.44046
  23228409.840   122066130.09507  23228411.180    95116486.75946
 15 02 27 00 07 30.0000000  0  7G16G18G21G22G27G29G31
  21663059.240   113840151.04608  21663060.160    88706626.52448
  22379622.340   117605809.92708  22379623.980    91640970.73446
  21258932.340   111716707.62308  21258932.840    87052097.99948
  23808021.800   125112077.43506  23808022.960    97489962.10145
  22983975.660   120781618.23307  22983979.440    94115571.77446
  23810712.940   125126529.84606  23810715.620    97501380.42646
  23245842.020   122157736.91907  23245843.460    95187868.67346
 15 02 27 00 08  0.0000000  0  7G16G18G21G22G27G29G31
  21649752.340   113770222.87008  21649753.240    88652137.04248
  22368139.820   117545468.61508  22368141.320    91593951.53246
  21266027.340   111753992.18608  21266027.880    87081150.90448
  23789740.680   125016009.34806  23789741.780    97415103.99545
  22971111.160   120714014.93407  22971114.960    94062893.88947
  23824665.760   125199850.70807  23824668.060    97558513.54045
  23263301.060   122249484.71407  23263302.620    95259360.44146
 15 02 27 00 08 30.0000000  0  7G16G18G21G22G27G29G31
  21636502.960   113700597.01608  21636503.900    88597883.14048
  22356718.540   117485449.33308  22356719.880    91547183.27146
  21273181.940   111791590.12308  21273182.520    87110448.00448
  23771465.800   124919973.24206  23771466.640    97340270.79045
  22958263.640   120646500.60007  22958267.400    94010285.33047
  23838627.200   125273216.80707  23838629.320    97615681.88245
  23280787.220   122341374.56907  23280788.820    95330962.89546
 15 02 27 00 09  0.0000000  0  7G16G18G21G22G27G29G31
  21623311.340   113631274.62208  21623312.280    88543865.69648
  22345358.740   117425753.42608  22345359.920    91500666.98146
  21280395.640   111829498.49608  21280396.240    87139986.98748
  23753197.380   124823970.78006  23753197.840    97265463.80845
  22945432.880   120579074.37807  22945436.660    93957745.42447
  23852597.000   125346627.02507  23852599.020    97672884.62346
  23298299.620   122433402.33207  23298301.240    95402672.79946
 15 02 27 00 09 30.0000000  0  7G16G18G21G22G27G29G31
  21610178.160   113562259.32908  21610179.140    88490087.55248
  22334061.320   117366385.17508  22334062.360    91454406.02746
  21287668.460   111867717.47008  21287669.080    87169768.00648
  23734936.100   124728006.30406  23734936.440    97190686.42045
  22932619.180   120511738.09307  22932623.040    93905275.60847
  23866575.340   125420082.92507  23866577.260    97730122.93145
  23315838.100   122525566.93107  23315839.640    95474489.35346
 15 02 27 00 10  0.0000000  0  7G16G18G21G22G27G29G31
  21597103.840   113493553.31908  21597104.840    88436550.41148
  22322826.760   117307346.89308  22322827.660    91408402.18546
  21295000.080   111906245.39908  21295000.700    87199789.76948
  23716682.520   124632082.32707  23716682.780    97115940.59045
  22919822.600   120444491.72707  22919826.500    93852875.84947
  23880562.220   125493584.48106  23880564.180    97787396.83646
  23333401.920   122617865.23407  23333403.460    95546410.07346
 15 02 27 00 10 30.0000000  0  7G16G18G21G22G27G29G31
  21584088.640   113425158.07908  21584089.640    88383255.42148
  22311655.100   117248638.95008  22311655.860    91362655.75146
  21302389.900   111945079.24408  21302390.540    87230049.91248
  23698436.800   124536200.27407  23698437.200    97041227.40745
  22907042.940   120377334.18107  22907046.860    93800545.30647
  23894557.340   125567130.59406  23894559.660    97844705.46746
  23350990.360   122710293.01507  23350991.840    95618431.67446
 15 02 27 00 11  0.0000000  0  7G16G18G21G22G27G29G31
  21571133.060   113357076.36408  21571134.120    88330204.74048
  22300546.880   117190264.60808  22300547.620    91317169.26946
  21309837.520   111984216.87208  21309838.200    87260546.76348
  23680199.540   124440363.31207  23680200.080    96966549.36345
  22894280.320   120310265.97607  22894284.180    93748284.38647
  23908560.820   125640721.42206  23908563.600    97902048.93045
  23368602.880   122802847.69207  23368604.300    95690552.16346
 15 02 27 00 11 30.0000000  0  7G16G18G21G22G27G29G31
  21558236.880   113289306.63608  21558237.960    88277397.16848
  22289501.820   117132222.64408  22289502.680    91271941.78146
  21317342.260   112023654.69108  21317343.000    87291277.53148
  23661970.660   124344570.41606  23661971.300    96891905.65946
  22881534.100   120243283.87807  22881537.880    93696090.54347
  23922572.240   125714353.59506  23922575.300    97959424.64546
  23386238.340   122895522.97607  23386239.740    95762766.63146
 15 02 27 00 12  0.0000000  0  7G16G18G21G22G27G29G31
  21545401.060   113221853.99408  21545402.120    88224836.67248
  22278520.820   117074517.82508  22278521.940    91226977.00747
  21324904.320   112063393.56108  21324905.060    87322242.88248
  23643751.280   124248827.37206  23643752.000    96817300.78146
  22868804.800   120176390.85507  22868808.520    93643966.12447
  23936592.180   125788029.88306  23936595.320    98016834.71546
  23403896.760   122988318.59107  23403898.100    95835074.86646
 15 02 27 00 12 30.0000000  0  7G16G18G21G22G27G29G31
  21532625.260   113154716.79608  21532626.280    88172521.97648
  22267603.540   117017148.53208  22267604.980    91182273.67446
  21332522.420   112103426.85008  21332523.140    87353437.65348
  23625541.140   124153132.45907  23625541.820    96742733.41745
  22856091.660   120109582.89607  22856095.380    93591907.98247
  23950619.980   125861746.22506  23950623.060    98074275.98846
  23421576.700   123081227.32107  23421578.060    95907471.24446
 15 02 27 00 13  0.0000000  0  7G16G18G21G22G27G29G31
  21519910.660   113087900.86208  21519911.580    88120457.61448
  22256751.180   116960120.43808  22256752.900    91137836.21947
  21340197.000   112143756.80108  21340197.700    87384863.59248
  23607341.380   124057492.01107  23607342.060    96668208.48146
  22843395.380   120042863.70707  22843399.120    93539918.99947
  23964656.340   125935506.14206  23964659.140    98131751.18246
  23439278.380   123174250.01707  23439279.760    95979956.41746
 15 02 27 00 13 30.0000000  0  7G16G18G21G22G27G29G31
  21507258.120   113021411.21508  21507259.000    88068647.50848
  22245964.860   116903438.59208  22245966.640    91093668.56346
  21347928.320   112184385.08308  21347929.020    87416521.99648
  23589153.060   123961911.65007  23589153.660    96593730.37446
  22830716.600   119976236.24207  22830720.280    93488001.51247
  23978701.460   126009312.66606  23978704.160    98189262.75545
  23457001.660   123267386.54807  23457003.160    96052530.29446
 15 02 27 00 14  0.0000000  0  7G16G18G21G22G27G29G31
  21494667.940   112955249.25508  21494668.820    88017092.74248
  22235244.860   116847104.50208  22235246.460    91049771.88446
  21355715.840   112225308.47708  21355716.480    87448410.35548
  23570976.380   123866392.93007  23570976.920    96519300.30146
  22818055.080   119909699.77607  22818058.740    93436154.92447
  23992755.180   126083164.65406  23992757.700    98246809.71045
  23474745.880   123360632.92707  23474747.420    96125189.76946
 15 02 27 00 14 30.0000000  0  7G16G18G21G22G27G29G31
  21482140.300   112889415.91708  21482141.200    87965794.04048
  22224591.220   116791118.72008  22224592.560    91006146.61246
  21363558.980   112266524.26108  21363559.600    87480526.54748
  23552811.520   123770936.92706  23552812.080    96444919.06746
  22805410.580   119843252.95307  22805414.280    93384378.19347
  24006817.160   126157060.46106  24006819.540    98304390.82745
  23492510.240   123453984.63607  23492511.780    96197931.31746
 15 02 27 00 15  0.0000000  0  7G16G18G21G22G27G29G31
  21469675.760   112823914.32808  21469676.740    87914753.84048
  22214004.480   116735484.12708  22214005.560    90962795.00146
  21371457.520   112308031.32508  21371458.160    87512869.71148
  23534659.180   123675547.05806  23534659.820    96370589.37946
  22792783.300   119776896.72407  22792787.100    93332672.05947
  24020887.620   126231001.16906  24020890.080    98362006.97246
  23510294.240   123547439.59307  23510295.760    96270753.31746
 15 02 27 00 15 30.0000000  0  7G16G18G21G22G27G29G31
  21457274.420   112758744.80209  21457275.400    87863972.39348
  22203484.620   116680201.22508  22203485.540    90919717.43246
  21379410.880   112349826.61908  21379411.540    87545437.47748
  23516519.660   123580224.68506  23516520.280    96296312.27446
  22780173.080   119710629.67807  22780176.900    93281035.41647
  24034966.200   126304984.96606  24034968.880    98419656.61245
  23528096.940   123640993.14207  23528098.480    96343652.13746
 15 02 27 00 16  0.0000000  0  7G16G18G21G22G27G29G31
  21444936.640   112693909.18909  21444937.580    87813451.14248
  22193031.940   116625271.95308  22193032.820    90876915.41847
  21387418.580   112391907.49208  21387419.260    87578227.76848
  23498393.340   123484971.77806  23498393.980    96222089.28745
  22767579.860   119644451.51108  22767583.640    93229468.03447
  24049052.980   126379011.39006  24049055.700    98477339.54645
  23545917.780   123734641.91607  23545919.320    96416625.15646
 15 02 27 00 16 30.0000000  0  7G16G18G21G22G27G29G31
  21432662.740   112629409.43509  21432663.660    87763191.60248
  22182646.740   116570697.82308  22182647.720    90834390.13846
  21395480.260   112434272.23008  21395481.000    87611239.25448
  23480280.860   123389790.76206  23480281.320    96147922.33246
  22755003.520   119578361.99408  22755007.220    93177969.72347
  24063147.880   126453080.40006  24063150.500    98535055.68645
  23563755.980   123828382.56307  23563757.640    96489669.76746
 15 02 27 00 17  0.0000000  0  7G16G18G21G22G27G29G31
  21420453.900   112565251.68209  21420454.780    87713198.54848
  22172330.160   116516484.51008  22172331.300    90792146.00646
  21403596.320   112476922.81508  21403597.100    87644473.47848
  23462183.380   123294687.64006  23462183.600    96073816.06046
  22742444.740   119512364.98908  22742448.420    93126543.49547
  24077251.400   126527195.55006  24077254.180    98592807.70045
  23581611.780   123922215.85307  23581613.440    96562786.56146
 15 02 27 00 17 30.0000000  0  7G16G18G21G22G27G29G31
  21408310.260   112501436.59609  21408311.160    87663472.50548
  22162082.620   116462633.44208  22162083.820    90750184.15246
  21411766.200   112519856.15008  21411767.040    87677928.02748
  23444101.200   123199664.25407  23444101.060    95999771.93346
  22729903.380   119446459.38708  22729907.020    93075188.50047
  24091363.340   126601354.96206  24091366.160    98650594.23145
  23599484.360   124016137.29207  23599486.000    96635972.04346
 15 02 27 00 18  0.0000000  0  7G16G18G21G22G27G29G31
  21396231.900   112437964.38109  21396232.780    87614013.63648
  22151903.980   116409144.20208  22151905.180    90708504.23847
  21419989.080   112563068.06708  21419989.960    87711599.64548
  23426034.240   123104720.68007  23426033.780    95925789.98446
  22717378.980   119380643.06308  22717382.600    93023903.05847
  24105483.580   126675556.89906  24105486.100    98708413.94445
  23617372.860   124110142.00907  23617374.440    96709222.42346
 15 02 27 00 18 30.0000000  0  7G16G18G21G22G27G29G31
  21384219.380   112374837.96009  21384220.240    87564824.21948
  22141794.800   116356019.67708  22141795.940    90667108.51747
  21428264.960   112606557.93708  21428265.800    87745487.86148
  23407983.140   123009860.52107  23407982.500    95851873.03345
  22704871.720   119314916.90007  22704875.360    92972687.87747
  24119612.160   126749802.13406  24119614.440    98766267.33545
  23635276.880   124204227.61507  23635278.360    96782535.82146
 15 02 27 00 19  0.0000000  0  7G16G18G21G22G27G29G31
  21372273.120   112312059.86409  21372273.960    87515906.22248
  22131755.400   116303262.00308  22131756.460    90625998.65247
  21436593.400   112650323.92408  21436594.160    87779591.22848
  23389948.300   122915086.65306  23389947.680    95778023.32946
  22692381.740   119249281.43107  22692385.360    92921543.36347
  24133749.020   126824090.98806  24133750.840    98824154.70546
  23653195.860   124298391.48407  23653197.240    96855910.20946
 15 02 27 00 19 30.0000000  0  7G16G18G21G22G27G29G31
  21360394.120   112249635.43709  21360394.960    87467263.81348
  22121786.680   116250876.24108  22121787.780    90585178.59447
  21444974.680   112694367.72508  21444975.400    87813911.06648
  23371930.800   122820404.62706  23371930.280    95704245.17646
  22679909.540   119183739.78207  22679913.200    92870471.95547
  24147894.640   126898426.16906  24147896.320    98882078.16345
  23671129.740   124392633.50607  23671131.000    96929345.48145
 15 02 27 00 20  0.0000000  0  7G16G18G21G22G27G29G31
  21348582.440   112187564.76809  21348583.300    87418897.06148
  22111888.820   116198862.84908  22111890.000    90544648.68847
  21453408.160   112738685.79808  21453408.840    87848444.62848
  23353930.800   122725815.14406  23353930.460    95630539.13546
  22667454.880   119118290.31807  22667458.500    92819472.37847
  24162048.840   126972805.68907  24162050.420    98940036.20145
  23689077.540   124486948.87807  23689078.760    97002837.91346
 15 02 27 00 20 30.0000000  0  7G16G18G21G22G27G29G31
  21336838.660   112125850.91109  21336839.540    87370808.34548
  22102062.260   116147224.30308  22102063.540    90504410.87447
  21461893.600   112783276.93708  21461894.260    87883190.97148
  23335949.080   122631321.64807  23335948.940    95556907.89646
  22655017.880   119052933.79907  22655021.520    92768545.23747
  24176211.520   127047230.70106  24176213.320    98998029.68745
  23707038.760   124581335.32406  23707040.040    97076385.72546
 15 02 27 00 21  0.0000000  0  7G16G18G21G22G27G29G31
  21325162.960   112064494.85109  21325163.900    87322998.42848
  22092307.180   116095961.23008  22092308.520    90464465.63147
  21470430.440   112828138.33908  21470431.100    87918147.90648
  23317986.040   122536925.80607  23317986.060    95483352.74246
  22642598.400   118987669.24307  22642602.020    92717689.74147
  24190382.380   127121699.67005  24190384.440    99056057.48745
  23725012.660   124675788.61507  23725014.020    97149985.61646
 15 02 27 00 21 30.0000000  0  7G16G18G21G22G27G29G31
  21313555.980   112003499.66009  21313556.900    87275469.70848
  22082624.160   116045076.56908  22082625.480    90424815.25847
  21479018.460   112873268.67508  21479019.140    87953314.40448
  23300042.300   122442630.98907  23300042.400    95409876.29046
  22630196.640   118922497.71507  22630200.260    92666906.73847
  24204561.760   127196213.35005  24204564.180    99114120.11046
  23742998.860   124770306.63106  23743000.280    97223635.95746
 15 02 27 00 22  0.0000000  0  7G16G18G21G22G27G29G31
  21302018.040   111942867.36009  21302018.980    87228223.75848
  22073013.540   115994572.13108  22073014.760    90385461.16147
  21487657.340   112918666.12008  21487658.000    87988689.03448
  23282118.300   122348439.68907  23282118.340    95336480.50446
  22617812.560   118857419.17208  22617816.160    92616196.19847
  24218749.680   127270771.78605  24218752.500    99172217.55346
  23760996.840   124864886.51807  23760998.340    97297334.48645
 15 02 27 00 22 30.0000000  0  7G16G18G21G22G27G29G31
  21290549.340   111882599.08209  21290550.280    87181261.46348
  22063475.480   115944449.14608  22063476.580    90346404.29947
  21496346.560   112964328.28508  21496347.240    88024269.94448
  23264214.280   122254353.29707  23264214.320    95263166.47646
  22605446.080   118792432.80408  22605449.640    92565557.48447
  24232945.840   127345373.82005  24232948.780    99230349.00245
  23779005.800   124959523.99906  23779007.380    97371077.90546
 15 02 27 00 23  0.0000000  0  7G16G18G21G22G27G29G31
  21279150.200   111822696.55409  21279151.220    87134584.17548
  22054010.260   115894708.82408  22054011.260    90307645.62747
  21505085.640   113010252.63608  21505086.360    88060055.14948
  23246330.520   122160374.14307  23246330.820    95189936.01346
  22593097.100   118727538.26408  22593100.600    92514990.32447
  24247150.420   127420018.79206  24247153.300    99288513.87346
  23797024.980   125054215.50006  23797026.580    97444863.41046
 15 02 27 00 23 30.0000000  0  7G16G18G21G22G27G29G31
  21267821.660   111763164.88709  21267822.720    87088195.86348
  22044618.680   115845355.85608  22044619.680    90269188.78647
  21513874.880   113056440.48008  21513875.600    88096045.67448
  23228468.180   122066507.85607  23228468.700    95116793.48846
  22580766.200   118662738.73708  22580769.700    92464497.19447
  24261363.860   127494710.09606  24261366.240    99346714.88545
  23815054.440   125148961.46706  23815056.220    97518691.37546
 15 02 27 00 24  0.0000000  0  7G16G18G21G22G27G29G31
  21256563.400   111704002.58709  21256564.500    87042095.37348
  22035300.580   115796389.01008  22035301.560    90231032.81047
  21522713.240   113102886.40408  21522713.980    88132237.30248
  23210627.100   121972753.48806  23210627.880    95043738.17146
  22568452.720   118598030.80508  22568456.200    92414075.43947
  24275585.360   127569443.78706  24275587.320    99404948.89745
  23833092.920   125243754.97906  23833094.900    97592556.35346
 15 02 27 00 24 30.0000000  0  7G16G18G21G22G27G29G31
  21245376.720   111645216.13409  21245377.820    86996287.75248
  22026056.980   115747813.86108  22026058.020    90193182.05547
  21531601.160   113149592.91308  21531601.960    88168631.97748
  23192808.700   121879117.51307  23192809.540    94970775.11347
  22556157.480   118533418.78308  22556160.960    92363728.41947
  24289815.660   127644223.61106  24289817.560    99463218.90445
  23851140.700   125338597.11006  23851142.800    97666459.23646
 15 02 27 00 25  0.0000000  0  7G16G18G21G22G27G29G31
  21234261.840   111586806.91709  21234262.940    86950774.07648
  22016888.220   115699631.66008  22016889.300    90155637.48947
  21540538.220   113196557.69008  21540539.060    88205227.90248
  23175013.460   121785602.30207  23175014.140    94897906.15846
  22543880.420   118468902.31508  22543883.920    92313455.86647
  24304054.580   127719049.51207  24304056.600    99521524.68644
  23869197.260   125433484.52206  23869199.340    97740397.39146
 15 02 27 00 25 30.0000000  0  7G16G18G21G22G27G29G31
  21223219.060   111528776.55009  21223220.140    86905555.61748
  22007794.620   115651844.23008  22007795.760    90118400.53947
  21549524.000   113243778.46908  21549524.860    88242023.31648
  23157241.700   121692209.95907  23157242.120    94825132.93946
  22531621.440   118404480.93808  22531624.900    92263257.40747
  24318301.820   127793920.73007  24318303.700    99579865.93645
  23887261.860   125528413.64706  23887263.840    97814368.04246
 15 02 27 00 26  0.0000000  0  7G16G18G21G22G27G29G31
  21212248.340   111471124.86709  21212249.400    86860632.22848
  21998776.100   115604451.16508  21998777.240    90081470.88547
  21558557.620   113291250.43108  21558558.460    88279014.45148
  23139493.360   121598940.68107  23139493.520    94752455.61246
  22519380.140   118340152.66708  22519383.640    92213131.48747
  24332557.280   127868834.83706  24332559.200    99638240.50745
  23905333.500   125623379.32707  23905335.220    97888367.16046
 15 02 27 00 26 30.0000000  0  7G16G18G21G22G27G29G31
  21201350.980   111413858.78609  21201352.040    86816009.31348
  21989833.740   115557458.47308  21989834.880    90044853.21547
  21567639.640   113338976.74808  21567640.460    88316203.78648
  23121769.780   121505801.70907  23121769.700    94679879.83746
  22507157.420   118275922.23108  22507160.960    92163081.81348
  24346821.860   127943796.36706  24346823.920    99696652.13044
  23923412.320   125718382.84606  23923413.820    97962395.77045
 15 02 27 00 27  0.0000000  0  7G16G18G21G22G27G29G31
  21190526.480   111356975.55209  21190527.520    86771684.71948
  21980966.940   115510863.22408  21980968.040    90008545.23347
  21576768.940   113386951.50108  21576769.760    88353586.70748
  23104070.540   121412791.18307  23104070.340    94607404.14246
  22494952.500   118211785.33008  22494956.080    92113105.02447
  24361094.540   128018801.06005  24361096.880    99755097.37244
  23941496.940   125813417.00706  23941498.260    98036448.26045
 15 02 27 00 27 30.0000000  0  7G16G18G21G22G27G29G31
  21179776.120   111300481.90009  21179777.120    86727663.69448
  21972177.020   115464672.04808  21972178.140    89972552.12047
  21585946.100   113435177.59208  21585946.900    88391165.47348
  23086396.940   121319916.10707  23086396.740    94535033.98746
  22482766.240   118147746.55108  22482769.880    92063204.69947
  24375376.400   128093852.62306  24375378.880    99813579.16745
  23959587.580   125908483.22606  23959588.820    98110525.72946
 15 02 27 00 28  0.0000000  0  7G16G18G21G22G27G29G31
  21169099.620   111244376.60309  21169100.600    86683945.28748
  21963463.540   115418882.88808  21963464.720    89936872.26547
  21595169.960   113483648.90108  21595170.720    88428935.31648
  23068748.920   121227175.75607  23068748.760    94462768.81146
  22470598.080   118083802.59908  22470601.760    92013378.25548
  24389666.360   128168948.08607  24389669.160    99872094.95544
  23977682.980   126003575.23106  23977684.320    98184623.28345
 15 02 27 00 28 30.0000000  0  7G16G18G21G22G27G29G31
  21158496.920   111188659.14109  21158497.880    86640529.08748
  21954826.440   115373495.13908  21954827.720    89901505.21247
  21604439.700   113532361.37008  21604440.420    88466893.08248
  23051126.440   121134569.97807  23051126.340    94390608.49046
  22458447.580   118019951.09108  22458451.240    91963623.84547
  24403964.600   128244085.13005  24403967.180    99930643.40744
  23995782.080   126098687.16906  23995783.740    98258736.35145
 15 02 27 00 29  0.0000000  0  7G16G18G21G22G27G29G31
  21147970.260   111133341.41109  21147971.240    86597424.36848
  21946267.980   115328520.48208  21946269.240    89866460.04047
  21613756.940   113581323.68608  21613757.620    88505045.53048
  23033532.020   121042111.35007  23033531.900    94318562.83046
  22446316.620   117956202.18408  22446320.240    91913949.39747
  24418272.420   128319273.24206  24418275.000    99989231.50344
  24013886.280   126193826.04206  24013888.260    98332870.43545
 15 02 27 00 29 30.0000000  0  7G16G18G21G22G27G29G31
  21137517.980   111078414.30909  21137519.000    86554624.03148
  21937786.380   115283949.47308  21937787.540    89831729.40047
  21623119.180   113630522.43408  21623119.820    88543382.21148
  23015964.060   120949791.41507  23015963.800    94246625.24446
  22434203.120   117892545.02108  22434206.660    91864346.43147
  24432588.060   128394501.09005  24432590.320   100047850.64245
  24031993.000   126288977.86006  24031995.240    98407014.59045
 15 02 27 00 30  0.0000000  0  7G16G18G21G22G27G29G31
  21127142.100   111023888.47409  21127143.120    86512136.36948
  21929383.520   115239792.06708  21929384.600    89797321.03947
  21632527.640   113679964.09908  21632528.240    88581908.18148
  22998424.620   120857621.17707  22998424.200    94174804.31546
  22422108.680   117828988.12008  22422112.140    91814821.59847
  24446912.860   128469777.35806  24446915.140   100106507.40745
  24050103.300   126384147.84306  24050105.660    98481172.89946
 15 02 27 00 30 30.0000000  0  7G16G18G21G22G27G29G31
  21116842.420   110969763.09309  21116843.420    86469960.75048
  21921059.180   115196047.25808  21921060.240    89763234.18747
  21641981.540   113729644.55308  21641982.120    88620620.21948
  22980913.660   120765600.49307  22980913.160    94103099.92346
  22410032.840   117765529.06308  22410036.220    91765372.99747
  24461246.000   128545099.12604  24461248.580   100165199.64745
  24068216.040   126479330.66306  24068218.560    98555341.19846
 15 02 27 00 31  0.0000000  0  7G16G18G21G22G27G29G31
  21106620.180   110916044.86409  21106621.160    86428102.39048
  21912814.600   115152721.80208  21912815.680    89729474.10447
  21651481.340   113779566.11308  21651481.880    88659520.13848
  22963432.620   120673736.78407  22963432.080    94031517.83746
  22397976.500   117702172.61408  22397979.800    91716004.35947
  24475588.620   128620470.69706  24475591.360   100223930.75545
  24086331.520   126574527.86406  24086334.140    98629520.71446
 15 02 27 00 31 30.0000000  0  7G16G18G21G22G27G29G31
  21096473.920   110862726.20509  21096474.920    86386555.38948
  21904648.180   115109807.07808  21904649.280    89696034.06647
  21661024.840   113829717.45708  21661025.360    88698599.10348
  22945979.980   120582022.62107  22945979.520    93960052.27546
  22385937.800   117638909.15208  22385941.080    91666708.17247
  24489938.860   128695882.39006  24489941.740   100282693.06244
  24104447.320   126669726.35006  24104449.920    98703701.21945
 15 02 27 00 32  0.0000000  0  7G16G18G21G22G27G29G31
  21086405.260   110809815.28109  21086406.300    86345326.10048
  21896561.400   115067311.11708  21896562.600    89662920.34047
  21670612.960   113880103.44708  21670613.500    88737860.90748
  22928557.420   120490466.51107  22928557.160    93888709.87646
  22373918.000   117575745.29108  22373921.360    91617489.58948
  24504298.120   128771340.43705  24504300.960   100341491.58646
  24122564.220   126764930.16206  24122566.760    98777885.85846
 15 02 27 00 32 30.0000000  0  7G16G18G21G22G27G29G31
  21076414.580   110757314.06109  21076415.640    86304416.05648
  21888554.560   115025235.30408  21888555.920    89630134.00647
  21680245.280   113930721.89808  21680245.900    88777303.85648
  22911165.500   120399071.56407  22911165.520    93817493.05147
  22361917.220   117512681.10608  22361920.640    91568348.68247
  24518666.080   128846844.86605  24518669.060   100400326.12345
  24140681.500   126860135.78406  24140683.960    98852071.91645
 15 02 27 00 33  0.0000000  0  7G16G18G21G22G27G29G31
  21066501.880   110705222.64709  21066502.980    86263825.34848
  21880627.700   114983579.67008  21880629.180    89597675.08447
  21689921.100   113981568.86708  21689921.800    88816924.86948
  22893804.260   120307838.07107  22893804.560    93746402.04447
  22349935.100   117449714.96908  22349938.620    91519284.16347
  24533042.620   128922393.57606  24533045.520   100459195.24045
  24158798.320   126955338.60206  24158800.560    98926255.77746
 15 02 27 00 33 30.0000000  0  7G16G18G21G22G27G29G31
  21056668.160   110653546.13109  21056669.260    86223557.93348
  21872781.680   114942348.74108  21872783.200    89565547.10147
  21699640.580   114032645.18108  21699641.320    88856724.59748
  22876474.960   120216772.02707  22876475.360    93675441.52146
  22337972.280   117386850.12808  22337975.860    91470298.58747
  24547428.180   128997989.40006  24547430.960   100518101.08145
  24176914.500   127050538.47806  24176916.580    99000437.33446
 15 02 27 00 34  0.0000000  0  6G16G18G21G22G27G31
  21046913.700   110602285.98509  21046914.800    86183614.96448
  21865016.740   114901543.49008  21865018.180    89533750.81047
  21709403.500   114083949.69308  21709404.280    88896702.13948
  22859178.020   120125875.54207  22859178.280    93604613.11847
  22326028.700   117324086.35708  22326032.320    91421391.76148
  24195029.380   127145732.21306  24195031.460    99074614.11345
 15 02 27 00 34 30.0000000  0  7G16G18G19G21G22G27G31
  21037240.980   110551455.35409  21037242.060    86144006.68648
  21857335.240   114861176.66208  21857336.620    89502296.15547
  24539211.420   128954430.41305  24539212.180   100483970.51644
  21719211.540   114135491.55908  21719212.380    88936864.63648
  22841915.980   120035162.33407  22841915.980    93533927.53047
  22314106.580   117261435.15908  22314110.180    91372572.65848
  24213144.620   127240927.98706  24213146.640    99148792.47746
 15 02 27 00 35  0.0000000  0  7G16G18G19G21G22G27G31
  21027641.080   110501007.37109  21027642.100    86104696.56348
  21849728.120   114821200.89308  21849729.480    89471146.20947
  24523877.520   128873848.95106  24523878.140   100421179.81544
  21729054.960   114187219.42008  21729055.880    88977172.05548
  22824679.920   119944586.02007  22824679.640    93463348.60646
  22302196.600   117198847.79208  22302200.180    91323803.29548
  24231250.300   127336073.79706  24231252.380    99222931.88845
 15 02 27 00 35 30.0000000  0  7G16G18G19G21G22G27G31
  21018126.860   110451009.84909  21018127.860    86065737.45948
  21842208.180   114781683.52008  21842209.540    89440353.46747
  24508558.140   128793344.16205  24508558.680   100358448.83945
  21738946.040   114239197.70608  21738947.000    89017674.60848
  22807482.860   119854215.05107  22807482.300    93392929.69447
  22290311.340   117136390.25508  22290314.920    91275135.09748
  24249358.420   127431232.67506  24249360.600    99297081.49445
 15 02 27 00 36  0.0000000  0  7G16G18G19G21G22G27G31
  21008692.400   110401431.59509  21008693.360    86027105.05448
  21834769.420   114742592.79608  21834770.760    89409893.16947
  24493247.000   128712883.10005  24493247.300   100295751.91044
  21748878.260   114291392.03208  21748879.260    89058345.51148
  22790318.860   119764018.62407  22790318.220    93322646.78646
  22278444.540   117074029.71908  22278448.140    91226542.47848
  24267462.160   127526368.67906  24267464.460    99371213.26245
 15 02 27 00 36 30.0000000  0  7G16G18G19G21G22G27G31
  20999339.460   110352281.55409  20999340.420    85988806.32448
  21827413.540   114703937.33308  21827414.880    89379772.03347
  24477945.360   128632472.77205  24477945.680   100233094.51446
  21758852.460   114343806.76208  21758853.440    89099188.15248
  22773189.840   119674006.45107  22773189.280    93252507.44146
  22266597.600   117011773.51608  22266601.200    91178031.16348
  24285562.380   127621485.89506  24285564.820    99445330.37746
 15 02 27 00 37  0.0000000  0  7G16G18G19G21G22G27G31
  20990068.200   110303560.59009  20990069.160    85950841.93948
  21820140.580   114665717.53608  21820141.920    89349990.38747
  24462653.180   128552112.23705  24462653.500   100170475.91545
  21768868.140   114396439.39708  21768869.140    89140200.59148
  22756096.340   119584180.18207  22756095.900    93182512.97947
  22254770.320   116949620.78708  22254773.940    91129600.48048
  24303658.280   127716580.15506  24303660.780    99519429.60245
 15 02 27 00 37 30.0000000  0  7G16G18G19G21G22G27G31
  20980878.800   110255269.74909  20980879.780    85913212.70648
  21812950.540   114627933.35008  21812951.860    89320548.16947
  24447370.220   128471800.17605  24447370.460   100107895.12745
  21778924.780   114449287.22408  21778925.800    89181380.70948
  22739038.540   119494541.05407  22739038.200    93112664.32847
  22242962.540   116887570.76308  22242966.200    91081249.82648
  24321749.080   127811647.44606  24321751.660    99593507.80645
 15 02 27 00 38  0.0000000  0  7G16G18G19G21G22G27G31
  20971771.620   110207411.05909  20971772.600    85875920.22448
  21805843.820   114590587.01708  21805845.100    89291447.14247
  24432096.680   128391537.16806  24432096.920   100045352.54445
  21789021.920   114502347.76408  21789022.880    89222726.58648
  22722017.020   119405092.00008  22722016.760    93042963.78547
  22231174.440   116825623.96608  22231178.100    91032979.61548
  24339834.440   127906685.38806  24339837.080    99667563.14245
 15 02 27 00 38 30.0000000  0  7G16G18G19G21G22G27G31
  20962747.100   110159986.81009  20962748.080    85838966.27048
  21798820.640   114553680.00608  21798821.960    89262688.44147
  24416832.520   128311323.37905  24416832.800    99982848.32245
  21799159.340   114555620.12608  21799160.300    89264237.51648
  22705032.300   119315835.97408  22705032.080    92973413.65747
  22219406.140   116763781.01908  22219409.780    90984790.31448
  24357913.700   128001690.96406  24357916.320    99741593.25945
 15 02 27 00 39  0.0000000  0  7G16G18G19G21G22G27G31
  20953805.760   110112999.46209  20953806.620    85802352.75248
  21791881.460   114517214.67708  21791882.860    89234273.91547
  24401577.840   128231159.16106  24401578.020    99920382.74044
  21809336.980   114609103.96408  21809337.940    89305913.23448
  22688084.940   119226776.35508  22688084.760    92904016.56847
  22207657.780   116702042.87608  22207661.400    90936682.68248
  24375986.420   128096662.43006  24375989.060    99815596.78145
 15 02 27 00 39 30.0000000  0  7G16G18G19G21G22G27G31
  20944947.880   110066451.01209  20944948.720    85766081.23148
  21785026.500   114481192.09708  21785028.020    89206204.37847
  24386332.720   128151045.16606  24386332.800    99857956.27145
  21819554.380   114662796.48508  21819555.300    89347751.56048
  22671175.360   119137915.78108  22671175.300    92834774.58047
  22195929.440   116640409.96008  22195933.060    90888657.04848
  24394052.220   128191597.20206  24394054.900    99889571.71945
 15 02 27 00 40  0.0000000  0  7G16G18G19G21G22G27G31
  20936173.920   110020343.46809  20936174.760    85730153.27448
  21778255.980   114445613.42608  21778257.620    89178480.74047
  24371097.080   128070981.03005  24371097.040    99795568.65945
  21829811.320   114716696.82208  21829812.160    89389751.81448
  22654304.080   119049256.64608  22654304.140    92765689.55447
  22184221.180   116578882.51808  22184224.780    90840713.59448
  24412110.420   128286492.01306  24412113.180    99963515.49245
 15 02 27 00 40 30.0000000  0  7G16G18G19G21G22G27G31
  20927483.900   109974677.12809  20927484.780    85694569.11348
  21771570.080   114410479.10008  21771571.720    89151103.35147
  24355870.620   127990965.20606  24355870.520    99733218.66644
  21840107.100   114770801.21408  21840107.860    89431911.08548
  22637471.260   118960800.00808  22637471.440    92696762.33347
  22172532.700   116517459.17008  22172536.320    90792851.25748
  24430160.160   128381342.35006  24430162.900   100037424.62745
 15 02 27 00 41  0.0000000  0  7G16G18G19G21G22G27G31
  20918878.780   109929457.20109  20918879.720    85659332.80948
  21764969.620   114375793.32008  21764971.140    89124075.48147
  24340653.940   127911001.17006  24340653.840    99670909.04045
  21850441.920   114825110.91808  21850442.640    89474230.32248
  22620678.040   118872551.38008  22620678.240    92627997.18247
  22160864.740   116456143.58908  22160868.340    90745072.89548
  24448201.500   128476148.50006  24448204.120   100111299.29345
 15 02 27 00 41 30.0000000  0  7G16G18G19G21G22G27G31
  20910358.520   109884683.35809  20910359.520    85624444.10248
  21758454.420   114341555.06908  21758455.780    89097396.33947
  24325446.700   127831086.83706  24325446.660    99608638.17045
  21860815.160   114879622.46208  21860815.840    89516706.85248
  22603924.560   118784511.66108  22603924.700    92559394.82847
  22149216.980   116394933.98208  22149220.540    90697377.10848
  24466233.540   128570905.78606  24466236.140   100185135.91646
 15 02 27 00 42  0.0000000  0  7G16G18G19G21G22G27G31
  20901923.600   109840357.78309  20901924.620    85589904.69349
  21752024.840   114307766.60708  21752026.020    89071067.68647
  24310248.940   127751222.52606  24310249.020    99546406.25845
  21871226.480   114934334.42008  21871227.180    89559339.54948
  22587211.380   118696683.71208  22587211.400    92490957.48646
  22137589.520   116333831.24908  22137593.080    90649764.60548
  24484255.740   128665611.82506  24484258.340   100258932.58645
 15 02 27 00 42 30.0000000  0  7G16G18G19G21G22G27G31
  20893574.800   109796484.49309  20893575.820    85555717.71348
  21745681.380   114274431.06108  21745682.440    89045091.95047
  24295061.140   127671410.52906  24295061.400    99484215.12946
  21881675.980   114989246.90308  21881676.660    89602128.50548
  22570539.360   118609072.09208  22570539.260    92422688.70747
  22125982.800   116272837.56808  22125986.340    90602237.07048
  24502267.820   128760265.66606  24502270.640   100332688.56146
 15 02 27 00 43  0.0000000  0  7G16G18G19G21G22G27G31
  20885312.580   109753065.93709  20885313.540    85521885.07048
  21739424.380   114241550.34908  21739425.400    89019470.62047
  24279883.400   127591651.33006  24279883.720    99422065.10946
  21892163.480   115044358.96708  21892164.140    89645072.96648
  22553909.160   118521679.95008  22553908.920    92354590.96447
  22114397.000   116211954.07808  22114400.560    90554795.39748
  24520269.460   128854865.36406  24520272.660   100406402.37245
 15 02 27 00 43 30.0000000  0  7G16G18G19G21G22G27G31
  20877136.500   109710100.40709  20877137.460    85488405.43549
  21733253.460   114209122.38608  21733254.540    88994202.08247
  24264715.080   127511941.71406  24264715.480    99359953.74945
  21902687.840   115099664.93608  21902688.480    89688168.52048
  22537320.640   118434506.65808  22537320.300    92286663.74147
  22102831.600   116151177.71608  22102835.160    90507437.20248
  24538259.480   128949404.56806  24538263.040   100480069.02145
 15 02 27 00 44  0.0000000  0  7G16G18G19G21G22G27G31
  20869047.660   109667593.36309  20869048.620    85455283.05949
  21727169.500   114177151.35508  21727170.700    88969289.59247
  24249556.800   127432284.97506  24249557.280    99297883.56945
  21913249.540   115155167.12008  21913250.180    89731416.97448
  22520774.880   118347557.70608  22520774.460    92218911.32947
  22091287.280   116090512.21308  22091290.840    90460165.39348
  24556238.100   129043883.82905  24556241.920   100553688.97246
 15 02 27 00 44 30.0000000  0  7G16G18G19G21G22G27G31
  20861045.860   109625543.69109  20861046.840    85422517.08349
  21721172.260   114145635.95908  21721173.580    88944732.14547
  24234408.120   127352678.40306  24234408.680    99235852.48845
  21923847.660   115210860.92708  21923848.300    89774814.74948
  22504271.900   118260833.16908  22504271.420    92151333.78747
  22079763.620   116029955.05008  22079767.160    90412978.00348
  24574204.360   129138297.43906  24574208.400   100627257.74245
 15 02 27 00 45  0.0000000  0  7G16G18G19G21G22G27G31
  20853131.180   109583951.89609  20853132.220    85390107.89149
  21715261.800   114114576.29008  21715263.180    88920529.81547
  24219268.840   127273120.76806  24219269.320    99173859.55745
  21934481.720   115266743.36008  21934482.340    89818359.50848
  22487811.840   118174334.60508  22487811.440    92083932.33147
  22068260.440   115969505.38108  22068263.960    90365874.37748
  24592157.560   129232641.41606  24592161.600   100700772.27645
 15 02 27 00 45 30.0000000  0  7G16G18G19G21G22G27G31
  20845304.620   109542823.10109  20845305.720    85358059.48049
  21709438.860   114083976.30208  21709440.200    88896685.67747
  24204139.580   127193615.48406  24204139.880    99111907.41246
  21945151.960   115322815.68208  21945152.560    89862052.22248
  22471395.680   118088067.47808  22471395.480    92016711.21547
  22056778.420   115909166.82708  22056781.880    90318857.33348
  24610097.740   129326916.14306  24610101.580   100774232.81145
 15 02 27 00 46  0.0000000  0  7G16G18G19G21G22G27G31
  20837566.780   109502160.19809  20837567.820    85326374.09949
  21703703.820   114053838.52408  21703705.220    88873201.70748
  24189020.500   127114163.75706  24189020.600    99049997.01846
  21955858.160   115379077.23208  21955858.780    89905892.38748
  22455024.180   118002035.50308  22455024.200    91949673.32547
  22045317.840   115848941.00208  22045321.240    90271928.12848
  24628024.600   129421120.22606  24628028.160   100847638.30244
 15 02 27 00 46 30.0000000  0  7G16G18G19G21G22G27G31
  20829917.900   109461964.88109  20829918.880    85295053.07349
  21698056.900   114024164.21108  21698058.420    88850078.88048
  24173911.520   127034765.48906  24173911.580    98988128.27145
  21966600.000   115435526.26308  21966600.660    89949878.63748
  22438697.900   117916241.04208  22438698.080    91882820.50547
  22033878.740   115788828.11008  22033882.100    90225086.92648
  24645937.500   129515250.61006  24645940.720   100920986.36845
 15 02 27 00 47  0.0000000  0  7G16G18G19G21G22G27G31
  20822357.800   109422236.23009  20822358.720    85264095.68449
  21692497.980   113994952.29908  21692499.600    88827316.36748
  24158812.200   126955418.09806  24158812.220    98926299.18645
  21977376.760   115492158.67908  21977377.480    89994007.78948
  22422416.840   117830684.09908  22422417.060    91816152.75947
  22022460.760   115728826.10208  22022464.080    90178332.12748
  24663835.400   129609301.99306  24663838.220   100994272.86345
 15 02 27 00 47 30.0000000  0  7G16G18G19G21G22G27G31
  20814887.260   109382978.35109  20814888.180    85233505.12949
  21687027.580   113966205.34208  21687029.220    88804916.15447
  24143723.000   126876123.98206  24143723.080    98864511.61045
  21988188.480   115548974.73808  21988189.220    90038280.03848
  22406181.960   117745369.44708  22406182.120    91749673.82347
  22011064.300   115668937.40008  22011067.660    90131665.61848
  24681718.040   129703273.69606  24681720.700   101067497.24345
 15 02 27 00 48  0.0000000  0  7G16G18G19G21G22G27G31
  20807506.760   109344193.41409  20807507.640    85203283.09749
  21681645.900   113937924.66708  21681647.540    88782879.27247
  24128644.100   126796883.82306  24128644.120    98802766.06845
  21999034.960   115605973.58508  21999035.740    90082694.71648
  22389993.920   117660300.22808  22389993.840    91683386.13947
  21999689.600   115609162.97708  21999693.020    90085088.15448
  24699584.960   129797163.40206  24699587.620   101140657.75845
 15 02 27 00 48 30.0000000  0  6G16G18G19G21G22G27
  20800215.660   109305878.30209  20800216.500    85173427.17349
  21676352.420   113910107.20608  21676354.060    88761203.33448
  24113574.480   126717692.64806  24113574.540    98741058.68445
  22009914.980   115663148.46908  22009915.760    90127246.57148
  22373852.200   117575473.96608  22373851.820    91617287.77947
  21988335.860   115549498.57608  21988339.300    90038596.41948
 15 02 27 00 49  0.0000000  0  6G16G18G19G21G22G27
  20793015.960   109268043.56309  20793016.760    85143945.55049
  21671148.980   113882762.87308  21671150.620    88739896.07847
  24098515.800   126638559.38106  24098515.940    98679396.41746
  22020829.880   115720506.41608  22020830.600    90171941.07448
  22357758.820   117490901.85808  22357758.160    91551387.45847
  21977004.760   115489953.37008  21977008.240    89992197.57248
 15 02 27 00 49 30.0000000  0  6G16G18G19G21G22G27
  20785906.760   109230684.54809  20785907.560    85114834.62849
  21666034.640   113855886.55608  21666036.220    88718953.50048
  24083467.080   126559478.46206  24083467.320    98617774.95045
  22031778.200   115778039.83708  22031778.860    90216772.31948
  22341713.100   117406580.55808  22341712.220    91485682.57747
  21965695.240   115430521.57208  21965698.740    89945887.08648
 15 02 27 00 50  0.0000000  0  6G16G18G19G21G22G27
  20778888.680   109193804.29409  20778889.520    85086096.76949
  21661009.700   113829480.17608  21661011.220    88698377.11247
  24068428.500   126480450.34806  24068428.840    98556194.64345
  22042759.680   115835747.95108  22042760.320    90261739.67748
  22325715.740   117322513.82108  22325714.780    91420176.04047
  21954407.560   115371204.73908  21954411.120    89899666.18648
 15 02 27 00 50 30.0000000  0  6G16G18G19G21G22G27
  20771961.920   109157403.99309  20771962.840    85057732.90249
  21656074.280   113803544.23508  21656075.720    88678167.29648
  24053400.100   126401475.28706  24053400.360    98494655.64845
  22053774.040   115893628.60108  22053774.600    90306841.48848
  22309767.060   117238703.68808  22309766.320    91354869.45947
  21943141.800   115312002.90508  21943145.360    89853534.89248
 15 02 27 00 51  0.0000000  0  6G16G18G19G21G22G27
  20765127.220   109121487.46009  20765128.180    85029745.99349
  21651228.980   113778081.99108  21651230.360    88658326.59747
  24038382.180   126322555.24306  24038382.340    98433159.53146
  22064821.380   115951682.63108  22064821.900    90352078.39048
  22293867.980   117155154.45208  22293867.560    91289766.17147
  21931898.420   115252918.88808  21931902.000    89807495.39948
 15 02 27 00 51 30.0000000  0  6G16G18G19G21G22G27
  20758384.800   109086055.94309  20758385.780    85002137.01549
  21646473.900   113753094.11308  21646475.260    88638855.53148
  24023374.680   126243690.23306  24023374.780    98371706.27645
  22075901.240   116009907.59608  22075901.720    90397448.48748
  22278019.020   117071868.64608  22278018.960    91224868.14247
  21920677.480   115193952.74008  21920681.060    89761547.75748
 15 02 27 00 52  0.0000000  0  6G16G18G19G21G22G27
  20751735.220   109051112.23309  20751736.200    84974908.15249
  21641809.380   113728581.97908  21641810.700    88619755.17547
  24008377.840   126164881.56106  24008377.920    98310296.94446
  22087013.560   116068303.38408  22087014.060    90442951.69448
  22262221.000   116988849.81608  22262221.120    91160178.14947
  21909479.260   115135105.85108  21909482.780    89715693.04548
 15 02 27 00 52 30.0000000  0  6G16G18G19G21G22G27
  20745178.160   109016654.65209  20745179.140    84948058.08549
  21637235.060   113704543.82308  21637236.320    88601024.15747
  23993391.140   126086125.98706  23993391.180    98248928.99346
  22098157.400   116126864.70908  22098157.940    90488583.88948
  22246473.760   116906097.16708  22246473.860    91095695.57947
  21898303.220   115076375.52808  21898306.700    89669929.16448
 15 02 27 00 53  0.0000000  0  6G16G18G19G21G22G27
  20738714.440   108982687.68009  20738715.440    84921590.31249
  21632751.700   113680983.70708  21632752.900    88582665.63347
  23978415.060   126007425.93006  23978415.040    98187604.30346
  22109332.920   116185592.50708  22109333.480    90534345.80248
  22230778.200   116823615.73108  22230778.120    91031424.34047
  21887150.020   115017764.97408  21887153.440    89624258.61148
 15 02 27 00 53 30.0000000  0  6G16G18G19G21G22G27
  20732344.260   108949212.23909  20732345.300    84895505.55149
  21628359.300   113657901.40808  21628360.460    88564679.43447
  23963449.500   125928781.37606  23963449.480    98126322.85546
  22120539.740   116244484.86508  22120540.380    90580235.94247
  22215134.580   116741407.35608  22215134.280    90967365.89147
  21876019.620   114959274.20908  21876023.020    89578681.39448
 15 02 27 00 54  0.0000000  0  6G16G18G19G21G22G27
  20726068.340   108916231.98409  20726069.380    84869806.65149
  21624058.400   113635299.87408  21624059.540    88547067.85548
  23948494.800   125850194.13806  23948494.820    98065086.07846
  22131777.980   116303542.04408  22131778.620    90626254.52148
  22199543.760   116659476.92908  22199543.220    90903524.01647
  21864912.520   114900905.69708  21864915.880    89533199.44148
 15 02 27 00 54 30.0000000  0  6G16G18G19G21G22G27
  20719886.700   108883746.90709  20719887.660    84844493.60249
  21619848.900   113613178.68908  21619850.040    88529830.57847
  23933550.740   125771662.77506  23933550.800    98003892.84246
  22143046.920   116362760.83608  22143047.620    90672399.03548
  22184005.900   116577825.17808  22184005.180    90839899.29447
  21853828.380   114842658.20108  21853831.800    89487811.79248
 15 02 27 00 55  0.0000000  0  6G16G18G19G21G22G27
  20713799.560   108851758.46309  20713800.460    84819567.53849
  21615730.820   113591538.27208  21615732.040    88512967.91448
  23918617.400   125693187.76706  23918617.480    97942743.52246
  22154346.260   116422139.45808  22154347.000    90718668.08748
  22168521.420   116496454.36708  22168520.760    90776493.49247
  21842767.360   114784532.39808  21842770.880    89442518.97048
 15 02 27 00 55 30.0000000  0  6G16G18G19G21G22G27
