     2.11           OBSERVATION DATA    G                   RINEX VERSION / TYPE
SPIDER V4,0,0,3554                      2015 03 24 00:18    PGM / RUN BY / DATE 
CBEJ                                                        MARKER NAME         
CBEJ                                                        MARKER NUMBER       
                                                            OBSERVER / AGENCY   
496519              LEICA GRX1200+GNSS  8.10/4.007          REC # / TYPE / VERS 
                    LEIAR25         NONE                    ANT # / TYPE        
  5095766.4657   453329.2088  3797108.6657                  APPROX POSITION XYZ 
        0.0730        0.0000        0.0000                  ANTENNA: DELTA H/E/N
     1     1                                                WAVELENGTH FACT L1/2
     4    C1    L1    P2    L2                              # / TYPES OF OBSERV 
    30.000                                                  INTERVAL            
  2015    02    27    00    00    0.0000000     GPS         TIME OF FIRST OBS   
  2015    02    27    18    30   30.0000000     GPS         TIME OF LAST OBS    
    16                                                      LEAP SECONDS        
    30                                                      # OF SATELLITES     
   G 1   811   811   811   811                              PRN / # OF OBS      
   G 2   505   504   504   504                              PRN / # OF OBS      
   G 3   833   833   833   833                              PRN / # OF OBS      
   G 4   831   831   831   831                              PRN / # OF OBS      
   G 5   637   637   637   637                              PRN / # OF OBS      
   G 6   624   624   624   624                              PRN / # OF OBS      
   G 7   646   645   643   643                              PRN / # OF OBS      
   G 9   786   786   785   785                              PRN / # OF OBS      
   G10   760   760   760   760                              PRN / # OF OBS      
   G11   777   775   776   775                              PRN / # OF OBS      
   G12   381   381   381   381                              PRN / # OF OBS      
   G13   797   797   797   797                              PRN / # OF OBS      
   G14   448   447   447   447                              PRN / # OF OBS      
   G15   637   637   637   637                              PRN / # OF OBS      
   G16   491   491   491   491                              PRN / # OF OBS      
   G17   857   856   856   856                              PRN / # OF OBS      
   G18   716   715   714   714                              PRN / # OF OBS      
   G19   759   759   759   759                              PRN / # OF OBS      
   G20   779   779   779   779                              PRN / # OF OBS      
   G21   264   264   256   256                              PRN / # OF OBS      
   G22   671   671   670   670                              PRN / # OF OBS      
   G23   719   718   709   709                              PRN / # OF OBS      
   G24   511   511   511   511                              PRN / # OF OBS      
   G25   202   202   201   201                              PRN / # OF OBS      
   G27   684   684   684   684                              PRN / # OF OBS      
   G28   802   802   802   802                              PRN / # OF OBS      
   G29   106   106   106   106                              PRN / # OF OBS      
   G30   660   660   654   654                              PRN / # OF OBS      
   G31   280   278   274   272                              PRN / # OF OBS      
   G32   734   734   732   732                              PRN / # OF OBS      
BIT 2 OF LLI FLAGS DATA COLLECTED UNDER A/S CONDITION       COMMENT             
SNR is mapped to RINEX snr flag value [2-9]                 COMMENT             
Lx:     = 25dBHz -> 1; 26-27dBHz -> 2; 28-31dBHz -> 3       COMMENT             
       32-35dBHz -> 4; 36-38dBHz -> 5; 39-41dBHz -> 6       COMMENT             
       42-44dBHz -> 7; 45-48dBHz -> 8; >=49dBHz -> 9        COMMENT             
                                                            END OF HEADER       
 15 02 27 00 00  0.0000000  0  7G16G18G21G22G27G29G31
  21735688.320   114221816.81809  21735684.860    89004018.37347
  22718882.080   119388632.07309  22718878.720    93030130.12846
  21206302.020   111439875.27109  21206298.540    86836251.98248
  24170312.260   127015894.91708  24170308.360    98973421.92646
  22980714.120   120764474.72008  22980712.200    94102196.04346
  23783015.960   124980570.43208  23783015.280    97387458.67546
  22942003.780   120561033.26009  22941998.700    93943641.78447
 15 02 27 00 00 30.0000000  0  7G16G18G21G22G27G29G31
  21722083.460   114150324.30709  21722079.980    88948309.90047
  22706537.380   119323759.88709  22706534.020    92979580.40247
  21212652.840   111473249.29709  21212649.460    86862257.71048
  24152243.400   126920942.81608  24152239.900    98899433.56946
  22967861.440   120696933.55408  22967860.540    94049566.58647
  23797309.880   125055684.42208  23797309.360    97445989.01446
  22959305.000   120651949.85909  22959299.620    94014485.85847
 15 02 27 00 01  0.0000000  0  7G16G18G21G22G27G29G31
  21708531.600   114079107.76909  21708527.860    88892816.52147
  22694245.820   119259167.43209  22694242.800    92929248.61047
  21219071.160   111506977.43909  21219067.640    86888539.38148
  24134172.180   126825979.26708  24134169.240    98825436.28146
  22955030.300   120629504.59908  22955030.000    93997024.52746
  23811611.160   125130837.54408  23811610.600    97504549.86145
  22976643.480   120743062.81009  22976638.200    94085482.93247
 15 02 27 00 01 30.0000000  0  7G16G18G21G22G27G29G31
  21695030.880   114008158.82309  21695026.760    88837531.64948
  22682006.060   119194846.65409  22682003.260    92879128.53647
  21225554.540   111541047.34709  21225550.800    86915087.36648
  24116097.080   126730995.53908  24116094.340    98751423.27946
  22942218.600   120562177.17108  22942218.480    93944561.65247
  23825917.840   125206018.89008  23825916.300    97563132.66345
  22994016.540   120834358.56509  22994011.740    94156622.46547
 15 02 27 00 02  0.0000000  0  7G16G18G21G22G27G29G31
  21681581.500   113937481.71009  21681577.300    88782458.57947
  22669818.800   119130802.10308  22669815.760    92829223.71346
  21232103.020   111575460.03608  21232099.100    86941902.44448
  24098018.840   126635996.14808  24098015.560    98677398.05645
  22929426.320   120494953.57308  22929426.420    93892179.59647
  23840230.540   125281230.81208  23840228.160    97621739.28244
  23011423.940   120925836.29909  23011419.740    94227903.80847
 15 02 27 00 02 30.0000000  0  7G16G18G21G22G27G29G31
  21668184.740   113867082.63309  21668180.600    88727602.14348
  22657685.180   119067039.64608  22657681.820    92779538.70546
  21238717.100   111610217.28509  21238713.020    86968986.01348
  24079938.640   126540987.50808  24079935.420    98603365.59045
  22916654.560   120427837.35308  22916654.460    93839881.25347
  23854549.500   125356476.39607  23854547.360    97680372.14345
  23028865.820   121017496.58209  23028862.320    94299327.40147
 15 02 27 00 03  0.0000000  0  7G16G18G21G22G27G29G31
  21654840.420   113796959.06909  21654836.400    88672960.41947
  22645604.840   119003557.93508  22645601.500    92730072.44245
  21245395.640   111645313.36009  21245391.520    86996333.60648
  24061856.540   126445968.19808  24061853.480    98529324.82145
  22903902.560   120360824.43908  22903902.080    93787663.43147
  23868873.840   125431751.70507  23868872.000    97739028.21645
  23046341.180   121109332.53409  23046338.080    94370887.86547
 15 02 27 00 03 30.0000000  0  7G16G18G21G22G27G29G31
  21641550.420   113727119.45809  21641546.420    88618539.95848
  22633579.460   118940365.73408  22633576.280    92680831.77446
  21252139.620   111680753.04308  21252135.500    87023948.95448
  24043774.440   126350947.30608  24043771.480    98455282.80745
  22891171.320   120293921.24208  22891170.660    93735531.07647
  23883204.980   125507062.81107  23883203.040    97797712.13545
  23063850.780   121201347.42209  23063847.520    94442587.75347
 15 02 27 00 04  0.0000000  0  7G16G18G21G22G27G29G31
  21628313.340   113657557.92809  21628309.640    88564336.16248
  22621608.420   118877456.95809  22621605.280    92631811.98646
  21258947.100   111716526.19309  21258943.080    87051824.13948
  24025691.120   126255918.68408  24025688.260    98381234.75546
  22878459.320   120227119.41808  22878458.800    93683477.73546
  23897541.120   125582400.98107  23897539.280    97856417.15145
  23081392.260   121293529.70408  23081389.020    94514418.07047
 15 02 27 00 04 30.0000000  0  7G16G18G21G22G27G29G31
  21615131.040   113588283.42909  21615127.420    88510356.02048
  22609693.020   118814840.31009  22609690.100    92583019.83347
  21265818.940   111752638.01908  21265815.060    87079963.21448
  24007607.780   126160891.48708  24007604.900    98307187.78246
  22865767.960   120160425.79208  22865767.640    93631508.65347
  23911883.740   125657772.69907  23911882.200    97915148.35446
  23098966.500   121385883.42309  23098963.600    94586381.99147
 15 02 27 00 05  0.0000000  0  7G16G18G21G22G27G29G31
  21602002.140   113519288.54709  21601998.060    88456593.79548
  22597831.740   118752509.08608  22597829.060    92534450.06147
  21272753.040   111789077.34908  21272749.260    87108357.50448
  23989523.360   126065859.03608  23989520.580    98233136.71746
  22853095.640   120093830.87408  22853095.040    93579616.54447
  23926231.320   125733168.97107  23926229.700    97973898.68746
  23116571.220   121478395.89509  23116568.160    94658469.58847
 15 02 27 00 05 30.0000000  0  7G16G18G21G22G27G29G31
  21588928.000   113450583.32709  21588923.800    88403057.27148
  22586026.600   118690473.79208  22586024.260    92486110.89347
  21279750.620   111825850.23208  21279747.080    87137011.69648
  23971439.780   125970831.43408  23971437.020    98159089.42546
  22840443.700   120027342.37908  22840442.940    93527807.36647
  23940584.940   125808597.00707  23940583.240    98032673.79346
  23134207.260   121571071.79809  23134203.520    94730684.53047
 15 02 27 00 06  0.0000000  0  7G16G18G21G22G27G29G31
  21575909.560   113382172.29009  21575905.860    88349749.95348
  22574278.420   118628738.80408  22574276.740    92438005.69447
  21286811.980   111862957.38608  21286808.360    87165926.35348
  23953358.120   125875813.98708  23953355.080    98085050.04046
  22827812.220   119960962.96208  22827811.500    93476083.14347
  23954944.940   125884059.20008  23954943.540    98091475.46546
  23151874.340   121663910.80409  23151870.140    94803026.57447
 15 02 27 00 06 30.0000000  0  7G16G18G21G22G27G29G31
  21562946.940   113314053.51209  21562943.700    88296670.38348
  22562587.220   118567302.57608  22562585.740    92390133.32446
  21293935.840   111900392.60308  21293931.880    87195096.65447
  23935278.340   125780804.90308  23935275.460    98011017.13946
  22815200.640   119894688.49608  22815199.940    93424440.73547
  23969310.440   125959551.11408  23969309.000    98150300.31945
  23169571.060   121756905.80909  23169566.840    94875490.17747
 15 02 27 00 07  0.0000000  0  7G16G18G21G22G27G29G31
  21550040.700   113246230.25109  21550037.540    88243821.10148
  22550953.600   118506168.17908  22550951.940    92342496.13847
  21301122.100   111938156.28108  21301117.940    87224522.90547
  23917201.280   125685808.07608  23917198.140    97936993.80445
  22802608.980   119828520.11908  22802608.740    93372880.97947
  23983682.020   126035074.27408  23983679.900    98209149.49745
  23187296.900   121850054.54209  23187292.800    94948073.59347
 15 02 27 00 07 30.0000000  0  7G16G18G21G22G27G29G31
  21537190.720   113178703.12409  21537187.360    88191202.56348
  22539377.860   118445336.68709  22539375.840    92295094.96747
  21308369.920   111976244.56008  21308365.880    87254202.06548
  23899126.800   125590824.41108  23899122.960    97862980.73046
  22790036.860   119762456.38308  22790037.180    93321402.73147
  23998059.340   126110626.40208  23998056.500    98268021.25945
  23205051.120   121943352.86209  23205046.980    95020773.56347
 15 02 27 00 08  0.0000000  0  7G16G18G21G22G27G29G31
  21524397.680   113111475.31609  21524394.280    88138817.27648
  22527860.660   118384811.42409  22527857.840    92247932.45246
  21315679.280   112014656.77508  21315675.580    87284133.65148
  23881055.400   125495857.49908  23881051.280    97788980.69946
  22777485.260   119696498.35708  22777485.360    93270006.89347
  24012442.280   126186208.66307  24012439.320    98326916.53545
  23222833.200   122036798.73609  23222828.920    95093588.50947
 15 02 27 00 08 30.0000000  0  7G16G18G21G22G27G29G31
  21511661.940   113044549.37809  21511658.880    88086667.20748
  22516402.160   118324594.64309  22516398.840    92201010.31346
  21323050.080   112053391.63108  21323046.620    87314316.65447
  23862987.460   125400909.92008  23862983.140    97714995.69746
  22764954.240   119630646.13608  22764953.720    93218693.52347
  24026831.000   126261820.99307  24026828.360    98385835.24244
  23240642.680   122130389.16808  23240637.920    95166516.07346
 15 02 27 00 09  0.0000000  0  7G16G18G21G22G27G29G31
  21498983.280   112977924.42009  21498980.800    88034751.67248
  22505002.160   118264685.77309  22504999.040    92154328.07846
  21330481.560   112092444.33008  21330478.180    87344747.33447
  23844923.100   125305981.48608  23844918.280    97641025.61746
  22752442.600   119564896.91108  22752442.000    93167460.37747
  24041225.020   126337460.44208  24041222.380    98444775.01544
  23258478.460   122224118.11909  23258473.360    95239551.58346
 15 02 27 00 09 30.0000000  0  7G16G18G21G22G27G29G31
  21486365.160   112911616.82109  21486362.720    87983083.40748
  22493663.780   118205101.89709  22493661.100    92107899.09547
  21337976.200   112131827.73108  21337972.460    87375435.70947
  23826865.780   125211089.15008  23826860.980    97567083.66746
  22739952.600   119499265.33908  22739952.940    93116318.84347
  24055626.700   126413141.14007  24055623.800    98503746.93244
  23276342.960   122317997.29409  23276338.020    95312704.12947
 15 02 27 00 10  0.0000000  0  7G16G18G21G22G27G29G31
  21473804.920   112845612.49609  21473802.640    87931651.46348
  22482384.460   118145829.22209  22482382.020    92061712.59347
  21345530.480   112171524.03508  21345526.180    87406367.92047
  23808812.760   125116219.33608  23808808.360    97493159.24646
  22727482.280   119433735.02308  22727483.260    93065256.28447
  24070032.900   126488846.89108  24070030.020    98562738.37044
  23294232.520   122412007.44609  23294228.000    95385958.73847
 15 02 27 00 10 30.0000000  0  7G16G18G21G22G27G29G31
  21461304.000   112779919.32409  21461301.780    87880461.97448
  22471165.600   118086874.59309  22471163.460    92015773.91047
  21353144.780   112211536.65308  21353140.120    87437546.58847
  23790765.520   125021379.96808  23790760.980    97419258.53746
  22715032.560   119368311.46008  22715033.480    93014276.89747
  24084444.980   126564583.01708  24084442.600    98621753.47144
  23312147.380   122506150.74708  23312143.320    95459317.11947
 15 02 27 00 11  0.0000000  0  7G16G18G21G22G27G29G31
  21448863.160   112714541.59309  21448860.740    87829518.27748
  22460008.360   118028242.90109  22460006.220    91970086.86347
  21360819.080   112251865.00408  21360814.420    87468971.28947
  23772724.760   124926575.70708  23772719.580    97345385.22046
  22702603.540   119302996.70808  22702604.260    92963382.26048
  24098863.160   126640351.12508  24098861.240    98680793.55144
  23330087.260   122600426.27008  23330083.840    95532778.51647
 15 02 27 00 11 30.0000000  0  7G16G18G21G22G27G29G31
  21436481.260   112649474.64009  21436478.800    87778816.73748
  22448911.760   117969929.87109  22448909.160    91924648.15546
  21368551.960   112292502.42707  21368547.760    87500636.80547
  23754689.580   124831802.55908  23754684.060    97271536.11045
  22690194.460   119237784.41409  22690194.560    92912567.50847
  24113286.180   126716144.85908  24113283.560    98739853.55244
  23348050.300   122694824.60308  23348047.820    95606335.64947
 15 02 27 00 12  0.0000000  0  7G16G18G21G22G27G29G31
  21424159.460   112584722.76009  21424156.760    87728360.73748
  22437876.480   117911939.72509  22437873.500    91879461.04446
  21376343.540   112333449.08807  21376340.000    87532543.27847
  23736661.560   124737065.55508  23736655.780    97197715.17245
  22677805.600   119172676.83209  22677804.780    92861834.36647
  24127714.440   126791966.19508  24127711.100    98798935.01444
  23366036.520   122789344.94208  23366034.900    95679987.85147
 15 02 27 00 12 30.0000000  0  7G16G18G21G22G27G29G31
  21411899.120   112520293.76609  21411896.200    87678156.33448
  22426904.320   117854280.28309  22426901.100    91834531.65247
  21384194.600   112374707.86607  21384191.460    87564692.94547
  23718642.040   124642372.53008  23718635.920    97123928.49346
  22665437.480   119107679.46608  22665435.760    92811187.11147
  24142148.880   126867820.47408  24142146.040    98858042.19045
  23384046.620   122883989.46808  23384045.160    95753736.79947
 15 02 27 00 13  0.0000000  0  7G16G18G21G22G27G29G31
  21399700.120   112456189.23009  21399697.180    87628204.72748
  22415995.420   117796953.10109  22415992.080    91789861.12947
  21392104.860   112416276.68708  21392101.640    87597084.22747
  23700631.300   124547725.47908  23700625.380    97050177.64746
  22653089.520   119042791.80108  22653087.540    92760625.28647
  24156589.580   126943706.93608  24156587.180    98917174.43745
  23402080.000   122978754.86008  23402078.100    95827579.92146
 15 02 27 00 13 30.0000000  0  7G16G18G21G22G27G29G31
  21387562.400   112392405.75609  21387559.460    87578503.31748
  22405149.140   117739954.96309  22405145.700    91745447.01647
  21400073.160   112458148.94108  21400069.480    87629711.96647
  23682628.760   124453121.87608  23682623.740    96976460.62546
  22640761.460   118978008.43108  22640760.320    92710144.76047
  24171035.600   127019620.38508  24171033.180    98976327.74745
  23420134.980   123073632.74109  23420132.340    95901510.67246
 15 02 27 00 14  0.0000000  0  7G16G18G21G22G27G29G31
  21375487.860   112328953.61809  21375484.900    87529060.11148
  22394367.440   117683296.37109  22394364.000    91701297.49947
  21408100.420   112500330.27708  21408096.300    87662580.57747
  23664636.300   124358572.18508  23664631.960    96902785.58646
  22628455.080   118913337.52808  22628454.640    92659751.84347
  24185488.220   127095568.48508  24185485.600    99035508.04446
  23438212.380   123168628.01008  23438208.580    95975532.89646
 15 02 27 00 14 30.0000000  0  7G16G18G21G22G27G29G31
  21363475.280   112265826.88409  21363472.180    87479870.44048
  22383648.980   117626971.08008  22383645.940    91657407.65847
  21416184.540   112542811.23007  21416180.300    87695682.58947
  23646653.160   124264070.60908  23646648.920    96829148.07046
  22616168.500   118848770.94908  22616167.640    92609440.22147
  24199945.600   127171542.73508  24199942.920    99094708.71545
  23456309.900   123263729.35608  23456304.760    96049637.78446
 15 02 27 00 15  0.0000000  0  7G16G18G21G22G27G29G31
  21351526.500   112203033.52209  21351522.980    87430940.55448
  22372995.480   117570986.96409  22372992.920    91613783.65947
  21424326.140   112585595.55307  21424321.820    87729021.02947
  23628680.900   124169625.50108  23628676.660    96755554.55146
  22603902.780   118784314.51308  22603901.480    92559214.44347
  24214408.860   127247549.08808  24214406.300    99153934.40146
  23474427.980   123358939.70008  23474422.520    96123827.59846
 15 02 27 00 15 30.0000000  0  7G16G18G21G22G27G29G31
  21339641.120   112140573.15609  21339637.100    87382270.14948
  22362407.000   117515343.87709  22362404.440    91570425.43647
  21432524.420   112628679.51107  21432520.400    87762592.93646
  23610719.420   124075237.59108  23610714.560    96682005.61146
  22591657.780   118719966.12508  22591656.780    92509072.85447
  24228877.780   127323585.01608  24228875.680    99213183.15446
  23492565.680   123454253.66808  23492560.820    96198098.16547
 15 02 27 00 16  0.0000000  0  7G16G18G21G22G27G29G31
  21327819.660   112078449.61609  21327815.440    87333862.21048
  22351883.980   117460045.92408  22351881.400    91527336.14247
  21440779.440   112672062.54306  21440775.920    87796397.86346
  23592769.400   123980910.97608  23592763.800    96608504.42246
  22579433.360   118655727.56008  22579432.900    92459016.81147
  24243352.640   127399652.26607  24243351.360    99272456.35246
  23510722.840   123549670.02208  23510718.800    96272448.52647
 15 02 27 00 16 30.0000000  0  7G16G18G21G22G27G29G31
  21316062.040   112016662.33109  21316057.940    87285716.26748
  22341426.320   117405092.21908  22341423.900    91484515.06347
  21449091.000   112715740.41407  21449087.360    87830432.54946
  23574831.080   123886645.50108  23574825.380    96535050.84446
  22567229.040   118591596.08508  22567228.880    92409044.22547
  24257833.120   127475748.05407  24257832.280    99331751.77046
  23528898.320   123645183.01608  23528895.040    96346874.14846
 15 02 27 00 17  0.0000000  0  7G16G18G21G22G27G29G31
  21304368.500   111955212.52609  21304364.660    87237833.31948
  22331034.380   117350483.63709  22331031.980    91441962.93047
  21457458.400   112759710.20507  21457454.400    87864694.74046
  23556904.960   123792442.47108  23556899.300    96461645.96546
  22555045.380   118527570.67208  22555045.180    92359154.34448
  24272318.980   127551871.11908  24272317.980    99391068.43347
  23547091.360   123740788.50508  23547088.820    96421371.88847
 15 02 27 00 17 30.0000000  0  7G16G18G21G22G27G29G31
  21292740.280   111894105.94409  21292736.600    87190217.80848
  22320709.680   117296226.71809  22320707.420    91399684.84347
  21465881.660   112803974.01507  21465877.520    87899186.02146
  23538992.160   123698308.76608  23538986.880    96388295.08446
  22542882.620   118463655.36008  22542882.980    92309350.19648
  24286810.720   127628024.79108  24286809.340    99450408.94746
  23565302.060   123836487.15108  23565300.120    96495942.21547
 15 02 27 00 18  0.0000000  0  7G16G18G21G22G27G29G31
  21281177.900   111833345.10309  21281174.140    87142871.71148
  22310452.460   117242323.55109  22310450.380    91357682.39247
  21474360.440   112848529.98407  21474356.600    87933904.92946
  23521092.900   123604246.91308  23521088.140    96315000.18246
  22530740.740   118399850.35108  22530741.720    92259631.99548
  24301308.500   127704209.58108  24301306.800    99509773.68546
  23583530.080   123932276.54208  23583528.280    96570583.24646
 15 02 27 00 18 30.0000000  0  7G16G18G21G22G27G29G31
  21269681.360   111772931.25009  21269677.740    87095795.98148
  22300262.780   117188775.46209  22300260.780    91315956.57648
  21482894.300   112893375.84207  21482890.740    87968849.74346
  23503207.380   123510258.86708  23503202.880    96241762.77446
  22518619.780   118336154.85108  22518620.840    92209999.15548
  24315811.900   127780424.55908  24315810.080    99569161.94746
  23601774.600   124028152.66208  23601772.280    96645291.83546
 15 02 27 00 19  0.0000000  0  7G16G18G21G22G27G29G31
  21258251.220   111712866.70409  21258247.840    87048992.45648
  22290141.240   117135584.47209  22290138.800    91274509.05947
  21491482.920   112938509.68307  21491479.760    88004018.94446
  23485336.420   123416347.40508  23485331.940    96168585.06546
  22506519.860   118272569.31108  22506520.700    92160451.99548
  24330320.980   127856669.89208  24330319.160    99628573.90146
  23620035.160   124124112.74708  23620032.200    96720065.84746
 15 02 27 00 19 30.0000000  0  7G16G18G21G22G27G29G31
  21246887.620   111653151.08509  21246884.200    87002460.81148
  22280087.600   117082750.05609  22280084.340    91233339.41947
  21500125.720   112983927.41207  21500122.460    88039409.38646
  23467480.240   123322512.43509  23467475.920    96095466.94247
  22494440.440   118209091.11008  22494441.380    92110988.46848
  24344835.400   127932942.71408  24344833.300    99688007.22446
  23638310.600   124220151.02708  23638307.360    96794900.80546
 15 02 27 00 20  0.0000000  0  7G16G18G21G22G27G29G31
  21235590.980   111593787.96309  21235587.660    86956203.82448
  22270102.180   117030276.26709  22270098.620    91192450.76747
  21508822.640   113029628.96607  21508819.080    88075021.00345
  23449639.780   123228758.07009  23449635.440    96022411.66647
  22482381.840   118145722.12508  22482382.920    92061610.04848
  24359355.260   128009244.43108  24359353.140    99747463.06246
  23656600.820   124316266.23808  23656597.900    96869795.71547
 15 02 27 00 20 30.0000000  0  7G16G18G21G22G27G29G31
  21224362.400   111534782.15709  21224359.100    86910225.26848
  22260185.800   116978167.48008  22260182.340    91151846.50547
  21517573.720   113075615.04807  21517569.700    88110854.35745
  23431815.500   123135089.78509  23431811.040    95949423.42146
  22470344.340   118082465.00808  22470345.120    92012318.77448
  24373880.860   128085577.91508  24373878.920    99806943.69146
  23674905.760   124412458.06508  23674903.340    96944750.29346
 15 02 27 00 21  0.0000000  0  7G16G18G21G22G27G29G31
  21213202.340   111476134.46409  21213198.780    86864525.78148
  22250339.000   116926424.26709  22250335.580    91111527.13546
  21526378.500   113121882.73007  21526374.080    88146907.12044
  23414007.660   123041509.11908  23414002.940    95876503.46146
  22458327.920   118019318.57108  22458328.360    91963113.77248
  24388412.280   128161941.63408  24388410.740    99866447.88547
  23693224.500   124508722.13808  23693222.300    97019761.17746
 15 02 27 00 21 30.0000000  0  7G16G18G21G22G27G29G31
  21202110.900   111417847.17409  21202106.960    86819107.12448
  22240562.500   116875048.82809  22240558.980    91071494.36847
  21535236.420   113168429.86106  21535231.620    88183177.64244
  23396216.820   122948018.66208  23396211.580    95803653.78646
  22446332.600   117956283.09608  22446333.120    91913995.21648
  24402949.620   128238335.59308  24402948.240    99925975.62346
  23711556.360   124605055.57208  23711554.220    97094826.10146
 15 02 27 00 22  0.0000000  0  7G16G18G21G22G27G29G31
  21191087.740   111359920.18209  21191083.920    86773969.20048
  22230856.280   116824041.04709  22230852.720    91031748.07247
  21544146.320   113215252.61305  21544141.420    88219662.90845
  23378443.440   122854618.82309  23378437.540    95730874.74446
  22434358.120   117893356.48508  22434358.460    91864961.49748
  24417492.260   128314757.56908  24417490.920    99985525.17646
  23729900.380   124701453.48308  23729898.680    97169941.28847
 15 02 27 00 22 30.0000000  0  7G16G18G21G22G27G29G31
  21180134.220   111302358.71009  21180130.540    86729116.08648
  22221221.060   116773406.31009  22221217.680    90992292.44547
  21553108.300   113262352.65205  21553104.280    88256364.19945
  23360688.300   122761315.18708  23360682.400    95658170.66146
  22422405.120   117830541.98708  22422405.100    91816015.15248
  24432040.600   128391210.46808  24432039.380   100045098.86145
  23748256.440   124797915.72308  23748255.480    97245106.59347
 15 02 27 00 23  0.0000000  0  7G16G18G21G22G27G29G31
  21169250.780   111245165.12909  21169247.040    86684549.66648
  22211657.040   116723146.69409  22211653.800    90953129.13247
  21562123.160   113309728.24506  21562119.520    88293280.17145
  23342951.640   122668110.95608  23342946.520    95585543.99046
  22410473.480   117767840.03108  22410473.180    91767156.50547
  24446595.000   128467694.71109  24446593.620   100104696.90745
  23766624.100   124894439.56308  23766623.480    97320319.91146
 15 02 27 00 23 30.0000000  0  7G16G18G21G22G27G29G31
  21158436.640   111188337.44609  21158432.780    86640268.36748
  22202163.580   116673259.83308  22202160.580    90914256.24547
  21571189.820   113357373.41806  21571186.160    88330406.25345
  23325233.840   122575004.54709  23325229.340    95512993.54947
  22398562.280   117705246.71208  22398562.120    91718382.48748
  24461154.720   128544206.22509  24461152.880   100164316.20946
  23785002.160   124991018.33408  23785001.040    97395575.99246
 15 02 27 00 24  0.0000000  0  7G16G18G21G22G27G29G31
  21147692.500   111131879.86209  21147688.980    86596275.44848
  22192741.760   116623750.29908  22192739.160    90875677.37647
  21580308.160   113405288.55307  21580304.200    88367742.73245
  23307536.000   122482000.75809  23307531.360    95440523.11646
  22386672.140   117642764.26708  22386672.020    91669694.88348
  24475719.900   128620746.82608  24475717.980   100223958.21946
  23803390.480   125087650.80308  23803388.540    97470873.94446
 15 02 27 00 24 30.0000000  0  7G16G18G21G22G27G29G31
  21137019.580   111075795.04409  21137016.460    86552572.98748
  22183392.320   116574619.99508  22183390.060    90837394.02247
  21589477.660   113453472.42007  21589473.280    88405288.61345
  23289858.100   122389102.41208  23289852.980    95368134.85646
  22374803.340   117580393.25508  22374803.200    91621094.10548
  24490290.740   128697316.68909  24490288.980   100283623.06046
  23821788.700   125184334.50408  23821785.780    97546211.79446
 15 02 27 00 25  0.0000000  0  7G16G18G21G22G27G29G31
  21126418.260   111020084.42409  21126415.320    86509162.13048
  22174115.540   116525870.42709  22174113.300    90799407.34347
  21598697.620   113501922.83006  21598692.880    88443042.17746
  23272200.440   122296312.09408  23272195.060    95295830.74046
  22362955.800   117518133.41009  22362955.640    91572579.95648
  24504867.260   128773915.80209  24504865.460   100343310.64846
  23840196.280   125281066.14908  23840192.440    97621587.00046
 15 02 27 00 25 30.0000000  0  7G16G18G21G22G27G29G31
  21115889.120   110964752.63509  21115885.860    86466046.46048
  22164912.440   116477506.44109  22164909.840    90761721.14547
  21607968.220   113550640.51707  21607963.220    88481004.00346
  23254564.200   122203634.85808  23254558.960    95223614.74747
  22351129.840   117455987.31108  22351129.720    91524154.43748
  24519449.680   128850546.31308  24519447.620   100403022.70846
  23858613.160   125377845.17308  23858608.540    97696999.10345
 15 02 27 00 26  0.0000000  0  7G16G18G21G22G27G29G31
  21105431.880   110909800.24809  21105428.460    86423226.40448
  22155782.920   116429528.47109  22155779.740    90724335.75947
  21617289.000   113599621.39407  21617283.940    88519170.93247
  23236950.000   122111071.76809  23236944.820    95151487.69646
  22339325.220   117393953.70808  22339325.500    91475816.55948
  24534037.680   128927206.52608  24534035.420   100462757.91646
  23877038.400   125474667.29408  23877033.720    97772444.78346
 15 02 27 00 26 30.0000000  0  7G16G18G21G22G27G29G31
  21095047.300   110855229.47409  21095043.940    86380703.72348
  22146726.960   116381938.06409  22146723.600    90687252.33947
  21626659.360   113648864.00607  21626654.580    88557541.78447
  23219358.180   122018625.42308  23219352.960    95079451.60047
  22327542.040   117332032.70108  22327542.900    91427566.42348
  24548631.260   129003896.52508  24548628.940   100522516.31846
  23895471.200   125571529.17408  23895467.140    97847921.44846
 15 02 27 00 27  0.0000000  0  6G16G18G21G22G27G31
  21084744.580   110801087.31609  21084741.200    86338515.03948
  22137753.560   116334782.16009  22137750.200    90650507.47347
  21636087.820   113698412.28707  21636083.620    88596150.81046
  23201797.640   121926343.82609  23201792.820    95007543.88347
  22315788.260   117270269.84308  22315789.620    91379439.48847
  23913919.420   125668473.45408  23913916.220    97923462.34546
 15 02 27 00 27 30.0000000  0  7G16G18G19G21G22G27G31
  21074507.360   110747289.52409  21074503.900    86296594.66548
  22128846.840   116287976.40009  22128843.440    90614035.46047
  24537855.700   128947297.65406  24537855.040   100478400.33145
  21645557.920   113748178.00108  21645553.880    88634929.30746
  23184252.560   121834142.98009  23184248.020    94935699.09547
  22304048.340   117208578.60608  22304048.840    91331368.42347
  23932365.820   125765410.54408  23932363.640    97998997.66446
 15 02 27 00 28  0.0000000  0  7G16G18G19G21G22G27G31
  21064337.040   110693844.63409  21064333.660    86254949.26348
  22120008.260   116241528.69709  22120004.880    90577842.44948
  24522423.100   128866198.48406  24522422.380   100415206.13044
  21655070.360   113798164.94708  21655066.200    88673880.16647
  23166724.460   121742032.11209  23166719.200    94863924.42246
  22292323.920   117146965.55408  22292323.720    91283358.25948
  23950811.260   125862344.04608  23950809.960    98074530.14646
 15 02 27 00 28 30.0000000  0  7G16G18G19G21G22G27G31
  21054246.260   110640817.10909  21054242.940    86213629.13448
  22111250.100   116195503.65909  22111246.880    90541978.79548
  24507008.240   128785190.65906  24507006.560   100352083.16245
  21664636.480   113848434.12808  21664632.180    88713050.97446
  23149225.780   121650076.12709  23149219.520    94792270.46846
  22280626.680   117085493.39709  22280625.920    91235457.90847
  23969267.280   125959333.36108  23969266.800    98150106.11946
 15 02 27 00 29  0.0000000  0  7G16G18G19G21G22G27G31
  21044228.060   110588170.52909  21044224.880    86172605.84648
  22102565.320   116149864.64109  22102562.180    90506415.92847
  24491603.860   128704235.67307  24491599.520   100289001.42944
  21674248.580   113898945.86207  21674244.200    88752410.75746
  23131749.920   121558239.29109  23131743.580    94720709.32946
  22268948.920   117024123.82109  22268947.880    91187637.49848
  23987726.120   126056337.02007  23987726.280    98225693.25746
 15 02 27 00 29 30.0000000  0  7G16G18G19G21G22G27G31
  21034285.360   110535921.04609  21034282.360    86131891.95948
  22093956.860   116104627.66909  22093953.740    90471166.31947
  24476212.160   128623347.95807  24476205.580   100225972.12843
  21683908.880   113949711.99307  21683904.640    88791968.79446
  23114299.960   121466538.51709  23114294.080    94649254.21047
  22257293.260   116962871.37209  22257292.380    91139908.31748
  24006190.160   126153366.38608  24006190.380    98301300.44546
 15 02 27 00 30  0.0000000  0  7G16G18G19G21G22G27G31
  21024417.660   110484065.45409  21024414.520    86091484.99448
  22085424.280   116059788.92109  22085420.920    90436227.06647
  24460831.980   128542521.90207  24460822.840   100162990.81443
  21693616.080   114000725.27607  21693612.220    88831719.41046
  23096875.220   121374971.09509  23096869.900    94577902.99447
  22245658.960   116901730.72709  22245658.080    91092266.28048
  24024657.800   126250413.05508  24024657.380    98376921.08846
 15 02 27 00 30 30.0000000  0  7G16G18G19G21G22G27G31
  21014628.740   110432623.55009  21014625.360    86051400.41848
  22076971.320   116015368.13309  22076967.500    90401613.52147
  24445466.360   128461775.66207  24445456.740   100100071.70744
  21703373.300   114052002.17007  21703370.000    88871675.41146
  23079479.680   121283557.53809  23079474.460    94506671.66646
  22234049.080   116840720.07209  22234048.400    91044725.51648
  24043131.720   126347492.19208  24043130.180    98452567.01545
 15 02 27 00 31  0.0000000  0  7G16G18G19G21G22G27G31
  21004917.420   110381590.43109  21004914.020    86011634.36448
  22068596.920   115971360.63209  22068593.080    90367322.00347
  24430114.160   128381102.46506  24430107.140   100037209.46844
  21713179.020   114103533.43408  21713176.220    88911829.64946
  23062112.760   121192293.71009  23062107.180    94435557.04447
  22222462.460   116779832.66409  22222462.020    90997280.77048
  24061609.860   126444594.01208  24061607.180    98528230.61246
 15 02 27 00 31 30.0000000  0  7G16G18G19G21G22G27G31
  20995283.140   110330962.73909  20995279.920    85972184.21048
  22060300.120   115927762.20108  22060296.620    90333349.16547
  24414774.960   128300496.48207  24414770.920    99974399.58244
  21723032.100   114155311.96908  21723029.520    88952176.54246
  23044773.700   121101176.51609  23044768.240    94364556.67247
  22210898.300   116719063.04009  22210897.640    90949927.82948
  24080090.580   126541709.55808  24080087.020    98603904.89746
 15 02 27 00 32  0.0000000  0  7G16G18G19G21G22G27G31
  20985727.960   110280750.19509  20985724.820    85933057.55448
  22052083.000   115884582.45509  22052079.840    90299702.59547
  24399450.240   128219965.71207  24399447.400    99911648.35344
  21732933.700   114207344.19508  21732931.180    88992721.15146
  23027464.400   121010216.14609  23027459.460    94293678.47747
  22199358.140   116658419.43709  22199357.360    90902673.08548
  24098574.980   126638844.52208  24098571.020    98679594.34045
 15 02 27 00 32 30.0000000  0  7G16G18G19G21G22G27G31
  20976246.960   110230926.94609  20976243.640    85894234.25448
  22043940.880   115841795.10509  22043937.580    90266361.85247
  24384134.520   128139482.60306  24384131.740    99848934.22645
  21742877.680   114259600.23707  21742875.160    89033440.14446
  23010180.280   120919387.91609  23010175.780    94222903.25547
  22187836.680   116597874.14709  22187836.000    90855494.93348
  24117057.180   126735967.68508  24117053.400    98755274.58046
 15 02 27 00 33  0.0000000  0  7G16G18G19G21G22G27G31
  20966846.380   110181526.23609  20966842.960    85855740.20049
  22035879.820   115799433.46509  22035876.600    90233352.80948
  24368833.640   128059078.35806  24368830.980    99786281.57445
  21752869.420   114312109.25307  21752866.840    89074356.23246
  22992927.760   120828725.27709  22992923.140    94152257.07047
  22176340.280   116537458.57909  22176339.020    90808417.90448
  24135542.660   126833107.62308  24135539.300    98830967.87646
 15 02 27 00 33 30.0000000  0  7G16G18G19G21G22G27G31
  20957522.780   110132530.26109  20957519.420    85817561.52148
  22027896.320   115757479.36109  22027893.060    90200661.28947
  24353544.000   127978732.87606  24353540.540    99723674.74144
  21762905.500   114364849.17207  21762902.560    89115452.26746
  22975703.360   120738211.52108  22975697.960    94081726.91446
  22164864.820   116477153.24509  22164863.040    90761426.75548
  24154027.040   126930241.39608  24154024.020    98906656.36146
 15 02 27 00 34  0.0000000  0  7G16G18G19G21G22G27G31
  20948277.080   110083943.55909  20948273.800    85779701.76548
  22019991.000   115715936.93209  22019987.980    90168290.55748
  24338266.160   127898448.71707  24338260.820    99661115.77145
  21772986.200   114417821.93208  21772982.780    89156729.75846
  22958508.140   120647851.92509  22958502.700    94011316.86547
  22153410.620   116416960.98009  22153408.880    90714523.70048
  24172510.320   127027368.88508  24172507.600    98982339.94846
 15 02 27 00 34 30.0000000  0  7G16G18G19G21G22G27G31
  20939109.260   110035766.57109  20939106.020    85742161.25948
  22012164.080   115674806.30009  22012161.220    90136240.72048
  24323000.020   127818225.31407  24322994.440    99598604.03644
  21783110.480   114471024.04208  21783107.020    89198185.95046
  22941342.680   120557647.51209  22941337.720    93941027.71747
  22141977.640   116356880.54109  22141975.840    90667707.80448
  24190991.680   127124485.70309  24190989.200    99058015.20746
 15 02 27 00 35  0.0000000  0  7G16G18G19G21G22G27G31
  20930021.000   109988007.97809  20930017.700    85704946.77748
  22004417.180   115634095.73709  22004414.340    90104518.23448
  24307746.740   127738068.55207  24307741.980    99536144.25745
  21793279.200   114524459.65208  21793275.520    89239824.08847
  22924208.900   120467607.49309  22924203.800    93870866.70847
  22130567.060   116296918.76508  22130565.160    90620984.37348
  24209471.720   127221595.44009  24209469.460    99133684.95346
 15 02 27 00 35 30.0000000  0  7G16G18G19G21G22G27G31
  20921013.380   109940672.76609  20921009.980    85668062.19848
  21996750.960   115593810.03309  21996748.020    90073126.79347
  24292506.980   127657981.55407  24292502.400    99473738.82545
  21803492.800   114578130.44908  21803488.780    89281645.50046
  22907107.520   120377737.60009  22907102.180    93800838.26047
  22119179.520   116237078.87508  22119177.980    90574355.91048
  24227950.360   127318698.32908  24227947.900    99209349.35646
 15 02 27 00 36  0.0000000  0  7G16G18G19G21G22G27G31
  20912085.880   109893758.01609  20912082.460    85631505.24049
  21989164.840   115553945.77809  21989162.120    90042063.75247
  24277279.860   127577959.72907  24277275.100    99411384.13145
  21813750.060   114632030.30708  21813745.620    89323645.40247
  22890037.620   120288035.49209  22890032.380    93730940.52547
  22107814.540   116177356.28509  22107813.500    90527818.84948
  24246426.040   127415786.85708  24246423.100    99285002.56446
 15 02 27 00 36 30.0000000  0  7G16G18G19G21G22G27G31
  20903238.840   109847265.77909  20903235.400    85595277.52348
  21981659.420   115514504.83209  21981656.740    90011330.58447
  24262065.240   127498003.24507  24262060.720    99349080.36346
  21824050.200   114686156.71307  21824045.320    89365821.84447
  22873000.000   120198503.95809  22872995.020    93661175.73247
  22096472.200   116117751.46609  22096471.400    90481373.55448
  24264898.180   127512858.21608  24264894.840    99360642.40446
 15 02 27 00 37  0.0000000  0  7G16G18G19G21G22G27G31
  20894473.060   109801200.49809  20894469.460    85559382.47249
  21974235.340   115475491.28909  21974232.680    89980930.42648
  24246863.720   127418114.69808  24246859.360    99286829.54345
  21834393.080   114740510.81407  21834388.580    89408175.69346
  22855995.880   120109148.37809  22855991.360    93591548.01747
  22085152.860   116058267.13609  22085151.980    90435022.13048
  24283366.680   127609911.87108  24283363.540    99436268.44146
 15 02 27 00 37 30.0000000  0  7G16G18G19G21G22G27G31
  20885788.500   109755562.52809  20885784.880    85523820.42348
  21966892.460   115436904.55409  21966889.840    89950862.82648
  24231674.880   127338292.25508  24231669.900    99224630.30045
  21844778.000   114795089.23605  21844774.680    89450704.30846
  22839025.620   120019969.32509  22839021.380    93522057.87947
  22073856.100   115998901.87608  22073855.200    90388763.50848
  24301830.780   127706943.22708  24301828.320    99511877.09046
 15 02 27 00 38  0.0000000  0  7G16G18G19G21G22G27G31
  20877187.240   109710362.24409  20877183.540    85488599.43348
  21959633.000   115398755.39309  21959630.240    89921136.20147
  24216499.920   127258545.02908  24216493.300    99162489.63344
  21855206.320   114849897.89806  21855204.700    89493412.23946
  22822091.300   119930978.24509  22822087.540    93452714.18647
  22062583.340   115939664.58308  22062583.040    90342604.56648
  24320291.800   127803958.30008  24320289.940    99587473.03445
 15 02 27 00 38 30.0000000  0  7G16G18G19G21G22G27G31
  20868667.860   109665591.97709  20868663.980    85453713.51748
  21952455.280   115361035.38909  21952452.140    89891744.01547
  24201336.640   127178863.22007  24201328.440    99100399.98644
  21865677.280   114904925.80507  21865676.280    89536291.11147
  22805191.380   119842168.11409  22805187.960    93383511.49947
  22051333.040   115880545.87308  22051333.380    90296538.05748
  24338747.280   127900944.24108  24338745.660    99663046.30045
 15 02 27 00 39  0.0000000  0  7G16G18G19G21G22G27G31
  20860230.700   109621254.50009  20860226.880    85419164.83948
  21945359.720   115323747.36809  21945356.440    89862688.44347
  24186185.600   127099247.55407  24186176.920    99038361.86044
  21876190.780   114960172.97007  21876189.500    89579340.85047
  22788326.400   119753542.76608  22788322.400    93314452.80946
  22040105.760   115821547.03809  22040106.300    90250564.95248
  24357196.960   127997899.55108  24357195.320    99738595.68145
 15 02 27 00 39 30.0000000  0  7G16G18G19G21G22G27G31
  20851876.360   109577352.91409  20851872.740    85384955.80548
  21938346.740   115286893.68109  21938343.380    89833971.31047
  24171047.460   127019699.82507  24171039.700    98976376.64944
  21886746.000   115015637.77007  21886743.880    89622560.18347
  22771497.540   119665106.03909  22771492.460    93245541.12347
  22028901.960   115762669.61809  22028902.540    90204686.44448
  24375640.760   128094822.76308  24375638.900    99814119.99245
 15 02 27 00 40  0.0000000  0  7G16G18G19G21G22G27G31
  20843605.780   109533890.95609  20843602.120    85351089.35348
  21931416.900   115250477.28909  21931413.600    89805594.90747
  24155922.840   126940221.50708  24155916.600    98914445.51945
  21897342.740   115071321.09308  21897339.920    89665949.79246
  22754705.500   119576862.10209  22754699.920    93176779.66247
  22017721.840   115703915.58109  22017721.880    90158904.09848
  24394078.420   128191712.64508  24394076.380    99889618.34545
 15 02 27 00 40 30.0000000  0  7G16G18G19G21G22G27G31
  20835418.400   109490865.14309  20835414.500    85317562.74249
  21924569.620   115214495.02309  21924566.420    89777556.77248
  24140810.860   126860807.32508  24140805.840    98852564.34045
  21907979.560   115127215.39708  21907976.240    89709503.81846
  22737949.560   119488808.36709  22737944.100    93108166.38147
  22006564.120   115645279.83409  22006563.120    90113213.94348
  24412508.360   128288560.84908  24412506.000    99965084.22545
 15 02 27 00 41  0.0000000  0  7G16G18G19G21G22G27G31
  20827315.840   109448284.74209  20827311.880    85284383.21848
  21917806.580   115178955.24709  21917803.440    89749863.44048
  24125712.320   126781464.87607  24125708.460    98790739.03946
  21918657.540   115183326.02308  21918653.760    89753226.39546
  22721231.400   119400954.44308  22721226.600    93039708.79247
  21995430.040   115586770.05709  21995428.720    90067621.92348
  24430931.280   128385371.78508  24430928.720   100040521.08646
 15 02 27 00 41 30.0000000  0  7G16G18G19G21G22G27G31
  20819298.280   109406151.40709  20819294.360    85251552.04048
  21911128.140   115143859.09809  21911124.780    89722515.79048
  24110627.140   126702194.17708  24110624.120    98728969.61645
  21929376.360   115239651.45807  21929372.300    89797116.35545
  22704551.580   119313303.30208  22704547.180    92971409.20247
  21984319.940   115528386.45009  21984318.780    90022128.19948
  24449346.500   128482142.80808  24449343.700   100115926.85745
 15 02 27 00 42  0.0000000  0  7G16G18G19G21G22G27G31
  20811363.880   109364455.56509  20811360.000    85219061.77948
  21904532.480   115109197.21009  21904528.820    89695506.55348
  24095553.720   126622983.75508  24095550.260    98667247.27345
  21940133.360   115296178.54007  21940129.020    89841163.45845
  22687908.780   119225846.16909  22687904.480    92903260.83247
  21973231.780   115470118.17509  21973230.640    89976724.37448
  24467751.380   128578859.90508  24467748.240   100191290.60345
 15 02 27 00 42 30.0000000  0  7G16G18G19G21G22G27G31
  20803514.160   109323205.52009  20803510.380    85186918.89248
  21898020.980   115074977.06809  21898017.020    89668841.54847
  24080493.160   126543840.25707  24080488.780    98605577.07445
  21950929.320   115352911.71107  21950924.980    89885371.14544
  22671304.600   119138592.00709  22671300.700    92835270.58147
  21962166.740   115411971.74609  21962165.760    89931415.45448
  24486146.600   128675526.36608  24486143.040   100266614.88545
 15 02 27 00 43  0.0000000  0  7G16G18G19G21G22G27G31
  20795750.400   109282407.59009  20795746.660    85155128.30348
  21891594.560   115041204.72109  21891590.420    89642525.45648
  24065446.320   126464768.21108  24065441.800    98543962.54245
  21961764.860   115409853.87807  21961760.740    89929741.67045
  22654740.600   119051547.83809  22654736.980    92767443.97347
  21951126.100   115353952.07909  21951125.380    89886205.33248
  24504532.660   128772144.26908  24504528.840   100341901.28445
 15 02 27 00 43 30.0000000  0  7G16G18G19G21G22G27G31
  20788072.420   109242060.49909  20788068.720    85123689.01049
  21885252.760   115007878.57109  21885248.720    89616557.00948
  24050412.740   126385764.78808  24050408.140    98482401.46246
  21972639.180   115466999.79806  21972635.000    89974270.96744
  22638216.880   118964713.54009  22638212.800    92699780.91647
  21940109.340   115296056.53709  21940108.600    89841091.94449
  24522908.420   128868707.71608  24522904.620   100417145.24845
 15 02 27 00 44  0.0000000  0  7G16G18G19G21G22G27G31
  20780481.100   109202168.32209  20780477.520    85092604.19449
  21878996.320   114975001.56109  21878992.480    89590938.54948
  24035392.460   126306832.05408  24035387.080    98420895.44545
  21983552.480   115524350.48006  21983548.320    90018959.84744
  22621733.880   118878093.41109  22621728.800    92632284.74747
  21929116.220   115238287.56909  21929115.400    89796077.15448
  24541273.680   128965216.01908  24541270.200   100492346.26546
 15 02 27 00 44 30.0000000  0  7G16G18G19G21G22G27G31
  20772977.500   109162736.61909  20772974.000    85061878.18848
  21872826.400   114942579.22709  21872822.540    89565674.40747
  24020386.280   126227973.94608  24020380.780    98359447.57245
  21994505.060   115581907.90606  21994501.100    90063809.69944
  22605292.720   118791694.23509  22605287.120    92564960.74247
  21918148.080   115180649.28909  21918146.880    89751164.22148
  24559628.580   129061670.15108  24559625.500   100567505.07345
 15 02 27 00 45  0.0000000  0  7G16G18G19G21G22G27G31
  20765560.980   109123761.87109  20765557.400    85031508.25649
  21866742.240   114910607.73809  21866738.560    89540761.59248
  24005393.080   126149185.37008  24005388.140    98298053.88146
  22005495.640   115639665.11506  22005491.840    90108815.28244
  22588892.900   118705513.65108  22588887.640    92497807.04248
  21907203.900   115123136.77009  21907202.060    89706349.30248
  24577971.540   129158062.10208  24577968.620   100642615.40446
 15 02 27 00 45 30.0000000  0  7G16G18G19G21G22G27G31
  20758232.220   109085247.67409  20758228.340    85001497.19348
  21860744.280   114879089.75709  21860740.960    89516202.12947
  23990413.200   126070468.20708  23990408.780    98236715.86945
  22016524.340   115697621.77706  22016521.340    90153976.27444
  22572535.540   118619555.63809  22572530.800    92430826.77248
  21896283.860   115065752.19809  21896281.960    89661634.06548
  24596302.360   129254390.84708  24596299.480   100717676.48346
 15 02 27 00 46  0.0000000  0  7G16G18G19G21G22G27G31
  20750991.120   109047194.78509  20750987.120    84971845.59448
  21854832.600   114848025.74409  21854829.820    89491996.39148
  23975446.800   125991821.63207  23975442.720    98175432.85546
  22027590.320   115755775.28206  22027587.780    90199290.66744
  22556221.160   118533821.85409  22556216.620    92364021.26648
  21885387.920   115008494.99709  21885385.940    89617018.06448
  24614620.460   129350652.81008  24614617.760   100792685.53045
 15 02 27 00 46 30.0000000  0  7G16G18G19G21G22G27G31
  20743837.160   109009600.72109  20743833.220    84942551.53249
  21849006.880   114817412.92909  21849004.640    89468142.22748
  23960493.220   125913241.37708  23960489.960    98114201.50345
  22038692.760   115814119.59206  22038690.620    90244753.75145
  22539948.940   118448310.66909  22539944.520    92297389.18547
  21874515.400   114951361.21409  21874513.140    89572498.27048
  24632924.500   129446840.95008  24632922.200   100867637.03145
 15 02 27 00 47  0.0000000  0  7G16G18G19G21G22G27G31
  20736770.660   108972466.33109  20736766.860    84913615.64048
  21843267.440   114787252.05809  21843265.320    89444640.26047
  23945552.500   125834726.73008  23945548.560    98053021.25945
  22049831.380   115872652.31007  22049828.860    90290363.66244
  22523719.400   118363023.82909  22523714.840    92230931.92447
  21863666.140   114894350.51908  21863664.720    89528074.35648
  24651213.900   129542951.61008  24651211.960   100942528.11344
 15 02 27 00 47 30.0000000  0  7G16G18G19G21G22G27G31
  20729791.660   108935791.88809  20729787.960    84885038.14348
  21837613.900   114757542.13709  21837611.520    89421489.68647
  23930624.360   125756276.23708  23930618.920    97991891.04345
  22061005.260   115931369.97207  22061001.980    90336117.70244
  22507532.940   118277962.44609  22507527.980    92164650.35347
  21852840.320   114837461.53809  21852839.940    89483745.28348
  24669487.780   129638980.49108  24669486.220   101017355.46245
 15 02 27 00 48  0.0000000  0  7G16G18G19G21G22G27G31
  20722903.320   108899593.78709  20722899.600    84856831.82349
  21832049.220   114728298.80509  21832046.540    89398702.69347
  23915711.220   125677904.92608  23915705.160    97930822.57146
  22072216.720   115990285.99807  22072212.560    90382026.30244
  22491392.700   118193143.94009  22491387.380    92098558.04447
  21842040.920   114780709.44409  21842040.740    89439522.88648
  24687748.280   129734939.61707  24687747.040   101092128.48846
 15 02 27 00 48 30.0000000  0  6G16G18G19G21G22G27
  20716103.920   108863862.85709  20716100.260    84828989.54349
  21826571.660   114699513.03209  21826568.740    89376272.24348
  23900810.360   125599601.86307  23900805.020    97869807.19746
  22083463.440   116049387.46407  22083458.520    90428079.38044
  22475296.940   118108559.85909  22475291.720    92032648.39148
  21831265.560   114724083.93009  21831265.400    89395399.09249
 15 02 27 00 49  0.0000000  0  6G16G18G19G21G22G27
  20709395.860   108828611.85309  20709392.240    84801521.22349
  21821183.420   114671197.16909  21821180.460    89354207.93448
  23885924.520   125521378.17708  23885919.480    97808853.68846
  22094747.380   116108683.69707  22094742.240    90474284.23144
  22459248.140   118024223.78909  22459243.320    91966931.97048
  21820516.700   114667596.35309  21820516.260    89351382.80548
 15 02 27 00 49 30.0000000  0  6G16G18G19G21G22G27
  20702777.320   108793831.53209  20702773.640    84774419.67049
  21815882.680   114643341.56609  21815879.740    89332502.29248
  23871052.060   125443223.73708  23871046.900    97747954.14746
  22106066.100   116168162.40107  22106060.860    90520631.28945
  22443244.980   117940127.75309  22443240.280    91901402.61248
  21809791.980   114611236.32609  21809791.280    89307465.90549
 15 02 27 00 50  0.0000000  0  6G16G18G19G21G22G27
  20696248.160   108759521.28209  20696244.540    84747684.40048
  21810669.080   114615944.71209  21810666.160    89311154.11247
  23856192.340   125365135.43908  23856187.280    97687106.15146
  22117418.560   116227819.26406  22117413.040    90567117.16545
  22427287.600   117856272.02009  22427282.860    91836060.50347
  21799091.100   114555001.77909  21799089.840    89263646.79648
 15 02 27 00 50 30.0000000  0  6G16G18G19G21G22G27
  20689809.800   108725688.76709  20689806.420    84721321.39349
  21805544.040   114589013.65609  21805541.040    89290168.89747
  23841346.660   125287120.04708  23841342.100    97626314.98846
  22128805.420   116287658.49405  22128800.300    90613745.16944
  22411377.740   117772665.12009  22411372.980    91770912.30648
  21788415.140   114498899.14909  21788413.640    89219930.48748
 15 02 27 00 51  0.0000000  0  6G16G18G19G21G22G27
  20683463.660   108692341.10309  20683460.580    84695336.21449
  21800509.100   114562555.14909  21800506.000    89269551.89147
  23826515.800   125209183.00208  23826511.440    97565584.82746
  22140228.080   116347684.33705  22140222.620    90660518.53944
  22395516.600   117689314.85609  22395512.040    91705964.04648
  21777765.600   114442934.60109  21777764.360    89176321.75248
 15 02 27 00 51 30.0000000  0  6G16G18G19G21G22G27
  20677206.680   108659461.33109  20677203.880    84669715.61549
  21795560.800   114536551.73309  21795557.760    89249289.49348
  23811696.340   125131305.98008  23811692.480    97504901.42347
  22151683.200   116407876.00905  22151676.680    90707421.21044
  22379701.460   117606205.56809  22379696.880    91641203.57147
  21767138.800   114387089.94309  21767137.440    89132806.43548
 15 02 27 00 52  0.0000000  0  5G16G18G19G22G27
  20671044.560   108627079.12509  20671041.860    84644482.72748
  21790704.560   114511031.80209  21790701.600    89229403.84647
  23796893.980   125053517.30908  23796890.500    97444286.89046
  22363938.080   117523367.80609  22363933.380    91576654.67347
  21756540.160   114331393.42209  21756538.280    89089406.58148
 15 02 27 00 52 30.0000000  0  5G16G18G19G22G27
  20664974.300   108595179.19909  20664971.660    84619625.64249
  21785937.380   114485980.22809  21785934.520    89209883.14747
  23782105.360   124975800.12108  23782101.300    97383728.10046
  22348223.740   117440787.23409  22348218.840    91512306.18347
  21745966.540   114275828.76609  21745964.860    89046109.45048
 15 02 27 00 53  0.0000000  0  6G16G18G19G21G22G27
  20658992.420   108563743.26409  20658989.840    84595130.10549
  21781255.780   114461378.33309  21781252.740    89190712.85647
  23767326.280   124898134.17608  23767321.080    97323209.21346
  22186250.360   116589536.77104  22186247.080    90848967.05144
  22332554.920   117358446.15909  22332549.880    91448144.34448
  21735414.040   114220376.35209  21735412.820    89002899.78148
 15 02 27 00 53 30.0000000  0  6G16G18G19G21G22G27
  20653111.560   108532837.45709  20653108.760    84571047.64949
  21776672.100   114437291.34209  21776669.000    89171943.78847
  23752568.940   124820584.75008  23752563.220    97262781.09945
  22197846.620   116650474.16505  22197837.700    90896440.33244
  22316944.320   117276411.81009  22316939.420    91384221.48548
  21724895.180   114165101.40908  21724894.040    88959828.40748
 15 02 27 00 54  0.0000000  0  6G16G18G19G21G22G27
  20647320.460   108502402.80709  20647317.060    84547332.32149
  21772175.040   114413659.65509  21772172.140    89153529.48747
  23737822.000   124743090.99908  23737815.960    97202396.37246
  22209469.920   116711551.38215  22209462.620    90944035.78853
  22301380.920   117194626.54009  22301376.280    91320492.69148
  21714398.480   114109943.80009  21714397.720    88916848.43648
 15 02 27 00 54 30.0000000  0  6G16G18G19G21G22G27
  20641613.500   108472410.88409  20641609.640    84523961.99849
  21767759.220   114390454.55109  21767756.480    89135447.60248
  23723080.120   124665623.18508  23723074.420    97142031.88446
  22221117.080   116772750.82905  22221107.800    90991723.78544
  22285859.560   117113062.72209  22285854.900    91256936.48747
  21703918.780   114054873.78209  21703918.800    88873936.74548
 15 02 27 00 55  0.0000000  0  6G16G18G19G21G22G27
  20636007.800   108442951.92009  20636003.780    84501006.96749
  21763441.600   114367765.38609  21763438.940    89117767.73348
  23708360.100   124588270.53108  23708355.600    97081757.15346
  22232803.520   116834158.58505  22232793.260    91039573.95243
  22270397.960   117031811.46809  22270392.880    91193623.84848
  21693473.020   113999980.84009  21693473.360    88831163.01848
 15 02 27 00 55 30.0000000  0  5G16G18G19G22G27
  20630503.400   108414026.33909  20630499.380    84478467.56049
  21759222.160   114345591.98709  21759219.600    89100489.75447
  23693661.800   124511032.22208  23693658.140    97021571.44146
  22254996.240   116950873.99009  22254990.820    91130555.71648
  21683061.000   113945264.34909  21683060.700    88788526.82148
 15 02 27 00 56  0.0000000  0  5G16G18G19G22G27
