     2.11           OBSERVATION DATA    G                   RINEX VERSION / TYPE
SPIDER V4,0,0,3554                      2015 03 24 01:24    PGM / RUN BY / DATE 
CFKZ                                                        MARKER NAME         
CFKZ                                                        MARKER NUMBER       
                                                            OBSERVER / AGENCY   
496632              LEICA GRX1200+GNSS  8.10/4.007          REC # / TYPE / VERS 
10301036            LEIAR25         NONE                    ANT # / TYPE        
  5212138.8290   540257.5452  3624418.8863                  APPROX POSITION XYZ 
        0.0720        0.0000        0.0000                  ANTENNA: DELTA H/E/N
     1     1                                                WAVELENGTH FACT L1/2
     4    C1    L1    P2    L2                              # / TYPES OF OBSERV 
    30.000                                                  INTERVAL            
  2015    02    27    00    00    0.0000000     GPS         TIME OF FIRST OBS   
  2015    02    27    23    59   30.0000000     GPS         TIME OF LAST OBS    
    16                                                      LEAP SECONDS        
    30                                                      # OF SATELLITES     
   G 1   820   820   820   820                              PRN / # OF OBS      
   G 2   931   931   931   931                              PRN / # OF OBS      
   G 3   855   855   855   855                              PRN / # OF OBS      
   G 4   844   844   843   843                              PRN / # OF OBS      
   G 5   623   623   623   623                              PRN / # OF OBS      
   G 6   813   813   813   813                              PRN / # OF OBS      
   G 7   669   669   669   669                              PRN / # OF OBS      
   G 9   809   809   809   809                              PRN / # OF OBS      
   G10   746   746   746   746                              PRN / # OF OBS      
   G11   783   783   782   782                              PRN / # OF OBS      
   G12   823   823   823   823                              PRN / # OF OBS      
   G13   789   789   789   789                              PRN / # OF OBS      
   G14   930   924   926   923                              PRN / # OF OBS      
   G15   687   679   680   679                              PRN / # OF OBS      
   G16   673   673   673   673                              PRN / # OF OBS      
   G17   939   939   938   938                              PRN / # OF OBS      
   G18   914   914   913   913                              PRN / # OF OBS      
   G19   762   762   762   762                              PRN / # OF OBS      
   G20   774   774   774   774                              PRN / # OF OBS      
   G21   712   712   711   711                              PRN / # OF OBS      
   G22   660   659   657   656                              PRN / # OF OBS      
   G23   753   752   752   752                              PRN / # OF OBS      
   G24   820   816   815   815                              PRN / # OF OBS      
   G25   859   859   859   859                              PRN / # OF OBS      
   G27   815   815   815   815                              PRN / # OF OBS      
   G28   875   875   875   875                              PRN / # OF OBS      
   G29   748   748   748   748                              PRN / # OF OBS      
   G30   716   716   716   716                              PRN / # OF OBS      
   G31   848   848   848   848                              PRN / # OF OBS      
   G32   767   767   767   767                              PRN / # OF OBS      
BIT 2 OF LLI FLAGS DATA COLLECTED UNDER A/S CONDITION       COMMENT             
SNR is mapped to RINEX snr flag value [2-9]                 COMMENT             
Lx:     = 25dBHz -> 1; 26-27dBHz -> 2; 28-31dBHz -> 3       COMMENT             
       32-35dBHz -> 4; 36-38dBHz -> 5; 39-41dBHz -> 6       COMMENT             
       42-44dBHz -> 7; 45-48dBHz -> 8; >=49dBHz -> 9        COMMENT             
                                                            END OF HEADER       
 15 02 27 00 00  0.0000000  0  8G16G18G21G22G25G27G29G31
  21888744.480   115026141.10709  21888740.760    89630744.75348
  22548817.400   118494938.80409  22548813.820    92333763.88847
  21231819.680   111574175.21209  21231815.480    86941010.60848
  23954962.900   125884268.07508  23954961.600    98091692.24446
  24754893.980   130088026.65607  24754895.220   101367364.37245
  23095509.440   121367737.73908  23095508.420    94572272.16547
  23773433.220   124930725.09708  23773430.760    97348828.78246
  22808105.500   119857424.03909  22808102.600    93395389.54847
 15 02 27 00 00 30.0000000  0  8G16G18G21G22G25G27G29G31
  21874615.660   114951894.01109  21874612.020    89572889.88148
  22537075.200   118433233.04509  22537071.620    92285681.50347
  21238741.600   111610549.95209  21238737.360    86969354.56248
  23937030.960   125790036.08708  23937029.520    98018265.11046
  24774102.620   130188967.56107  24774104.200   101446019.28445
  23083065.860   121302346.51808  23083065.300    94521318.00247
  23787079.640   125002437.72008  23787077.460    97404708.70146
  22824820.840   119945263.88809  22824818.040    93463836.14947
 15 02 27 00 01  0.0000000  0  8G16G18G21G22G25G27G29G31
  21860534.880   114877899.29709  21860531.260    89515231.67547
  22525389.000   118371821.87509  22525385.480    92237828.66947
  21245727.240   111647259.70208  21245723.080    86997959.55948
  23919099.940   125695809.17108  23919098.220    97944841.94245
  24793338.400   130290052.01207  24793340.200   101524786.05846
  23070640.260   121237050.08008  23070639.740    94470437.67747
  23800732.420   125074183.82308  23800730.200    97460614.71746
  22841575.980   120033312.61408  22841573.160    93532445.51847
 15 02 27 00 01 30.0000000  0  8G16G18G21G22G25G27G29G31
  21846501.100   114804151.33709  21846497.460    89457765.73448
  22513757.840   118310700.05309  22513754.320    92190201.29746
  21252774.780   111684294.82909  21252770.660    87026818.09048
  23901168.860   125601581.46908  23901166.820    97871418.10146
  24812599.740   130391270.60607  24812601.700   101603657.34345
  23058231.180   121171840.63408  23058230.580    94419625.15147
  23814390.080   125145955.32208  23814387.980    97516540.49046
  22858368.840   120121559.49709  22858365.920    93601209.28047
 15 02 27 00 02  0.0000000  0  7G16G18G21G22G27G29G31
  21832515.000   114730653.74709  21832511.360    89400494.89148
  22502182.380   118249871.35509  22502178.980    92142802.34447
  21259884.260   111721655.60408  21259880.160    87055930.37848
  23883238.400   125507356.83608  23883236.120    97797996.66746
  23045838.940   121106719.57008  23045838.740    94368881.50347
  23828052.980   125217754.07008  23828051.040    97572487.58546
  22875199.180   120210003.05809  22875196.100    93670126.31347
 15 02 27 00 02 30.0000000  0  7G16G18G21G22G27G29G31
  21818576.760   114657407.64609  21818573.080    89343420.01348
  22490662.860   118189336.51509  22490659.580    92095632.34946
  21267055.040   111759338.57508  21267050.980    87085293.72648
  23865308.800   125413136.60108  23865306.300    97724578.62646
  23033463.380   121041685.37908  23033463.060    94318205.48647
  23841720.660   125289578.18108  23841719.100    97628454.39246
  22892066.140   120298638.74809  22892062.880    93739193.05247
 15 02 27 00 03  0.0000000  0  7G16G18G21G22G27G29G31
  21804686.820   114584415.50009  21804683.100    89286543.02148
  22479200.020   118129099.00209  22479196.720    92048694.04447
  21274286.960   111797342.88908  21274282.920    87114907.46948
  23847380.680   125318924.28108  23847377.920    97651166.77846
  23021104.600   120976738.70808  23021104.000    94267597.70747
  23855393.580   125361428.65008  23855391.360    97684441.74646
  22908969.260   120387464.53409  22908965.880    93808407.91547
 15 02 27 00 03 30.0000000  0  7G16G18G21G22G27G29G31
  21790846.260   114511682.95909  21790842.560    89229868.32748
  22467795.040   118069164.72409  22467791.520    92001992.02147
  21281580.440   111835670.41408  21281576.380    87144773.06948
  23829455.260   125224726.21408  23829452.420    97577765.99946
  23008763.120   120911883.02108  23008762.620    94217060.81847
  23869071.900   125433308.89808  23869069.640    97740452.29246
  22925908.600   120476480.87209  22925905.180    93877771.25747
 15 02 27 00 04  0.0000000  0  7G16G18G21G22G27G29G31
  21777055.440   114439211.58209  21777051.660    89173397.12448
  22456448.000   118009535.03709  22456444.360    91955527.35547
  21288934.960   111874318.31508  21288930.820    87174888.32048
  23811532.720   125130543.66108  23811529.740    97504377.31146
  22996438.740   120847117.36508  22996437.880    94166594.08747
  23882755.700   125505217.67608  23882753.120    97796485.10846
  22942883.340   120565683.64908  22942880.020    93947279.87547
 15 02 27 00 04 30.0000000  0  7G16G18G21G22G27G29G31
  21763314.420   114367001.79809  21763310.580    89117129.76848
  22445158.840   117950209.91509  22445155.220    91909300.02447
  21296349.760   111913283.16008  21296345.580    87205250.52748
  23793613.140   125036377.23008  23793610.260    97431001.19146
  22984131.080   120782439.78608  22984129.980    94116195.99447
  23896444.440   125577153.17408  23896441.880    97852538.67346
  22959892.600   120655068.30208  22959889.460    94016930.20547
 15 02 27 00 05  0.0000000  0  7G16G18G21G22G27G29G31
  21749624.040   114295057.97109  21749620.120    89061069.63848
  22433928.540   117891194.32409  22433924.900    91863313.85147
  21303824.900   111952565.40208  21303820.740    87235860.06648
  23775697.700   124942232.02408  23775694.760    97357641.55046
  22971840.460   120717852.53108  22971839.700    94065868.29847
  23910138.860   125649117.98608  23910136.380    97908615.13046
  22976936.280   120744633.84509  22976933.240    94086721.48847
 15 02 27 00 05 30.0000000  0  7G16G18G21G22G27G29G31
  21735984.300   114223380.68509  21735980.400    89005217.21948
  22422757.320   117832489.25609  22422753.720    91817569.66547
  21311359.760   111992161.52408  21311355.600    87266714.18548
  23757786.360   124848108.62408  23757783.240    97284298.90746
  22959566.600   120653353.73408  22959565.880    94015609.50747
  23923838.160   125721110.14108  23923836.040    97964712.88445
  22994013.500   120834375.44109  22994010.520    94156649.95847
 15 02 27 00 06  0.0000000  0  7G16G18G21G22G27G29G31
  21722395.320   114151970.33409  21722391.480    88949572.80448
  22411645.220   117774094.83409  22411641.660    91772067.53647
  21318953.720   112032068.05308  21318949.520    87297810.18248
  23739879.440   124754008.29608  23739876.220    97210974.24346
  22947309.260   120588941.75308  22947308.520    93965418.37847
  23937542.600   125793127.88208  23937540.960    98020830.57646
  23011123.420   120924288.63309  23011120.360    94226712.14247
 15 02 27 00 06 30.0000000  0  7G16G18G21G22G27G29G31
  21708858.420   114080833.81509  21708854.660    88894141.75848
  22400593.520   117716018.21609  22400590.100    91726813.05747
  21326607.280   112072287.37509  21326603.000    87329149.91148
  23721978.180   124659937.92508  23721974.920    97137672.91246
  22935069.400   120524621.14308  22935068.940    93915298.41647
  23951252.860   125865175.68008  23951251.220    98076971.64945
  23028266.360   121014374.97809  23028263.220    94296909.27047
 15 02 27 00 07  0.0000000  0  7G16G18G21G22G27G29G31
  21695372.720   114009966.01709  21695368.940    88838920.10248
  22389601.340   117658254.02809  22389597.960    91681802.00847
  21334318.880   112112811.45509  21334314.480    87360727.11248
  23704081.820   124565893.08708  23704078.460    97064391.46746
  22922845.520   120460384.47808  22922845.040    93865243.88447
  23964967.720   125937246.65708  23964965.860    98133130.86946
  23045440.260   121104623.88509  23045437.000    94367233.03447
 15 02 27 00 07 30.0000000  0  7G16G18G21G22G27G29G31
  21681939.500   113939374.09609  21681935.720    88783913.40448
  22378670.120   117600809.77709  22378666.700    91637040.27647
  21342088.880   112153642.83109  21342084.420    87392543.76148
  23686191.780   124471881.26208  23686188.340    96991135.71046
  22910638.660   120396236.77008  22910637.980    93815258.66947
  23978687.880   126009345.29708  23978685.960    98189311.58646
  23062645.580   121195037.64609  23062642.160    94437685.26847
 15 02 27 00 08  0.0000000  0  7G16G18G21G22G27G29G31
  21668559.140   113869059.92909  21668555.380    88729123.16748
  22367800.140   117543687.33609  22367796.680    91592529.30647
  21349916.940   112194779.38509  21349912.460    87424598.22548
  23668308.500   124377904.65108  23668304.820    96917907.38046
  22898448.680   120332177.63208  22898448.020    93765342.47047
  23992413.320   126081471.43408  23992411.200    98245513.78346
  23079881.600   121285612.84009  23079878.140    94508263.31147
 15 02 27 00 08 30.0000000  0  7G16G18G21G22G27G29G31
  21655233.280   113799032.19909  21655229.500    88674556.10048
  22356992.940   117486894.97009  22356989.420    91548275.52947
  21357803.960   112236225.88409  21357799.400    87456894.20448
  23650433.540   124283971.91708  23650429.780    96844713.26546
  22886276.760   120268213.10908  22886275.900    93715500.01247
  24006144.660   126153631.28208  24006143.040    98301742.11546
  23097148.860   121376352.51009  23097145.420    94578969.49647
 15 02 27 00 09  0.0000000  0  7G16G18G21G22G27G29G31
  21641960.500   113729283.23209  21641956.700    88620206.26048
  22346247.060   117430425.24909  22346243.500    91504273.16547
  21365747.740   112277970.59809  21365743.120    87489422.55348
  23632565.620   124190076.09408  23632561.700    96771547.87146
  22874121.000   120204333.52608  22874119.960    93665723.72147
  24019880.600   126225814.99608  24019878.660    98357989.21646
  23114444.960   121467243.81909  23114441.580    94649793.84947
 15 02 27 00 09 30.0000000  0  7G16G18G21G22G27G29G31
  21628742.260   113659820.93109  21628738.440    88566079.79548
  22335564.140   117374286.65909  22335560.640    91460528.82847
  21373749.000   112320017.81109  21373744.440    87522186.61248
  23614706.280   124096225.65308  23614702.440    96698417.88146
  22861982.480   120140544.80808  22861981.400    93616018.23447
  24033622.080   126298028.47408  24033620.340    98414259.39846
  23131770.520   121558289.88909  23131767.200    94720738.79447
 15 02 27 00 10  0.0000000  0  7G16G18G21G22G27G29G31
  21615577.840   113590641.45809  21615574.060    88512173.71548
  22324943.540   117318475.51109  22324940.100    91417039.62747
  21381806.340   112362359.84108  21381801.860    87555180.39048
  23596854.980   124002417.28008  23596850.980    96625320.61346
  22849860.060   120076840.88008  22849858.940    93566378.81447
  24047368.420   126370265.69208  24047366.700    98470548.12246
  23149123.820   121649481.65409  23149120.600    94791797.25547
 15 02 27 00 10 30.0000000  0  7G16G18G21G22G27G29G31
  21602469.420   113521756.41109  21602465.700    88458497.06348
  22314387.300   117263002.27609  22314383.860    91373813.75347
  21389921.120   112405003.66109  21389916.700    87588409.34448
  23579013.920   123908662.55409  23579009.800    96552265.20446
  22837755.400   120013230.62208  22837754.260    93516812.39647
  24061120.940   126442535.86108  24061118.780    98526862.47345
  23166505.940   121740825.00708  23166502.780    94862973.83447
 15 02 27 00 11  0.0000000  0  7G16G18G21G22G27G29G31
  21589415.140   113453155.85409  21589411.480    88405042.07748
  22303893.540   117207857.46309  22303890.120    91330843.77347
  21398090.520   112447934.36009  21398086.140    87621861.83548
  23561181.240   123814951.84308  23561177.040    96479244.01346
  22825666.220   119949701.74208  22825665.280    93467309.38747
  24074877.840   126514826.28108  24074875.740    98583192.67246
  23183913.980   121832304.63509  23183910.840    94934256.59347
 15 02 27 00 11 30.0000000  0  7G16G18G21G22G27G29G31
  21576417.960   113384855.20409  21576414.320    88351820.80048
  22293465.280   117153056.82609  22293461.820    91288141.99447
  21406317.080   112491165.28009  21406312.780    87655548.26448
  23543360.000   123721301.26208  23543355.600    96406269.68846
  22813595.080   119886267.97509  22813594.140    93417880.48547
  24088641.080   126587150.90608  24088638.960    98639549.48046
  23201350.000   121923931.22608  23201346.860    95005653.88047
 15 02 27 00 12  0.0000000  0  7G16G18G21G22G27G29G31
  21563477.140   113316850.64909  21563473.420    88298830.24648
  22283101.780   117098596.21609  22283098.240    91245705.16147
  21414599.300   112534688.27709  21414595.060    87689462.28448
  23525549.520   123627707.59008  23525545.120    96333339.73546
  22801540.860   119822923.15209  22801539.820    93368520.91047
  24102409.480   126659503.53808  24102407.180    98695928.11946
  23218812.220   122015695.65909  23218809.060    95077158.56347
 15 02 27 00 12 30.0000000  0  7G16G18G21G22G27G29G31
  21550593.680   113249147.64209  21550589.940    88246074.65148
  22272804.060   117044481.05109  22272800.460    91203537.51547
  21422937.080   112578503.73608  21422932.860    87723604.19648
  23507750.920   123534176.38508  23507746.560    96260458.42646
  22789504.160   119759670.28909  22789503.140    93319232.97547
  24116183.400   126731887.23408  24116181.480    98752330.92346
  23236300.640   122107597.74809  23236297.440    95148770.51747
 15 02 27 00 13  0.0000000  0  7G16G18G21G22G27G29G31
  21537767.240   113181744.28909  21537763.520    88193552.55748
  22262571.680   116990709.35509  22262568.040    91161637.50447
  21431329.520   112622606.10609  21431325.320    87757969.67148
  23489963.940   123440706.19108  23489959.660    96187624.63346
  22777484.200   119696505.33609  22777483.380    93270013.52747
  24129962.620   126804297.85008  24129960.620    98808754.74745
  23253813.960   122199630.66609  23253810.700    95220484.42247
 15 02 27 00 13 30.0000000  0  7G16G18G21G22G27G29G31
  21524997.920   113114641.13109  21524994.240    88141264.38948
  22252404.740   116937281.61209  22252401.080    91120005.51347
  21439776.060   112666992.53209  21439771.820    87792556.49048
  23472188.860   123347298.23808  23472184.540    96114839.37146
  22765480.660   119633426.65409  22765479.880    93220861.32047
  24143746.740   126876734.20008  24143744.800    98865198.61346
  23271351.320   122291789.79908  23271348.020    95292296.68647
 15 02 27 00 14  0.0000000  0  7G16G18G21G22G27G29G31
  21512286.620   113047842.71409  21512282.920    88089213.67948
  22242304.140   116884202.49609  22242300.420    91078645.17547
  21448276.560   112711662.84209  21448272.340    87827364.52448
  23454426.560   123253957.27108  23454422.260    96042106.29946
  22753494.000   119570436.49409  22753493.160    93171778.09447
  24157536.420   126949198.12508  24157534.680    98921664.00546
  23288912.460   122384074.29709  23288909.200    95364206.62347
 15 02 27 00 14 30.0000000  0  7G16G18G21G22G27G29G31
  21499634.420   112981354.87309  21499630.700    88037404.98248
  22232270.900   116831477.36109  22232267.100    91037560.65647
  21456831.480   112756619.16909  21456827.280    87862395.42648
  23436678.140   123160689.29608  23436673.800    95969430.08046
  22741524.840   119507538.40408  22741523.980    93122766.59247
  24171331.880   127021693.14708  24171329.800    98978153.60045
  23306497.560   122476484.55308  23306494.340    95436214.54147
 15 02 27 00 15  0.0000000  0  7G16G18G21G22G27G29G31
  21487041.280   112915177.52509  21487037.560    87985838.21448
  22222304.960   116779105.93509  22222301.100    90996751.76547
  21465440.020   112801857.11309  21465435.820    87897645.77448
  23418943.640   123067494.49208  23418939.340    95896810.87546
  22729572.720   119444729.94408  22729571.980    93073824.96347
  24185132.860   127094217.10108  24185131.000    99034665.73346
  23324105.600   122569015.30708  23324102.420    95508316.35347
 15 02 27 00 15 30.0000000  0  7G16G18G21G22G27G29G31
  21474507.000   112849309.46109  21474503.240    87934512.45748
  22212406.100   116727087.11109  22212402.240    90956217.63347
  21474101.200   112847371.97409  21474096.980    87933111.89748
  23401223.040   122974372.74108  23401218.820    95824248.61146
  22717637.120   119382008.07409  22717636.460    93024950.78947
  24198938.840   127166766.74908  24198936.960    99091197.92245
  23341735.420   122661660.27609  23341732.260    95580507.16547
 15 02 27 00 16  0.0000000  0  7G16G18G21G22G27G29G31
  21462033.220   112783759.23109  21462029.440    87883434.35848
  22202575.920   116675429.50609  22202572.160    90915964.96847
  21482815.800   112893167.76308  21482811.640    87968796.92648
  23383518.080   122881332.77408  23383513.720    95751750.03246
  22705719.240   119319379.11909  22705718.600    92976148.99747
  24212750.660   127239348.51308  24212748.060    99147755.12645
  23359387.620   122754422.89509  23359384.460    95652789.66047
 15 02 27 00 16 30.0000000  0  7G16G18G21G22G27G29G31
  21449619.380   112718523.87509  21449615.560    87832601.61548
  22192813.820   116624129.74709  22192810.180    90875991.14847
  21491582.560   112939237.80509  21491578.480    88004695.64848
  23365828.200   122788372.08808  23365823.840    95679313.26046
  22693818.120   119256837.77809  22693817.380    92927415.49947
  24226567.700   127311957.29908  24226564.900    99204333.34845
  23377060.620   122847294.82708  23377057.440    95725157.32347
 15 02 27 00 17  0.0000000  0  7G16G18G21G22G27G29G31
  21437266.740   112653610.04809  21437262.920    87782019.42548
  22183121.020   116573193.98909  22183117.500    90836300.95747
  21500401.940   112985584.45708  21500397.940    88040809.93448
  23348154.660   122695497.32108  23348150.300    95606943.42446
  22681934.480   119194388.39209  22681933.660    92878753.63847
  24240390.440   127384597.36508  24240388.140    99260935.93945
  23394754.640   122940277.39608  23394751.460    95797611.19947
 15 02 27 00 17 30.0000000  0  7G16G18G21G22G27G29G31
  21424975.000   112589016.31609  21424971.200    87731686.64848
  22173497.320   116522621.46109  22173493.940    90796893.79547
  21509272.940   113032202.50909  21509269.060    88077135.68148
  23330497.420   122602708.14808  23330493.060    95534640.26346
  22670067.700   119132027.57409  22670066.760    92830160.81147
  24254218.460   127457264.84708  24254216.140    99317559.98045
  23412468.420   123033363.98509  23412465.200    95870146.11446
 15 02 27 00 18  0.0000000  0  7G16G18G21G22G27G29G31
  21412745.380   112524749.26109  21412741.620    87681608.42848
  22163943.900   116472418.15309  22163940.600    90757774.35047
  21518196.020   113079094.06809  21518192.260    88113674.54448
  23312857.640   122510011.10908  23312853.380    95462408.91846
  22658218.540   119069759.51109  22658217.520    92781640.25147
  24268052.420   127529964.43408  24268050.540    99374208.96446
  23430202.280   123126556.07508  23430199.060    95942763.25146
 15 02 27 00 18 30.0000000  0  7G16G18G21G22G27G29G31
  21400577.320   112460805.86009  21400573.600    87631782.41248
  22154460.180   116422580.93909  22154456.800    90718940.17247
  21527169.940   113126252.48909  21527166.180    88150421.36748
  23295234.980   122417403.82109  23295230.780    95390247.47146
  22646386.040   119007579.01709  22646384.960    92733187.90247
  24281891.720   127602690.86208  24281890.240    99430878.88346
  23447954.680   123219845.37208  23447951.500    96015456.10946
 15 02 27 00 19  0.0000000  0  7G16G18G21G22G27G29G31
  21388471.740   112397190.65509  21388467.980    87582212.12248
  22145046.900   116373113.93409  22145043.500    90680394.46247
  21536194.700   113173677.83308  21536190.940    88187376.17148
  23277630.360   122324891.24708  23277626.200    95318159.85146
  22634570.560   118945488.45809  22634569.500    92684805.66847
  24295736.740   127675446.54608  24295735.300    99487571.62946
  23465725.460   123313231.12308  23465722.260    96088224.15346
 15 02 27 00 19 30.0000000  0  7G16G18G21G22G27G29G31
  21376429.320   112333907.19309  21376425.480    87532900.34148
  22135704.740   116324020.38609  22135701.200    90642139.76047
  21545270.240   113221369.94208  21545266.440    88224538.84748
  23260044.480   122232477.12008  23260040.280    95246148.90746
  22622772.420   118883489.12109  22622771.360    92636494.50747
  24309587.480   127748232.68708  24309586.360    99544288.07946
  23483514.360   123406711.47709  23483511.080    96161065.89647
 15 02 27 00 20  0.0000000  0  7G16G18G21G22G27G29G31
  21364450.040   112270955.59909  21364446.180    87483847.15148
  22126433.720   116275300.72109  22126430.080    90604176.40147
  21554395.820   113269325.20909  21554392.000    88261906.57948
  23242477.500   122140162.18008  23242473.220    95174215.27847
  22610991.300   118821579.26509  22610990.340    92588253.06547
  24323443.820   127821047.27608  24323442.580    99601026.69146
  23501320.360   123500281.64309  23501317.040    96233977.62747
 15 02 27 00 20 30.0000000  0  7G16G18G21G22G27G29G31
  21352535.100   112208342.01909  21352531.220    87435057.35148
  22117234.800   116226960.48009  22117231.160    90566508.69747
  21563571.840   113317545.49108  21563567.960    88299480.81948
  23224930.640   122047953.06408  23224926.260    95102364.08847
  22599227.960   118759762.65108  22599227.040    92540084.28148
  24337306.120   127893894.62908  24337304.620    99657790.81845
  23519143.580   123593942.44009  23519140.200    96306959.97647
 15 02 27 00 21  0.0000000  0  7G16G18G21G22G27G29G31
  21340683.180   112146059.63109  21340679.260    87386525.61848
  22108106.740   116178992.48509  22108103.180    90529131.04647
  21572796.200   113366020.10108  21572792.400    88337253.23448
  23207402.680   121955843.64309  23207398.300    95030590.59746
  22587480.700   118698030.35409  22587479.800    92491981.21347
  24351173.260   127966765.35708  24351171.720    99714573.18946
  23536981.740   123687681.82009  23536978.340    96380003.54346
 15 02 27 00 21 30.0000000  0  7G16G18G21G22G27G29G31
  21328896.620   112084120.99509  21328892.740    87338261.75048
  22099051.860   116131409.02409  22099048.440    90492053.03747
  21582070.500   113414757.01809  21582066.720    88375230.05248
  23189896.140   121863846.70908  23189891.680    94958904.74046
  22575751.480   118636392.79509  22575750.620    92443951.94448
  24365046.820   128039669.96208  24365044.960    99771381.96245
  23554836.180   123781507.05809  23554832.880    96453114.02346
 15 02 27 00 22  0.0000000  0  7G16G18G21G22G27G29G31
  21317175.420   112022526.05709  21317171.620    87290265.70248
  22090070.160   116084209.90909  22090066.820    90455274.50847
  21591394.060   113463752.36808  21591390.220    88413408.25548
  23172411.100   121771962.74708  23172406.560    94887306.90147
  22564039.840   118574847.78509  22564038.980    92395994.79548
  24378926.220   128112606.33608  24378923.740    99828215.53946
  23572705.980   123875413.29308  23572702.800    96526287.61347
 15 02 27 00 22 30.0000000  0  7G16G18G21G22G27G29G31
  21305519.940   111961276.48509  21305516.180    87242538.76948
  22081161.920   116037396.73209  22081158.480    90418796.71647
  21600766.340   113513004.13108  21600762.500    88451786.24648
  23154947.900   121680193.66308  23154943.420    94815798.59346
  22552345.700   118513394.84809  22552344.880    92348109.41348
  24392811.440   128185573.85208  24392809.080    99885073.30446
  23590590.420   123969396.60709  23590587.500    96599521.26847
 15 02 27 00 23  0.0000000  0  7G16G18G21G22G27G29G31
  21293930.540   111900374.29209  21293926.800    87195082.51548
  22072327.420   115990971.03709  22072323.920    90382620.86247
  21610186.980   113562510.00709  21610183.080    88490362.24148
  23137507.140   121588542.17408  23137502.620    94744381.90247
  22540669.060   118452033.87809  22540668.180    92300295.64748
  24406702.260   128258572.46907  24406700.640    99941955.29245
  23608488.880   124063453.84608  23608486.220    96672812.50247
 15 02 27 00 23 30.0000000  0  7G16G18G21G22G27G29G31
  21282407.640   111839821.37509  21282403.860    87147898.42848
  22063566.960   115944934.19909  22063563.320    90346748.01947
  21619655.720   113612268.01009  21619651.740    88529134.70748
  23120089.200   121497010.59708  23120084.640    94673058.65447
  22529009.860   118390764.66209  22529009.020    92252553.42548
  24420599.180   128331602.08608  24420597.920    99998861.54246
  23626400.820   124157582.14708  23626398.460    96746159.11347
 15 02 27 00 24  0.0000000  0  7G16G18G21G22G27G29G31
  21270951.280   111779617.81009  21270947.460    87100986.56348
  22054880.500   115899286.47209  22054876.820    90311178.36947
  21629171.760   113662274.14409  21629167.540    88568100.52448
  23102694.200   121405599.56508  23102689.700    94601829.33846
  22517367.800   118329585.20009  22517366.940    92204881.14848
  24434501.640   128404660.51608  24434500.540   100055790.14846
  23644325.200   124251776.05908  23644323.080    96819556.85247
 15 02 27 00 24 30.0000000  0  7G16G18G21G22G27G29G31
  21259561.780   111719765.54409  21259557.920    87054348.43848
  22046268.260   115854028.90609  22046264.680    90275912.74547
  21638734.620   113712526.39009  21638730.280    88607258.11648
  23085322.460   121314311.06709  23085318.100    94530695.51547
  22505742.800   118268495.20609  22505741.900    92157278.55947
  24448409.780   128477747.16008  24448408.620   100112740.77246
  23662261.540   124346032.25408  23662259.540    96893003.10246
 15 02 27 00 25  0.0000000  0  7G16G18G21G22G27G29G31
  21248239.720   111660267.53009  21248235.800    87007986.34748
  22037730.760   115809164.24809  22037727.220    90240953.29447
  21648344.100   113763023.86509  21648339.640    88646606.79648
  23067974.840   121223149.05808  23067970.580    94459660.22547
  22494135.020   118207495.71809  22494134.020    92109746.48947
  24462323.760   128550863.43808  24462321.980   100169714.49545
  23680209.460   124440348.82108  23680207.480    96966496.40946
 15 02 27 00 25 30.0000000  0  7G16G18G21G22G27G29G31
  21236986.460   111601131.06309  21236982.540    86961905.98748
  22029269.420   115764699.95809  22029265.960    90206305.79947
  21658000.840   113813769.87709  21657996.280    88686149.13148
  23050652.780   121132121.27108  23050648.560    94388729.53747
  22482545.420   118146591.84909  22482544.420    92062288.91847
  24476244.080   128624014.37208  24476241.680   100226715.24646
  23698169.320   124534727.73708  23698167.300    97040038.30046
 15 02 27 00 26  0.0000000  0  7G16G18G21G22G27G29G31
  21225801.620   111542354.42709  21225797.780    86916106.01548
  22020883.940   115720633.99309  22020880.480    90171968.69147
  21667703.540   113864757.99409  21667698.980    88725880.12048
  23033356.060   121041226.45208  23033351.780    94317902.43947
  22470973.280   118085779.85809  22470972.280    92014902.98648
  24490170.100   128697196.01708  24490167.800   100283739.87545
  23716139.860   124629162.40908  23716137.680    97113623.63846
 15 02 27 00 26 30.0000000  0  7G16G18G21G22G27G29G31
  21214685.920   111483941.19709  21214682.100    86870589.21748
  22012574.760   115676968.97509  22012571.260    90137944.01947
  21677452.240   113915987.93709  21677447.780    88765799.55048
  23016085.480   120950468.38709  23016080.960    94247181.92347
  22459418.840   118025061.14509  22459417.880    91967589.71547
  24504102.100   128770409.72107  24504099.900   100340789.48645
  23734120.600   124723650.69508  23734118.220    97187250.75546
 15 02 27 00 27  0.0000000  0  7G16G18G21G22G27G29G31
  21203639.800   111425893.37709  21203635.960    86825357.15548
  22004342.200   115633706.65909  22004338.720    90104233.13847
  21687246.700   113967458.46609  21687242.280    88805906.45648
  22998841.560   120859850.05309  22998836.720    94176570.27747
  22447882.220   117964435.95009  22447881.280    91920349.28747
  24518040.140   128843655.89008  24518037.520   100397864.44345
  23752111.080   124818190.09108  23752108.540    97260917.67246
 15 02 27 00 27 30.0000000  0  7G16G18G21G22G27G29G31
  21192663.160   111368210.67309  21192659.320    86780409.59048
  21996186.180   115590846.59309  21996182.780    90070835.69147
  21697086.140   114019165.36109  21697081.740    88846197.53948
  22981624.220   120769371.39609  22981619.140    94106067.47247
  22436362.920   117903901.66509  22436361.940    91873179.71448
  24531983.860   128916931.31308  24531981.420   100454962.20245
  23770110.220   124912774.95208  23770107.600    97334620.03646
 15 02 27 00 28  0.0000000  0  7G16G18G21G22G27G29G31
  21181756.920   111310897.93209  21181753.100    86735750.30748
  21988107.440   115548392.72209  21988104.100    90037754.75547
  21706970.560   114071108.46809  21706966.180    88886672.67348
  22964434.380   120679037.74109  22964429.140    94035677.63247
  22424861.420   117843460.95009  22424860.400    91826083.08448
  24545933.700   128990239.06908  24545931.760   100512085.07945
  23788117.840   125007404.94508  23788115.260    97408357.54346
 15 02 27 00 28 30.0000000  0  7G16G18G21G22G27G29G31
  21170921.540   111253957.65509  21170917.780    86691381.25848
  21980106.460   115506347.43009  21980103.120    90004992.19247
  21716899.700   114123286.68209  21716895.400    88927331.01548
  22947272.580   120588851.94409  22947267.300    93965403.04247
  22413377.840   117783114.43009  22413376.820    91779059.80147
  24559890.000   129063580.09108  24559888.440   100569233.92645
  23806133.500   125102077.37308  23806130.940    97482128.12946
 15 02 27 00 29  0.0000000  0  6G16G18G21G22G27G31
  21160160.280   111197406.67609  21160156.540    86647315.56648
  21972186.360   115464727.21609  21972183.060    89972560.87647
  21726876.160   114175713.48009  21726871.900    88968183.06448
  22930142.180   120498831.53909  22930136.900    93895257.32347
  22401915.020   117722876.88609  22401914.000    91732121.47048
  23824159.420   125196803.94308  23824156.840    97555940.90246
 15 02 27 00 29 30.0000000  0  6G16G18G21G22G27G31
  21149467.600   111141216.01609  21149463.880    86603530.64048
  21964341.560   115423502.72309  21964338.280    89940437.91047
  21736893.620   114228355.51709  21736889.400    89009202.83148
  22913037.820   120408948.19609  22913032.560    93825218.38547
  22390467.020   117662717.47609  22390465.980    91685244.03648
  23842189.160   125291550.85108  23842186.680    97629769.53646
 15 02 27 00 30  0.0000000  0  6G16G18G21G22G27G31
  21138846.680   111085402.52909  21138842.980    86560039.61548
  21956575.160   115382690.06909  21956571.860    89908635.85447
  21746954.480   114281225.42509  21746950.260    89050400.15548
  22895962.860   120319219.17509  22895957.580    93755299.70447
  22379036.720   117602650.92609  22379035.700    91638438.93047
  23860224.900   125386329.60408  23860222.640    97703622.92846
 15 02 27 00 30 30.0000000  0  6G16G18G21G22G27G31
  21128298.360   111029970.48909  21128294.600    86516845.82048
  21948887.860   115342293.21009  21948884.620    89877157.78247
  21757058.840   114334323.99009  21757054.620    89091775.65748
  22878918.180   120229649.36509  22878912.900    93685505.05647
  22367624.520   117542679.56808  22367623.640    91591708.01248
  23878266.620   125481139.59308  23878264.460    97777500.70046
 15 02 27 00 31  0.0000000  0  7G16G18G19G21G22G27G31
  21117822.680   110974920.17409  21117818.820    86473949.47548
  21941279.720   115302312.44909  21941276.580    89846003.96447
  24538475.960   128950565.10607  24538472.500   100480933.49546
  21767205.920   114387647.07909  21767201.660    89133326.11648
  22861904.000   120140239.70609  22861898.800    93615835.25947
  22356230.140   117482801.74909  22356229.340    91545049.99848
  23896313.440   125575976.12708  23896311.320    97851399.15546
 15 02 27 00 31 30.0000000  0  7G16G18G19G21G22G27G31
  21107425.800   110920284.09609  21107421.900    86431375.90848
  21933756.760   115262779.18509  21933753.580    89815198.81847
  24523661.040   128872722.13208  24523659.440   100420276.86146
  21777401.120   114441223.34809  21777396.900    89175073.85648
  22844926.520   120051022.90909  22844921.440    93546315.70147
  22344859.320   117423047.75509  22344858.580    91498488.45048
  23914370.540   125670866.05308  23914368.400    97925339.18746
 15 02 27 00 32  0.0000000  0  7G16G18G19G21G22G27G31
  21097092.500   110865982.09609  21097088.600    86389062.65548
  21926303.740   115223613.00609  21926300.420    89784679.73647
  24508848.640   128794880.66008  24508845.860   100359621.08645
  21787628.600   114494969.20009  21787624.440    89216953.73848
  22827970.560   119961919.09709  22827965.640    93476884.20347
  22333496.460   117363335.70109  22333495.800    91451959.60848
  23932421.780   125765725.02208  23932419.660    97999255.09446
 15 02 27 00 32 30.0000000  0  7G16G18G19G21G22G27G31
  21086836.340   110812085.40409  21086832.420    86347065.23248
  21918934.040   115184884.53209  21918930.600    89754501.70647
  24494049.060   128717109.42307  24494045.800   100299020.15646
  21797901.020   114548951.65209  21797896.980    89259017.97248
  22811049.940   119873000.65509  22811045.060    93407597.14247
  22322154.780   117303734.86009  22322154.140    91405517.37048
  23950479.660   125860618.75208  23950477.520    98073198.10546
 15 02 27 00 33  0.0000000  0  7G16G18G19G21G22G27G31
  21076655.680   110758585.31509  21076651.680    86305376.85948
  21911645.940   115146584.88309  21911642.520    89724657.83047
  24479261.140   128639397.96908  24479258.280   100238465.82746
  21808216.040   114603157.83709  21808212.140    89301256.54748
  22794163.020   119784259.00009  22794158.120    93338447.83347
  22310832.200   117244234.49209  22310831.560    91359153.49048
  23968541.540   125955533.74208  23968539.380    98147157.67646
 15 02 27 00 33 30.0000000  0  7G16G18G19G21G22G27G31
  21066550.380   110705481.55009  21066546.380    86263997.30048
  21904439.240   115108713.12709  21904435.780    89695147.39347
  24464483.980   128561743.33507  24464480.700   100177955.75144
  21818572.780   114657583.11209  21818568.940    89343665.85148
  22777309.880   119695694.85409  22777304.920    93269436.83347
  22299528.340   117184832.46509  22299527.640    91312866.19748
  23986606.360   126050464.47008  23986604.200    98221129.48446
 15 02 27 00 34  0.0000000  0  7G16G18G19G21G22G27G31
  21056519.800   110652770.35709  21056515.760    86222923.65348
  21897313.100   115071264.95609  21897309.580    89665967.02147
  24449716.520   128484139.48808  24449712.720   100117485.16446
  21828970.020   114712220.97909  21828966.220    89386240.82348
  22760489.920   119607304.96909  22760484.800    93200561.63847
  22288242.100   117125523.11509  22288241.380    91266651.16748
  24004672.560   126145402.30908  24004670.340    98295106.84846
 15 02 27 00 34 30.0000000  0  7G16G18G19G21G22G27G31
  21046564.660   110600455.61409  21046560.540    86182158.91948
  21890268.160   115034243.71209  21890264.620    89637119.29847
  24434959.540   128406589.20307  24434956.060   100057056.41246
  21839407.700   114767071.26109  21839403.940    89428981.29548
  22743703.920   119519093.83809  22743698.640    93131825.72147
  22276973.920   117066308.56609  22276973.180    91220509.95048
  24022740.000   126240346.24908  24022737.660    98369088.98146
 15 02 27 00 35  0.0000000  0  7G16G18G19G21G22G27G31
  21036686.980   110548547.99509  21036682.820    86141711.42848
  21883306.380   114997659.50009  21883302.840    89608612.12447
  24420213.920   128329100.06608  24420210.180    99996675.31345
  21849886.880   114822140.01509  21849883.180    89471892.00948
  22726954.060   119431072.58309  22726948.580    93063237.74447
  22265725.400   117007197.40209  22265724.720    91174449.32548
  24040809.640   126335301.70208  24040807.260    98443080.03346
 15 02 27 00 35 30.0000000  0  7G16G18G19G21G22G27G31
  21026883.880   110497032.49609  21026879.700    86101569.47648
  21876424.840   114961496.80309  21876421.200    89580433.40947
  24405477.100   128251655.21108  24405472.680    99936328.58546
  21860404.100   114877408.75209  21860400.460    89514958.54548
  22710237.600   119343226.75909  22710231.980    92994786.46747
  22254493.380   116948172.71509  22254492.720    91128456.07948
  24058877.800   126430248.74208  24058875.400    98517064.56546
 15 02 27 00 36  0.0000000  0  7G16G18G19G21G22G27G31
  21017159.960   110445933.24609  21017155.840    86061751.87548
  21869627.960   114925779.03909  21869624.280    89552601.38947
  24390752.400   128174276.45308  24390748.420    99876033.59246
  21870963.360   114932898.32209  21870959.720    89558197.15948
  22693559.180   119255580.90409  22693553.540    92926491.02347
  22243282.040   116889256.79909  22243281.360    91082547.58348
  24076948.040   126525206.82108  24076945.480    98591057.69946
 15 02 27 00 36 30.0000000  0  7G16G18G19G21G22G27G31
  21007511.600   110395231.09809  21007507.560    86022243.71148
  21862911.980   114890486.68809  21862908.360    89525100.87547
  24376036.680   128096943.02808  24376032.080    99815773.70645
  21881560.180   114988584.85509  21881556.540    89601589.26748
  22676915.280   119168116.62209  22676909.680    92858337.06147
  22232087.440   116830428.73509  22232086.740    91036707.55348
  24095015.680   126620151.75608  24095013.160    98665040.58646
 15 02 27 00 37  0.0000000  0  7G16G18G19G21G22G27G31
  20997942.660   110344946.44609  20997938.740    85983060.87048
  21856280.720   114855639.57309  21856277.180    89497947.28947
  24361332.480   128019672.94208  24361327.940    99755563.30945
  21892197.740   115044485.31309  21892194.020    89645148.06748
  22660309.940   119080855.04509  22660304.400    92790341.06047
  22220913.080   116771707.04709  22220912.360    90990950.41348
  24113083.620   126715098.86708  24113081.340    98739025.15346
 15 02 27 00 37 30.0000000  0  7G16G18G19G21G22G27G31
  20988450.980   110295067.72809  20988447.160    85944194.33848
  21849731.760   114821224.87909  21849728.300    89471130.66547
  24346637.940   127942452.46008  24346633.780    99695391.54646
  21902873.100   115100584.25209  21902869.180    89688861.53048
  22643740.900   118993784.78009  22643735.460    92722494.12147
  22209756.400   116713078.18309  22209755.620    90945265.60448
  24131148.700   126810031.52708  24131146.820    98812998.43946
 15 02 27 00 38  0.0000000  0  7G16G18G19G21G22G27G31
  20979038.520   110245605.34509  20979034.760    85905652.22648
  21843267.140   114787253.21409  21843263.620    89444659.24547
  24331954.340   127865290.29407  24331949.460    99635265.13446
  21913587.340   115156887.40309  21913583.300    89732734.12048
  22627210.460   118906917.09209  22627205.020    92654805.04447
  22198619.080   116654550.88209  22198618.220    90899659.92148
  24149212.160   126904955.58208  24149210.520    98886965.02246
 15 02 27 00 38 30.0000000  0  7G16G18G19G21G22G27G31
  20969704.520   110196555.39309  20969700.880    85867431.49048
  21836885.920   114753719.70509  21836882.340    89418529.25547
  24317280.680   127788180.24708  24317276.000    99575179.42646
  21924339.100   115213387.66309  21924334.980    89776760.29648
  22610717.980   118820248.70609  22610712.620    92587271.25147
  22187500.020   116596119.41509  22187499.060    90854128.92448
  24167272.300   126999861.73008  24167270.760    98960917.64046
 15 02 27 00 39  0.0000000  0  7G16G18G19G21G22G27G31
  20960450.440   110147925.19209  20960446.920    85829537.83048
  21830589.540   114720631.51109  21830585.820    89392746.25347
  24302617.800   127711127.34707  24302613.400    99515138.29745
  21935129.120   115270089.33309  21935124.900    89820943.40748
  22594264.960   118733787.78009  22594259.700    92519899.13447
  22176400.160   116537789.41709  22176399.200    90808676.99048
  24185329.620   127094752.98008  24185328.160    99034858.64445
 15 02 27 00 39 30.0000000  0  7G16G18G19G21G22G27G31
  20951275.220   110099709.25909  20951271.740    85791966.97948
  21824376.700   114687982.10209  21824372.960    89367305.16947
  24287964.800   127634124.76008  24287960.100    99455136.22045
  21945955.400   115326982.14708  21945951.220    89865275.46248
  22577850.500   118647529.50509  22577845.300    92452684.93647
  22165318.200   116479553.70309  22165317.300    90763298.52948
  24203382.240   127189619.22908  24203380.480    99108780.19645
 15 02 27 00 40  0.0000000  0  7G16G18G19G21G22G27G31
  20942181.400   110051920.93409  20942177.940    85754729.32748
  21818249.640   114655783.83709  21818245.900    89342215.61447
  24273323.220   127557183.11108  24273318.640    99395181.73545
  21956820.000   115384076.35208  21956815.920    89909764.45348
  22561477.240   118561487.56109  22561472.040    92385639.29147
  22154256.360   116421423.63509  22154255.520    90718002.39048
  24221431.640   127284468.38908  24221429.820    99182688.42445
 15 02 27 00 40 30.0000000  0  7G16G18G19G21G22G27G31
  20933167.580   110004552.88509  20933164.140    85717819.15448
  21812206.960   114624029.42409  21812203.240    89317471.93047
  24258691.580   127480293.24208  24258687.460    99335267.60346
  21967720.740   115441360.49509  21967716.720    89954401.44448
  22545143.840   118475655.27509  22545138.660    92318757.01447
  22143212.920   116363390.07209  22143212.100    90672781.44948
  24239475.560   127379288.23908  24239473.440    99256573.83145
 15 02 27 00 41  0.0000000  0  7G16G18G19G21G22G27G31
  20924235.060   109957612.18309  20924231.620    85681241.99148
  21806249.820   114592724.84409  21806246.220    89293078.75947
  24244070.780   127403460.28307  24244066.200    99275397.72046
  21978658.120   115498837.58808  21978654.220    89999188.77648
  22528851.780   118390040.04509  22528846.580    92252043.85647
  22132188.820   116305458.38709  22132188.060    90627639.87148
  24257514.280   127474080.96808  24257512.000    99330438.05746
 15 02 27 00 41 30.0000000  0  7G16G18G19G21G22G27G31
  20915384.380   109911101.40709  20915380.940    85644999.83948
  21800378.520   114561871.85009  21800375.180    89269037.48147
  24229460.880   127326684.79808  24229456.820    99215572.73846
  21989632.140   115556506.89608  21989628.380    90044125.89748
  22512601.660   118304645.56409  22512596.480    92185502.72247
  22121184.300   116247629.45209  22121183.620    90582578.40848
  24275547.420   127568844.57608  24275545.280    99404279.59045
 15 02 27 00 42  0.0000000  0  7G16G18G19G21G22G27G31
  20906615.160   109865018.36109  20906611.640    85609090.97148
  21794592.720   114531468.27009  21794589.600    89245346.38647
  24214861.140   127249962.72008  24214857.000    99155789.33045
  22000641.640   115614362.54808  22000638.060    90089208.21948
  22496393.140   118219470.33609  22496388.140    92119132.44147
  22110198.660   116189899.73709  22110198.040    90537594.20648
  24293573.660   127663572.26608  24293571.560    99478093.13545
 15 02 27 00 42 30.0000000  0  7G16G18G19G21G22G27G31
  20897928.340   109819368.22809  20897924.720    85573519.44048
  21788893.340   114501518.22209  21788890.280    89222008.68947
  24200272.140   127173297.29208  24200267.820    99096050.03746
  22011686.780   115672405.70209  22011683.380    90134436.63748
  22480227.440   118134520.00009  22480222.580    92052937.39747
  22099232.520   116132272.34009  22099231.900    90492689.74148
  24311593.040   127758264.12908  24311591.040    99551878.73446
 15 02 27 00 43  0.0000000  0  7G16G18G19G21G22G27G31
  20889323.920   109774151.42809  20889320.220    85538285.57448
  21783280.300   114472021.51909  21783277.180    89199024.26547
  24185693.620   127096686.79908  24185689.540    99036353.61546
  22022767.060   115730633.22908  22022763.680    90179808.73847
  22464104.840   118049795.62709  22464100.020    91986918.43247
  22088285.700   116074746.19209  22088285.020    90447864.18748
  24329604.840   127852916.12308  24329603.040    99625633.27246
 15 02 27 00 43 30.0000000  0  7G16G18G19G21G22G27G31
  20880801.960   109729368.31209  20880798.220    85503389.64648
  21777753.580   114442978.01009  21777750.320    89176392.96147
  24171125.340   127020129.90308  24171120.660    98976698.87646
  22033881.780   115789041.43009  22033878.240    90225321.62047
  22448025.620   117965298.61709  22448020.760    91921076.62647
  22077357.940   116017320.11009  22077357.180    90403116.59148
  24347608.300   127947523.79008  24347606.700    99699353.26646
 15 02 27 00 44  0.0000000  0  7G16G18G19G21G22G27G31
  20872363.300   109685022.92609  20872359.540    85468834.79548
  21772313.620   114414390.32809  21772310.300    89154116.85847
  24156567.740   126943628.36508  24156563.220    98917087.34646
  22045031.040   115847631.08409  22045027.420    90270975.89848
  22431990.480   117881033.01909  22431985.580    91855415.13847
  22066449.640   115959996.27309  22066448.820    90358448.67248
  24365603.120   128042086.36208  24365601.580    99773038.10646
 15 02 27 00 44 30.0000000  0  7G16G18G19G21G22G27G31
  20864008.800   109641119.62109  20864005.020    85434624.43548
  21766961.200   114386262.55109  21766957.760    89132199.11147
  24142020.960   126867184.70208  24142016.140    98857520.87746
  22056215.040   115906402.93809  22056211.360    90316772.15247
  22416000.460   117797004.25909  22415995.460    91789938.21447
  22055561.300   115902777.45509  22055560.440    90313862.58948
  24383589.280   128136603.26408  24383587.960    99846687.34846
 15 02 27 00 45  0.0000000  0  7G16G18G19G21G22G27G31
  20855738.200   109597656.89209  20855734.320    85400757.37648
  21761695.880   114358592.62709  21761692.300    89110638.14648
  24127484.640   126790795.67808  24127480.000    98797996.98046
  22067432.780   115965351.86909  22067429.040    90362706.38148
  22400055.420   117713211.84009  22400050.200    91724645.43948
  22044692.360   115845660.56909  22044691.480    90269355.94148
  24401565.560   128231068.50908  24401564.420    99920296.34146
 15 02 27 00 45 30.0000000  0  7G16G18G19G21G22G27G31
  20847552.900   109554642.22409  20847548.880    85367239.45448
  21756518.760   114331386.76209  21756515.180    89089438.78547
  24112959.520   126714466.69508  24112955.220    98738519.92746
  22078684.820   116024481.33108  22078681.020    90408781.28947
  22384156.820   117629663.53409  22384151.420    91659542.88247
  22033843.880   115788651.45609  22033843.020    90224933.27048
  24419532.560   128325484.79108  24419531.580    99993867.14946
 15 02 27 00 46  0.0000000  0  7G16G18G19G21G22G27G31
  20839451.880   109512070.47509  20839447.760    85334066.65848
  21751428.800   114304639.33309  21751425.320    89068596.64547
  24098444.740   126638190.92408  24098440.300    98679084.24946
  22089969.520   116083782.57508  22089965.740    90454990.04647
  22368303.840   117546355.00009  22368298.280    91594627.15948
  22023014.640   115731743.50509  22023013.780    90180589.42048
  24437488.480   128419842.35008  24437487.620   100067392.23146
 15 02 27 00 46 30.0000000  0  7G16G18G19G21G22G27G31
  20831436.720   109469950.42809  20831432.580    85301245.84448
  21746427.580   114278358.55609  21746424.300    89048118.12847
  24083941.040   126561974.98808  24083936.840    98619695.28346
  22101287.840   116143260.79009  22101284.000    90501336.71147
  22352498.220   117463295.59909  22352492.660    91529905.56647
  22012206.040   115674943.85509  22012205.140    90136329.95748
  24455434.000   128514145.45108  24455433.340   100140874.84746
 15 02 27 00 47  0.0000000  0  7G16G18G19G21G22G27G31
  20823506.000   109428274.27409  20823501.900    85268770.92548
  21741513.640   114252536.30509  21741510.540    89027996.91347
  24069447.200   126485809.45508  24069443.220    98560345.54246
  22112637.660   116202904.85108  22112633.980    90547812.60548
  22336738.620   117380478.33909  22336733.080    91465372.67347
  22001416.280   115618243.29209  22001415.440    90092147.72048
  24473366.780   128608381.51408  24473366.140   100214305.24146
 15 02 27 00 47 30.0000000  0  7G16G18G19G21G22G27G31
  20815662.380   109387056.03509  20815658.360    85236652.80948
  21736689.400   114227184.99209  21736686.420    89008242.64347
  24054965.260   126409706.33108  24054961.200    98501044.42746
  22124020.940   116262724.81708  22124017.360    90594425.54948
  22321027.840   117297917.91409  22321022.340    91401039.88948
  21990647.740   115561654.05109  21990646.860    90048052.20948
  24491288.520   128702559.80608  24491288.100   100287690.52346
 15 02 27 00 48  0.0000000  0  7G16G18G19G21G22G27G31
  20807903.920   109346285.28609  20807900.000    85204883.39048
  21731952.620   114202293.21809  21731949.640    88988846.46048
  24040492.960   126333653.61008  24040488.700    98441782.59346
  22135435.100   116322707.13708  22135431.580    90641165.01447
  22305364.080   117215604.79409  22305358.620    91336899.81147
  21979898.060   115505164.36109  21979897.180    90004034.27148
  24509196.460   128796665.25708  24509196.180   100361019.08446
 15 02 27 00 48 30.0000000  0  7G16G18G19G21G22G27G31
  20800232.220   109305970.64609  20800228.400    85173469.38048
  21727304.880   114177869.44809  21727301.960    88969814.95547
  24026031.600   126257657.74908  24026027.100    98382565.04746
  22146881.080   116382856.61008  22146877.600    90688034.73247
  22289749.160   117133548.08809  22289743.700    91272959.54647
  21969168.620   115448781.38609  21969167.800    89960099.50048
  24527091.400   128890702.17508  24527091.200   100434294.25646
 15 02 27 00 49  0.0000000  0  7G16G18G19G21G22G27G31
  20792648.100   109266116.17109  20792644.300    85142413.94148
  21722746.860   114153917.04609  21722744.000    88951150.75847
  24011581.340   126181721.09908  24011576.420    98323393.66546
  22158359.020   116443173.68908  22158355.520    90735035.06247
  22274184.000   117051752.57509  22274178.500    91209222.80147
  21958459.960   115392507.70209  21958459.180    89916249.88048
  24544973.180   128984670.03708  24544972.880   100507515.60845
 15 02 27 00 49 30.0000000  0  7G16G18G19G21G22G27G31
  20785151.000   109226718.89409  20785147.220    85111714.76448
  21718277.860   114130432.42909  21718274.960    88932851.07147
  23997141.620   126105839.57508  23997136.900    98264265.22546
  22169867.720   116503652.32108  22169864.160    90782161.26647
  22258668.120   116970216.38809  22258662.640    91145688.14048
  21947771.340   115336339.03709  21947770.580    89872482.10648
  24562840.360   129078561.53008  24562840.100   100580677.44645
 15 02 27 00 50  0.0000000  0  7G16G18G19G21G22G27G31
  20777741.900   109187784.29109  20777738.180    85081376.11548
  21713898.660   114107419.82709  21713895.680    88914919.18247
  23982712.960   126030015.94008  23982708.160    98205181.90346
  22181407.480   116564294.02208  22181403.940    90829414.54448
  22243202.760   116888945.70609  22243197.320    91082360.35948
  21937103.500   115280279.16209  21937102.720    89828799.09248
  24580693.200   129172377.51308  24580692.960   100653780.49046
 15 02 27 00 50 30.0000000  0  7G16G18G19G21G22G27G31
  20770421.260   109149314.47609  20770417.580    85051399.63948
  21709609.500   114084880.48109  21709606.580    88897356.06747
  23968295.360   125954251.15308  23968290.620    98146144.43246
  22192977.900   116625097.42308  22192974.520    90876793.80747
  22227788.440   116807943.41509  22227783.120    91019241.71948
  21926456.540   115224328.81309  21926455.720    89785201.41948
  24598531.160   129266115.17708  24598530.940   100726822.46045
 15 02 27 00 51  0.0000000  0  7G16G18G19G21G22G27G31
  20763188.380   109111305.65809  20763184.680    85021782.37348
  21705409.660   114062809.95709  21705406.680    88880158.26347
  23953887.960   125878539.40008  23953883.280    98087148.26146
  22204577.800   116686055.68708  22204574.460    90924293.75147
  22212424.600   116727206.12509  22212419.320    90956329.55547
  21915829.440   115168483.03809  21915828.480    89741685.24248
  24616352.680   129359766.37808  24616352.580   100799797.04745
 15 02 27 00 51 30.0000000  0  7G16G18G19G21G22G27G31
  20756045.300   109073768.56409  20756041.600    84992532.69748
  21701301.040   114041218.26509  21701297.960    88863333.57948
  23939492.300   125802889.88308  23939487.640    98028200.61646
  22216208.540   116747175.68008  22216205.180    90971919.73247
  22197113.520   116646745.77209  22197108.220    90893633.20548
  21905224.040   115112751.20609  21905222.980    89698257.84948
  24634158.960   129453337.90808  24634158.920   100872709.57345
 15 02 27 00 52  0.0000000  0  7G16G18G19G21G22G27G31
  20748991.000   109036697.76809  20748987.280    84963646.36448
  21697282.200   114020098.37709  21697279.060    88846876.53048
  23925107.160   125727295.68008  23925102.480    97969296.05846
  22227868.500   116808448.93608  22227865.140    91019665.11747
  22181854.200   116566557.61209  22181848.880    90831148.93948
  21894639.000   115057126.23609  21894637.860    89654913.71948
  24651948.280   129546819.79408  24651948.180   100945552.31545
 15 02 27 00 52 30.0000000  0  7G16G18G19G21G22G27G31
  20742026.240   109000097.31509  20742022.420    84935126.53648
  21693353.840   113999454.14609  21693350.620    88830790.12748
  23910733.040   125651758.99108  23910728.360    97910436.30147
  22239557.720   116869875.73708  22239554.240    91067530.15247
  22166647.540   116486646.44209  22166642.260    90768880.52648
  21884074.840   115001610.98209  21884073.680    89611655.09748
  24669720.380   129640211.36808  24669720.340   101018324.70545
 15 02 27 00 53  0.0000000  0  7G16G18G19G21G22G27G31
  20735152.180   108963973.74709  20735148.280    84906978.29848
  21689517.080   113979291.54209  21689513.780    88815079.01747
  23896370.440   125576284.07208  23896365.660    97851624.70446
  22251276.680   116931458.97508  22251273.100    91115517.09147
  22151494.940   116407019.33909  22151489.700    90706833.44448
  21873532.540   114946210.54009  21873531.360    89568485.93048
  24687475.640   129733514.54908  24687475.600   101091028.19845
 15 02 27 00 53 30.0000000  0  6G16G18G19G21G22G27
  20728366.400   108928314.16909  20728362.440    84879191.60648
  21685769.180   113959596.38409  21685765.920    88799732.14448
  23882017.060   125500856.94308  23882012.440    97792850.34846
  22263022.380   116993182.79309  22263018.820    91163613.56247
  22136394.080   116327664.19609  22136388.940    90644998.28948
  21863009.360   114890910.87209  21863008.200    89525395.28948
 15 02 27 00 54  0.0000000  0  6G16G18G19G21G22G27
  20721672.700   108893138.49409  20721668.760    84851781.99948
  21682113.800   113940387.72609  21682110.600    88784764.38848
  23867676.220   125425495.47208  23867671.360    97734127.12546
  22274798.000   117055063.52608  22274794.360    91211832.31947
  22121349.040   116248602.09909  22121344.000    90583391.47248
  21852508.900   114835730.54009  21852507.760    89482397.64748
 15 02 27 00 54 30.0000000  0  6G16G18G19G21G22G27
  20715070.000   108858441.13109  20715066.160    84824745.09448
  21678549.840   113921659.40809  21678546.700    88770170.91148
  23853346.400   125350192.47208  23853342.040    97675449.52446
  22286601.800   117117092.27508  22286597.980    91260166.40147
  22106358.860   116169828.08209  22106353.820    90522009.14348
  21842029.740   114780662.49809  21842028.700    89439487.49648
