     2.11           OBSERVATION DATA    G                   RINEX VERSION / TYPE
SPIDER V4,0,0,3554                      2015 03 13 03:37    PGM / RUN BY / DATE 
CKHR                                                        MARKER NAME         
CKHR                                                        MARKER NUMBER       
                                                            OBSERVER / AGENCY   
496547              LEICA GRX1200+GNSS  8.10/4.007          REC # / TYPE / VERS 
10301042            LEIAR25         NONE                    ANT # / TYPE        
  5141838.0877   498328.5776  3730203.3049                  APPROX POSITION XYZ 
        0.0720        0.0000        0.0000                  ANTENNA: DELTA H/E/N
     1     1                                                WAVELENGTH FACT L1/2
     4    C1    L1    P2    L2                              # / TYPES OF OBSERV 
    30.000                                                  INTERVAL            
  2015    02    27    00    00    0.0000000     GPS         TIME OF FIRST OBS   
  2015    02    27    03    30   30.0000000     GPS         TIME OF LAST OBS    
    16                                                      LEAP SECONDS        
    13                                                      # OF SATELLITES     
   G 1    97    97    96    96                              PRN / # OF OBS      
   G 4   252   252   252   252                              PRN / # OF OBS      
   G11   159   159   159   159                              PRN / # OF OBS      
   G14   104   104   104   104                              PRN / # OF OBS      
   G16   422   422   422   422                              PRN / # OF OBS      
   G18   422   422   422   422                              PRN / # OF OBS      
   G19   364   364   363   363                              PRN / # OF OBS      
   G21   322   322   322   322                              PRN / # OF OBS      
   G22   422   422   422   422                              PRN / # OF OBS      
   G27   422   422   422   422                              PRN / # OF OBS      
   G29    56    56    56    56                              PRN / # OF OBS      
   G31   101   101   101   101                              PRN / # OF OBS      
   G32   154   154   154   154                              PRN / # OF OBS      
BIT 2 OF LLI FLAGS DATA COLLECTED UNDER A/S CONDITION       COMMENT             
SNR is mapped to RINEX snr flag value [2-9]                 COMMENT             
Lx:     = 25dBHz -> 1; 26-27dBHz -> 2; 28-31dBHz -> 3       COMMENT             
       32-35dBHz -> 4; 36-38dBHz -> 5; 39-41dBHz -> 6       COMMENT             
       42-44dBHz -> 7; 45-48dBHz -> 8; >=49dBHz -> 9        COMMENT             
                                                            END OF HEADER       
 15 02 27 00 00  0.0000000  0  7G16G18G21G22G27G29G31
  21799731.560   114558377.35109  21799727.700    89266257.31348
  22644486.460   118997700.51709  22644483.000    92725512.12347
  21211495.600   111467399.96709  21211491.560    86857803.38248
  24083265.280   126558473.88308  24083262.320    98617016.33945
  23034181.180   121045455.64609  23034180.580    94321138.38347
  23768690.300   124905739.90708  23768688.520    97329327.42146
  22892636.080   120301635.22409  22892632.420    93741529.13447
 15 02 27 00 00 30.0000000  0  7G16G18G21G22G27G29G31
  21785894.720   114485664.34009  21785890.920    89209597.83048
  22632365.440   118934004.11409  22632361.960    92675878.59346
  21218056.180   111501875.37509  21218052.020    86884667.34048
  24065229.480   126463697.36608  24065226.620    98543164.82746
  23021466.360   120978638.18008  23021465.680    94269072.82947
  23782717.540   124979453.82408  23782715.360    97386766.81546
  22909704.580   120391330.35309  22909700.960    93811421.41347
 15 02 27 00 01  0.0000000  0  7G16G18G21G22G27G29G31
  21772107.740   114413213.48109  21772104.080    89153142.62548
  22620297.860   118870588.97609  22620294.540    92626464.23146
  21224681.740   111536692.37108  21224677.480    86911797.46748
  24047192.000   126368911.38808  24047189.200    98469305.96546
  23008770.400   120911920.46308  23008769.720    94217085.03647
  23796751.120   125053200.67708  23796748.800    97444231.88746
  22926810.300   120481221.59209  22926806.720    93881466.50447
 15 02 27 00 01 30.0000000  0  7G16G18G21G22G27G29G31
  21758370.600   114341024.51509  21758367.040    89096891.48948
  22608283.800   118807455.28209  22608280.520    92577269.14447
  21231371.420   111571846.74009  21231367.140    86939190.46948
  24029152.660   126274115.33008  24029149.960    98395439.26546
  22996092.980   120845300.02908  22996092.280    94165173.02747
  23810790.500   125126977.62008  23810788.200    97501720.36746
  22943952.260   120571303.51509  22943948.660    93951660.18847
 15 02 27 00 02  0.0000000  0  7G16G18G21G22G27G29G31
  21744683.680   114269098.91809  21744680.100    89040845.56948
  22596323.680   118744604.73509  22596320.440    92528294.71446
  21238124.960   111607336.71608  21238120.640    86966844.99748
  24011111.880   126179311.11608  24011109.200    98321566.13346
  22983433.920   120778776.30908  22983433.160    94113336.36047
  23824835.580   125200784.39108  23824833.400    97559232.09346
  22961129.880   120661572.59909  22961126.300    94021999.71547
 15 02 27 00 02 30.0000000  0  7G16G18G21G22G27G29G31
  21731048.320   114197444.28909  21731044.580    88985010.79848
  22584418.860   118682044.56209  22584415.640    92479546.53647
  21244942.960   111643165.34109  21244938.580    86994763.40748
  23993070.940   126084506.39008  23993068.300    98247692.62946
  22970794.120   120712354.22408  22970793.440    94061578.94847
  23838887.100   125274625.46408  23838885.080    97616770.53846
  22978343.460   120752030.76409  22978339.960    94092486.57047
 15 02 27 00 03  0.0000000  0  7G16G18G21G22G27G29G31
  21717463.060   114126053.31609  21717459.220    88929381.46848
  22572568.200   118619768.52709  22572564.920    92431019.79446
  21251823.380   111679322.11009  21251818.960    87022937.50748
  23975028.740   125989694.96408  23975025.900    98173813.86446
  22958172.000   120646024.88309  22958171.360    94009893.74147
  23852943.460   125348492.08708  23852941.460    97674328.96946
  22995590.720   120842666.26309  22995587.380    94163111.60247
 15 02 27 00 03 30.0000000  0  7G16G18G21G22G27G29G31
  21703930.020   114054937.18109  21703926.160    88873966.29648
  22560773.820   118557788.16409  22560770.500    92382723.40746
  21258767.620   111715814.47409  21258763.200    87051373.11248
  23956987.560   125894888.70108  23956984.320    98099939.08146
  22945569.320   120579797.20308  22945568.620    93958287.77147
  23867006.260   125422393.10408  23867004.200    97731914.16046
  23012872.860   120933485.07609  23012869.620    94233879.47347
 15 02 27 00 04  0.0000000  0  7G16G18G21G22G27G29G31
  21690449.000   113984094.43409  21690445.120    88818764.16848
  22549035.320   118496101.80409  22549031.920    92334656.13647
  21265774.520   111752636.66008  21265770.220    87080065.72448
  23938946.820   125800085.76707  23938943.720    98026066.96646
  22932985.240   120513667.44208  22932984.580    93906758.10447
  23881074.740   125496324.35108  23881072.740    97789522.90046
  23030188.560   121024480.11409  23030185.340    94304784.66947
 15 02 27 00 04 30.0000000  0  7G16G18G21G22G27G29G31
  21677019.960   113913524.30309  21677016.020    88763774.45548
  22537352.460   118434708.32509  22537349.080    92286817.08747
  21272843.240   111789784.08008  21272839.100    87109011.76048
  23920906.940   125705285.80508  23920903.940    97952197.06446
  22920419.160   120447632.47208  22920418.560    93855302.30148
  23895148.580   125570282.56708  23895146.680    97847152.61546
  23047536.640   121115645.62309  23047533.620    94375822.69747
 15 02 27 00 05  0.0000000  0  7G16G18G21G22G27G29G31
  21663643.840   113843231.94709  21663639.800    88709001.18548
  22525726.380   118373613.49809  22525723.040    92239210.73647
  21279974.160   111827258.09808  21279970.160    87138212.28348
  23902868.660   125610494.39809  23902865.480    97878333.90346
  22907871.740   120381695.39008  22907871.180    93803922.74948
  23909228.420   125644271.09608  23909226.140    97904805.97346
  23064917.100   121206981.45009  23064914.320    94446993.43147
 15 02 27 00 05 30.0000000  0  7G16G18G21G22G27G29G31
  21650321.320   113773220.91009  21650317.180    88654447.12548
  22514157.960   118312821.32709  22514154.580    92191840.22647
  21287167.240   111865058.16209  21287163.300    87167666.87448
  23884832.760   125515715.30608  23884829.280    97804480.25946
  22895343.180   120315857.34709  22895342.580    93752620.42947
  23923314.220   125718290.94808  23923311.740    97962483.75946
  23082329.680   121298485.71208  23082326.940    94518295.43047
 15 02 27 00 06  0.0000000  0  7G16G18G21G22G27G29G31
  21637052.440   113703492.43809  21637048.360    88600113.25948
  22502647.400   118252332.92909  22502644.060    92144706.42747
  21294422.020   111903181.78909  21294418.020    87197373.59448
  23866799.600   125420950.61808  23866795.940    97730637.85046
  22882833.360   120250117.76008  22882832.720    93701394.73948
  23937405.640   125792341.22408  23937403.020    98020185.26146
  23099773.780   121390154.92409  23099770.960    94589725.95647
 15 02 27 00 06 30.0000000  0  7G16G18G21G22G27G29G31
  21623837.940   113634050.10809  21623834.060    88546002.36148
  22491195.440   118192152.13709  22491192.200    92097812.31847
  21301738.300   111941628.08608  21301734.160    87227331.74748
  23848769.840   125326203.93908  23848765.840    97656809.44946
  22870342.500   120184477.69008  22870341.760    93650246.69648
  23951502.920   125866422.93108  23951500.440    98077911.20346
  23117249.080   121481987.31508  23117245.980    94661283.63347
 15 02 27 00 07  0.0000000  0  7G16G18G21G22G27G29G31
  21610678.600   113564897.52809  21610674.800    88492117.24048
  22479802.620   118132282.34009  22479799.560    92051160.54847
  21309116.060   111980397.80109  21309111.840    87257541.91948
  23830744.320   125231479.51608  23830740.180    97582998.40346
  22857870.820   120118938.82209  22857870.060    93599177.43847
  23965606.380   125940538.03308  23965604.200    98135663.17746
  23134755.020   121573981.02308  23134751.760    94732966.99847
 15 02 27 00 07 30.0000000  0  7G16G18G21G22G27G29G31
  21597573.780   113496031.16309  21597569.920    88438455.13548
  22468468.320   118072720.48009  22468465.420    92004748.72447
  21316553.780   112019482.86609  21316549.500    87287997.80848
  23812722.180   125136774.04708  23812718.000    97509202.14445
  22845417.340   120053495.34508  22845416.500    93548182.56247
  23979714.900   126014680.17008  23979712.960    98193436.24446
  23152290.080   121666127.66509  23152286.680    94804769.52847
 15 02 27 00 08  0.0000000  0  7G16G18G21G22G27G29G31
  21584523.960   113427453.83809  21584520.040    88385018.26548
  22457193.140   118013469.37209  22457190.260    91958579.02747
  21324051.260   112058882.18409  21324046.980    87318698.57948
  23794704.300   125042090.85908  23794700.280    97435423.18046
  22832982.200   119988148.03109  22832981.220    93497262.58547
  23993828.920   126088850.11608  23993827.160    98251230.99746
  23169853.720   121758424.77509  23169850.240    94876689.32547
 15 02 27 00 08 30.0000000  0  7G16G18G21G22G27G29G31
  21571530.300   113359171.88809  21571526.360    88331811.56348
  22445978.320   117954535.01609  22445975.160    91912656.18147
  21331609.000   112098598.24709  21331604.740    87349646.15948
  23776691.900   124947436.22208  23776688.000    97361666.50946
  22820566.060   119922900.62709  22820565.020    93446420.46747
  24007949.100   126163051.54808  24007947.360    98309050.25046
  23187446.180   121850873.17209  23187442.680    94948727.01047
 15 02 27 00 09  0.0000000  0  7G16G18G21G22G27G29G31
  21558593.120   113291186.80609  21558589.180    88278836.18048
  22434824.140   117895919.25009  22434820.640    91866981.57747
  21339226.500   112138628.54009  21339222.260    87380838.59748
  23758685.360   124852812.33508  23758681.760    97287933.75546
  22808168.780   119857752.67609  22808167.760    93395655.80747
  24022075.160   126237283.94208  24022073.360    98366893.66046
  23205066.700   121943469.16709  23205063.160    95020879.69547
 15 02 27 00 09 30.0000000  0  7G16G18G21G22G27G29G31
  21545712.840   113223500.79809  21545709.000    88226093.84548
  22423731.100   117837624.93109  22423727.520    91821557.44547
  21346903.460   112178971.75809  21346899.300    87412274.86448
  23740685.120   124758221.98108  23740681.580    97214227.15346
  22795790.540   119792704.45109  22795789.500    93344968.94448
  24036206.980   126311547.36308  24036205.180    98424761.20246
  23222714.800   122036210.26908  23222711.260    95093145.43747
 15 02 27 00 10  0.0000000  0  7G16G18G21G22G27G29G31
  21532889.700   113156114.61109  21532885.860    88173585.13248
  22412699.360   117779652.98309  22412696.000    91776384.50047
  21354639.340   112219624.82208  21354635.300    87443952.57548
  23722691.540   124663666.46708  23722687.800    97140547.65546
  22783431.040   119727754.61509  22783430.040    93294358.65947
  24050344.520   126385840.40808  24050342.760    98482651.84246
  23240389.660   122129091.99609  23240386.100    95165520.76047
 15 02 27 00 10 30.0000000  0  7G16G18G21G22G27G29G31
  21520123.560   113089028.28209  21520119.740    88121310.07448
  22401728.700   117722002.36409  22401725.580    91731461.96047
  21362433.320   112260583.26008  21362429.480    87475868.24048
  23704704.740   124569145.69208  23704700.920    97066895.23646
  22771089.680   119662900.56608  22771088.720    93243823.04448
  24064487.280   126460160.50408  24064485.400    98540563.60146
  23258090.280   122222108.66809  23258086.580    95238001.23647
 15 02 27 00 11  0.0000000  0  7G16G18G21G22G27G29G31
  21507415.900   113022249.37809  21507412.140    88069274.56448
  22390820.800   117664681.27809  22390817.900    91686796.15247
  21370286.020   112301849.72109  21370282.180    87508023.91948
  23686726.080   124474667.67108  23686722.420    96993276.16346
  22758767.520   119598147.60409  22758766.620    93193366.22148
  24078636.160   126534512.65608  24078634.180    98598500.33646
  23275817.020   122315262.56109  23275813.100    95310588.64947
 15 02 27 00 11 30.0000000  0  7G16G18G21G22G27G29G31
  21494766.920   112955778.81809  21494763.220    88017479.32748
  22379975.880   117607690.89409  22379973.020    91642388.07947
  21378197.240   112343423.09509  21378193.240    87540418.75348
  23668755.920   124380234.03008  23668752.100    96919691.60146
  22746464.520   119533495.02109  22746463.680    93142987.58248
  24092790.940   126608896.11108  24092789.080    98656461.42446
  23293569.020   122408549.93208  23293565.140    95383280.06447
 15 02 27 00 12  0.0000000  0  7G16G18G21G22G27G29G31
  21482177.460   112889620.88009  21482173.860    87965927.69748
  22369194.700   117551035.32409  22369191.620    91598240.90247
  21386166.940   112385303.41809  21386162.820    87573052.77148
  23650795.260   124285849.66408  23650791.140    96846145.47046
  22734181.020   119468944.88009  22734180.180    93092688.76147
  24106951.700   126683312.82107  24106950.280    98714448.43146
  23311346.080   122501969.74908  23311342.480    95456074.68347
 15 02 27 00 12 30.0000000  0  7G16G18G21G22G27G29G31
  21469647.580   112823775.53209  21469643.920    87914619.63648
  22358477.300   117494714.56809  22358473.900    91554354.60747
  21394194.100   112427485.65109  21394189.840    87605922.04648
  23632844.040   124191514.57308  23632839.800    96772637.70546
  22721916.560   119404494.72609  22721915.700    93042467.87247
  24121118.140   126757760.35908  24121117.240    98772459.37946
  23329147.200   122595516.40308  23329144.040    95528968.10847
 15 02 27 00 13  0.0000000  0  7G16G18G21G22G27G29G31
  21457176.580   112758239.52209  21457172.800    87863552.61848
  22347822.960   117438725.33409  22347819.440    91510726.64947
  21402277.360   112469962.99109  21402273.040    87639021.26548
  23614901.580   124097226.03608  23614897.420    96699166.23846
  22709670.140   119340139.23609  22709669.280    92992320.75947
  24135289.700   126832233.04308  24135289.040    98830489.97246
  23346971.100   122689181.74308  23346968.200    95601954.03647
 15 02 27 00 13 30.0000000  0  7G16G18G21G22G27G29G31
  21444765.300   112693017.75309  21444761.460    87812730.47048
  22337232.660   117383072.57709  22337229.100    91467360.85847
  21410416.960   112512737.00409  21410412.680    87672351.65348
  23596969.040   124002989.64508  23596964.460    96625735.37646
  22697442.280   119275881.29608  22697441.400    92942249.62148
  24149466.960   126906733.95708  24149466.020    98888542.61446
  23364817.740   122782965.56809  23364814.900    95675032.27847
 15 02 27 00 14  0.0000000  0  7G16G18G21G22G27G29G31
  21432414.380   112628113.39409  21432410.540    87762155.64648
  22326707.080   117327759.59709  22326703.380    91424259.88247
  21418612.720   112555806.17609  21418608.540    87705912.04748
  23579046.940   123908808.74708  23579042.160    96552347.74146
  22685233.200   119211721.83408  22685232.320    92892255.25048
  24163649.920   126981263.79408  24163648.360    98946617.78545
  23382686.600   122876865.66108  23382683.600    95748201.13447
 15 02 27 00 14 30.0000000  0  7G16G18G21G22G27G29G31
  21420125.180   112563533.35109  21420121.440    87711833.54848
  22316247.380   117272793.03509  22316243.720    91381428.77847
  21426865.300   112599173.79009  21426861.140    87739704.99648
  23561136.660   123814690.44708  23561132.100    96479008.94346
  22673043.800   119147665.56609  22673042.840    92842341.28948
  24177839.080   127055826.99108  24177836.860    99004719.01845
  23400577.740   122970883.57908  23400574.580    95821461.79746
 15 02 27 00 15  0.0000000  0  7G16G18G21G22G27G29G31
  21407897.680   112499277.54909  21407894.100    87661764.08848
  22305853.440   117218172.59309  22305849.900    91338867.40747
  21435173.800   112642835.54108  21435169.760    87773727.13448
  23543238.320   123720635.04208  23543233.680    96405719.07046
  22660873.520   119083710.05609  22660872.520    92792505.82448
  24192034.020   127130421.27308  24192031.380    99062844.47045
  23418490.080   123065014.06508  23418486.880    95894810.17247
 15 02 27 00 15 30.0000000  0  7G16G18G21G22G27G29G31
  21395732.080   112435347.32809  21395728.600    87611948.34348
  22295525.520   117163899.82509  22295522.120    91296576.96547
  21443537.840   112686789.35908  21443533.880    87807976.86348
  23525352.460   123626644.94108  23525347.520    96332480.10047
  22648722.220   119019855.02208  22648721.320    92742748.66148
  24206234.500   127205046.04308  24206232.140    99120993.57246
  23436423.140   123159253.49908  23436420.020    95968243.45047
 15 02 27 00 16  0.0000000  0  7G16G18G21G22G27G29G31
  21383628.400   112371742.55209  21383624.920    87562386.17848
  22285263.660   117109974.77409  22285260.440    91254557.43447
  21451956.580   112731030.63608  21451952.680    87842450.57248
  23507479.060   123532720.16508  23507474.160    96259292.05846
  22636589.560   118956098.10409  22636588.780    92693067.96048
  24220440.480   127279699.01108  24220438.280    99179164.66746
  23454376.000   123253596.63108  23454373.060    96041757.50347
 15 02 27 00 16 30.0000000  0  7G16G18G21G22G27G29G31
  21371587.560   112308467.52409  21371583.960    87513080.96348
  22275068.780   117056401.35809  22275065.680    91212811.94647
  21460430.160   112775560.02209  21460426.320    87877148.78948
  23489619.060   123438865.55508  23489613.980    96186158.67546
  22624476.000   118892441.43209  22624475.280    92643465.37548
  24234652.360   127354382.19108  24234650.260    99237359.31946
  23472348.540   123348042.44808  23472345.720    96115351.58147
 15 02 27 00 17  0.0000000  0  7G16G18G21G22G27G29G31
  21359609.740   112245523.39809  21359606.080    87464033.59248
  22264941.040   117003180.30109  22264938.060    91171341.00547
  21468958.080   112820374.45009  21468954.200    87912069.12948
  23471772.640   123345082.20008  23471767.400    96113080.80446
  22612381.340   118828883.86709  22612380.640    92593940.01148
  24248869.880   127429094.32308  24248867.480    99295576.56146
  23490339.920   123442586.77908  23490337.040    96189022.42947
 15 02 27 00 17 30.0000000  0  7G16G18G21G22G27G29G31
  21347696.220   112182917.19609  21347692.600    87415249.54948
  22254881.980   116950319.47109  22254878.980    91130150.74247
  21477540.940   112865477.21009  21477536.920    87947214.14948
  23453941.280   123251378.30408  23453936.080    96040064.87146
  22600306.540   118765430.59309  22600305.840    92544495.91448
  24263093.700   127503840.06608  24263091.300    99353819.95046
  23508350.360   123537231.52408  23508347.440    96262771.52546
 15 02 27 00 18  0.0000000  0  7G16G18G21G22G27G29G31
  21335846.740   112120647.48509  21335843.160    87366727.69348
  22244891.200   116897816.85309  22244888.180    91089239.63747
  21486177.560   112910862.47709  21486173.400    87982579.28448
  23436124.740   123157752.43308  23436119.580    95967109.67746
  22588250.960   118702077.89509  22588250.180    92495130.17448
  24277323.140   127578615.89708  24277320.700    99412086.85445
  23526378.500   123631970.26508  23526375.680    96336593.83947
 15 02 27 00 18 30.0000000  0  7G16G18G21G22G27G29G31
  21324061.980   112058717.80709  21324058.360    87318470.80448
  22234969.220   116845676.02509  22234966.160    91048610.42747
  21494867.900   112956530.21909  21494863.700    88018164.53848
  23418323.840   123064208.71308  23418318.980    95894218.55746
  22576214.860   118638827.23508  22576213.900    92445843.93948
  24291558.400   127653423.33708  24291556.160    99470378.32246
  23544424.100   123726801.23208  23544421.460    96410488.04047
 15 02 27 00 19  0.0000000  0  7G16G18G21G22G27G29G31
  21312342.500   111997131.20609  21312338.820    87270481.24348
  22225116.580   116793899.66909  22225113.380    91008265.20047
  21503611.740   113002479.14909  21503607.600    88053968.89648
  23400539.360   122970750.75809  23400534.440    95821394.23046
  22564198.300   118575679.54909  22564197.220    92396637.96948
  24305799.700   127728263.21308  24305797.660    99528695.05645
  23562486.880   123821722.33808  23562484.440    96484452.46046
 15 02 27 00 19 30.0000000  0  7G16G18G21G22G27G29G31
  21300687.500   111935883.61509  21300683.740    87222755.85048
  22215332.460   116742483.47709  22215329.120    90968200.66847
  21512407.540   113048701.51809  21512403.540    88089986.31548
  23382770.440   122877374.65508  23382765.640    95748633.70246
  22552200.180   118512628.62709  22552199.060    92347507.37848
  24320045.980   127803128.90308  24320044.200    99587031.94045
  23580565.180   123916724.10209  23580562.760    96558479.73746
 15 02 27 00 20  0.0000000  0  7G16G18G21G22G27G29G31
  21289099.560   111874988.24309  21289095.640    87175304.90448
  22205619.480   116691441.11809  22205615.960    90928427.39947
  21521257.180   113095206.88009  21521253.200    88126224.25748
  23365019.720   122784094.28708  23365015.100    95675947.75646
  22540222.600   118449685.88609  22540221.520    92298461.09648
  24334299.100   127878031.67908  24334297.680    99645397.65945
  23598660.580   124011814.88609  23598657.920    96632576.36646
 15 02 27 00 20 30.0000000  0  7G16G18G21G22G27G29G31
  21277576.760   111814435.61509  21277572.800    87128121.03848
  22195975.740   116640762.53909  22195972.120    90888937.60547
  21530158.060   113141981.50108  21530154.040    88162672.01448
  23347285.500   122690900.63108  23347280.980    95603329.35847
  22528263.240   118386839.55308  22528262.280    92249489.93848
  24348557.220   127952960.00108  24348555.800    99703783.39745
  23616770.100   124106979.96508  23616767.220    96706730.88946
 15 02 27 00 21  0.0000000  0  7G16G18G21G22G27G29G31
  21266120.420   111754232.40209  21266116.540    87081209.45048
  22186402.400   116590454.18709  22186398.800    90849736.29247
  21539110.740   113189028.28109  21539106.680    88199331.83448
  23329569.240   122597801.14308  23329564.820    95530784.33946
  22516323.080   118324094.33209  22516322.340    92200597.58048
  24362821.440   128027918.12408  24362819.820    99762192.29945
  23634893.960   124202220.78308  23634890.940    96780944.42346
 15 02 27 00 21 30.0000000  0  7G16G18G21G22G27G29G31
  21254730.760   111694379.60809  21254726.960    87034570.90948
  22176899.540   116540516.83309  22176896.160    90810824.10147
  21548114.640   113236343.72109  21548110.500    88236201.00648
  23311871.080   122504797.02608  23311866.660    95458313.64547
  22504402.000   118261449.11208  22504401.400    92151783.11748
  24377091.240   128102904.88108  24377089.540    99820623.54946
  23653031.420   124297533.17208  23653028.300    96855213.72946
 15 02 27 00 22  0.0000000  0  7G16G18G21G22G27G29G31
  21243408.540   111634880.99009  21243404.780    86988208.35248
  22167467.960   116490954.27109  22167464.700    90772203.92547
  21557169.660   113283927.83409  21557165.480    88273279.52948
  23294191.920   122411892.63709  23294187.560    95385920.67647
  22492500.340   118198905.62709  22492499.760    92103047.95648
  24391366.960   128177921.91008  24391365.000    99879078.33846
  23671182.260   124392916.07208  23671179.260    96929537.98146
 15 02 27 00 22 30.0000000  0  7G16G18G21G22G27G29G31
  21232155.040   111575743.34309  21232151.260    86942127.06448
  22158109.000   116441773.31409  22158105.820    90733881.09747
  21566276.380   113331783.78409  21566272.160    88310569.86848
  23276533.100   122319095.07108  23276528.680    95313610.90846
  22480618.980   118136468.64809  22480618.380    92054395.76748
  24405649.060   128252973.78308  24405646.860    99937560.32345
  23689346.840   124488370.81508  23689343.900    97003918.22446
 15 02 27 00 23  0.0000000  0  7G16G18G21G22G27G29G31
  21220969.560   111516963.30209  21220965.780    86896324.44548
  22148821.940   116392970.17509  22148818.760    90695852.72647
  21575433.420   113379903.98109  21575429.100    88348066.12748
  23258894.160   122226401.66109  23258889.580    95241382.34247
  22468756.860   118074132.73209  22468756.180    92005822.34848
  24419936.500   128328054.98108  24419934.620    99996065.13446
  23707523.380   124583888.90108  23707520.660    97078347.80147
 15 02 27 00 23 30.0000000  0  7G16G18G21G22G27G29G31
  21209853.880   111458550.66909  21209850.180    86850808.12048
  22139608.680   116344554.27709  22139605.420    90658126.05147
  21584641.860   113428294.39909  21584637.520    88385772.95148
  23241276.980   122133822.70008  23241272.220    95169242.92847
  22456915.400   118011905.73609  22456914.680    91957333.78548
  24434230.560   128403173.48307  24434229.460   100054598.96646
  23725713.000   124679475.42708  23725710.400    97152830.71446
 15 02 27 00 24  0.0000000  0  7G16G18G21G22G27G29G31
  21198806.760   111400497.90309  21198803.080    86805572.19848
  22130467.760   116296518.37109  22130464.500    90620695.48147
  21593899.460   113476943.53709  21593895.160    88423681.35948
  23223680.260   122041351.27809  23223675.260    95097187.31447
  22445092.920   117949778.12909  22445092.200    91908922.67348
  24448529.960   128478319.17108  24448529.440   100113154.03947
  23743913.160   124775117.42408  23743910.560    97227356.82746
 15 02 27 00 24 30.0000000  0  7G16G18G21G22G27G29G31
  21187829.880   111342813.87009  21187826.160    86760623.59948
  22121400.740   116248870.48409  22121397.480    90583567.25347
  21603207.240   113525856.30009  21603202.960    88461795.19148
  23206105.740   121948996.27408  23206100.400    95025222.39847
  22433290.700   117887756.59509  22433289.900    91860594.20248
  24462835.840   128553498.62008  24462835.680   100171735.34646
  23762124.560   124870818.47508  23762121.740    97301928.97346
 15 02 27 00 25  0.0000000  0  7G16G18G21G22G27G29G31
  21176921.260   111285488.35909  21176917.480    86715954.37648
  22112405.660   116201600.34709  22112402.320    90546733.39647
  21612562.560   113575018.74709  21612558.220    88500103.59148
  23188551.600   121856748.57209  23188546.020    94953341.09847
  22421506.360   117825829.11109  22421505.320    91812339.03048
  24477146.300   128628699.82508  24477145.880   100230333.78846
  23780344.420   124966563.61308  23780341.320    97376535.47146
 15 02 27 00 25 30.0000000  0  7G16G18G21G22G27G29G31
  21166083.560   111228535.87209  21166079.740    86671575.82548
  22103485.240   116154722.67909  22103481.740    90510205.33947
  21621967.400   113624441.49609  21621963.000    88538614.82048
  23171020.600   121764623.10708  23171015.000    94881555.05947
  22409742.240   117764008.11209  22409741.120    91764166.83548
  24491463.380   128703935.13508  24491462.640   100288958.63346
  23798574.440   125062362.09608  23798571.020    97451183.53546
 15 02 27 00 26  0.0000000  0  7G16G18G21G22G27G29G31
  21155317.000   111171956.95909  21155313.160    86627488.36548
  22094639.480   116108237.86009  22094635.860    90473983.42547
  21631420.960   113674120.40509  21631416.560    88577325.65448
  23153513.040   121672620.93409  23153507.540    94809865.08847
  22397998.080   117702292.24709  22397997.040    91716076.56948
  24505786.600   128779202.74008  24505785.340   100347608.74645
  23816813.700   125158209.66808  23816810.160    97525869.84246
 15 02 27 00 26 30.0000000  0  7G16G18G21G22G27G29G31
  21144622.380   111115756.01309  21144618.500    86583695.42448
  22085869.100   116062149.40709  22085865.420    90438070.35947
  21640923.360   113724056.10109  21640919.060    88616236.58848
  23136029.860   121580746.72309  23136024.620    94738274.83747
  22386274.400   117640683.77509  22386273.360    91668069.96148
  24520116.200   128854504.95507  24520114.540   100406285.80046
  23835061.960   125254105.03708  23835058.480    97600593.39446
 15 02 27 00 27  0.0000000  0  7G16G18G21G22G27G29G31
  21133998.900   111059928.95509  21133995.000    86540193.82648
  22077173.380   116016453.14809  22077169.780    90402462.89447
  21650473.260   113774241.35109  21650469.000    88655341.97748
  23118570.500   121488997.40909  23118565.460    94666781.90447
  22374570.000   117579176.96109  22374569.020    91620142.57848
  24534451.240   128929835.97508  24534449.700   100464985.26046
  23853317.660   125350039.71108  23853314.420    97675347.54846
 15 02 27 00 27 30.0000000  0  7G16G18G21G22G27G29G31
  21123447.900   111004482.93909  21123443.960    86496989.13648
  22068553.620   115971156.11309  22068550.200    90367166.52247
  21660071.280   113824679.42009  21660067.100    88694644.35748
  23101136.360   121397380.41409  23101131.440    94595392.06847
  22362885.820   117517776.78009  22362885.040    91572298.30048
  24548792.580   129005200.14107  24548791.060   100523710.57444
  23871581.180   125446015.53508  23871578.160    97750133.78346
 15 02 27 00 28  0.0000000  0  6G16G18G21G22G27G31
  21112974.020   110949442.30209  21112970.080    86454100.33848
  22060014.280   115926281.90509  22060011.060    90332199.61347
  21669721.100   113875389.73209  21669716.960    88734158.87548
  23083732.220   121305920.62009  23083727.260    94524124.73246
  22351226.140   117456505.49709  22351225.580    91524554.45948
  23889856.220   125542051.75208  23889853.500    97824967.09546
 15 02 27 00 28 30.0000000  0  6G16G18G21G22G27G31
  21102567.480   110894755.75409  21102563.580    86411487.44648
  22051545.640   115881779.23209  22051542.440    90297522.22447
  21679412.340   113926317.47709  21679408.200    88773842.83248
  23066348.400   121214567.19109  23066343.300    94452940.26247
  22339580.960   117395309.92509  22339580.460    91476869.60648
  23908132.000   125638091.92908  23908129.680    97899803.46146
 15 02 27 00 29  0.0000000  0  7G16G18G19G21G22G27G31
  21092234.840   110840458.08409  21092231.120    86369177.58048
  22043154.280   115837682.63709  22043151.060    90263161.24747
  24543333.660   128976083.64308                                
  21689150.960   113977494.16809  21689146.880    88813720.77148
  23048991.460   121123355.54109  23048986.260    94381866.28347
  22327956.560   117334223.00709  22327955.940    91429269.43148
  23926414.180   125734165.83808  23926412.320    97974666.10646
 15 02 27 00 29 30.0000000  0  7G16G18G19G21G22G27G31
  21081971.600   110786525.14009  21081968.020    86327151.91948
  22034835.620   115793967.73709  22034832.340    90229097.69847
  24528134.980   128896211.92508  24528131.160   100438583.67045
  21698931.540   114028891.34409  21698927.460    88853770.51348
  23031656.940   121032262.29409  23031651.580    94310884.56347
  22316347.980   117273218.85309  22316347.140    91381733.73748
  23944697.320   125830244.53708  23944695.720    98049532.47546
 15 02 27 00 30  0.0000000  0  7G16G18G19G21G22G27G31
  21071786.440   110733002.22809  21071782.880    86285445.76048
  22026598.200   115750679.17409  22026594.720    90195366.36747
  24512950.640   128816419.64208  24512947.180   100376407.90646
  21708761.860   114080550.12709  21708757.800    88894024.10648
  23014353.600   120941333.18809  23014348.260    94240030.74847
  22304763.380   117212340.57109  22304762.380    91334296.13048
  23962989.060   125926367.97208  23962987.440    98124433.73346
 15 02 27 00 30 30.0000000  0  7G16G18G19G21G22G27G31
  21061676.260   110679873.02909  21061672.660    86244046.37848
  22018438.800   115707800.46309  22018435.160    90161954.38947
  24497778.440   128736688.95408  24497774.460   100314280.13245
  21718638.220   114132450.83009  21718634.080    88934466.20848
  22997078.440   120850552.58409  22997073.080    94169292.61547
  22293199.240   117151570.17109  22293198.260    91286942.58948
  23981285.440   126022515.15708  23981283.520    98199353.47846
 15 02 27 00 31  0.0000000  0  7G16G18G19G21G22G27G31
  21051639.960   110627131.63809  21051636.260    86202949.19248
  22010356.160   115665325.84309  22010352.520    90128857.29447
  24482616.700   128657011.92308  24482612.060   100252194.12545
  21728558.680   114184583.19709  21728554.480    88975088.83648
  22979830.560   120759915.30709  22979825.300    94098666.21847
  22281654.060   117090899.84109  22281653.080    91239667.00948
  23999584.340   126118675.25908  23999582.240    98274283.27846
 15 02 27 00 31 30.0000000  0  7G16G18G19G21G22G27G31
  21041681.180   110574797.60109  21041677.460    86162169.42548
  22002353.780   115623273.83009  22002350.300    90096089.51047
  24467468.020   128577405.56607  24467463.320   100190163.26745
  21738526.120   114236962.99409  21738522.060    89015904.25648
  22962613.820   120669441.13708  22962608.700    94028166.87947
  22270131.200   117030347.02109  22270130.220    91192483.01648
  24017888.300   126214862.18508  24017886.100    98349233.97846
 15 02 27 00 32  0.0000000  0  7G16G18G19G21G22G27G31
  21031797.740   110522859.81009  21031794.060    86121698.42148
  21994429.760   115581633.24909  21994426.440    90063642.31747
  24452330.520   128497857.13508  24452325.540   100128177.43445
  21748537.920   114289575.74709  21748534.020    89056901.19848
  22945426.080   120579119.30309  22945421.040    93957786.27947
  22258628.280   116969899.00509  22258627.260    91145380.67248
  24036194.460   126311060.73608  24036192.380    98424193.72246
 15 02 27 00 32 30.0000000  0  7G16G18G19G21G22G27G31
  21021989.900   110471319.41809  21021986.300    86081537.08148
  21986584.280   115540404.71309  21986580.880    90031516.18747
  24437203.820   128418365.65907  24437199.140   100066236.09846
  21758593.520   114342418.44009  21758589.740    89098077.31848
  22928267.900   120488952.16409  22928262.900    93887526.20547
  22247145.160   116909554.99609  22247144.100    91098359.37948
  24054502.040   126407266.64408  24054500.060    98499159.19446
 15 02 27 00 33  0.0000000  0  7G16G18G19G21G22G27G31
  21012259.440   110420185.23509  21012255.800    86041692.25948
  21978818.820   115499596.98509  21978815.420    89999717.96347
  24422089.280   128338938.10208  24422084.120   100004344.48746
  21768693.860   114395495.81409  21768690.060    89139436.29648
  22911140.900   120398948.68609  22911135.940    93817393.66147
  22235683.140   116849321.95109  22235682.080    91051424.55848
  24072811.800   126503483.96008  24072809.860    98574133.56146
 15 02 27 00 33 30.0000000  0  7G16G18G19G21G22G27G31
  21002605.840   110369454.89909  21002602.180    86002162.13948
  21971132.800   115459207.21109  21971129.480    89968245.43547
  24406986.060   128259569.67508  24406981.260    99942498.96546
  21778837.640   114448801.22309  21778833.740    89180972.98348
  22894044.800   120309107.61709  22894039.800    93747387.66047
  22224241.440   116789195.73509  22224240.480    91004572.97848
  24091122.320   126599705.17008  24091120.340    98649110.95746
 15 02 27 00 34  0.0000000  0  7G16G18G19G21G22G27G31
  20993030.340   110319135.10509  20993026.660    85962951.90648
  21963527.500   115419241.61209  21963524.220    89937103.41847
  24391894.920   128180264.94908  24391890.200    99880703.13346
  21789025.560   114502338.70709  21789021.640    89222690.49348
  22876980.880   120219436.18609  22876975.920    93677513.84047
  22212821.000   116729181.26209  22212820.160    90957808.46348
  24109433.940   126695932.25508  24109431.960    98724092.93245
 15 02 27 00 34 30.0000000  0  7G16G18G19G21G22G27G31
  20983532.540   110269223.59809  20983528.860    85924059.82648
  21956002.460   115379697.54909  21955999.160    89906289.87947
  24376815.020   128101020.50708  24376810.240    99818954.25746
  21799256.420   114556101.99509  21799252.460    89264583.96448
  22859948.900   120129932.79709  22859943.940    93607770.96347
  22201421.100   116669274.54309  22201420.340    90911127.91448
  24127745.380   126792158.01908  24127743.380    98799073.89946
 15 02 27 00 35  0.0000000  0  7G16G18G19G21G22G27G31
  20974112.880   110219722.33509  20974109.080    85885487.41048
  21948557.960   115340576.53509  21948554.620    89875805.98647
  24361746.400   128021835.53607  24361741.700    99757251.65846
  21809529.740   114610088.51609  21809525.680    89306651.37548
  22842949.320   120040599.93509  22842944.420    93538160.97147
  22190041.720   116609475.63709  22190041.020    90864531.38048
  24146055.900   126888379.34008  24146053.820    98874051.37946
 15 02 27 00 35 30.0000000  0  7G16G18G19G21G22G27G31
  20964772.540   110170638.04709  20964768.560    85847239.90548
  21941195.220   115301884.91209  21941191.900    89845656.68447
  24346690.000   127942714.84408  24346685.700    99695599.21446
  21819846.160   114664301.60109  21819841.980    89348895.33748
  22825983.540   119951444.97109  22825978.680    93468689.58747
  22178683.780   116549789.42709  22178683.100    90818022.66248
  24164365.880   126984598.08808  24164363.900    98949026.84146
 15 02 27 00 36  0.0000000  0  7G16G18G19G21G22G27G31
  20955509.840   110121962.33809  20955505.760    85809310.78748
  21933912.500   115263613.73709  21933909.160    89815834.99947
  24331644.160   127863648.18008  24331640.240    99633988.85745
  21830203.420   114718729.63009  21830199.220    89391306.78448
  22809050.160   119862459.97609  22809045.300    93399350.64447
  22167345.480   116490205.79609  22167344.580    90771593.86848
  24182672.800   127080801.23108  24182670.800    99023990.16246
 15 02 27 00 36 30.0000000  0  7G16G18G19G21G22G27G31
  20946327.840   110073711.40109  20946323.840    85771712.65448
  21926712.780   115225778.92109  21926709.380    89786353.34147
  24316611.140   127784649.74108  24316607.420    99572431.71045
  21840603.760   114773384.16909  21840599.640    89433894.73248
  22792152.380   119773661.90509  22792147.620    93330157.38547
  22156029.440   116430739.28909  22156028.380    90725256.34548
  24200978.780   127177000.02408  24200976.900    99098950.06746
 15 02 27 00 37  0.0000000  0  7G16G18G19G21G22G27G31
  20937224.140   110025871.98809  20937220.300    85734435.18648
  21919593.400   115188366.77909  21919590.060    89757201.02847
  24301588.380   127705704.52008  24301584.140    99510915.88646
  21851044.080   114828248.57809  21851039.980    89476646.21448
  22775287.880   119685038.38609  22775283.140    93261100.13047
  22144732.780   116371374.84109  22144731.660    90678998.33948
  24219280.480   127273176.24808  24219278.700    99173892.36346
 15 02 27 00 37 30.0000000  0  7G16G18G19G21G22G27G31
  20928201.480   109978457.72409  20928197.700    85697489.00648
  21912556.860   115151389.88209  21912553.580    89728387.87847
  24286578.100   127626823.84508  24286573.160    99449450.38745
  21861526.260   114883332.71209  21861522.220    89519568.90948
  22758459.280   119596603.24109  22758454.480    93192189.65247
  22133457.780   116312124.25809  22133456.620    90632829.05448
  24237579.640   127369338.48908  24237577.820    99248823.82546
 15 02 27 00 38  0.0000000  0  7G16G18G19G21G22G27G31
  20919259.640   109931467.98009  20919255.920    85660873.62348
  21905603.200   115114847.87609  21905599.860    89699913.60247
  24271579.500   127548005.49108  24271574.900    99388033.57845
  21872049.280   114938631.33409  21872045.300    89562658.74548
  22741666.620   119508356.79209  22741661.640    93123426.18547
  22122203.960   116252985.31009  22122202.840    90586746.78248
  24255875.180   127465481.63608  24255873.480    99323740.35046
 15 02 27 00 38 30.0000000  0  7G16G18G19G21G22G27G31
  20910399.080   109884905.63609  20910395.480    85624591.28548
  21898732.720   115078742.83709  21898729.300    89671779.81247
  24256592.700   127469250.26908  24256588.500    99326665.90546
  21882613.080   114994144.18109  21882609.100    89605915.50948
  22724910.440   119420302.54209  22724905.480    93054812.53847
  22110971.600   116193959.17309  22110970.520    90540752.39748
  24274166.620   127561603.34708  24274165.120    99398640.16446
 15 02 27 00 39  0.0000000  0  7G16G18G19G21G22G27G31
  20901619.340   109838767.86909  20901615.740    85588639.78248
  21891944.880   115043071.90909  21891941.420    89643984.28748
  24241617.140   127390553.27008  24241613.200    99265343.57246
  21893216.500   115049865.55809  21893212.500    89649334.75148
  22708190.440   119332438.74909  22708185.540    92986347.25247
  22099759.880   116135041.47009  22099758.800    90494842.51348
  24292452.760   127657696.56908  24292451.180    99473517.81245
 15 02 27 00 39 30.0000000  0  7G16G18G19G21G22G27G31
  20892922.520   109793065.32809  20892918.760    85553027.40648
  21885241.480   115007844.79209  21885238.000    89616534.60647
  24226654.320   127311923.71408  24226650.580    99204073.78046
  21903860.700   115105801.29909  21903856.720    89692921.03748
  22691508.840   119244776.62509  22691503.920    92918039.15547
  22088570.500   116076241.17309  22088569.540    90449024.11248
  24310734.600   127753767.29608  24310733.040    99548377.89645
 15 02 27 00 40  0.0000000  0  7G16G18G19G21G22G27G31
  20884307.340   109747791.47109  20884303.420    85517749.06248
  21878621.120   114973054.15209  21878617.540    89589425.02148
  24211702.700   127233352.61708  24211698.860    99142849.57846
  21914543.900   115161941.89609  21914539.920    89736666.95148
  22674864.500   119157310.15909  22674859.560    92849883.46347
  22077401.920   116017549.92109  22077401.020    90403290.66148
  24329009.960   127849803.72608  24329008.460    99623211.24046
 15 02 27 00 40 30.0000000  0  7G16G18G19G21G22G27G31
  20875774.060   109702948.45109  20875770.160    85482806.44948
  21872084.280   114938702.35309  21872080.600    89562657.40847
  24196762.400   127154840.43508  24196758.480    99081671.26946
  21925265.700   115218285.48309  21925261.720    89780571.05248
  22658258.000   119070042.15808  22658252.980    92781882.42347
  22066254.180   115958968.19609  22066253.360    90357642.58048
  24347278.300   127945803.29408  24347276.960    99698015.87446
 15 02 27 00 41  0.0000000  0  7G16G18G19G21G22G27G31
  20867324.020   109658543.42709  20867320.260    85448205.14048
  21865632.040   114904795.56909  21865628.340    89536236.54547
  24181834.320   127076392.40108  24181830.260    99020542.94146
  21936026.720   115274835.20009  21936022.680    89824635.76148
  22641690.780   118982980.18809  22641685.720    92714042.00547
  22055128.300   115900501.47809  22055127.460    90312084.11948
  24365539.980   128041768.22208  24365538.720    99772793.49546
 15 02 27 00 41 30.0000000  0  7G16G18G19G21G22G27G31
  20858958.080   109614580.23109  20858954.340    85413948.10648
  21859264.980   114871336.95809  21859261.400    89510164.91947
  24166918.720   126998010.59108  24166914.640    98959466.28246
  21946827.120   115331591.66709  21946823.040    89868861.58548
  22625163.780   118896129.37909  22625158.640    92646366.04847
  22044024.860   115842152.13209  22044023.900    90266617.09848
  24383794.960   128137697.98808  24383793.540    99847543.72145
 15 02 27 00 42  0.0000000  0  7G16G18G19G21G22G27G31
  20850675.660   109571055.64509  20850671.820    85380032.84048
  21852982.560   114838323.46409  21852979.120    89484440.12547
  24152014.940   126919690.05808  24152010.920    98898437.26646
  21957665.600   115388548.01209  21957661.460    89913243.14948
  22608676.440   118809487.14409  22608671.200    92578852.63547
  22032942.860   115783915.55809  22032941.860    90221237.95148
  24402041.860   128233584.74908  24402040.180    99922260.43445
 15 02 27 00 42 30.0000000  0  7G16G18G19G21G22G27G31
  20842477.240   109527972.70109  20842473.380    85346461.71348
  21846785.240   114805757.20509  21846781.900    89459063.82347
  24137122.740   126841431.85708  24137118.480    98837456.88645
  21968541.920   115445703.35909  21968537.700    89957779.77747
  22592229.400   118723057.19509  22592224.060    92511504.64547
  22021882.440   115725792.91909  22021881.520    90175947.58948
  24420280.300   128329426.55608  24420278.420    99996942.10045
 15 02 27 00 43  0.0000000  0  7G16G18G19G21G22G27G31
  20834363.680   109485336.04509  20834359.920    85313238.35048
  21840673.860   114773642.34609  21840670.500    89434039.27247
  24122242.620   126763238.70508  24122238.820    98776527.24846
  21979456.340   115503058.88409  21979452.140    90002472.40048
  22575823.620   118636844.79909  22575818.380    92444326.17147
  22010844.340   115667787.43009  22010843.480    90130748.53448
  24438510.220   128425223.70108  24438508.100   100071588.94145
 15 02 27 00 43 30.0000000  0  7G16G18G19G21G22G27G31
  20826333.680   109443138.30409  20826329.980    85280356.99448
  21834647.000   114741971.17209  21834643.560    89409360.44348
  24107373.620   126685101.87707  24107370.100    98715641.35847
  21990406.720   115560603.25409  21990402.500    90047312.16448
  22559458.020   118550843.72609  22559452.900    92377312.38047
  21999826.840   115609890.34209  21999825.980    90085633.93048
  24456729.280   128520964.10408  24456727.180   100146191.59546
 15 02 27 00 44  0.0000000  0  7G16G18G19G21G22G27G31
  20818389.820   109401393.32509  20818386.200    85247828.44148
  21828707.040   114710756.31409  21828703.560    89385037.18748
  24092517.600   126607032.87808  24092514.460    98654808.41546
  22001395.000   115618347.07409  22001390.840    90092307.34448
  22543135.320   118465067.96009  22543130.200    92310474.13447
  21988832.280   115552113.70009  21988831.380    90040613.18648
  24474939.160   128616656.88408  24474937.300   100220757.11246
 15 02 27 00 44 30.0000000  0  7G16G18G19G21G22G27G31
  20810531.640   109360098.24209  20810527.980    85215650.45048
  21822853.320   114679994.71109  21822849.860    89361067.10947
  24077673.560   126529027.12108  24077670.500    98594024.75646
  22012419.980   115676283.99709  22012415.900    90137452.98748
  22526855.220   118379515.69409  22526850.020    92243810.06947
  21977859.860   115494453.16409  21977858.920    89995682.90348
  24493138.400   128712294.36808  24493137.100   100295279.48346
 15 02 27 00 45  0.0000000  0  7G16G18G19G21G22G27G31
  20802758.680   109319251.09009  20802755.000    85183821.50548
  21817085.400   114649684.06009  21817081.900    89337448.42447
  24062841.220   126451081.12208  24062837.780    98533287.60546
  22023480.560   115734408.46508  22023476.640    90182744.78848
  22510617.580   118294186.17309  22510612.300    92177319.56347
  21966908.840   115436905.31609  21966907.880    89950840.44048
  24511326.000   128807870.17808  24511325.060   100369753.84146
 15 02 27 00 45 30.0000000  0  7G16G18G19G21G22G27G31
  20795071.860   109278856.94409  20795068.180    85152345.54648
  21811403.960   114619828.28309  21811400.560    89314184.20548
  24048020.980   126373198.08008  24048016.740    98472599.51946
  22034577.080   115792721.67309  22034573.320    90228183.64448
  22494423.360   118209084.77009  22494417.920    92111006.79647
  21955979.940   115379473.67209  21955979.060    89906088.51948
  24529502.000   128903384.76708  24529501.440   100444180.49745
 15 02 27 00 46  0.0000000  0  7G16G18G19G21G22G27G31
  20787472.460   109238922.00309  20787468.760    85121227.41148
  21805810.220   114590433.26509  21805806.960    89291278.99048
  24033213.440   126295382.42208  24033208.780    98411964.00045
  22045710.080   115851226.22709  22045706.440    90273771.60248
  22478273.880   118124218.62209  22478268.340    92044877.34747
  21945074.120   115322163.08809  21945073.260    89861430.92248
  24547666.740   128998839.80108  24547666.520   100518560.77746
 15 02 27 00 46 30.0000000  0  7G16G18G19G21G22G27G31
  20779960.480   109199446.18209  20779956.780    85090467.03548
  21800304.120   114561498.46909  21800300.920    89268732.41048
  24018418.100   126217632.25108  24018413.160    98351379.48046
  22056878.860   115909918.54109  22056875.300    90319505.87248
  22462169.160   118039588.24909  22462163.720    91978931.62247
  21934191.040   115264971.94509  21934190.080    89816866.41248
  24565819.260   129094230.69508  24565818.980   100592891.10045
 15 02 27 00 47  0.0000000  0  7G16G18G19G21G22G27G31
  20772535.700   109160428.62909  20772532.020    85060063.74148
  21794885.480   114533022.93209  21794882.280    89246543.67848
  24003634.520   126139945.10408  24003629.480    98290844.03546
  22068082.620   115968794.54009  22068079.060    90365383.26448
  22446109.360   117955193.74009  22446104.020    91913169.67647
  21923330.240   115207898.11109  21923329.300    89772393.30448
  24583958.460   129189551.97008  24583958.020   100667167.09745
 15 02 27 00 47 30.0000000  0  7G16G18G19G21G22G27G31
  20765198.660   109121872.50709  20765195.060    85030020.02648
  21789554.560   114505008.33809  21789551.380    89224714.14748
  23988863.100   126062322.36908  23988858.440    98230358.83646
  22079321.220   116027853.51909  22079317.560    90411403.24548
  22430095.240   117871039.03009  22430089.960    91847594.61347
  21912492.060   115150943.08309  21912491.120    89728012.77548
  24602084.040   129284802.01308  24602083.740   100741387.57545
 15 02 27 00 48  0.0000000  0  7G16G18G19G21G22G27G31
  20757949.540   109083778.38709  20757945.980    85000336.30048
  21784311.280   114477454.46109  21784308.080    89203243.60748
  23974103.940   125984763.10008  23974099.320    98169923.08346
  22090594.180   116087092.96909  22090590.360    90457563.86048
  22414127.080   117787125.65909  22414121.800    91782207.58547
  21901676.420   115094106.14109  21901675.360    89683724.26348
  24620195.280   129379976.98707  24620194.900   100815549.56445
 15 02 27 00 48 30.0000000  0  7G16G18G19G21G22G27G31
  20750788.940   109046148.94909  20750785.300    84971014.65848
  21779156.160   114450363.98909  21779152.840    89182134.15047
  23959357.220   125907268.01508  23959352.780    98109537.29646
  22101901.260   116146511.84409  22101897.320    90503864.28047
  22398205.480   117703456.89209  22398200.260    91717011.17648
  21890883.500   115037388.67209  21890882.380    89639528.83948
  24638292.080   129475075.34408  24638291.680   100889651.83345
 15 02 27 00 49  0.0000000  0  7G16G18G19G21G22G27G31
  20743717.520   109008987.70009  20743713.720    84942057.84148
  21774089.780   114423739.87209  21774086.340    89161388.10847
  23944623.080   125829839.03208  23944618.860    98049203.06746
  22113242.460   116206110.13408  22113238.500    90550304.51247
  22382331.240   117620037.09009  22382325.920    91652008.74748
  21880113.640   114980792.78909  21880112.580    89595428.16548
  24656374.300   129570096.07808  24656373.740   100963693.64645
 15 02 27 00 49 30.0000000  0  7G16G18G19G21G22G27G31
  20736735.620   108972296.77509  20736731.640    84913467.50348
  21769112.440   114397583.80009  21769108.940    89141006.75348
  23929901.520   125752477.26908  23929897.100    97988921.21246
  22124617.580   116265886.90109  22124613.580    90596883.81348
  22366504.900   117536869.49509  22366499.600    91587202.84048
  21869367.020   114924319.39709  21869366.000    89551422.93348
  24674441.340   129665037.07208  24674440.720   101037673.30845
 15 02 27 00 50  0.0000000  0  7G16G18G19G21G22G27G31
  20729842.640   108936073.45009  20729838.580    84885241.53849
  21764223.460   114371891.95209  21764219.960    89120987.15248
  23915191.740   125675177.48908  23915187.280    97928687.63046
  22136025.360   116325835.62508  22136021.480    90643597.10548
  22350726.100   117453952.28509  22350720.900    91522592.04548
  21858642.940   114867964.23409  21858641.920    89507509.82748
  24692491.780   129759891.10108  24692491.060   101111585.22145
 15 02 27 00 50 30.0000000  0  6G16G18G19G21G22G27
  20723038.500   108900317.56309  20723034.460    84857379.81448
  21759422.660   114346663.49709  21759419.140    89101328.61548
  23900493.600   125597938.44408  23900489.160    97868501.39246
  22147465.200   116385952.70009  22147461.360    90690441.57548
  22334995.100   117371286.09509  22334989.940    91458176.86248
  21847941.160   114811725.88809  21847940.100    89463687.75148
 15 02 27 00 51  0.0000000  0  6G16G18G19G21G22G27
  20716325.380   108865039.96909  20716321.380    84829890.77749
  21754712.060   114321908.75909  21754708.460    89082039.21548
  23885808.840   125520769.14508  23885804.380    97808369.49346
  22158938.660   116446245.99309  22158934.780    90737423.36348
  22319314.100   117288882.30109  22319309.000    91393966.12048
  21837263.420   114755614.11709  21837262.420    89419964.30448
 15 02 27 00 51 30.0000000  0  6G16G18G19G21G22G27
  20709703.160   108830240.20209  20709699.180    84802774.07648
  21750091.360   114297626.71909  21750087.660    89063118.16248
  23871136.860   125443667.75608  23871132.240    97748290.53347
  22170444.800   116506711.28509  22170440.920    90784539.17348
  22303683.360   117206741.73009  22303678.180    91329960.50348
  21826609.400   114699627.20309  21826608.440    89376338.14748
 15 02 27 00 52  0.0000000  0  6G16G18G19G21G22G27
  20703171.620   108795916.96109  20703167.620    84776028.69348
  21745560.060   114273814.69509  21745556.300    89044563.33847
  23856477.300   125366631.62908  23856472.560    97688262.41946
  22181982.840   116567344.32808  22181979.120    90831785.69447
  22288102.640   117124863.91309  22288097.480    91266159.61747
  21815978.580   114643762.35309  21815977.680    89332807.11348
 15 02 27 00 52 30.0000000  0  6G16G18G19G21G22G27
  20696731.100   108762072.24209  20696727.200    84749656.18348
  21741118.500   114250474.65209  21741114.800    89026376.30848
  23841830.320   125289661.02208  23841825.720    97628285.37046
  22193552.460   116628143.43309  22193548.820    90879161.60747
  22272572.300   117043251.66209  22272567.400    91202565.68048
  21805371.200   114588020.47009  21805370.320    89289371.89148
 15 02 27 00 53  0.0000000  0  6G16G18G19G21G22G27
  20690382.220   108728709.04309  20690378.420    84723658.88948
  21736767.180   114227609.14409  21736763.700    89008559.04548
  23827195.920   125212756.85908  23827191.480    97568360.08246
  22205153.600   116689107.99009  22205149.960    90926666.45747
  22257093.060   116961908.61109  22257088.400    91139181.51048
  21794787.560   114532403.19309  21794786.680    89246033.76548
 15 02 27 00 53 30.0000000  0  6G16G18G19G21G22G27
  20684125.520   108695829.91009  20684121.760    84698038.79048
  21732506.400   114205219.65609  21732503.160    88991112.69248
  23812574.420   125135920.65508  23812569.920    97508487.71146
  22216786.280   116750237.65009  22216782.540    90974299.96948
  22241665.700   116880838.24309  22241661.200    91076009.79748
  21784227.940   114476912.06809  21784227.120    89202793.94348
 15 02 27 00 54  0.0000000  0  6G16G18G19G21G22G27
  20677961.160   108663435.70409  20677957.380    84672796.55749
  21728336.340   114183306.28909  21728333.160    88974037.36448
  23797965.680   125059151.39808  23797961.180    97448667.56146
  22228449.920   116811529.84009  22228446.040    91022060.12948
  22226290.760   116800042.64809  22226286.220    91013052.21648
  21773692.220   114421546.69009  21773691.420    89159652.10548
 15 02 27 00 54 30.0000000  0  6G16G18G19G21G22G27
  20671889.120   108631526.76609  20671885.360    84647932.45648
  21724257.020   114161869.02609  21724253.700    88957333.01047
  23783369.380   124982447.97208  23783365.100    97388898.70946
  22240143.920   116872981.61809  22240139.880    91069944.63147
  22210968.440   116719522.90609  22210963.580    90950309.57447
  21763180.220   114366306.06209  21763179.480    89116607.46848
 15 02 27 00 55  0.0000000  0  6G16G18G19G21G22G27
  20665909.860   108600105.44509  20665906.100    84623448.30449
  21720268.500   114140909.15909  21720265.120    88941000.65648
  23768785.940   124905811.76208  23768781.500    97329182.17146
  22251868.120   116934592.08009  22251863.900    91117952.78148
  22195699.280   116639282.22909  22195694.120    90887784.39048
  21752692.240   114311191.69409  21752691.540    89073661.21848
 15 02 27 00 55 30.0000000  0  6G16G18G19G21G22G27
  20660023.780   108569173.77609  20660019.920    84599345.69849
  21716371.060   114120428.05809  21716367.720    88925041.36148
  23754215.420   124829243.24108  23754210.820    97269518.39546
  22263622.220   116996360.35508  22263618.040    91166083.89548
  22180483.720   116559323.31509  22180478.280    90825478.77148
  21742228.500   114256204.52209  21742227.820    89030814.08148
 15 02 27 00 56  0.0000000  0  6G16G18G19G21G22G27
  20654231.820   108538736.28509  20654227.780    84575628.16248
  21712565.520   114100429.79509  21712562.220    88909458.30947
  23739658.300   124752745.42408  23739653.980    97209909.75646
  22275406.420   117058287.44008  22275402.420    91214338.75247
  22165322.920   116479652.46109  22165317.320    90763397.57548
  21731789.700   114201347.95309  21731788.960    88988068.70248
 15 02 27 00 56 30.0000000  0  6G16G18G19G21G22G27
  20648533.360   108508790.46209  20648529.300    84552293.75548
  21708851.240   114080910.94809  21708847.880    88894248.82447
  23725113.960   124676314.35708  23725109.540    97150353.12146
  22287219.740   117120367.42109  22287215.860    91262712.75347
  22150216.580   116400267.88509  22150210.960    90701539.48348
  21721375.120   114146618.39009  21721374.280    88945422.29048
 15 02 27 00 57  0.0000000  0  6G16G18G19G21G22G27
  20642928.020   108479334.40409  20642924.100    84529340.97948
