     2.11           OBSERVATION DATA    G                   RINEX VERSION / TYPE
SPIDER V4,0,0,3554                      2015 03 21 01:32    PGM / RUN BY / DATE 
CNGR                                                        MARKER NAME         
CNGR                                                        MARKER NUMBER       
                                                            OBSERVER / AGENCY   
496521              LEICA GRX1200+GNSS  8.10/4.007          REC # / TYPE / VERS 
10321004            LEIAR25         NONE                    ANT # / TYPE        
  5218738.7445   688113.1521  3590185.5476                  APPROX POSITION XYZ 
        0.0720        0.0000        0.0000                  ANTENNA: DELTA H/E/N
     1     1                                                WAVELENGTH FACT L1/2
     4    C1    L1    P2    L2                              # / TYPES OF OBSERV 
    30.000                                                  INTERVAL            
  2015    02    27    00    00    0.0000000     GPS         TIME OF FIRST OBS   
  2015    02    27    23    59   30.0000000     GPS         TIME OF LAST OBS    
    16                                                      LEAP SECONDS        
    30                                                      # OF SATELLITES     
   G 1   815   815   815   815                              PRN / # OF OBS      
   G 2   943   943   943   943                              PRN / # OF OBS      
   G 3   860   860   860   860                              PRN / # OF OBS      
   G 4   843   843   843   843                              PRN / # OF OBS      
   G 5   628   628   628   628                              PRN / # OF OBS      
   G 6   829   829   829   829                              PRN / # OF OBS      
   G 7   677   677   677   677                              PRN / # OF OBS      
   G 9   817   817   817   817                              PRN / # OF OBS      
   G10   743   742   742   742                              PRN / # OF OBS      
   G11   777   776   776   776                              PRN / # OF OBS      
   G12   841   841   841   841                              PRN / # OF OBS      
   G13   761   761   761   761                              PRN / # OF OBS      
   G14   941   936   936   935                              PRN / # OF OBS      
   G15   658   654   654   654                              PRN / # OF OBS      
   G16   666   666   666   666                              PRN / # OF OBS      
   G17   939   939   938   938                              PRN / # OF OBS      
   G18   903   900   901   899                              PRN / # OF OBS      
   G19   755   755   755   755                              PRN / # OF OBS      
   G20   760   758   760   758                              PRN / # OF OBS      
   G21   721   720   717   717                              PRN / # OF OBS      
   G22   668   667   667   667                              PRN / # OF OBS      
   G23   761   761   761   761                              PRN / # OF OBS      
   G24   820   810   805   804                              PRN / # OF OBS      
   G25   867   866   866   866                              PRN / # OF OBS      
   G27   808   808   808   808                              PRN / # OF OBS      
   G28   854   853   854   853                              PRN / # OF OBS      
   G29   747   747   747   747                              PRN / # OF OBS      
   G30   725   725   725   725                              PRN / # OF OBS      
   G31   862   861   861   861                              PRN / # OF OBS      
   G32   777   777   777   777                              PRN / # OF OBS      
BIT 2 OF LLI FLAGS DATA COLLECTED UNDER A/S CONDITION       COMMENT             
SNR is mapped to RINEX snr flag value [2-9]                 COMMENT             
Lx:     = 25dBHz -> 1; 26-27dBHz -> 2; 28-31dBHz -> 3       COMMENT             
       32-35dBHz -> 4; 36-38dBHz -> 5; 39-41dBHz -> 6       COMMENT             
       42-44dBHz -> 7; 45-48dBHz -> 8; >=49dBHz -> 9        COMMENT             
                                                            END OF HEADER       
 15 02 27 00 00  0.0000000  0  8G16G18G21G22G25G27G29G31
  21983787.020   115525589.94309  21983783.140    90019932.93348
  22438445.100   117914972.25909  22438442.220    91881855.78747
  21203856.220   111427245.41108  21203852.080    86826526.57048
  23892076.740   125553823.02908  23892074.280    97834188.32946
  24624091.600   129400653.79908  24624093.100   100831760.52444
  23233003.860   122090268.84508  23233003.600    95135274.12447
  23652514.740   124295283.73308  23652514.380    96853674.43447
  22838266.000   120015914.68709  22838262.860    93518882.88347
 15 02 27 00 00 30.0000000  0  8G16G18G21G22G25G27G29G31
  21969314.580   115449537.09909  21969310.800    89960670.99547
  22426723.940   117853377.59609  22426721.100    91833859.96647
  21210663.500   111463017.80909  21210659.400    86854401.16848
  23873991.520   125458785.78108  23873988.760    97760133.70146
  24643361.460   129501915.40107  24643362.440   100910665.48344
  23220396.140   122024014.43508  23220395.760    95083647.32746
  23665823.620   124365221.28909  23665823.360    96908171.16847
  22854750.300   120102540.43909  22854747.180    93586383.43447
 15 02 27 00 01  0.0000000  0  8G16G18G21G22G25G27G29G31
  21954889.100   115373731.62609  21954885.480    89901601.80148
  22415060.000   117792083.25209  22415057.080    91786098.16647
  21217532.480   111499114.17709  21217528.340    86882528.20248
  23855908.180   125363758.48008  23855905.200    97686086.84145
  24662659.260   129603324.14008  24662659.940   100989684.97545
  23207803.480   121957838.99308  23207802.920    95032082.07047
  23679139.800   124435197.68608  23679138.600    96962698.24446
  22871273.300   120189369.56109  22871270.220    93654042.45747
 15 02 27 00 01 30.0000000  0  8G16G18G21G22G25G27G29G31
  21940510.320   115298171.27809  21940506.840    89842723.61447
  22403452.880   117731087.26409  22403449.860    91738568.84347
  21224461.920   111535528.18109  21224457.700    86910902.74448
  23837826.280   125268738.52408  23837823.300    97612045.65846
  24681983.920   129704873.86208  24681984.380   101068814.38745
  23195225.020   121891738.00408  23195224.260    94980574.82047
  23692462.380   124505208.21108  23692461.040    97017251.87447
  22887833.600   120276394.59309  22887830.580    93721854.13647
 15 02 27 00 02  0.0000000  0  8G16G18G21G22G25G27G29G31
  21926179.480   115222862.42409  21926176.040    89784041.40247
  22391903.840   117670396.15509  22391900.620    91691277.08747
  21231452.380   111572262.84709  21231448.060    86939527.15948
  23819747.060   125173732.60108  23819743.840    97538015.40746
  24701335.940   129806567.26408  24701335.860   101148055.73145
  23182661.440   121825715.63308  23182660.580    94929128.83147
  23705792.560   124575257.45308  23705791.200    97071835.64846
  22904431.460   120363616.82509  22904428.460    93789819.46947
 15 02 27 00 02 30.0000000  0  8G16G18G21G22G25G27G29G31
  21911896.400   115147804.46109  21911892.940    89725554.67848
  22380412.640   117610008.79509  22380409.360    91644222.01547
  21238502.780   111609312.89608  21238498.460    86968397.32748
  23801670.400   125078740.16008  23801667.100    97463995.66146
  24720714.360   129908399.45408  24720714.320   101227405.18445
  23170112.080   121759768.45808  23170111.280    94877741.44747
  23719129.120   124645341.74808  23719127.220    97126446.77546
  22921065.660   120451029.82109  22921062.620    93857933.46147
 15 02 27 00 03  0.0000000  0  8G16G18G21G22G25G27G29G31
  21897661.520   115072999.75909  21897658.100    89667265.30848
  22368979.900   117549928.55509  22368976.480    91597406.25247
  21245613.000   111646677.37009  21245608.720    86997512.50248
  23783596.960   124983764.69508  23783593.660    97389989.11246
  24740119.100   130010369.39508  24740119.060   101306861.95345
  23157577.140   121693897.15408  23157576.420    94826413.16647
  23732472.700   124715462.08009  23732470.240    97181085.96846
  22937735.780   120538631.47509  22937732.660    93926194.44547
 15 02 27 00 03 30.0000000  0  8G16G18G21G22G25G27G29G31
  21883474.920   114998448.59109  21883471.560    89609173.49548
  22357605.580   117490155.85909  22357602.080    91550830.14747
  21252782.380   111684352.74309  21252778.120    87026869.93548
  23765526.940   124888807.02708  23765523.500    97315996.41746
  24759549.340   130112473.65708  24759549.220   101386423.37844
  23145056.240   121628099.71408  23145055.640    94775142.44647
  23745822.840   124785616.37808  23745820.520    97235751.64047
  22954440.880   120626416.79809  22954437.660    93994598.56647
 15 02 27 00 04  0.0000000  0  8G16G18G21G22G25G27G29G31
  21869338.440   114924161.06909  21869335.100    89551287.12448
  22346291.580   117430700.51409  22346288.200    91504501.32347
  21260011.980   111722344.65508  21260007.820    87056474.02048
  23747462.040   124793876.99708  23747458.660    97242025.27646
  24779005.980   130214718.21208  24779006.200   101466094.07145
  23132550.840   121562383.68208  23132550.340    94723935.16747
  23759180.380   124855812.18308  23759178.700    97290449.55146
  22971181.720   120714390.17009  22971178.480    94063149.20447
 15 02 27 00 04 30.0000000  0  8G16G18G21G22G25G27G29G31
  21855250.940   114850131.05109  21855247.660    89493601.40048
  22335036.660   117371555.90109  22335033.300    91458414.63947
  21267299.900   111760643.05908  21267295.840    87086316.93548
  23729401.340   124698968.55208  23729397.960    97168070.89846
  24798487.180   130317092.94008  24798488.060   101545866.18345
  23120059.320   121496740.55608  23120058.840    94672784.69147
  23772544.420   124926040.77608  23772542.080    97345173.20046
  22987956.160   120802540.38109  22987952.920    94131837.65247
 15 02 27 00 05  0.0000000  0  8G16G18G21G22G25G27G29G31
  21841213.940   114776366.56709  21841210.780    89436122.59448
  22323842.560   117312730.56609  22323839.140    91412576.72447
  21274646.920   111799252.08309  21274642.960    87116401.88548
  23711346.360   124604090.41408  23711343.000    97094140.16346
  24817993.940   130419602.01608  24817995.320   101625742.98445
  23107582.780   121431176.15908  23107582.340    94621695.56947
  23785915.860   124996308.67008  23785914.100    97399927.33947
  23004764.720   120890870.10209  23004761.620    94200665.95747
 15 02 27 00 05 30.0000000  0  7G16G18G21G22G27G29G31
  21827228.360   114702872.14209  21827225.260    89378854.21748
  22312710.160   117254229.37309  22312706.580    91366991.39547
  21282053.100   111838172.05009  21282049.160    87146729.13248
  23693297.980   124509247.10008  23693294.640    97020236.53446
  23095121.580   121365692.55208  23095121.260    94570669.39647
  23799295.040   125066617.68608  23799293.400    97454713.56346
  23021607.240   120979378.34409  23021604.260    94269633.37947
 15 02 27 00 06  0.0000000  0  7G16G18G21G22G27G29G31
  21813292.100   114629636.67809  21813288.960    89321787.62648
  22301637.280   117196040.87509  22301633.540    91321649.72947
  21289515.620   111877388.00209  21289511.640    87177287.01048
  23675254.260   124414428.31708  23675251.040    96946352.02246
  23082673.280   121300276.53908  23082673.060    94519695.89647
  23812679.800   125136954.56508  23812677.480    97509521.53146
  23038480.680   121068049.12009  23038477.860    94338727.45747
 15 02 27 00 06 30.0000000  0  7G16G18G21G22G27G29G31
  21799407.960   114556674.82509  21799404.760    89264934.24448
  22290626.760   117138179.93109  22290622.780    91276563.29347
  21297036.380   111916910.02809  21297032.340    87208083.38848
  23657217.980   124319648.71808  23657214.880    96872498.02246
  23070240.200   121234940.36008  23070239.980    94468784.60447
  23826071.880   125207331.68208  23826069.600    97564360.77946
  23055386.840   121156891.69309  23055384.180    94407955.39747
 15 02 27 00 07  0.0000000  0  7G16G18G21G22G27G29G31
  21785575.380   114483983.56109  21785572.020    89208291.70148
  22279677.920   117080643.13909  22279673.800    91231729.45247
  21304614.240   111956732.11209  21304610.200    87239113.57748
  23639188.640   124224905.89908  23639185.760    96798672.66846
  23057821.300   121169678.70708  23057821.080    94417931.37647
  23839470.960   125277744.09408  23839469.220    97619227.56546
  23072324.100   121245897.46809  23072321.500    94477310.50447
 15 02 27 00 07 30.0000000  0  7G16G18G21G22G27G29G31
  21771795.040   114411566.79009  21771791.560    89151863.04348
  22268791.560   117023434.72109  22268787.340    91187151.47047
  21312249.080   111996853.54809  21312245.020    87270377.02548
  23621167.120   124130203.96408  23621164.400    96724879.18246
  23045416.920   121104493.32108  23045416.720    94367137.57947
  23852877.020   125348193.13908  23852875.020    97674122.87646
  23089292.280   121335065.46708  23089289.700    94546792.02347
 15 02 27 00 08  0.0000000  0  7G16G18G21G22G27G29G31
  21758066.720   114339423.83109  21758063.180    89095647.76148
  22257967.420   116966553.89409  22257963.200    91142828.76647
  21319939.980   112037269.62608  21319935.920    87301870.07148
  23603153.480   124035542.62708  23603150.600    96651117.29846
  23033026.500   121039381.17508  23033026.340    94316400.86447
  23866289.520   125418676.02108  23866287.240    97729044.57546
  23106290.220   121424389.63308  23106287.580    94616395.21747
 15 02 27 00 08 30.0000000  0  7G16G18G21G22G27G29G31
  21744391.700   114267561.01409  21744388.140    89039650.76548
  22247206.800   116910006.54309  22247202.640    91098765.91247
  21327687.400   112077982.69808  21327683.380    87333594.53748
  23585148.780   123940928.11708  23585145.900    96577391.93346
  23020650.780   120974346.00108  23020650.540    94265724.10847
  23879709.140   125489196.55808  23879707.060    97783995.60246
  23123318.000   121513870.65009  23123315.300    94686120.62847
 15 02 27 00 09  0.0000000  0  7G16G18G21G22G27G29G31
  21730770.000   114195978.67309  21730766.460    88983872.32248
  22236509.720   116853793.11109  22236505.600    91054963.24347
  21335490.600   112118989.02008  21335486.620    87365547.50848
  23567153.260   123846361.41808  23567150.020    96503703.77446
  23008289.380   120909386.00108  23008288.980    94215105.93247
  23893135.720   125559752.98708  23893134.100    97838974.59747
  23140374.660   121603503.59409  23140371.880    94755964.43347
 15 02 27 00 09 30.0000000  0  7G16G18G21G22G27G29G31
  21717202.880   114124683.03909  21717199.380    88928317.29348
  22225877.500   116797920.37009  22225873.480    91011426.06547
  21343350.120   112160291.17108  21343346.120    87397731.00748
  23549168.220   123751849.33708  23549164.860    96430058.18947
  22995943.080   120844505.45008  22995942.520    94164549.67447
  23906569.760   125630349.50108  23906568.480    97893984.83146
  23157460.500   121693289.87109  23157457.660    94825927.72547
 15 02 27 00 10  0.0000000  0  7G16G18G21G22G27G29G31
  21703689.360   114053669.17309  21703685.860    88872981.80848
  22215309.180   116742383.45809  22215305.240    90968150.54947
  21351264.240   112201880.28608  21351260.220    87430138.11048
  23531192.700   123657387.31908  23531189.160    96356451.59846
  22983610.480   120779697.08408  22983609.880    94114049.65747
  23920010.180   125700978.97208  23920008.900    97949020.80146
  23174573.560   121783219.28008  23174570.660    94896002.52647
 15 02 27 00 10 30.0000000  0  7G16G18G21G22G27G29G31
  21690231.640   113982948.71609  21690228.160    88817874.97348
  22204806.740   116687192.76909  22204802.860    90925144.83847
  21359234.320   112243763.43409  21359230.320    87462774.33148
  23513228.960   123562986.99408  23513225.300    96282893.08146
  22971293.340   120714969.88908  22971292.700    94063612.89147
  23933458.440   125771650.59208  23933457.640    98004089.53047
  23191714.900   121873297.62209  23191712.000    94966193.40547
 15 02 27 00 11  0.0000000  0  7G16G18G21G22G27G29G31
  21676829.000   113912517.72409  21676825.520    88762993.68548
  22194369.440   116632344.80509  22194365.680    90882406.18347
  21367258.660   112285931.62009  21367254.680    87495632.64548
  23495276.180   123468644.73208  23495272.320    96209379.81946
  22958990.360   120650317.51108  22958989.800    94013234.43047
  23946913.340   125842357.76408  23946912.500    98059186.01346
  23208882.780   121963515.61109  23208879.860    95036493.07147
 15 02 27 00 11 30.0000000  0  7G16G18G21G22G27G29G31
  21663482.040   113842379.38909  21663478.580    88708340.44748
  22183998.000   116577842.97209  22183994.360    90839937.22247
  21375337.460   112328385.91609  21375333.520    87528713.91548
  23477335.100   123374364.31209  23477331.020    96135914.71246
  22946701.880   120585741.34208  22946701.360    93962915.35047
  23960375.340   125913102.08708  23960374.560    98114311.42346
  23226076.900   122053871.63709  23226074.060    95106900.31947
 15 02 27 00 12  0.0000000  0  7G16G18G21G22G27G29G31
  21650191.080   113772535.27509  21650187.680    88653916.46448
  22173692.620   116523688.38109  22173689.080    90797738.86247
  21383470.240   112371123.51409  21383466.260    87562015.94648
  23459406.200   123280147.90508  23459402.020    96062499.50046
  22934427.760   120521240.66008  22934427.240    93912655.08147
  23973844.520   125983882.71108  23973843.880    98169465.10146
  23243296.600   122144361.85808  23243293.860    95177412.12447
 15 02 27 00 12 30.0000000  0  7G16G18G21G22G27G29G31
  21636956.700   113702988.22509  21636953.300    88599723.96248
  22163453.900   116469883.84909  22163450.460    90755813.25747
  21391656.500   112414142.17809  21391652.540    87595536.97448
  23441490.000   123185998.33008  23441485.820    95989136.33646
  22922168.060   120456815.81008  22922167.520    93862453.90247
  23987320.820   126054700.23408  23987319.800    98224647.58446
  23260541.280   122234983.48108  23260538.620    95248026.31847
 15 02 27 00 13  0.0000000  0  7G16G18G21G22G27G29G31
  21623779.920   113633743.83109  21623776.560    88545767.30548
  22153282.800   116416434.74109  22153279.420    90714164.61847
  21399896.600   112457443.82009  21399892.620    87629278.52248
  23423587.640   123091921.61008  23423583.380    95915829.94846
  22909923.400   120392470.13608  22909922.880    93812314.42747
  24000804.700   126125557.94408  24000803.760    98279861.34546
  23277811.120   122325737.08908  23277808.560    95318743.35947
 15 02 27 00 13 30.0000000  0  7G16G18G21G22G27G29G31
  21610660.480   113564800.58009  21610657.140    88492045.29348
  22143179.000   116363339.43109  22143175.720    90672791.66447
  21408189.560   112501023.47709  21408185.540    87663236.69248
  23405698.960   122997916.86308  23405694.500    95842579.63247
  22897693.060   120328199.97508  22897692.680    93762233.79647
  24014295.480   126196452.46708  24014294.860    98335103.76746
  23295104.820   122416615.96208  23295102.300    95389558.00647
 15 02 27 00 14  0.0000000  0  7G16G18G21G22G27G29G31
  21597598.720   113496160.42909  21597595.380    88438559.47448
  22133142.980   116310599.91409  22133139.780    90631695.94447
  21416534.840   112544878.36409  21416530.840    87697409.33348
  23387824.480   122903986.23108  23387819.920    95769387.07046
  22885477.080   120264004.99808  22885476.860    93712211.74847
  24027793.180   126267383.16708  24027792.340    98390374.48146
  23312421.740   122507616.60708  23312419.220    95460467.53447
 15 02 27 00 14 30.0000000  0  7G16G18G21G22G27G29G31
  21584595.800   113427829.36509  21584592.440    88385314.48348
  22123175.720   116258221.63809  22123172.580    90590881.71347
  21424932.940   112589010.71409  21424928.960    87731798.17348
  23369965.260   122810135.78009  23369960.700    95696256.97846
  22873276.220   120199888.79608  22873276.020    93662251.08047
  24041298.400   126338353.64508  24041297.560    98445676.08346
  23329761.900   122598739.50808  23329759.420    95531472.32247
 15 02 27 00 15  0.0000000  0  7G16G18G21G22G27G29G31
  21571651.500   113359806.37109  21571648.120    88332309.56048
  22113277.000   116206203.29309  22113273.860    90550347.95447
  21433382.800   112633415.19908  21433378.820    87766399.06448
  23352121.180   122716364.77509  23352116.520    95623188.79146
  22861089.760   120135848.00708  22861089.400    93612349.17247
  24054810.660   126409360.81208  24054809.600    98501006.31046
  23347124.160   122689978.42008  23347121.700    95602567.50447
 15 02 27 00 15 30.0000000  0  7G16G18G21G22G27G29G31
  21558766.420   113292094.40109  21558762.980    88279546.99248
  22103447.340   116154547.89909  22103444.220    90510097.01247
  21441884.300   112678091.22709  21441880.400    87801211.55848
  23334292.980   122622677.15908  23334288.240    95550185.57146
  22848917.840   120071883.70208  22848917.360    93562506.87547
  24068330.140   126480405.56008  24068328.800    98556365.86446
  23364508.080   122781331.16508  23364505.560    95673751.39647
 15 02 27 00 16  0.0000000  0  7G16G18G21G22G27G29G31
  21545941.060   113224696.32409  21545937.560    88227029.01748
  22093687.280   116103258.27509  22093684.160    90470131.07847
  21450437.120   112723037.13508  21450433.340    87836234.34248
  23316481.220   122529075.98109  23316476.420    95477249.71146
  22836760.580   120007996.53108  22836759.980    93512724.66447
  24081856.960   126551488.65608  24081855.660    98611755.24546
  23381913.240   122872795.48608  23381910.660    95745022.20947
 15 02 27 00 16 30.0000000  0  7G16G18G21G22G27G29G31
  21533175.780   113157614.09109  21533172.240    88174757.15148
  22083997.020   116052335.86209  22083993.980    90430451.29247
  21459040.960   112768251.07209  21459037.300    87871465.98448
  23298686.300   122435563.56509  23298681.500    95404383.00846
  22824617.920   119944186.06709  22824617.260    93463002.24347
  24095391.080   126622609.92508  24095389.900    98667174.39346
  23399338.980   122964367.86608  23399336.320    95816377.24347
 15 02 27 00 17  0.0000000  0  7G16G18G21G22G27G29G31
  21520471.260   113090851.22009  21520467.680    88122734.14048
  22074377.180   116001783.60309  22074374.220    90391059.94447
  21467695.720   112813732.28408  21467692.080    87906905.88448
  23280908.940   122342143.36808  23280904.180    95331588.15546
  22812490.100   119880453.46508  22812489.360    93413340.48548
  24108932.660   126693770.41508  24108931.280    98722624.13445
  23416784.940   123056046.42608  23416782.200    95887815.01247
 15 02 27 00 17 30.0000000  0  7G16G18G21G22G27G29G31
  21507828.000   113024410.18009  21507824.340    88070961.90448
  22064828.400   115951604.57009  22064825.360    90351959.40047
  21476401.100   112859479.39708  21476397.440    87942552.98148
  23263149.740   122248818.92208  23263145.020    95258867.90246
  22800377.180   119816799.22508  22800376.340    93363739.78748
  24122481.620   126764970.22908  24122480.180    98778104.50646
  23434250.600   123147828.42408  23434247.760    95959333.35047
 15 02 27 00 18  0.0000000  0  7G16G18G21G22G27G29G31
  21495246.320   112958292.71909  21495242.620    88019441.80248
  22055350.880   115901799.84809  22055347.820    90313150.53847
  21485156.580   112905489.65209  21485152.840    87978405.12048
  23245409.120   122155591.88909  23245404.420    95186223.57446
  22788278.920   119753222.67408  22788278.080    93314199.63748
  24136038.020   126836209.04508  24136036.520    98833615.21446
  23451735.280   123239710.46008  23451732.380    96030929.66246
 15 02 27 00 18 30.0000000  0  7G16G18G21G22G27G29G31
  21482726.880   112892502.49709  21482723.140    87968176.70248
  22045945.220   115852372.87609  22045942.140    90274636.03147
  21493962.180   112951763.08809  21493958.360    88014462.34448
  23227687.860   122062466.52608  23227683.140    95113658.43946
  22776195.680   119689725.26808  22776194.880    93264721.16247
  24149602.040   126907488.48808  24149600.680    98889157.62946
  23469238.700   123331690.81708  23469235.760    96102602.61447
 15 02 27 00 19  0.0000000  0  7G16G18G21G22G27G29G31
  21470269.340   112827037.76109  21470265.620    87917165.22848
  22036611.000   115803321.42109  22036607.980    90236414.13347
  21502816.660   112998293.46609  21502812.800    88050719.77148
  23209985.660   121969441.44109  23209981.000    95041171.46746
  22764126.780   119626303.12808  22764126.060    93215301.31947
  24163173.080   126978804.66408  24163171.780    98944728.67346
  23486759.480   123423762.53008  23486756.500    96174346.68946
 15 02 27 00 19 30.0000000  0  7G16G18G21G22G27G29G31
  21457874.820   112761904.46809  21457871.220    87866412.02348
  22027349.300   115754651.01409  22027346.360    90198489.15747
  21511720.520   113045082.96709  21511716.500    88087179.12348
  23192303.780   121876522.72908  23192299.140    94968767.35547
  22752072.900   119562959.83708  22752072.240    93165942.92247
  24176751.800   127050160.98808  24176750.440    99000330.95746
  23504297.700   123515925.97308  23504294.700    96246162.26946
 15 02 27 00 20  0.0000000  0  7G16G18G21G22G27G29G31
  21445543.880   112697105.33309  21445540.320    87815919.19048
  22018160.720   115706364.64809  22018157.820    90160863.42947
  21520673.460   113092130.60009  21520669.360    88123839.61048
  23174642.760   121783713.72408  23174638.060    94896448.73447
  22740034.120   119499696.27508  22740033.500    93116646.64547
  24190338.340   127121558.12508  24190336.780    99055965.07346
  23521852.940   123608178.98508  23521849.920    96318047.63147
 15 02 27 00 20 30.0000000  0  7G16G18G21G22G27G29G31
  21433276.360   112632639.58709  21433272.840    87765686.14848
  22009044.980   115658460.81909  22009042.040    90123535.78447
  21529674.500   113139431.19509  21529670.420    88160697.21948
  23157002.560   121691014.02008  23156997.760    94824215.27747
  22728009.880   119436509.23208  22728009.240    93067409.99447
  24203932.120   127192993.41908  24203930.300    99111628.93546
  23539424.020   123700515.34708  23539420.960    96389997.95347
 15 02 27 00 21  0.0000000  0  7G16G18G21G22G27G29G31
  21421073.340   112568512.26609  21421069.780    87715716.80948
  22000002.880   115610944.10309  21999999.860    90086509.78447
  21538723.820   113186985.92408  21538719.820    88197752.84648
  23139384.260   121598429.30308  23139379.360    94752071.41447
  22716000.840   119373401.64008  22716000.140    93018235.25747
  24217533.700   127264469.42408  24217531.780    99167324.50346
  23557010.900   123792934.82108  23557007.820    96462013.02646
 15 02 27 00 21 30.0000000  0  7G16G18G21G22G27G29G31
  21408934.520   112504722.14209  21408930.860    87666010.22248
  21991034.140   115563812.94809  21991031.000    90049784.22347
  21547820.340   113234788.99009  21547816.480    88235001.99448
  23121787.600   121505958.55908  23121782.720    94680016.36746
  22704006.340   119310370.06208  22704005.540    92969119.74847
  24231142.340   127335982.72408  24231140.200    99223049.14045
  23574612.340   123885430.91008  23574609.380    96534087.81146
 15 02 27 00 22  0.0000000  0  7G16G18G21G22G27G29G31
  21396860.860   112441274.34109  21396857.120    87616570.37048
  21982139.660   115517072.25109  21982136.500    90013362.91147
  21556964.360   113282841.66008  21556960.600    88272445.63348
  23104213.700   121413607.36709  23104208.900    94608054.47147
  22692026.960   119247417.51408  22692026.060    92920065.81947
  24244758.600   127407536.45708  24244756.480    99278805.28846
  23592228.420   123978003.80608  23592225.540    96606222.42347
 15 02 27 00 22 30.0000000  0  7G16G18G21G22G27G29G31
  21384853.180   112378173.35709  21384849.380    87567400.77848
  21973320.300   115470726.36409  21973317.120    89977249.24347
  21566156.020   113331144.71408  21566152.400    88310084.36848
  23086663.520   121321380.44609  23086658.700    94536189.38747
  22680063.060   119184546.29408  22680062.140    92871075.26748
  24258382.880   127479132.76008  24258380.840    99334594.57946
  23609858.940   124070652.44108  23609856.020    96678416.06847
 15 02 27 00 23  0.0000000  0  7G16G18G21G22G27G29G31
  21372911.260   112315418.29109  21372907.480    87518500.73548
  21964575.780   115424773.83509  21964572.580    89941442.10047
  21575394.380   113379692.92809  21575390.800    88347914.14548
  23069136.920   121229277.55209  23069132.140    94464420.95547
  22668114.000   119121753.36808  22668113.080    92822145.72147
  24272014.740   127550768.68608  24272012.680    99390414.77346
  23627502.680   124163370.67408  23627499.700    96750663.92746
 15 02 27 00 23 30.0000000  0  7G16G18G21G22G27G29G31
  21361035.720   112253012.20409  21361032.020    87469872.61948
  21955906.620   115379217.07109  21955903.340    89905943.33547
  21584679.320   113428485.44409  21584675.660    88385934.28548
  23051634.500   121137302.11109  23051629.780    94392751.84047
  22656179.940   119059039.70308  22656179.160    92773277.94747
  24285654.280   127622445.33308  24285652.380    99446266.71846
  23645159.320   124256156.69908  23645156.340    96822964.62947
 15 02 27 00 24  0.0000000  0  7G16G18G21G22G27G29G31
  21349227.460   112190959.65509  21349223.820    87421519.98748
  21947313.700   115334060.77709  21947310.320    89870756.62547
  21594010.900   113477522.75409  21594007.120    88424145.17548
  23034157.280   121045459.15109  23034152.520    94321185.96147
  22644261.440   118996407.72909  22644260.800    92724473.82547
  24299301.920   127694164.90108  24299300.260    99502152.08146
  23662828.660   124349009.55708  23662825.740    96895317.39146
 15 02 27 00 24 30.0000000  0  7G16G18G21G22G27G29G31
  21337486.340   112129259.71909  21337482.680    87373442.11348
  21938796.660   115289303.01209  21938793.160    89835880.45347
  21603388.120   113526799.89509  21603384.260    88462542.93648
  23016705.040   120953747.78409  23016700.320    94249722.61147
  22632357.940   118933854.26708  22632357.260    92675730.86847
  24312957.100   127765923.90808  24312955.840    99558068.14446
  23680509.500   124441922.95108  23680506.700    96967717.31246
 15 02 27 00 25  0.0000000  0  7G16G18G21G22G27G29G31
  21325813.040   112067916.12409  21325809.340    87325641.90948
  21930356.100   115244947.23109  21930352.520    89801317.52747
  21612810.940   113576316.76409  21612807.000    88501127.51048
  22999278.720   120862172.67609  22999274.060    94178365.44447
  22620469.720   118871381.10508  22620468.980    92627050.49047
  24326620.260   127837724.61908  24326618.960    99614016.73746
  23698201.660   124534895.78208  23698199.040    97040163.55146
 15 02 27 00 25 30.0000000  0  7G16G18G21G22G27G29G31
  21314207.740   112006930.04209  21314204.060    87278120.28748
  21921992.300   115200994.68209  21921988.540    89767068.78347
  21622278.800   113626070.53409  21622274.840    88539896.67948
  22981878.680   120770735.42209  22981873.960    94107115.66847
  22608596.600   118808987.23608  22608595.800    92578431.89747
  24340291.060   127909565.87308  24340289.560    99669996.90245
  23715904.340   124627923.79408  23715901.920    97112652.77546
 15 02 27 00 26  0.0000000  0  7G16G18G21G22G27G29G31
  21302670.700   111946302.88909  21302667.100    87230878.35848
  21913705.440   115157446.33109  21913701.540    89733135.01847
  21631791.080   113676057.85509  21631787.120    88578847.84048
  22964505.180   120679437.73609  22964500.480    94035974.68547
  22596738.460   118746672.05508  22596737.600    92529874.62848
  24353969.480   127981446.77808  24353967.920    99726008.01846
  23733616.900   124721003.44408  23733614.620    97185182.26946
 15 02 27 00 26 30.0000000  0  7G16G18G21G22G27G29G31
  21291202.860   111886039.20909  21291199.300    87183919.64648
  21905496.120   115114305.71209  21905492.140    89699518.96148
  21641347.960   113726279.45709  21641343.980    88617981.54148
  22947159.200   120588284.43709  22947154.460    93964946.19447
  22584895.660   118684437.83408  22584894.820    92481380.43048
  24367655.980   128053369.71108  24367654.180    99782051.87245
  23751339.080   124814133.58008  23751336.800    97257751.07247
 15 02 27 00 27  0.0000000  0  7G16G18G21G22G27G29G31
  21279804.740   111826141.83709  21279801.200    87137246.37148
  21897364.840   115071575.30809  21897360.820    89666222.54448
  21650949.340   113776734.83409  21650945.360    88657297.42048
  22929841.500   120497279.22809  22929836.580    93894033.07147
  22573068.460   118622285.68108  22573067.620    92432950.18048
  24381350.720   128125335.83708  24381348.800    99838129.34046
  23769070.520   124907312.45008  23769068.320    97330357.84146
 15 02 27 00 27 30.0000000  0  7G16G18G21G22G27G29G31
  21268476.160   111766609.67909  21268472.600    87090857.68748
  21889311.260   115029253.77409  21889307.300    89633244.74547
  21660594.240   113827418.98909  21660590.260    88696791.56248
  22912551.840   120406421.20709  22912546.820    93823234.68347
  22561256.180   118560212.18808  22561255.480    92384581.25148
  24395052.940   128197341.22908  24395050.800    99894237.41345
  23786809.980   125000533.57608  23786807.880    97402997.53646
 15 02 27 00 28  0.0000000  0  7G16G18G21G22G27G29G31
  21257218.080   111707447.93509  21257214.500    87044757.63948
  21881336.200   114987345.30309  21881332.420    89600588.81347
  21670282.680   113878332.09809  21670278.720    88736464.11748
  22895291.220   120315716.03209  22895286.100    93752555.37647
  22549459.460   118498220.36308  22549458.880    92336275.95448
  24408763.240   128269389.18408  24408761.020    99950378.66445
  23804557.500   125093796.88208  23804555.400    97475670.11746
 15 02 27 00 28 30.0000000  0  7G16G18G21G22G27G29G31
  21246030.740   111648657.68609  21246027.060    86998947.05148
  21873439.900   114945850.79409  21873436.280    89568255.44648
  21680014.240   113929471.63309  21680010.260    88776313.09548
  22878059.900   120225165.04709  22878054.900    93681996.21447
  22537678.120   118436309.25909  22537677.620    92288033.55548
  24422481.540   128341479.19008  24422479.320   100006552.70346
  23822312.300   125187098.23708  23822310.100    97548372.34346
 15 02 27 00 29  0.0000000  0  7G16G18G21G22G27G29G31
  21234914.600   111590241.96509  21234910.920    86953428.31448
  21865622.920   114904772.87809  21865619.380    89536246.69548
  21689788.800   113980837.23509  21689784.760    88816338.23348
  22860858.560   120134771.90409  22860853.560    93611560.04747
  22525912.420   118374479.98309  22525911.920    92239854.91948
  24436207.840   128413611.83808  24436205.760   100062759.92045
  23840074.000   125280435.54408  23840071.680    97621102.57346
 15 02 27 00 29 30.0000000  0  7G16G18G21G22G27G29G31
  21223870.200   111532203.39609  21223866.520    86908203.46148
  21857885.680   114864113.64909  21857882.100    89504564.19547
  21699606.020   114032427.12909  21699601.980    88856538.14748
  22843687.940   120044539.89209  22843682.940    93541249.42547
  22514162.480   118312733.26609  22514162.000    92191740.60448
  24449942.340   128485787.53808  24449940.560   100119000.70146
  23857842.080   125373806.45708  23857839.860    97693858.98746
 15 02 27 00 30  0.0000000  0  7G16G18G21G22G27G29G31
  21212897.760   111474542.97109  21212894.080    86863273.25848
  21850228.220   114823873.31709  21850224.620    89473208.09847
  21709465.280   114084238.07709  21709461.280    88896910.30848
  22826548.240   119954470.29009  22826543.280    93471065.35847
  22502427.980   118251067.82109  22502427.460    92143689.63748
  24463684.960   128558005.40708  24463683.080   100175274.35344
  23875615.640   125467206.57508  23875613.340    97766638.15646
 15 02 27 00 30 30.0000000  0  7G16G18G21G22G27G29G31
  21201997.780   111417263.15009  21201994.100    86818639.63948
  21842650.860   114784053.92209  21842647.280    89442180.01047
  21719366.400   114136269.06609  21719362.480    88937453.93948
  22809439.980   119864566.12309  22809434.980    93401010.21647
  22490709.080   118189484.33909  22490708.520    92095702.52248
  24477435.680   128630265.70508  24477433.500   100231581.11745
  23893394.300   125560633.58408  23893391.940    97839438.26346
 15 02 27 00 31  0.0000000  0  7G16G18G21G22G27G29G31
  21191170.740   111360366.49809  21191167.020    86774304.58948
  21835154.080   114744657.95609  21835150.500    89411481.86848
  21729309.000   114188518.20409  21729305.200    88978167.55648
  22792363.840   119774830.63309  22792358.760    93331086.49347
  22479005.840   118127983.31908  22479005.160    92047779.66048
  24491194.620   128702568.86508  24491192.380   100287921.23845
  23911177.540   125654084.88608  23911175.220    97912257.27946
 15 02 27 00 31 30.0000000  0  7G16G18G21G22G27G29G31
  21180417.500   111303857.58209  21180413.720    86730271.67748
  21827738.500   114705688.73609  21827734.860    89381116.26447
  21739293.280   114240986.16509  21739289.560    89019051.69048
  22775320.680   119685268.43309  22775315.580    93261297.79247
  22467318.600   118066567.09909  22467317.960    91999922.89448
  24504962.080   128774917.14608  24504959.780   100344296.49146
  23928965.240   125747559.33908  23928963.040    97985094.36446
 15 02 27 00 32  0.0000000  0  7G16G18G21G22G27G29G31
  21169738.000   111247736.25809  21169734.160    86686540.77648
  21820404.060   114667145.87009  21820400.360    89351082.85847
  21749318.540   114293669.40109  21749314.840    89060103.55248
  22758310.540   119595879.68909  22758305.400    93191644.25347
  22455647.100   118005233.84909  22455646.520    91952130.76348
  24518737.760   128847308.66208  24518735.580   100400705.41146
  23946756.560   125841052.60808  23946754.600    98057946.08546
 15 02 27 00 32 30.0000000  0  7G16G18G21G22G27G29G31
  21159132.340   111192003.08609  21159128.460    86643112.34948
  21813150.680   114629029.14609  21813146.960    89321381.54148
  21759384.100   114346564.19709  21759380.340    89101320.28848
  22741333.680   119506666.03109  22741328.480    93122127.17747
  22443991.220   117943982.05709  22443990.660    91904402.11448
  24532521.340   128919741.93208  24532519.260   100457146.91245
  23964550.480   125934559.71308  23964548.720    98130808.60946
 15 02 27 00 33  0.0000000  0  7G16G18G21G22G27G29G31
  21148601.600   111136663.55009  21148597.660    86599990.63748
  21805979.360   114591343.79709  21805975.560    89292016.34448
  21769490.220   114399671.89609  21769486.400    89142702.90648
  22724391.200   119417633.03709  22724386.120    93052750.83847
  22432351.680   117882815.30409  22432351.020    91856739.72048
  24546313.360   128992220.34608  24546311.600   100513623.58046
  23982347.120   126028081.27708  23982345.420    98203682.37346
 15 02 27 00 33 30.0000000  0  6G16G18G21G22G27G31
  21138149.620   111081738.16109  21138145.620    86557191.63948
  21798893.880   114554109.62409  21798890.040    89263002.71148
  21779639.880   114453008.60609  21779636.080    89184263.97548
  22707487.180   119328802.07009  22707482.200    92983531.94447
  22420731.860   117821752.12609  22420731.120    91809158.02948
  24000149.480   126121632.50108  24000147.840    98276579.24146
 15 02 27 00 34  0.0000000  0  6G16G18G21G22G27G31
  21127768.840   111027186.79109  21127764.800    86514684.08048
  21791886.500   114517285.78009  21791882.660    89234308.81948
  21789824.920   114506531.46609  21789821.200    89225970.09148
  22690614.100   119240133.56209  22690609.240    92914439.62947
  22409123.680   117760750.52309  22409122.960    91761624.32948
  24017948.960   126215168.39908  24017947.340    98349464.18046
 15 02 27 00 34 30.0000000  0  6G16G18G21G22G27G31
  21117464.380   110973036.49609  21117460.320    86472489.04948
  21784962.260   114480898.74809  21784958.420    89205955.29647
  21800049.760   114560263.44109  21800046.100    89267839.16548
  22673777.200   119151655.06909  22673772.300    92845495.37947
  22397531.880   117699835.73108  22397531.280    91714158.28248
  24035749.780   126308710.97008  24035748.140    98422354.30746
 15 02 27 00 35  0.0000000  0  6G16G18G21G22G27G31
  21107237.080   110919291.63509  21107233.020    86430609.93948
  21778121.840   114444952.19009  21778118.000    89177945.00148
  21810314.380   114614204.25709  21810310.720    89309870.96648
  22656977.360   119063371.32709  22656972.560    92776702.89647
  22385957.000   117639010.09108  22385956.500    91666761.68948
  24053551.620   126402259.38808  24053550.040    98495248.97946
 15 02 27 00 35 30.0000000  0  6G16G18G21G22G27G31
  21097086.240   110865948.52709  21097082.240    86389043.88848
  21771364.400   114409441.82409  21771360.520    89150274.60447
  21820617.400   114668346.78009  21820613.720    89352059.94748
  22640214.020   118975279.22809  22640209.200    92708059.72247
  22374398.000   117578267.92609  22374397.580    91619430.15548
  24071352.920   126495805.01808  24071351.360    98568141.48546
 15 02 27 00 36  0.0000000  0  6G16G18G21G22G27G31
  21087012.400   110813010.09609  21087008.480    86347793.16548
  21764690.360   114374369.78009  21764686.480    89122945.75647
  21830958.740   114722690.59409  21830954.920    89394405.77448
  22623487.760   118887381.98909  22623482.940    92639568.39647
  22362855.160   117517610.34708  22362854.720    91572164.51748
  24089153.300   126589345.98208  24089151.720    98641030.34546
 15 02 27 00 36 30.0000000  0  7G16G18G19G21G22G27G31
  21077015.760   110760477.34609  21077011.940    86306858.55448
  21758099.840   114339736.59509  21758096.000    89095958.86247
  24524892.380   128879181.60004  24524890.180   100425333.97843
  21841337.700   114777232.01409  21841333.780    89436905.56148
  22606798.880   118799681.33509  22606794.060    92571230.25147
  22351328.340   117457036.61008  22351327.940    91524964.20848
  24106952.000   126682878.21908  24106950.440    98713912.40546
 15 02 27 00 37  0.0000000  0  7G16G18G19G21G22G27G31
  21067097.180   110708354.67709  21067093.360    86266243.49048
  21751593.540   114305545.96009  21751589.760    89069316.82747
  24510139.260   128801654.35104  24510134.100   100364924.09944
  21851754.420   114831971.92909  21851750.420    89479560.03648
  22590148.320   118712182.32009  22590143.580    92503049.24147
  22339818.000   117396549.18409  22339817.580    91477831.15748
  24124748.960   126776401.00808  24124747.400    98786787.08946
 15 02 27 00 37 30.0000000  0  7G16G18G19G21G22G27G31
  21057248.100   110656597.64409  21057244.340    86225913.34648
  21745162.800   114271752.18009  21745159.040    89042984.02848
  24495385.640   128724122.99804  24495380.060   100304510.06143
  21862199.660   114886862.06209  21862195.680    89522331.56848
  22573527.680   118624840.62409  22573523.020    92434990.80547
  22328315.360   117336101.68509  22328314.760    91430729.21848
  24142534.700   126869864.80708  24142533.240    98859615.80846
 15 02 27 00 38  0.0000000  0  7G16G18G19G21G22G27G31
  21047487.480   110605305.45009  21047483.720    86185945.39748
  21738826.460   114238454.46509  21738822.740    89017037.77348
  24480649.740   128646684.99705  24480644.500   100244168.85643
  21872691.440   114941996.91609  21872687.500    89565293.78648
  22556956.000   118537756.23109  22556951.540    92367132.86347
  22316838.840   117275791.62709  22316838.140    91383734.36848
  24160327.240   126963364.16608  24160325.760    98932472.22446
 15 02 27 00 38 30.0000000  0  7G16G18G19G21G22G27G31
  21037805.640   110554427.43909  21037801.880    86146300.19848
  21732574.700   114205601.16109  21732571.100    88991437.80448
  24465921.600   128569287.37405  24465916.740   100183859.03444
  21883219.600   114997322.61609  21883215.620    89608404.72148
  22540423.660   118450879.07609  22540419.340    92299436.40147
  22305378.440   117215566.50309  22305377.680    91336805.70648
  24178115.860   127056843.13308  24178114.460    99005312.75346
 15 02 27 00 39  0.0000000  0  7G16G18G19G21G22G27G31
  21028202.980   110503965.33009  21028199.180    86106979.07248
  21726407.800   114173193.67209  21726404.220    88966185.23448
  24451201.120   128491929.59205  24451196.600   100123580.23544
  21893783.840   115052837.89809  21893779.800    89651663.38048
  22523931.240   118364211.71709  22523927.020    92231903.42547
  22293934.140   117155426.35609  22293933.420    91289943.26448
  24195900.040   127150298.96008  24195898.740    99078135.23546
 15 02 27 00 39 30.0000000  0  7G16G18G19G21G22G27G31
  21018680.420   110453923.84309  21018676.520    86067985.70148
  21720326.440   114141235.61009  21720322.860    88941282.85648
  24436488.780   128414614.82005  24436484.000   100063334.98245
  21904384.160   115108542.62209  21904379.980    89695069.65948
  22507479.800   118277759.40209  22507475.660    92164538.02248
  22282506.620   117095374.15909  22282505.920    91243149.35748
  24213679.840   127243731.67508  24213678.500    99150939.73146
 15 02 27 00 40  0.0000000  0  7G16G18G19G21G22G27G31
  21009238.560   110404306.00309  21009234.620    86029322.44748
  21714331.020   114109728.89509  21714327.380    88916732.18748
  24421784.640   128337343.45906  24421779.760   100003123.57144
  21915020.500   115164436.76909  21915016.240    89738623.54848
  22491070.040   118191525.43409  22491065.780    92097342.74748
  22271096.020   117035410.96509  22271095.320    91196424.80648
  24231454.780   127337138.97708  24231453.520    99223724.40246
 15 02 27 00 40 30.0000000  0  7G16G18G19G21G22G27G31
  20999877.340   110355112.01509  20999873.360    85990989.46648
  21708421.500   114078673.73009  21708417.880    88892533.36348
  24407088.440   128260113.76605  24407083.460    99942944.57344
  21925692.120   115220516.39209  21925687.780    89782321.95848
  22474702.060   118105510.71709  22474697.640    92030318.31047
  22259702.080   116975535.21409  22259701.320    91149768.38148
  24249224.020   127430516.03008  24249223.040    99296485.48946
 15 02 27 00 41  0.0000000  0  7G16G18G19G21G22G27G31
  20990597.820   110306347.53809  20990593.880    85952991.17648
  21702598.680   114048074.54409  21702595.060    88868689.85648
  24392400.820   128182929.37305  24392395.980    99882800.95444
  21936399.280   115276783.03409  21936394.940    89826166.09248
  22458376.960   118019721.04909  22458372.300    91963469.24148
  22248325.440   116915750.79109  22248324.700    91103183.13948
  24266987.660   127523863.52408  24266986.560    99369223.56446
 15 02 27 00 41 30.0000000  0  7G16G18G19G21G22G27G31
  20981400.060   110258013.21209  20981396.280    85915328.05848
  21696862.520   114017931.07709  21696858.860    88845201.45348
  24377721.380   128105789.00206  24377716.740    99822691.60744
  21947141.540   115333234.13109  21947137.220    89870153.95848
  22442095.000   117934158.20909  22442090.080    91896796.91647
  22236965.960   116856056.72809  22236965.260    91056668.29948
  24284744.880   127617177.57508  24284743.900    99441935.55646
 15 02 27 00 42  0.0000000  0  7G16G18G19G21G22G27G31
  20972283.620   110210106.62109  20972280.000    85877998.25248
  21691212.520   113988240.81209  21691208.880    88822066.18848
  24363049.560   128028688.16506  24363044.880    99762613.02444
  21957917.740   115389863.49709  21957913.440    89914280.74648
  22425855.840   117848820.41609  22425850.820    91830299.95647
  22225623.000   116796449.15209  22225622.260    91010220.84148
  24302494.480   127710451.16808  24302493.700    99514616.00546
 15 02 27 00 42 30.0000000  0  7G16G18G19G21G22G27G31
  20963250.060   110162635.78409  20963246.620    85841007.99748
  21685650.080   113959010.61009  21685646.440    88799289.42148
  24348386.420   127951632.89706  24348382.040    99702570.04244
  21968728.600   115446675.10509  21968724.340    89958549.53048
  22409661.060   117763716.04209  22409656.000    91763984.90247
  22214297.640   116736934.04409  22214296.880    90963845.44748
  24320236.800   127803687.02908  24320236.140    99587267.06846
 15 02 27 00 43  0.0000000  0  7G16G18G19G21G22G27G31
  20954299.080   110115598.68909  20954295.740    85804355.72148
  21680174.720   113930237.77209  21680171.020    88776869.03847
  24333731.060   127874619.12206  24333726.700    99642559.31144
  21979573.080   115503663.42909  21979568.880    90002956.01648
  22393510.400   117678843.73009  22393505.240    91697850.64747
  22202989.200   116677507.93509  22202988.440    90917539.39648
  24337970.800   127896878.81208  24337969.940    99659883.77145
 15 02 27 00 43 30.0000000  0  7G16G18G19G21G22G27G31
  20945431.440   110068999.24509  20945428.140    85768044.45848
  21674787.020   113901925.55409  21674783.340    88754807.58247
  24319084.060   127797648.99406  24319079.820    99582582.64544
  21990451.100   115560828.31109  21990446.940    90047500.06848
  22377404.780   117594208.29409  22377399.620    91631900.97547
  22191698.120   116618173.15709  22191697.360    90871304.51448
  24355696.200   127990025.47708  24355695.400    99732465.29945
 15 02 27 00 44  0.0000000  0  7G16G18G19G21G22G27G31
  20936647.700   110022840.54009  20936644.400    85732076.63648
  21669487.340   113874075.62109  21669483.640    88733106.34048
  24304445.640   127720723.22306  24304441.200    99522640.51443
  22001362.620   115618169.55609  22001358.620    90092181.56148
  22361344.800   117509812.81309  22361339.660    91566138.29147
  22180424.560   116558930.90809  22180423.920    90825141.73748
  24373412.760   128083125.21208  24373411.880    99805010.27045
 15 02 27 00 44 30.0000000  0  7G16G18G19G21G22G27G31
  20927947.800   109977122.35609  20927944.520    85696452.07548
  21664275.540   113846687.31709  21664271.780    88711764.81648
  24289815.340   127643839.77806  24289810.640    99462731.30845
  22012307.000   115675683.35508  22012303.200    90136997.50848
  22345330.580   117425658.05209  22345325.440    91500563.16947
  22169168.300   116499779.41209  22169167.820    90779049.67948
  24391119.380   128176172.97408  24391118.640    99877514.74245
 15 02 27 00 45  0.0000000  0  7G16G18G19G21G22G27G31
  20919332.380   109931848.06909  20919329.120    85661173.40948
  21659152.120   113819763.40009  21659148.360    88690785.14548
  24275193.260   127567000.10106  24275188.360    99402856.28645
  22023284.240   115733369.44209  22023280.480    90181947.70548
  22329362.980   117341748.37309  22329357.980    91435179.02448
  22157929.740   116440720.48009  22157929.260    90733029.74448
  24408815.900   128269167.52208  24408815.180    99949977.73345
 15 02 27 00 45 30.0000000  0  7G16G18G19G21G22G27G31
  20910801.840   109887019.96809  20910798.620    85626242.43048
  21654117.260   113793304.79309  21654113.520    88670168.07148
  24260579.480   127490204.61206  24260574.720    99343015.67244
  22034293.960   115791226.14309  22034290.280    90227030.84648
  22313442.480   117258086.32209  22313437.540    91369987.84847
  22146709.020   116381754.78409  22146708.480    90687082.47148
  24426501.860   128362106.33208  24426501.060   100022397.31145
 15 02 27 00 46  0.0000000  0  7G16G18G19G21G22G27G31
  20902356.560   109842640.15509  20902353.460    85591660.76048
  21649171.180   113767312.97809  21649167.440    88649914.71248
  24245974.000   127413453.42407  24245969.380    99283209.58444
  22045335.860   115849251.86309  22045332.240    90272245.68748
  22297569.620   117174674.65509  22297564.800    91304991.76648
  22135506.160   116322882.86809  22135505.520    90641208.25548
  24444176.600   128454986.91308  24444175.980   100094771.46245
 15 02 27 00 46 30.0000000  0  7G16G18G19G21G22G27G31
  20893997.200   109798711.51609  20893994.140    85557430.65448
  21644314.360   113741790.19809  21644310.720    88630026.83848
  24231377.160   127336747.46907  24231373.000    99223438.72045
  22056409.820   115907445.90509  22056406.300    90317591.68848
  22281745.100   117091516.81609  22281740.340    91240193.47348
  22124321.340   116264106.04309  22124320.580    90595408.13948
  24461839.960   128547807.41908  24461839.500   100167098.83746
 15 02 27 00 47  0.0000000  0  7G16G18G19G21G22G27G31
  20885723.480   109755232.74609  20885720.440    85523551.09448
  21639546.340   113716734.74109  21639542.840    88610503.12448
  24216788.460   127260083.58207  24216784.460    99163700.63345
  22067514.900   115965803.67108  22067511.440    90363065.28148
  22265968.840   117008612.26509  22265964.060    91175592.55347
  22113154.080   116205421.59309  22113153.200    90549680.01548
  24479490.820   128640561.87508  24479490.520   100239374.72645
 15 02 27 00 47 30.0000000  0  7G16G18G19G21G22G27G31
  20877536.200   109712207.97809  20877533.080    85490025.30548
  21634867.680   113692149.01809  21634864.340    88591345.42848
  24202208.240   127183463.98307  24202204.280    99103997.07945
  22078651.220   116024325.31208  22078647.740    90408666.57048
  22250241.780   116925965.72109  22250236.900    91111192.66148
  22102004.860   116146831.86209  22102003.760    90504025.68248
  24497129.020   128733249.62508  24497128.760   100311598.59445
 15 02 27 00 48  0.0000000  0  7G16G18G19G21G22G27G31
  20869436.080   109669641.13509  20869432.820    85456856.33448
  21630278.940   113668035.86709  21630275.700    88572555.96448
  24187636.860   127106890.88507  24187632.580    99044329.71845
  22089818.920   116083011.63209  22089815.380    90454396.15648
  22234564.760   116843581.94109  22234559.700    91046997.52847
  22090874.120   116088339.40509  22090872.880    90458447.14448
  24514754.400   128825869.91708  24514754.080   100383769.92846
 15 02 27 00 48 30.0000000  0  7G16G18G19G21G22G27G31
  20861422.940   109627531.41609  20861419.580    85424043.57148
  21625779.960   113644394.25409  21625776.880    88554133.94648
  24173073.720   127030361.29607  24173069.260    98984696.30944
  22101017.140   116141857.99809  22101013.520    90500250.46948
  22218937.680   116761460.60609  22218932.400    90983006.88748
  22079761.420   116029941.98309  22079760.240    90412942.67548
  24532365.900   128918417.56108  24532365.780   100455884.60945
 15 02 27 00 49  0.0000000  0  7G16G18G19G21G22G27G31
  20853497.060   109585880.36509  20853493.620    85391588.20648
  21621370.880   113621224.94709  21621367.900    88536079.94948
  24158518.800   126953875.07807  24158514.380    98925096.66045
  22112245.460   116200862.40309  22112241.680    90546227.91948
  22203360.940   116679603.83009  22203355.380    90919222.40747
  22068666.780   115971639.69809  22068665.780    90367512.33148
  24549963.080   129010889.45608  24549962.740   100527940.32745
 15 02 27 00 49 30.0000000  0  7G16G18G19G21G22G27G31
  20845659.020   109544690.94009  20845655.500    85359492.54648
  21617052.140   113598530.14609  21617049.180    88518395.70048
  24143972.440   126877433.94207  24143968.080    98865532.15945
  22123503.760   116260024.63509  22123499.840    90592328.36248
  22187835.300   116598015.67909  22187829.640    90855647.23348
  22057590.460   115913434.13108  22057589.760    90322157.36948
  24567545.440   129103284.18808  24567545.360   100599935.81546
 15 02 27 00 50  0.0000000  0  7G16G18G19G21G22G27G31
  20837909.500   109503966.41709  20837905.940    85327759.15648
  21612824.060   113576311.79809  21612821.200    88501082.72348
  24129434.800   126801038.51707  24129430.480    98806003.26945
  22134791.840   116319344.09808  22134787.980    90638551.30448
  22172361.500   116516700.04009  22172355.760    90792284.41248
  22046532.900   115855326.90808  22046532.320    90276879.02348
  24585112.780   129195600.37608  24585112.900   100671870.15945
 15 02 27 00 50 30.0000000  0  7G16G18G19G21G22G27G31
  20830248.420   109463706.56009  20830244.820    85296387.84348
  21608686.420   113554568.69009  21608683.640    88484140.05348
  24114905.600   126724687.29507  24114901.200    98746508.82545
  22146109.060   116378817.00609  22146105.260    90684893.82548
  22156939.620   116435657.38809  22156933.880    90729134.31147
  22035493.840   115797316.42909  22035493.280    90231676.07348
  24602664.220   129287832.83108  24602664.380   100743739.25845
 15 02 27 00 51  0.0000000  0  7G16G18G19G21G22G27G31
  20822676.140   109423913.47709  20822672.500    85265380.25248
  21604639.500   113533302.20209  21604636.820    88467568.77248
  24100384.840   126648380.33807  24100380.460    98687048.88345
  22157455.320   116438442.42809  22157451.660    90731355.19948
  22141570.080   116354890.14909  22141564.440    90666198.82548
  22024473.460   115739403.64409  22024472.800    90186549.23848
  24620199.320   129379979.35008  24620199.700   100815541.39346
 15 02 27 00 51 30.0000000  0  7G16G18G19G21G22G27G31
  20815192.920   109384588.55709  20815189.260    85234737.46348
  21600683.520   113512512.88509  21600680.740    88451369.30848
  24085872.380   126572117.56107  24085868.220    98627623.36345
  22168830.200   116498217.92809  22168826.600    90777933.50947
  22126253.420   116274400.89409  22126247.920    90603479.94148
  22013471.700   115681588.54809  22013471.000    90141498.51648
  24637717.560   129472037.17908  24637718.220   100887274.38546
 15 02 27 00 52  0.0000000  0  7G16G18G19G21G22G27G31
  20807799.360   109345735.09509  20807795.680    85204462.04248
  21596818.720   113492202.36209  21596815.760    88435542.93548
  24071368.680   126495900.63407  24071364.840    98568233.56845
  22180233.680   116558143.73309  22180230.060    90824628.93947
  22110990.420   116194193.51609  22110985.020    90540980.70248
  22002488.840   115623872.83809  22002488.180    90096525.23948
  24655218.780   129564005.11108  24655219.460   100958937.34245
 15 02 27 00 52 30.0000000  0  7G16G18G19G21G22G27G31
  20800495.260   109307351.84809  20800491.520    85174553.02548
  21593044.760   113472369.09409  21593041.560    88420088.46348
  24056873.220   126419726.42707  24056869.540    98508877.07245
  22191664.940   116618214.88709  22191661.220    90871437.62147
  22095781.000   116114267.48809  22095775.600    90478700.71747
  21991524.400   115566254.07809  21991523.760    90051627.51848
  24672701.840   129655877.08308  24672702.420   101030525.53646
 15 02 27 00 53  0.0000000  0  7G16G18G19G21G22G27G31
  20793281.920   109269445.53009  20793278.040    85145015.63048
  21589362.720   113453019.09709  21589359.360    88405010.53948
  24042386.800   126343599.42907  24042383.080    98449557.36045
  22203124.480   116678434.39809  22203120.600    90918361.89547
  22080626.500   116034629.92409  22080621.100    90416645.48548
  21980579.380   115508737.52509  21980578.800    90006809.42648
  24690167.040   129747655.28908  24690167.480   101102040.62646
 15 02 27 00 53 30.0000000  0  6G16G18G19G21G22G27
  20786157.820   109232008.25809  20786153.820    85115843.73648
  21585770.800   113434143.11509  21585767.400    88390301.99448
  24027907.680   126267510.58607  24027903.860    98390267.38745
  22214610.200   116738791.42909  22214606.220    90965393.34948
  22065525.560   115955273.75409  22065520.100    90354809.53148
  21969652.060   115451314.17109  21969651.500    89962063.97348
 15 02 27 00 54  0.0000000  0  6G16G18G19G21G22G27
  20779126.200   109195056.96109  20779122.120    85087050.50948
  21582272.040   113415757.11209  21582268.680    88375975.25448
  24013438.660   126191474.75008  24013434.800    98331018.69646
  22226124.580   116799299.39409  22226120.560    91012542.39748
  22050481.640   115876216.93709  22050476.060    90293206.83348
  21958745.380   115393999.58309  21958744.900    89917403.26748
 15 02 27 00 54 30.0000000  0  6G16G18G19G21G22G27
