     2.11           OBSERVATION DATA    G                   RINEX VERSION / TYPE
SPIDER V4,0,0,3554                      2015 03 31 06:08    PGM / RUN BY / DATE 
EADB                                                        MARKER NAME         
EADB                                                        MARKER NUMBER       
                                                            OBSERVER / AGENCY   
462408              LEICA GRX1200PRO    3.00/2.127          REC # / TYPE / VERS 
103310              LEIAT504                                ANT # / TYPE        
  5238464.6656   142765.3090  3625629.6523                  APPROX POSITION XYZ 
        0.0770        0.0000        0.0000                  ANTENNA: DELTA H/E/N
     1     1                                                WAVELENGTH FACT L1/2
     4    C1    L1    P2    L2                              # / TYPES OF OBSERV 
    30.000                                                  INTERVAL            
  2015    02    27    00    00    0.0000000     GPS         TIME OF FIRST OBS   
  2015    02    27    23    59   30.0000000     GPS         TIME OF LAST OBS    
    16                                                      LEAP SECONDS        
    30                                                      # OF SATELLITES     
   G 1   835   835   835   835                              PRN / # OF OBS      
   G 2   927   927   927   927                              PRN / # OF OBS      
   G 3   845   845   845   845                              PRN / # OF OBS      
   G 4   849   849   849   849                              PRN / # OF OBS      
   G 5   673   673   673   673                              PRN / # OF OBS      
   G 6   724   724   724   724                              PRN / # OF OBS      
   G 7   647   647   647   647                              PRN / # OF OBS      
   G 9   788   788   788   788                              PRN / # OF OBS      
   G10   784   784   784   784                              PRN / # OF OBS      
   G11   800   800   800   800                              PRN / # OF OBS      
   G12   818   818   818   818                              PRN / # OF OBS      
   G13   822   822   822   822                              PRN / # OF OBS      
   G14   902   902   899   899                              PRN / # OF OBS      
   G15   732   732   732   732                              PRN / # OF OBS      
   G16   691   691   691   691                              PRN / # OF OBS      
   G17   931   931   931   931                              PRN / # OF OBS      
   G18   937   937   937   937                              PRN / # OF OBS      
   G19   776   776   776   776                              PRN / # OF OBS      
   G20   803   803   803   803                              PRN / # OF OBS      
   G21   649   649   641   641                              PRN / # OF OBS      
   G22   784   784   784   784                              PRN / # OF OBS      
   G23   731   731   731   731                              PRN / # OF OBS      
   G24   842   842   842   842                              PRN / # OF OBS      
   G25   842   842   842   842                              PRN / # OF OBS      
   G27   833   833   833   833                              PRN / # OF OBS      
   G28   906   906   906   906                              PRN / # OF OBS      
   G29   739   739   739   739                              PRN / # OF OBS      
   G30   693   693   693   693                              PRN / # OF OBS      
   G31   777   777   777   777                              PRN / # OF OBS      
   G32   745   745   745   745                              PRN / # OF OBS      
BIT 2 OF LLI FLAGS DATA COLLECTED UNDER A/S CONDITION       COMMENT             
SNR is mapped to RINEX snr flag value [2-9]                 COMMENT             
Lx:     = 25dBHz -> 1; 26-27dBHz -> 2; 28-31dBHz -> 3       COMMENT             
       32-35dBHz -> 4; 36-38dBHz -> 5; 39-41dBHz -> 6       COMMENT             
       42-44dBHz -> 7; 45-48dBHz -> 8; >=49dBHz -> 9        COMMENT             
                                                            END OF HEADER       
 15 02 27 00 00  0.0000000  0  7G16G18G21G22G27G29G31
  21701585.406   114042624.62909  21701583.499    88864374.22848
  22802434.581   119827751.68008  22802433.294    93372338.64046
  21351436.899   112202564.33409  21351434.411    87430563.96249
  24039324.876   126327593.39507  24039324.781    98437119.95145
  22754753.268   119577051.37708  22754753.870    93176925.77747
  24136716.243   126839286.45007  24136715.357    98835799.64045
  22662008.503   119089647.91008  22662007.265    92797116.96647
 15 02 27 00 00 30.0000000  0  7G16G18G21G22G27G29G31
  21688275.127   113972678.36009  21688273.053    88809870.64348
  22790990.287   119767611.29208  22790989.161    93325476.01946
  21358969.446   112242148.66809  21358967.050    87461408.89348
  24021980.433   126236449.82607  24021980.674    98366099.60745
  22743068.535   119515647.72108  22743069.200    93129078.78947
  24150973.147   126914207.36507  24150972.467    98894179.53145
  22679046.814   119179183.49508  22679045.418    92866884.91547
 15 02 27 00 01  0.0000000  0  7G16G18G21G22G27G29G31
  21675010.697   113902973.74409  21675008.852    88755555.36348
  22779597.773   119707743.16308  22779596.557    93278825.55446
  21366567.379   112282076.88609  21366565.160    87492521.78848
  24004633.660   126145293.42107  24004634.144    98295069.21645
  22731406.933   119454365.21408  22731407.706    93081326.20147
  24165230.360   126989130.86606  24165230.501    98952561.42246
  22696126.654   119268938.22208  22696125.195    92936823.62347
 15 02 27 00 01 30.0000000  0  7G16G18G21G22G27G29G31
  21661792.470   113833511.77209  21661790.732    88701429.15348
  22768257.099   119648148.83108  22768255.988    93232388.44346
  21374230.510   112322346.03609  21374228.269    87523900.34548
  23987283.976   126054124.90306  23987284.758    98224029.38144
  22719767.878   119393202.62808  22719768.921    93033667.07147
  24179488.220   127064055.55307  24179487.590    99010944.28745
  22713247.341   119358908.10108  22713246.015    93006929.95647
 15 02 27 00 02  0.0000000  0  7G16G18G21G22G27G29G31
  21648620.770   113764293.52209  21648618.731    88647492.85548
  22756969.119   119588829.72108  22756967.496    93186165.77046
  21381957.736   112362953.97609  21381955.589    87555542.89748
  23969933.064   125962945.89707  23969933.000    98152981.26945
  22708151.524   119332158.90508  22708152.555    92986100.55547
  24193746.289   127138980.68007  24193745.695    99069327.43445
  22730408.388   119449089.26508  22730406.835    93077200.95747
 15 02 27 00 02 30.0000000  0  7G16G18G21G22G27G29G31
  21635495.834   113695321.04809  21635493.853    88593748.08148
  22745733.733   119529787.58908  22745732.149    93140158.93046
  21389749.325   112403898.21009  21389747.146    87587447.48948
  23952580.744   125871758.77907  23952580.192    98081926.76645
  22696557.892   119271233.45408  22696558.930    92938626.19547
  24208004.154   127213905.48407  24208002.993    99127710.40545
  22747608.863   119539478.30708  22747607.111    93147633.93347
 15 02 27 00 03  0.0000000  0  7G16G18G21G22G27G29G31
  21622418.263   113626598.10709  21622416.153    88540197.74048
  22734552.114   119471027.44008  22734550.368    93094371.81446
  21397604.895   112445179.26009  21397602.700    87619614.54348
  23935227.236   125780568.38506  23935227.305    98010869.81245
  22684987.059   119210428.35008  22684988.025    92891245.61647
  24222262.280   127288832.31907  24222261.686    99186094.90145
  22764848.841   119630074.59908  22764847.382    93218228.39847
 15 02 27 00 03 30.0000000  0  7G16G18G21G22G27G29G31
  21609388.111   113558124.00909  21609386.065    88486841.30348
  22723423.926   119412548.97808  22723422.543    93048804.20046
  21405523.607   112486792.77709  21405521.450    87652040.65948
  23917873.013   125689374.82807  23917873.729    97939810.38346
  22673438.552   119149740.72308  22673439.480    92843956.56947
  24236520.545   127363758.16007  24236519.673    99244478.66245
  22782127.014   119720872.47508  22782125.704    93288979.92247
 15 02 27 00 04  0.0000000  0  7G16G18G21G22G27G29G31
  21596406.470   113489905.11709  21596404.328    88433683.72948
  22712350.688   119354358.46908  22712349.131    93003460.95846
  21413506.068   112528740.76809  21413503.903    87684727.40648
  23900520.027   125598184.43007  23900520.226    97868753.31545
  22661913.292   119089174.51108  22661914.108    92796762.12647
  24250778.491   127438686.89007  24250778.126    99302864.61345
  22799443.770   119811872.73908  22799442.422    93359889.17746
 15 02 27 00 04 30.0000000  0  7G16G18G21G22G27G29G31
  21583472.837   113421938.23309  21583470.691    88380722.52148
  22701331.481   119296452.46208  22701330.218    92958339.41746
  21421550.969   112571016.22509  21421548.677    87717669.31948
  23883167.316   125506994.25107  23883166.958    97797696.30145
  22650410.062   119028724.16008  22650410.615    92749657.96847
  24265036.535   127513612.85707  24265036.249    99361248.46245
  22816797.675   119903067.40508  22816796.086    93430949.90747
 15 02 27 00 05  0.0000000  0  7G16G18G21G22G27G29G31
  21570588.458   113354230.76609  21570586.373    88327963.45548
  22690368.112   119238839.12908  22690366.533    92913445.92546
  21429658.628   112613622.79309  21429656.437    87750869.24148
  23865814.993   125415812.37006  23865815.518    97726645.92945
  22638929.770   118968395.03508  22638930.558    92702648.27047
  24279294.895   127588541.98007  24279294.381    99419634.78645
  22834188.937   119994458.63608  22834187.626    93502163.79347
 15 02 27 00 05 30.0000000  0  7G16G18G21G22G27G29G31
  21557753.141   113286780.34709  21557750.994    88275404.69448
  22679459.883   119181516.65308  22679458.485    92868779.07446
  21437828.328   112656554.01209  21437825.960    87784322.13348
  23848464.570   125324636.81207  23848465.215    97655600.40246
  22627471.532   118908182.27608  22627472.486    92655729.25747
  24293553.628   127663469.22407  24293553.210    99478019.61745
  22851615.889   120086038.85408  22851614.716    93573524.93647
 15 02 27 00 06  0.0000000  0  7G16G18G21G22G27G29G31
  21544967.479   113219591.89709  21544965.627    88223050.06348
  22668607.888   119124489.91208  22668606.516    92824342.67146
  21446059.851   112699811.05309  21446057.310    87818028.91548
  23831117.000   125233473.43407  23831117.037    97584564.29446
  22616035.951   118848088.89108  22616037.160    92608903.25747
  24307811.737   127738397.58907  24307810.953    99536405.34845
  22869079.333   120177808.27808  22869078.078    93645033.51747
 15 02 27 00 06 30.0000000  0  7G16G18G21G22G27G29G31
  21532231.851   113152665.59209  21532229.813    88170899.69448
  22657812.489   119067759.45808  22657811.142    92780137.13746
  21454352.402   112743389.61009  21454350.193    87851986.22848
  23813771.015   125142322.38506  23813770.665    97513537.83345
  22604622.844   118788112.67308  22604623.909    92562168.55947
  24322069.952   127813324.70606  24322069.649    99594790.07745
  22886577.430   120269761.89808  22886576.053    93716685.64446
 15 02 27 00 07  0.0000000  0  7G16G18G21G22G27G29G31
  21519547.321   113086007.06709  21519545.041    88118957.98548
  22647074.336   119011330.80208  22647073.093    92736166.77846
  21462706.771   112787292.49209  21462704.609    87886196.26048
  23796428.729   125051190.21407  23796427.574    97442525.99145
  22593232.860   118728257.06008  22593233.652    92515527.82947
  24336328.585   127888254.73106  24336328.372    99653177.10045
  22904110.615   120361899.99908  22904109.368    93788481.51146
 15 02 27 00 07 30.0000000  0  7G16G18G21G22G27G29G31
  21506912.723   113019612.71009  21506910.830    88067222.12648
  22636393.169   118955200.88908  22636392.089    92692429.19646
  21471121.358   112831511.53609  21471119.136    87920652.65548
  23779089.915   124960073.78807  23779088.849    97371526.43846
  22581864.539   118668516.34908  22581865.422    92468976.64147
  24350586.395   127963181.34106  24350586.982    99711561.37945
  22921677.577   120454214.29208  22921676.496    93860414.65247
 15 02 27 00 08  0.0000000  0  7G16G18G21G22G27G29G31
  21494330.275   112953491.99809  21494328.425    88015699.50048
  22625770.737   118899379.32008  22625769.446    92648931.90546
  21479597.270   112876052.28509  21479594.974    87955359.73148
  23761755.396   124868982.93307  23761754.789    97300546.89046
  22570519.446   118608897.73308  22570520.450    92422520.59547
  24364845.451   128038111.97107  24364845.441    99769948.85545
  22939278.864   120546709.08508  22939277.836    93932488.44547
 15 02 27 00 08 30.0000000  0  7G16G18G21G22G27G29G31
  21481799.370   112887641.46009  21481797.546    87964387.39448
  22615206.211   118843862.42408  22615204.835    92605671.99546
  21488132.905   112920907.44309  21488130.626    87990311.79948
  23744425.675   124777914.35207  23744424.088    97229584.59644
  22559196.570   118549395.21008  22559197.682    92376155.00347
  24379103.865   128113040.81306  24379103.778    99828334.92346
  22956912.652   120639375.45508  22956911.521    94004695.94146
 15 02 27 00 09  0.0000000  0  7G16G18G21G22G27G29G31
  21469320.083   112822062.08209  21469318.098    87913286.58148
  22604699.896   118788651.52108  22604698.623    92562650.53146
  21496727.726   112966073.93709  21496725.599    88025506.46748
  23727100.589   124686869.88207  23727098.004    97158640.99245
  22547895.471   118490007.69408  22547896.533    92329879.03247
  24393361.921   128187966.78206  24393361.215    99886718.83845
  22974578.245   120732209.33408  22974577.212    94077033.95946
 15 02 27 00 09 30.0000000  0  7G16G18G21G22G27G29G31
  21456894.286   112756764.36109  21456892.463    87862405.24348
  22594254.058   118733757.93208  22594252.763    92519876.32546
  21505383.200   113011558.79509  21505381.148    88060949.21048
  23709781.771   124595860.65906  23709779.712    97087724.98146
  22536617.917   118430743.83908  22536618.847    92283699.41647
  24407621.321   128262898.27507  24407620.844    99945106.91945
  22992276.974   120825216.65608  22992276.122    94149507.13046
 15 02 27 00 10  0.0000000  0  7G16G18G21G22G27G29G31
  21444521.051   112691742.60309  21444519.090    87811738.94348
  22583867.624   118679176.22608  22583866.273    92477345.13546
  21514097.483   113057352.47109  21514095.340    88096632.58748
  23692468.850   124504881.64407  23692466.935    97016832.49145
  22525362.316   118371595.66508  22525363.199    92237609.95147
  24421879.808   128337827.78806  24421879.713   100003493.51046
  23010006.903   120918386.56508  23010005.849    94222106.99147
 15 02 27 00 10 30.0000000  0  7G16G18G21G22G27G29G31
  21432201.298   112627001.49309  21432199.404    87761291.32648
  22573541.128   118624910.12208  22573539.567    92435059.87446
  21522870.590   113103455.11609  21522868.358    88132556.72648
  23675162.934   124413937.60107  23675160.262    96945967.12345
  22514129.280   118312565.22208  22514130.175    92191612.22247
  24436138.510   128412757.36807  24436138.458   100061880.15646
  23027767.361   121011718.18008  23027766.661    94294832.82847
 15 02 27 00 11  0.0000000  0  7G16G18G21G22G27G29G31
  21419935.508   112562544.11009  21419933.412    87711064.79548
  22563275.327   118570963.35008  22563273.903    92393023.44446
  21531702.007   113149864.90309  21531699.984    88168720.19348
  23657863.794   124323032.09707  23657861.421    96875131.85246
  22502918.723   118253653.25608  22502919.436    92145706.80747
  24450397.017   128487687.70307  24450397.303   100120267.36646
  23045557.960   121105209.44308  23045557.291    94367683.08146
 15 02 27 00 11 30.0000000  0  7G16G18G21G22G27G29G31
  21407723.588   112498370.50609  21407721.658    87661059.39248
  22553070.363   118517336.43308  22553068.998    92351236.25246
  21540591.641   113196579.83809  21540589.525    88205121.43848
  23640571.939   124232165.91407  23640570.773    96804327.29246
  22491730.420   118194858.10708  22491731.193    92099892.41747
  24464655.946   128562617.12707  24464655.214   100178653.94345
  23063378.550   121198855.74208  23063377.374    94440654.18346
 15 02 27 00 12  0.0000000  0  7G16G18G21G22G27G29G31
  21395566.491   112434484.62409  21395564.587    87611278.18748
  22542927.173   118464033.14108  22542925.791    92309701.23446
  21549539.266   113243599.61109  21549537.128    88241760.22148
  23623289.257   124141343.92707  23623287.763    96733557.06645
  22480564.403   118136181.44608  22480565.340    92054170.36547
  24478914.592   128637547.41206  24478914.552   100237041.14046
  23081228.137   121292655.89208  23081227.265    94513745.12946
 15 02 27 00 12 30.0000000  0  7G16G18G21G22G27G29G31
  21383464.750   112370889.79409  21383462.734    87561723.78048
  22532845.958   118411056.97008  22532844.833    92268421.11846
  21558544.498   113290922.55109  21558542.360    88278635.23648
  23606015.084   124050569.47307  23606013.389    96662823.89345
  22469421.380   118077624.21708  22469422.187    92008541.35847
  24493173.788   128712479.61906  24493174.007   100295429.78945
  23099106.335   121386607.73607  23099106.062    94586954.22047
 15 02 27 00 13  0.0000000  0  7G16G18G21G22G27G29G31
  21371418.030   112307583.91709  21371416.103    87512394.52648
  22522826.793   118358405.87108  22522825.658    92227394.30146
  21567606.254   113338542.93209  21567604.239    88315742.02448
  23588749.887   123959841.06707  23588748.204    96592126.56545
  22458300.264   118019182.07608  22458301.044    91963002.04347
  24507432.394   128787409.50707  24507432.117   100353816.76946
  23117012.650   121480704.34208  23117012.219    94660276.16046
 15 02 27 00 13 30.0000000  0  7G16G18G21G22G27G29G31
  21359427.267   112244571.87509  21359425.418    87463294.23848
  22512870.279   118306084.84408  22512869.142    92186624.68846
  21576725.126   113386462.29909  21576722.800    88353081.78448
  23571494.958   123869164.42707  23571493.340    96521469.62446
  22447201.318   117960857.81608  22447202.203    91917554.58447
  24521691.394   128862340.08508  24521691.178   100412204.11544
  23134946.449   121574945.59008  23134945.196    94733710.85746
 15 02 27 00 14  0.0000000  0  7G16G18G21G22G27G29G31
  21347493.604   112181859.61509  21347491.611    87414427.54348
  22502978.046   118254100.12208  22502976.873    92146117.12446
  21585900.954   113434681.91709  21585898.749    88390655.51248
  23554250.962   123778545.83207  23554249.048    96450857.91145
  22436125.803   117902655.12408  22436126.572    91872201.85147
  24535950.444   128937274.90007  24535950.898   100470594.75745
  23152907.797   121669332.17208  23152906.578    94807258.74746
 15 02 27 00 14 30.0000000  0  7G16G18G21G22G27G29G31
  21335615.302   112119438.56009  21335613.227    87365787.76448
  22493147.824   118202442.83508  22493146.753    92105864.70846
  21595131.742   113483189.56509  21595129.370    88428453.67748
  23537016.040   123687976.92807  23537013.459    96380284.83846
  22425071.290   117844563.10908  22425072.155    91826935.35847
  24550209.162   129012202.90807  24550209.457   100528980.23546
  23170893.901   121763850.25908  23170893.330    94880909.08246
 15 02 27 00 15  0.0000000  0  6G16G18G21G22G27G31
  21323787.980   112057285.00209  21323785.929    87317356.42548
  22483375.760   118151089.25708  22483374.341    92065848.94046
  21604411.985   113531957.29309  21604409.590    88466454.50148
  23519786.093   123597434.51007  23519783.813    96309732.47346
  22414032.690   117786555.75108  22414033.550    91781734.83747
  23188899.735   121858471.02208  23188899.078    94954639.45246
 15 02 27 00 15 30.0000000  0  6G16G18G21G22G27G31
  21312026.453   111995478.97809  21312024.535    87269195.89148
  22473676.495   118100119.68508  22473675.194    92026132.39946
  21613756.122   113581061.68809  21613753.861    88504717.66448
  23502577.012   123506999.77107  23502574.568    96239263.96146
  22403025.374   117728711.25808  22403026.281    91736661.22347
  23206939.270   121953269.63508  23206938.611    95028508.38946
 15 02 27 00 16  0.0000000  0  6G16G18G21G22G27G31
  21300321.693   111933969.36509  21300319.767    87221266.32248
  22464040.823   118049483.23108  22464039.546    91986675.43847
  21623154.005   113630447.11309  21623151.647    88543199.81048
  23485378.704   123416621.86407  23485376.139    96168839.73846
  22392038.862   117670976.27908  22392039.490    91691672.93247
  23225002.176   122048189.87808  23225001.385    95102472.11546
 15 02 27 00 16 30.0000000  0  6G16G18G21G22G27G31
  21288675.121   111872766.62209  21288673.119    87173575.87248
  22454470.378   117999190.10608  22454469.185    91947486.00146
  21632606.478   113680120.34909  21632604.347    88581906.22448
  23468193.016   123326311.87007  23468190.609    96098468.46046
  22381074.530   117613358.97708  22381075.469    91646776.34947
  23243089.385   122143237.05708  23243088.291    95176534.72446
 15 02 27 00 17  0.0000000  0  6G16G18G21G22G27G31
  21277087.564   111811873.06909  21277085.607    87126126.35248
  22444965.542   117949242.26308  22444964.323    91908565.61747
  21642113.337   113730079.51509  21642111.276    88620835.44548
  23451020.948   123236072.20208  23451017.941    96028151.94246
  22370132.846   117555859.32208  22370133.643    91601971.43047
  23261199.694   122238408.27807  23261198.821    95250693.97046
 15 02 27 00 17 30.0000000  0  6G16G18G21G22G27G31
  21265558.764   111751289.93709  21265556.922    87078918.71848
  22435526.664   117899641.81308  22435525.492    91869915.93546
  21651674.199   113780322.05709  21651672.089    88659985.47248
  23433862.906   123145905.32908  23433859.537    95957892.11645
  22359213.218   117498476.63308  22359214.052    91557257.65747
  23279333.030   122333699.66307  23279332.479    95324946.83446
 15 02 27 00 18  0.0000000  0  6G16G18G21G22G27G31
  21254089.541   111691018.92109  21254087.820    87031954.29148
  22426154.488   117850390.03908  22426153.126    91831537.94546
  21661288.378   113830845.25209  21661286.318    88699354.19348
  23416718.423   123055812.99507  23416715.562    95887690.40246
  22348315.897   117441210.20108  22348316.683    91512634.46948
  23297488.917   122429108.05608  23297488.126    95399290.92346
 15 02 27 00 18 30.0000000  0  6G16G18G21G22G27G31
  21242682.143   111631072.26809  21242680.276    86985242.61748
  22416850.906   117801499.23208  22416849.648    91793441.22546
  21670957.598   113881657.75409  21670955.478    88738948.35048
  23399590.758   122965808.22507  23399588.330    95817556.97146
  22337442.509   117384070.13108  22337443.199    91468109.74848
  23315668.381   122524640.41008  23315667.607    95473731.57646
 15 02 27 00 19  0.0000000  0  6G16G18G21G22G27G31
  21231332.833   111571431.58209  21231331.077    86938769.35548
  22407612.320   117752950.72708  22407611.079    91755611.23646
  21680677.693   113932736.75809  21680675.481    88778750.16948
  23382476.774   122875873.19908  23382474.086    95747477.81745
  22326589.090   117327035.87308  22326589.959    91423667.48048
  23333866.556   122620273.40407  23333866.029    95548250.66546
 15 02 27 00 19 30.0000000  0  6G16G18G21G22G27G31
  21220045.189   111512114.83009  21220043.420    86892548.50848
  22398442.437   117704762.38308  22398441.107    91718061.89046
  21690451.295   113984096.54209  21690448.785    88818770.77648
  23365379.596   122786026.20207  23365376.334    95677467.22345
  22315759.037   117270123.09108  22315759.727    91379319.86648
  23352086.421   122716019.62907  23352086.155    95622858.00446
 15 02 27 00 20  0.0000000  0  6G16G18G21G22G27G31
  21208821.924   111453135.83309  21208820.045    86846590.85048
  22389343.774   117656948.49608  22389342.568    91680804.33047
  21700280.190   114035747.23509  21700277.858    88859018.06348
  23348301.096   122696281.73207  23348298.441    95607536.57446
  22304954.041   117213343.76808  22304955.144    91335076.24948
  23370330.177   122811888.02508  23370329.129    95697560.55946
 15 02 27 00 20 30.0000000  0  6G16G18G21G22G27G31
  21197657.959   111394468.33209  21197655.953    86800875.91448
  22380311.300   117609482.33808  22380309.925    91643817.72846
  21710158.466   114087658.30109  21710156.251    88899468.24348
  23331238.121   122606614.13508  23331235.555    95537665.81646
  22294169.323   117156669.25208  22294170.268    91290914.29748
  23388590.873   122907847.09908  23388589.591    95772333.75346
 15 02 27 00 21  0.0000000  0  7G16G18G19G21G22G27G31
  21186554.713   111336120.22109  21186552.654    86755409.85548
  22371346.382   117562371.59308  22371345.196    91607108.07047
  24445536.016   128462155.72016  24445531.543   100100373.98654
  21720086.881   114139833.78509  21720084.967    88940124.45748
  23314191.671   122517032.18108  23314189.027    95467861.79046
  22283405.562   117100105.30608  22283406.448    91246838.50248
  23406869.042   123003899.68207  23406868.042    95847179.76846
 15 02 27 00 21 30.0000000  0  7G16G18G19G21G22G27G31
  21175511.064   111278085.86209  21175509.189    86710188.27548
  22362448.052   117515610.58308  22362446.701    91570670.93747
  24430780.236   128384618.35206  24430778.169   100039955.32444
  21730063.841   114192263.56409  21730061.922    88980978.82548
  23297159.804   122427530.52307  23297157.191    95398120.32945
  22272661.366   117043644.14408  22272662.187    91202842.80148
  23425162.670   123100034.99807  23425162.433    95922090.17746
 15 02 27 00 22  0.0000000  0  7G16G18G19G21G22G27G31
  21164536.075   111220411.03209  21164533.919    86665246.84848
  22353625.107   117469245.06808  22353623.601    91534541.97547
  24416046.989   128307194.96006  24416045.450    99979625.45644
  21740097.277   114244989.59409  21740095.540    89022064.03348
  23280152.102   122338155.63407  23280149.126    95328477.61545
  22261945.040   116987329.41008  22261946.043    91158961.20048
  23443480.534   123196293.99508  23443479.849    95997096.99746
 15 02 27 00 22 30.0000000  0  7G16G18G19G21G22G27G31
  21153621.820   111163056.48209  21153619.688    86620554.99148
  22344869.686   117423235.95708  22344868.338    91498690.73247
  24401327.726   128229843.99306  24401325.572    99919351.98945
  21750178.951   114297968.95909  21750177.078    89063346.65348
  23263161.473   122248868.65008  23263158.617    95258903.41646
  22251248.665   116931119.70708  22251249.662    91115161.43548
  23461813.368   123292632.15707  23461812.510    96072165.49346
 15 02 27 00 23  0.0000000  0  7G16G18G19G21G22G27G31
  21142771.872   111106039.71809  21142769.881    86576126.34248
  22336185.638   117377600.41608  22336184.225    91463130.58447
  24386624.823   128152580.83906  24386622.912    99859146.99045
  21760311.504   114351214.88409  21760309.310    89104836.98248
  23246191.075   122159687.86108  23246188.450    95189411.97946
  22240575.323   116875030.41608  22240576.203    91071455.49748
  23480163.286   123389061.81407  23480162.794    96147305.24546
 15 02 27 00 23 30.0000000  0  7G16G18G19G21G22G27G31
  21131987.187   111049365.21909  21131985.036    86531964.39548
  22327573.260   117332342.53508  22327571.934    91427864.72247
  24371939.311   128075407.95406  24371937.358    99799012.28944
  21770494.786   114404727.98709  21770492.629    89146535.50148
  23229241.617   122070618.26008  23229239.237    95120007.19446
  22229925.136   116819063.89508  22229926.169    91027845.23048
  23498530.629   123485582.97507  23498530.454    96222516.33346
 15 02 27 00 24  0.0000000  0  7G16G18G19G21G22G27G31
  21121266.631   110993028.06909  21121264.425    86488065.31648
  22319031.927   117287457.83608  22319030.662    91392889.64247
  24357269.523   127998318.10506  24357267.534    99738942.34344
  21780727.234   114458499.33509  21780725.023    89188435.25448
  23212312.592   121981655.69908  23212309.801    95050685.76446
  22219297.231   116763213.16108  22219298.121    90984325.18548
  23516913.753   123582185.13307  23516913.424    96297790.52346
 15 02 27 00 24 30.0000000  0  7G16G18G19G21G22G27G31
  21110610.912   110937032.76409  21110608.812    86444432.61148
  22310562.546   117242950.03408  22310561.089    91358208.25147
  24342615.894   127921313.57706  24342613.935    99678938.86844
  21791008.687   114512529.45309  21791006.481    89230536.63748
  23195404.552   121892804.75608  23195401.877    94981451.33046
  22208691.658   116707480.43508  22208692.514    90940897.09148
  23535311.976   123678867.32407  23535311.521    96373126.93746
 15 02 27 00 25  0.0000000  0  7G16G18G19G21G22G27G31
  21100019.499   110881374.66809  21100017.474    86401062.66748
  22302163.776   117198814.48208  22302162.232    91323816.92747
  24327977.393   127844387.86106  24327975.356    99618996.77245
  21801337.733   114566809.89309  21801335.909    89272833.07548
  23178517.761   121804062.00408  23178515.028    94912301.19446
  22198107.317   116651859.12908  22198107.920    90897555.82148
  23553723.300   123775620.89007  23553723.628    96448519.06346
 15 02 27 00 25 30.0000000  0  7G16G18G19G21G22G27G31
  21089495.867   110826072.92009  21089493.979    86357970.40048
  22293839.623   117155070.60308  22293838.043    91289730.79747
  24313357.182   127767557.79006  24313355.036    99559129.22445
  21811717.451   114621355.83309  21811715.601    89315336.39948
  23161654.519   121715447.04108  23161651.947    94843250.66346
  22187547.221   116596366.19908  22187547.938    90854314.58448
  23572151.508   123872459.49507  23572151.406    96523977.54546
 15 02 27 00 26  0.0000000  0  7G16G18G19G21G22G27G31
  21079037.110   110771111.37609  21079035.244    86315143.22448
  22285586.991   117111702.13808  22285585.423    91255937.19947
  24298751.707   127690805.15806  24298749.294    99499321.99445
  21822143.891   114676146.43009  21822141.941    89358030.36348
  23144812.832   121626944.34608  23144810.469    94774287.59446
  22177008.147   116540983.52408  22177009.028    90811159.25948
  23590591.609   123969361.75607  23590591.475    96599485.48246
 15 02 27 00 26 30.0000000  0  7G16G18G19G21G22G27G31
  21068644.792   110716499.62809  21068642.905    86272588.61548
  22277407.247   117068717.88809  22277405.604    91222442.98847
  24284162.152   127614137.18306  24284160.005    99439580.76645
  21832617.985   114731187.44409  21832615.904    89400919.45848
  23127994.576   121538563.87708  23127991.845    94705419.73746
  22166491.563   116485718.37908  22166492.253    90768095.51148
  23609044.482   124066331.88207  23609044.973    96675046.16046
 15 02 27 00 27  0.0000000  0  7G16G18G19G21G22G27G31
  21058320.396   110662244.96609  21058318.663    86230312.25548
  22269302.262   117026125.06208  22269300.423    91189253.78147
  24269589.805   127537559.13906  24269587.603    99379909.62245
  21843140.400   114786482.95109  21843138.197    89444006.86348
  23111200.883   121450313.95708  23111198.462    94636653.63946
  22155998.320   116430576.32708  22155998.995    90725127.68948
  23627510.891   124163372.92207  23627511.929    96750662.07146
 15 02 27 00 27 30.0000000  0  7G16G18G19G21G22G27G31
  21048063.717   110608345.93909  21048062.073    86188313.01748
  22261271.230   116983922.23209  22261269.618    91156368.47747
  24255033.663   127461067.16106  24255031.497    99320305.54945
  21853710.240   114842027.55809  21853708.097    89487288.36948
  23094432.167   121362193.53708  23094429.493    94567988.42146
  22145527.839   116375553.60908  22145528.468    90682252.84748
  23645990.033   124260478.50007  23645990.571    96826328.52146
 15 02 27 00 28  0.0000000  0  7G16G18G19G21G22G27G31
  21037874.427   110554800.82709  21037872.648    86146589.55449
  22253313.967   116942106.90809  22253312.420    91123785.11247
  24240493.337   127384657.57506  24240490.909    99260765.64645
  21864326.056   114897814.57809  21864323.867    89530758.76548
  23077687.845   121274201.47308  23077685.354    94499423.25246
  22135079.372   116320646.26408  22135079.949    90639467.91048
  23664479.812   124357641.82207  23664480.273    96902040.16345
 15 02 27 00 28 30.0000000  0  7G16G18G19G21G22G27G31
  21027753.804   110501616.91009  21027752.070    86105147.54248
  22245431.998   116900686.47609  22245430.362    91091509.46547
  24225969.810   127308335.64106  24225967.527    99201294.04545
  21874988.680   114953847.70309  21874986.507    89574420.93248
  23060969.575   121186345.58508  23060966.789    94430964.18046
  22124653.701   116265859.58408  22124654.369    90596776.99748
  23682980.800   124454864.88607  23682981.331    96977798.37446
 15 02 27 00 29  0.0000000  0  7G16G18G19G21G22G27G31
  21017701.160   110448789.72009  21017699.352    86063983.49948
  22237624.232   116859656.26209  22237622.629    91059537.88847
  24211461.782   127232094.56706  24211459.189    99141885.44945
  21885696.764   115010119.12509  21885694.662    89618268.78548
  23044276.732   121098622.16608  23044273.135    94362608.29946
  22114249.998   116211187.13308  22114250.770    90554175.09348
  23701491.224   124552137.81907  23701491.934    97053595.32446
 15 02 27 00 29 30.0000000  0  7G16G18G19G21G22G27G31
  21007718.009   110396327.81509  21007716.236    86023104.09048
  22229892.178   116819024.63809  22229890.653    91027876.89247
  24196970.476   127155941.14606  24196967.733    99082545.17445
  21896451.026   115066633.02609  21896448.922    89662305.59048
  23027610.190   121011040.52308  23027606.766    94294362.92946
  22103869.103   116156635.56408  22103869.954    90511667.38448
  23720011.957   124649464.71107  23720012.934    97129434.34546
 15 02 27 00 30  0.0000000  0  7G16G18G19G21G22G27G31
  20997804.679   110344232.19509  20997802.724    85982510.10049
  22222236.254   116778792.02109  22222234.749    90996526.81047
  24182494.986   127079873.77806  24182492.441    99023271.96145
  21907250.911   115123386.18109  21907248.641    89706528.82048
  23010971.156   120923602.18308  23010967.901    94226229.21546
  22093511.008   116102203.62608  22093511.811    90469252.89548
  23738542.531   124746841.09507  23738542.798    97205311.91845
 15 02 27 00 30 30.0000000  0  7G16G18G19G21G22G27G31
  20987961.411   110292505.78509  20987959.339    85942203.80349
  22214656.609   116738961.21309  22214655.110    90965489.82847
  24168036.534   127003893.56606  24168034.263    98964066.70045
  21918096.261   115180378.06909  21918094.095    89750938.08048
  22994360.212   120836310.83208  22994357.103    94158210.02547
  22083176.024   116047892.36108  22083176.874    90426932.43348
  23757081.885   124844265.43407  23757081.943    97281226.89645
 15 02 27 00 31  0.0000000  0  7G16G18G19G21G22G27G31
  20978188.691   110241149.51409  20978186.535    85902185.92949
  22207153.706   116699533.31609  22207152.095    90934766.79847
  24153594.221   126927999.54206  24153592.089    98904928.53945
  21928986.279   115237605.18809  21928983.961    89795530.63548
  22977777.468   120749168.17508  22977774.214    94090306.70846
  22072863.612   115993700.67208  22072864.656    90384705.15648
  23775629.218   124941733.60807  23775629.915    97357175.92946
 15 02 27 00 31 30.0000000  0  7G16G18G19G21G22G27G31
  20968486.003   110190161.29509  20968483.806    85862454.84649
  22199726.880   116660505.27109  22199725.352    90904355.34247
  24139167.722   126852187.05806  24139165.134    98845853.88045
  21939919.682   115295061.60609  21939917.491    89840301.86448
  22961222.384   120662172.37508  22961219.154    94022517.81846
  22062573.328   115939624.21208  22062574.142    90342567.65748
  23794183.808   125039237.97907  23794184.626    97433153.21446
 15 02 27 00 32  0.0000000  0  7G16G18G19G21G22G27G31
  20958855.258   110139551.29409  20958853.142    85823018.48249
  22192378.113   116621887.24009  22192376.635    90874263.38447
  24124758.166   126776464.36206  24124755.424    98786849.21446
  21950898.100   115352754.08409  21950896.194    89885257.03448
  22944697.571   120575334.14508  22944694.241    93954851.68946
  22052306.471   115885671.45008  22052307.284    90300526.55848
  23812746.678   125136784.39507  23812747.182    97509163.18645
 15 02 27 00 32 30.0000000  0  7G16G18G19G21G22G27G31
  20949294.529   110089309.94709  20949292.578    85783869.38049
  22185105.450   116583669.13909  22185104.043    90844483.05447
  24110363.285   126700819.91106  24110360.675    98727905.52945
  21961918.687   115410668.78209  21961916.901    89930385.36348
  22928201.160   120488645.07808  22928198.046    93887301.81046
  22042060.881   115831830.66708  22042061.679    90258572.70848
  23831314.525   125234358.03007  23831314.817    97585194.29745
 15 02 27 00 33  0.0000000  0  7G16G18G19G21G22G27G31
  20939807.033   110039452.57009  20939805.027    85745019.47749
  22177911.764   116545866.31209  22177910.392    90815026.32147
  24095986.059   126625266.98606  24095983.553    98669033.18345
  21972983.913   115468816.90409  21972982.051    89975695.58348
  22911735.648   120402120.76108  22911733.392    93819880.33547
  22031839.263   115778115.26508  22031840.011    90216716.55848
  23849889.594   125331969.67307  23849889.685    97661255.11844
 15 02 27 00 33 30.0000000  0  7G16G18G19G21G22G27G31
  20930391.647   109989974.19409  20930389.513    85706464.89549
  22170796.109   116508473.32509  22170794.608    90785888.93847
  24081624.946   126549798.23206  24081622.052    98610226.39145
  21984092.127   115527189.09009  21984089.932    90021180.40548
  22895301.239   120315757.32308  22895298.825    93752584.18746
  22021640.078   115724518.28008  22021640.715    90174952.67848
  23868469.961   125429609.00707  23868470.199    97737337.46745
 15 02 27 00 34  0.0000000  0  7G16G18G19G21G22G27G31
  20921048.566   109940876.13009  20921046.562    85668206.66949
  22163758.637   116471491.06809  22163757.205    90757071.60347
  24067279.518   126474412.74807  24067276.689    98551484.49745
  21995242.314   115585783.93509  21995240.083    90066838.72248
  22878897.726   120229556.75108  22878895.015    93685414.95046
  22011463.345   115671039.12408  22011463.919    90133280.61748
  23887054.878   125527272.90707  23887055.467    97813439.06645
 15 02 27 00 34 30.0000000  0  7G16G18G19G21G22G27G31
  20911778.809   109892163.97909  20911777.116    85630249.14849
  22156800.097   116434924.78509  22156798.838    90728578.41247
  24052950.841   126399114.88507  24052947.907    98492810.87445
  22006435.186   115644602.93909  22006432.980    90112671.70448
  22862526.796   120143525.34008  22862524.119    93618377.52547
  22001309.635   115617681.52008  22001310.336    90091703.27048
  23905644.671   125624961.83207  23905645.298    97889560.15845
 15 02 27 00 35  0.0000000  0  7G16G18G19G21G22G27G31
  20902582.502   109843836.56009  20902580.654    85592591.42549
  22149920.602   116398772.89209  22149919.371    90700408.11447
  24038638.133   126323900.66107  24038635.135    98434202.43445
  22017669.655   115703640.31809  22017667.457    90158674.85048
  22846187.627   120057662.42608  22846184.997    93551471.39647
  21991178.552   115564442.22208  21991179.275    90050218.11048
  23924237.691   125722669.56006  23924238.497    97965695.88946
 15 02 27 00 35 30.0000000  0  7G16G18G19G21G22G27G31
  20893460.589   109795900.73609  20893458.648    85555238.83549
  22143121.243   116363041.92209  22143119.706    90672565.80747
  24024342.078   126248774.91606  24024339.201    98375662.91345
  22028946.124   115762899.46909  22028944.128    90204850.80848
  22829881.892   119971975.61908  22829879.280    93484702.49346
  21981070.798   115511326.08508  21981071.460    90008828.92448
  23942834.953   125820397.71107  23942835.547    98041847.41646
 15 02 27 00 36  0.0000000  0  7G16G18G19G21G22G27G31
  20884413.310   109748356.68609  20884411.408    85518191.52449
  22136402.057   116327731.48509  22136400.438    90645051.18747
  24010062.412   126173735.85707  24010059.728    98317190.95245
  22040264.397   115822377.23909  22040262.529    90251197.11448
  22813609.875   119886465.58808  22813607.520    93418071.35447
  21970986.195   115458331.39008  21970987.004    89967534.35448
  23961435.607   125918141.93207  23961436.145    98118011.35245
 15 02 27 00 36 30.0000000  0  7G16G18G19G21G22G27G31
  20875440.391   109701203.23709  20875438.398    85481448.58049
  22129762.532   116292840.23309  22129760.803    90617863.20847
  23995798.891   126098780.42707  23995796.232    98258784.16345
  22051623.168   115882067.76009  22051621.165    90297709.20448
  22797371.478   119801132.04908  22797368.774    93351577.71747
  21960924.191   115405455.20308  21960925.033    89926332.14348
  23980038.035   126015896.97607  23980038.896    98194184.00745
 15 02 27 00 37  0.0000000  0  7G16G18G19G21G22G27G31
  20866542.230   109654443.21509  20866540.331    85445012.20049
  22123203.098   116258370.55409  22123201.382    90591003.72747
  23981551.403   126023909.36906  23981548.883    98200443.11846
  22063022.451   115941970.36809  22063020.108    90344386.56148
  22781167.056   119715978.64608  22781164.469    93285224.45446
  21950884.848   115352698.34808  21950885.571    89885222.90948
  23998641.421   126113659.70606  23998642.668    98270362.43645
 15 02 27 00 37 30.0000000  0  7G16G18G19G21G22G27G31
  20857719.640   109608080.12909  20857717.714    85408885.12049
  22116724.307   116224324.93209  22116722.840    90564474.67847
  23967320.009   125949123.89207  23967317.465    98142168.74845
  22074461.785   116002084.72409  22074459.397    90391228.91548
  22764998.341   119631009.22308  22764995.230    93219014.52847
  21940868.523   115300062.33008  21940869.338    89844207.82948
  24017246.274   126211428.96607  24017247.614    98346545.92445
 15 02 27 00 38  0.0000000  0  7G16G18G19G21G22G27G31
  20848973.558   109562119.71809  20848971.548    85373071.81549
  22110327.523   116190709.41709  22110326.077    90538280.78647
  23953105.987   125874428.17107  23953103.456    98083964.31745
  22085941.481   116062411.87209  22085939.507    90438237.07548
  22748865.133   119546230.42408  22748862.403    93152953.17447
  21930876.032   115247551.15208  21930877.008    89803290.03648
  24035853.288   126309206.26607  24035854.108    98422735.97045
 15 02 27 00 38 30.0000000  0  7G16G18G19G21G22G27G31
  20840303.386   109516557.37409  20840301.337    85337568.69049
  22104011.466   116157518.62509  22104010.028    90512417.83947
  23938907.529   125799815.33207  23938904.901    98025824.48545
  22097460.195   116122943.96309  22097458.271    90485404.92948
  22732767.691   119461638.42208  22732765.101    93087037.38046
  21920906.008   115195158.32508  21920906.887    89762464.46148
  24054459.508   126406981.20407  24054460.281    98498923.97845
 15 02 27 00 39  0.0000000  0  7G16G18G19G21G22G27G31
  20831709.711   109471397.46509  20831707.800    85302379.15249
  22097777.149   116124756.91209  22097775.868    90486889.24847
  23924725.324   125725287.52807  23924722.687    97967750.90845
  22109018.447   116183682.39809  22109016.615    90532733.57148
  22716707.000   119377238.61008  22716704.057    93021271.31146
  21910958.986   115142886.46708  21910959.960    89721733.14648
  24073065.107   126504754.03506  24073066.245    98575110.22946
 15 02 27 00 39 30.0000000  0  7G16G18G19G21G22G27G31
  20823193.119   109426642.43909  20823191.202    85267505.10749
  22091624.845   116092425.87009  22091623.402    90461696.23747
  23910559.436   125650845.78307  23910556.879    97909744.38645
  22120615.444   116244624.71309  22120613.727    90580221.08648
  22700683.454   119293034.12008  22700680.390    92955657.44847
  21901035.173   115090736.22408  21901035.984    89681096.59348
  24091669.899   126602523.16206  24091671.179    98651293.82545
 15 02 27 00 40  0.0000000  0  7G16G18G19G21G22G27G31
  20814753.584   109382292.44909  20814751.557    85232946.67249
  22085554.353   116060524.80909  22085552.741    90436838.27447
  23896409.632   125576487.74807  23896406.932    97851803.09545
  22132250.882   116305768.04109  22132248.913    90627865.22948
  22684696.991   119209025.56108  22684694.126    92890196.27547
  21891134.038   115038705.72108  21891134.971    89640553.34948
  24110273.074   126700282.75406  24110274.503    98727469.86045
 15 02 27 00 40 30.0000000  0  7G16G18G19G21G22G27G31
  20806392.846   109338356.90909  20806391.008    85198711.18549
  22079567.431   116029063.38809  22079565.758    90412322.89047
  23882277.002   125502220.90607  23882274.200    97793932.85546
  22143925.195   116367117.62609  22143923.349    90675670.09348
  22668750.164   119125223.20008  22668746.944    92824895.76147
  21881257.246   114986802.55208  21881258.112    89600109.32648
  24128875.423   126798037.57307  24128877.080    98803642.14445
 15 02 27 00 41  0.0000000  0  7G16G18G19G21G22G27G31
  20798110.117   109294830.68509  20798108.160    85164794.65049
  22073662.898   115998035.48409  22073661.346    90388145.31047
  23868160.638   125428038.16207  23868157.896    97736128.13845
  22155637.015   116428664.21609  22155635.160    90723628.46748
  22652841.479   119041622.21808  22652838.296    92759752.16247
  21871403.306   114935019.68108  21871404.230    89559759.04448
  24147475.237   126895778.00207  24147476.630    98879803.41045
 15 02 27 00 41 30.0000000  0  7G16G18G19G21G22G27G31
  20789905.824   109251716.21009  20789903.687    85131198.95649
  22067841.123   115967442.94309  22067839.560    90364306.97847
  23854060.206   125353940.13806  23854057.428    97678389.45645
  22167386.093   116490406.97509  22167384.352    90771739.69748
  22636971.871   118958226.39808  22636968.659    92694768.43547
  21861572.312   114883357.89908  21861573.229    89519503.11348
  24166071.584   126993501.90206  24166072.523    98955951.95344
 15 02 27 00 42  0.0000000  0  7G16G18G19G21G22G27G31
  20781780.871   109209019.98609  20781779.072    85097929.16949
  22062103.677   115937292.39909  22062102.341    90340813.05547
  23839976.688   125279931.37607  23839974.144    97620720.32345
  22179173.342   116552348.66909  22179171.393    90820005.93948
  22621142.393   118875042.95808  22621139.177    92629950.19547
  21851765.554   114831822.16108  21851766.213    89479345.39848
  24184664.613   127091210.86806  24184665.944    99032088.68644
 15 02 27 00 42 30.0000000  0  7G16G18G19G21G22G27G31
  20773734.466   109166735.93309  20773732.615    85064980.55749
  22056448.946   115907576.89809  22056447.632    90317658.12347
  23825908.713   125206003.89106  23825906.262    97563114.51245
  22190996.643   116614479.12909  22190994.609    90868419.28148
  22605352.821   118792066.47808  22605349.337    92565293.21947
  21841981.047   114780404.32309  21841981.733    89439279.55548
  24203252.966   127188893.91406  24203255.099    99108205.16946
 15 02 27 00 43  0.0000000  0  7G16G18G19G21G22G27G31
  20765768.425   109124873.44809  20765766.487    85032360.43849
  22050878.959   115878305.38809  22050877.481    90294849.16047
  23811857.516   125132164.97506  23811855.058    97505577.70845
  22202856.816   116676804.22809  22202854.785    90916984.28348
  22589604.364   118709307.05808  22589600.912    92500805.39747
  21832220.493   114729112.17208  21832221.101    89399311.65148
  24221837.903   127286555.91707  24221839.876    99184305.22145
 15 02 27 00 43 30.0000000  0  7G16G18G19G21G22G27G31
  20757881.720   109083428.97209  20757879.957    85000066.04049
  22045392.526   115849473.95709  22045391.120    90272383.11547
  23797822.465   125058409.47006  23797819.622    97448105.91446
  22214752.446   116739316.30909  22214750.337    90965694.98548
  22573896.431   118626762.25308  22573893.089    92436484.80247
  21822482.778   114677940.57208  21822483.456    89359437.68248
  24240417.319   127384188.56707  24240418.857    99260382.35645
 15 02 27 00 44  0.0000000  0  7G16G18G19G21G22G27G31
  20750076.673   109042412.54609  20750074.752    84968105.18649
  22039991.636   115821091.42809  22039989.923    90250266.87047
  23783804.605   124984745.08806  23783802.075    97390705.12146
  22226684.898   116802022.11209  22226682.906    91014556.64148
  22558231.377   118544442.27608  22558227.995    92372339.39047
  21812769.588   114626897.56908  21812770.190    89319663.92048
  24258991.936   127481797.33606  24258992.898    99336440.98144
 15 02 27 00 44 30.0000000  0  7G16G18G19G21G22G27G31
  20742351.891   109001818.92109  20742349.904    84936473.79049
  22034674.942   115793152.39109  22034673.502    90228496.20147
  23769802.506   124911164.77906  23769799.985    97333369.84146
  22238652.383   116864912.73508  22238650.590    91063562.31048
  22542608.546   118462343.06008  22542604.809    92308365.99447
  21803079.569   114575976.24008  21803080.108    89279984.96748
  24277559.457   127579372.16005  24277560.400    99412473.14344
 15 02 27 00 45  0.0000000  0  7G16G18G19G21G22G27G31
  20734708.151   108961650.38709  20734706.132    84905173.63349
  22029442.917   115765658.82009  22029441.591    90207072.65047
  23755816.983   124837669.04707  23755814.312    97276100.44446
  22250654.961   116927986.83109  22250652.984    91112710.94848
  22527027.982   118380467.98308  22527024.719    92244567.25547
  21793412.839   114525177.26409  21793413.500    89240401.35448
  24296120.517   127676910.50207  24296121.741    99488476.69944
 15 02 27 00 45 30.0000000  0  7G16G18G19G21G22G27G31
  20727146.044   108921911.97009  20727144.170    84874208.63149
  22024296.551   115738614.57709  22024295.291    90185999.22647
  23741847.934   124764261.01507  23741845.288    97218899.40646
  22262692.869   116991245.37309  22262690.797    91162003.31148
  22511491.413   118298822.48108  22511488.157    92180947.41147
  21783769.911   114474503.89708  21783770.619    89200915.61948
  24314674.909   127774412.86607  24314676.801    99564452.28746
 15 02 27 00 46  0.0000000  0  7G16G18G19G21G22G27G31
  20719665.788   108882602.08009  20719663.770    84843577.55049
  22019235.269   115712017.73409  22019233.869    90165274.42247
  23727894.853   124690937.23606  23727892.188    97161764.01246
  22274764.850   117054683.09109  22274762.583    91211435.28948
  22495998.122   118217405.87508  22495994.888    92117505.93847
  21774150.287   114423952.96209  21774151.259    89161525.29348
  24333221.461   127871873.40307  24333223.542    99640395.33945
 15 02 27 00 46 30.0000000  0  7G16G18G19G21G22G27G31
  20712268.294   108843728.11409  20712266.376    84813286.14749
  22014260.548   115685875.30709  22014258.973    90144903.71047
  23713958.763   124617703.15206  23713956.058    97104698.51646
  22286871.362   117118303.77309  22286869.103    91261009.83848
  22480550.217   118136226.24208  22480546.715    92054249.09847
  21764555.354   114373530.15609  21764556.028    89122234.80148
  24351760.009   127969294.91305  24351762.672    99716308.00846
 15 02 27 00 47  0.0000000  0  7G16G18G19G21G22G27G31
  20704953.428   108805288.73309  20704951.521    84783333.37949
  22009372.032   115660185.82509  22009370.308    90124885.94347
  23700039.063   124544555.66607  23700036.628    97047700.49345
  22299011.785   117182102.72108  22299009.774    91310723.29648
  22465147.358   118055283.20408  22465143.588    91991176.61847
  21754984.031   114323232.67009  21754984.737    89083041.96248
  24370289.812   128066670.96705  24370292.405    99792184.95043
 15 02 27 00 47 30.0000000  0  7G16G18G19G21G22G27G31
  20697721.506   108767284.75809  20697719.483    84753719.89549
  22004569.622   115634948.61609  22004567.790    90105220.59247
  23686135.745   124471493.64107  23686133.383    96990769.06046
  22311185.430   117246076.78108  22311183.653    91360573.19948
  22449789.646   117974578.32008  22449785.770    91928289.70147
  21745436.400   114273059.40809  21745437.076    89043945.91848
  24388810.744   128163997.83906  24388812.969    99868023.87444
 15 02 27 00 48  0.0000000  0  7G16G18G19G21G22G27G31
  20690572.140   108729714.99309  20690570.232    84724444.75049
  21999852.913   115610161.67409  21999851.084    90085906.09647
  23672248.348   124398514.28407  23672245.872    96933902.05546
  22323391.827   117310221.51608  22323390.063    91410556.09848
  22434477.053   117894111.35208  22434473.729    91865588.20247
  21735911.827   114223007.65309  21735912.682    89004944.55548
  24407321.627   128261269.87306  24407323.188    99943820.06744
 15 02 27 00 48 30.0000000  0  7G16G18G19G21G22G27G31
  20683507.256   108692588.68109  20683505.506    84695515.16049
  21995223.699   115585834.27009  21995221.605    90066949.68547
  23658377.903   124325624.69807  23658375.166    96877104.99045
  22335631.831   117374542.35908  22335629.925    91460676.22547
  22419211.947   117813892.23808  22419208.452    91803079.82047
  21726411.954   114173085.23509  21726412.688    88966043.97948
  24425822.838   128358491.89406  24425824.530   100019577.15545
 15 02 27 00 49  0.0000000  0  7G16G18G19G21G22G27G31
  20676527.083   108655907.18809  20676525.234    84666932.17549
  21990681.909   115561967.22309  21990679.936    90048351.99547
  23644524.574   124252824.55407  23644521.855    96820377.62446
  22347905.001   117439037.02209  22347902.682    91510931.80148
  22403994.360   117733923.09208  22403990.934    91740766.22047
  21716936.535   114123291.85209  21716937.378    88927243.95148
  24444313.424   128455660.64105  24444315.608   100095292.56246
 15 02 27 00 49 30.0000000  0  7G16G18G19G21G22G27G31
  20669630.448   108619665.56609  20669628.476    84638691.94849
  21986226.671   115538555.10009  21986224.874    90030108.79447
  23630686.981   124180107.73407  23630684.449    96763715.19646
  22360209.476   117503697.37908  22360207.252    91561316.48848
  22388823.524   117654200.18808  22388819.969    91678644.50147
  21707484.670   114073621.15809  21707485.446    88888539.52348
  24462792.316   128552767.02806  24462794.948   100170959.36745
 15 02 27 00 50  0.0000000  0  7G16G18G19G21G22G27G31
  20662819.047   108583871.78309  20662817.192    84610800.69049
  21981859.194   115515604.82109  21981857.683    90012225.46847
  23616866.380   124107479.51307  23616863.599    96707121.78146
  22372546.110   117568527.48508  22372544.039    91611833.44248
  22373701.194   117574732.30608  22373697.598    91616721.48147
  21698057.068   114024079.30109  21698057.885    88849935.48848
  24481260.039   128649814.25506  24481263.104   100246580.09845
 15 02 27 00 50 30.0000000  0  7G16G18G19G21G22G27G31
  20656093.160   108548526.35409  20656091.150    84583258.79649
  21977579.732   115493116.16009  21977578.220    89994701.84747
  23603062.335   124034939.26907  23603059.535    96650596.94746
  22384914.528   117633524.24108  22384912.523    91662480.25647
  22358627.481   117495520.84708  22358624.327    91554998.29947
  21688653.895   113974665.35809  21688654.772    88811431.12648
  24499716.045   128746798.03706  24499718.854   100322151.37544
 15 02 27 00 51  0.0000000  0  7G16G18G19G21G22G27G31
  20649452.532   108513629.15209  20649450.585    84556066.16849
  21973387.893   115471088.49509  21973386.505    89977537.44147
  23589274.593   123962484.75807  23589271.903    96594138.90146
  22397314.024   117698684.40808  22397312.104    91713254.40348
  22343603.108   117416566.17008  22343599.878    91493475.19147
  21679274.708   113925377.86909  21679275.561    88773025.29548
  24518158.886   128843713.94606  24518161.546   100397669.67644
 15 02 27 00 51 30.0000000  0  7G16G18G19G21G22G27G31
  20642897.715   108479183.73109  20642895.739    84529225.57749
  21969284.312   115449524.83909  21969283.012    89960734.60747
  23575503.689   123890118.13807  23575501.115    96537749.35446
  22409744.580   117764007.67108  22409742.644    91764155.63647
  22328628.316   117337873.14308  22328624.969    91432155.97647
  21669920.062   113876218.93509  21669920.762    88734719.64148
  24536588.821   128940561.59606  24536591.638   100473134.78944
 15 02 27 00 52  0.0000000  0  7G16G18G19G21G22G27G31
  20636429.054   108445190.81209  20636427.101    84502737.58649
  21965269.138   115428424.45909  21965267.716    89944292.76647
  23561749.243   123817838.47507  23561746.602    96481427.55046
  22422205.804   117829491.62808  22422203.848    91815182.09147
  22313703.543   117259443.27308  22313700.020    91371041.80247
  21660589.731   113827187.52709  21660590.390    88696513.35948
  24555005.255   129037337.26606  24555008.153   100548543.74844
 15 02 27 00 52 30.0000000  0  7G16G18G19G21G22G27G31
  20630046.198   108411648.51909  20630044.191    84476600.73249
  21961341.748   115407785.45009  21961340.244    89928210.42647
  23548010.870   123745642.11807  23548008.153    96425170.67846
  22434696.500   117895130.61508  22434694.431    91866329.34847
  22298828.687   117181275.56408  22298825.219    91310131.91647
  21651283.029   113778280.47409  21651283.529    88658403.97448
  24573406.662   129134034.18406  24573409.700   100623891.31845
 15 02 27 00 53  0.0000000  0  7G16G18G19G21G22G27G31
  20623751.284   108378568.68209  20623749.414    84450824.23349
  21957504.339   115387619.19809  21957502.661    89912496.47547
  23534289.965   123673538.58607  23534287.394    96368986.12146
  22447218.231   117960932.72608  22447216.139    91917603.71047
  22284006.154   117103382.41008  22284002.726    91249435.97447
  21642002.010   113729508.01509  21642002.554    88620399.46648
  24591794.485   129230659.81706  24591797.808   100699183.29745
 15 02 27 00 53 30.0000000  0  7G16G18G19G21G22G27G31
  20617543.124   108345944.98709  20617541.307    84425403.16849
  21953755.418   115367918.26309  21953753.822    89897145.10647
  23520585.310   123601520.42007  23520582.753    96312868.09446
  22459769.238   118026888.61908  22459767.118    91968997.90447
  22269234.876   117025758.47408  22269231.377    91188949.80047
  21632744.974   113680862.58809  21632745.478    88582493.94248
  24610166.928   129327203.81506  24610170.202   100774411.70945
 15 02 27 00 54  0.0000000  0  7G16G18G19G21G22G27G31
  20611422.906   108313782.18109  20611420.898    84400341.24049
  21950095.702   115348686.70309  21950094.096    89882159.48547
  23506897.531   123529590.34307  23506894.730    96256818.70846
  22472349.799   118092999.44508  22472347.696    92020512.82947
  22254515.780   116948409.66708  22254512.662    91128678.02847
  21623512.841   113632347.46309  21623513.321    88544689.96048
  24628523.958   129423666.25106  24628527.104   100849576.59444
 15 02 27 00 54 30.0000000  0  7G16G18G19G21G22G27G31
  20605389.995   108282079.67509  20605387.935    84375637.98549
  21946525.220   115329923.47209  21946523.522    89867538.79947
  23493226.086   123457746.10507  23493223.215    96200836.20346
  22484959.037   118159261.18608  22484957.022    92072145.35047
  22239849.221   116871336.22108  22239845.926    91068620.82147
  21614305.078   113583960.46909  21614305.676    88506985.81848
  24646864.337   129520042.31106  24646867.846   100924674.17845
 15 02 27 00 55  0.0000000  0  7G16G18G19G21G22G27G31
  20599445.966   108250843.65409  20599444.116    84351298.22749
  21943044.783   115311633.74609  21943043.325    89853287.06847
  23479571.696   123385992.73507  23479568.993    96144924.50746
  22497597.403   118225676.65208  22497595.322    92123897.66947
  22225236.283   116794545.11908  22225232.979    91008783.62347
  21605122.628   113535706.71409  21605123.387    88469385.50348
  24665188.671   129616334.08506  24665192.106   100999706.02245
 15 02 27 00 55 30.0000000  0  7G16G18G19G21G22G27G31
