     2.11           OBSERVATION DATA    G                   RINEX VERSION / TYPE
SPIDER V4,0,0,3554                      2015 03 12 00:02    PGM / RUN BY / DATE 
EECH                                                        MARKER NAME         
EECH                                                        MARKER NUMBER       
                                                            OBSERVER / AGENCY   
462240              LEICA GRX1200PRO    8.20/2.127          REC # / TYPE / VERS 
103299              LEIAT504                                ANT # / TYPE        
  5154282.7593   121017.3605  3742656.9418                  APPROX POSITION XYZ 
        0.0590        0.0000        0.0000                  ANTENNA: DELTA H/E/N
     1     1                                                WAVELENGTH FACT L1/2
     4    C1    L1    P2    L2                              # / TYPES OF OBSERV 
    30.000                                                  INTERVAL            
  2015    02    27    00    00    0.0000000     GPS         TIME OF FIRST OBS   
  2015    02    27    23    59   30.0000000     GPS         TIME OF LAST OBS    
    16                                                      LEAP SECONDS        
    30                                                      # OF SATELLITES     
   G 1   819   819   819   819                              PRN / # OF OBS      
   G 2   890   890   887   887                              PRN / # OF OBS      
   G 3   795   795   794   794                              PRN / # OF OBS      
   G 4   833   833   833   833                              PRN / # OF OBS      
   G 5   672   672   672   672                              PRN / # OF OBS      
   G 6   657   657   655   655                              PRN / # OF OBS      
   G 7   690   690   690   690                              PRN / # OF OBS      
   G 9   778   778   778   778                              PRN / # OF OBS      
   G10   778   778   777   777                              PRN / # OF OBS      
   G11   785   785   785   785                              PRN / # OF OBS      
   G12   806   806   806   806                              PRN / # OF OBS      
   G13   811   811   811   811                              PRN / # OF OBS      
   G14   861   861   861   861                              PRN / # OF OBS      
   G15   729   729   729   729                              PRN / # OF OBS      
   G16   692   692   692   692                              PRN / # OF OBS      
   G17   909   909   909   909                              PRN / # OF OBS      
   G18   893   893   892   892                              PRN / # OF OBS      
   G19   776   776   776   776                              PRN / # OF OBS      
   G20   790   790   790   790                              PRN / # OF OBS      
   G21   626   626   618   618                              PRN / # OF OBS      
   G22   771   771   771   771                              PRN / # OF OBS      
   G23   689   689   689   689                              PRN / # OF OBS      
   G24   812   812   812   812                              PRN / # OF OBS      
   G25   826   826   826   826                              PRN / # OF OBS      
   G27   818   818   818   818                              PRN / # OF OBS      
   G28   882   882   881   881                              PRN / # OF OBS      
   G29   731   731   731   731                              PRN / # OF OBS      
   G30   661   661   660   660                              PRN / # OF OBS      
   G31   687   687   687   687                              PRN / # OF OBS      
   G32   732   732   732   732                              PRN / # OF OBS      
BIT 2 OF LLI FLAGS DATA COLLECTED UNDER A/S CONDITION       COMMENT             
SNR is mapped to RINEX snr flag value [2-9]                 COMMENT             
Lx:     = 25dBHz -> 1; 26-27dBHz -> 2; 28-31dBHz -> 3       COMMENT             
       32-35dBHz -> 4; 36-38dBHz -> 5; 39-41dBHz -> 6       COMMENT             
       42-44dBHz -> 7; 45-48dBHz -> 8; >=49dBHz -> 9        COMMENT             
                                                            END OF HEADER       
 15 02 27 00 00  0.0000000  0  7G16G18G21G22G27G29G31
  21615773.300   113591658.01309  21615772.640    88512979.68648
  22895429.760   120316296.75208  22895429.540    93752957.98046
  21325052.800   112063917.21008  21325051.840    87322530.11248
  24179614.240   127064798.33506  24179615.980    99011560.03445
  22709192.800   119337628.85608  22709195.480    92990382.07547
  24109638.500   126696991.29206  24109639.080    98724942.47244
  22769952.480   119656898.58608  22769952.460    93239136.18647
 15 02 27 00 00 30.0000000  0  7G16G18G21G22G27G29G31
  21602756.200   113523252.69109  21602755.560    88459676.84848
  22883551.840   120253877.58308  22883551.680    93704319.69346
  21332136.000   112101139.94508  21332135.100    87351534.83748
  24162124.600   126972891.25406  24162126.020    98939944.57845
  22697158.400   119274388.82908  22697161.020    92941104.14847
  24124270.920   126773885.74305  24124271.440    98784860.22645
  22787355.900   119748354.35608  22787356.020    93310400.38247
 15 02 27 00 01  0.0000000  0  7G16G18G21G22G27G29G31
  21589787.620   113455102.33009  21589786.980    88406572.66848
  22871723.560   120191718.89008  22871723.420    93655884.35046
  21339286.280   112138714.83808  21339285.340    87380813.96948
  24144629.900   126880958.00306  24144631.180    98868308.70646
  22685148.400   119211275.72108  22685150.720    92891925.11847
  24138904.340   126850785.69405  24138904.700    98844782.19844
  22804798.380   119840015.55408  22804798.720    93381824.66347
 15 02 27 00 01 30.0000000  0  7G16G18G21G22G27G29G31
  21576868.200   113387210.35109  21576867.540    88353669.83048
  22859945.520   120129824.64608  22859945.320    93607655.08545
  21346503.500   112176641.45708  21346502.520    87410367.18048
  24127130.800   126789001.80306  24127131.960    98796654.90746
  22673162.960   119148290.81808  22673165.020    92842845.98547
  24153538.900   126927691.96804  24153539.460    98904709.09643
  22822279.820   119931880.65008  22822280.220    93453407.82247
 15 02 27 00 02  0.0000000  0  7G16G18G21G22G27G29G31
  21563998.280   113319578.35709  21563997.600    88300969.57948
  22848218.140   120068196.90908  22848217.900    93559633.46946
  21353787.320   112214918.26508  21353786.400    87440193.26448
  24109627.760   126697024.65406  24109628.940    98724984.79745
  22661201.820   119085433.70008  22661203.940    92793866.42647
  24168174.400   127004604.54705  24168175.420    98964640.96144
  22839799.560   120023946.40208  22839799.780    93525147.32247
 15 02 27 00 02 30.0000000  0  7G16G18G21G22G27G29G31
  21551178.420   113252209.46709  21551177.720    88248474.35748
  22836542.000   120006838.52108  22836541.720    93511821.74346
  21361137.520   112253543.90608  21361136.680    87470291.17448
  24092121.620   126605029.98707  24092122.500    98653301.00145
  22649264.720   119022704.88508  22649267.300    92744986.85947
  24182811.340   127081523.61505  24182812.780    99024577.81145
  22857357.040   120116210.37308  22857357.020    93597041.29347
 15 02 27 00 03  0.0000000  0  7G16G18G21G22G27G29G31
  21538408.800   113185104.56409  21538408.060    88196184.83048
  22824917.540   119945751.63708  22824917.140    93464221.57346
  21368553.700   112292516.13208  21368552.880    87500659.13848
  24074612.540   126513019.90507  24074613.180    98581605.18145
  22637351.940   118960103.70808  22637354.660    92696206.72747
  24197449.360   127158448.48504  24197451.260    99084519.23744
  22874951.540   120208669.18808  22874951.400    93669087.06947
 15 02 27 00 03 30.0000000  0  7G16G18G21G22G27G29G31
  21525689.560   113118264.59009  21525688.700    88144101.73448
  22813345.000   119884937.65708  22813344.540    93416834.09246
  21376035.340   112331832.25308  21376034.460    87531295.07748
  24057100.860   126420996.05207  24057101.240    98509898.60846
  22625463.360   118897629.02708  22625465.840    92647525.17447
  24212088.120   127235377.87404  24212090.580    99144464.15645
  22892582.260   120301318.70308  22892582.100    93741281.46647
 15 02 27 00 04  0.0000000  0  7G16G18G21G22G27G29G31
  21513020.680   113051689.48909  21513019.820    88092225.03848
  22801824.340   119824396.49808  22801823.880    93369659.18146
  21383581.560   112371487.99008  21383580.640    87562195.65248
  24039586.540   126328958.34907  24039586.740    98438181.18845
  22613598.480   118835278.45108  22613600.600    92598940.31047
  24226727.640   127312309.02304  24226730.260    99204410.45143
  22910248.200   120394153.45308  22910248.060    93813620.19347
 15 02 27 00 04 30.0000000  0  7G16G18G21G22G27G29G31
  21500403.340   112985384.92009  21500402.520    88040559.14048
  22790356.600   119764133.65408  22790356.280    93322701.14546
  21391192.780   112411485.28708  21391191.840    87593362.37248
  24022070.840   126236912.60307  24022070.580    98366457.52945
  22601757.800   118773055.37608  22601759.800    92550454.79947
  24241368.280   127389245.19905  24241370.460    99264360.67343
  22927949.580   120487174.28308  22927949.340    93886103.91847
 15 02 27 00 05  0.0000000  0  7G16G18G21G22G27G29G31
  21487837.960   112919353.25309  21487837.140    87989105.89848
  22778942.480   119704152.27708  22778942.240    93275962.41446
  21398868.800   112451822.76609  21398867.860    87624794.17448
  24004554.060   126144862.09706  24004553.700    98294730.12045
  22589941.300   118710960.16908  22589943.580    92502068.95247
  24256010.260   127466187.22905  24256011.740    99324315.50643
  22945685.880   120580378.39708  22945685.420    93958730.44546
 15 02 27 00 05 30.0000000  0  7G16G18G21G22G27G29G31
  21475325.160   112853598.08209  21475324.440    87937868.11348
  22767582.640   119644456.53508  22767582.640    93229446.28246
  21406609.460   112492500.06209  21406608.560    87656490.77048
  23987036.580   126052810.64106  23987036.440    98223001.93845
  22578149.460   118648994.15508  22578152.020    92453783.75847
  24270653.540   127543136.01505  24270654.680    99384275.64444
  22963456.740   120673764.11808  22963456.060    94031498.50147
 15 02 27 00 06  0.0000000  0  7G16G18G21G22G27G29G31
  21462864.700   112788118.20909  21462864.100    87886844.84048
  22756276.940   119585045.23508  22756277.140    93183151.78346
  21414413.840   112533512.26308  21414412.960    87688448.33048
  23969519.180   125960757.90406  23969519.080    98151272.72945
  22566381.740   118587154.17708  22566384.480    92405596.76947
  24285297.300   127620088.27105  24285298.340    99444238.41043
  22981261.040   120767325.66108  22981260.220    94104403.53947
 15 02 27 00 06 30.0000000  0  7G16G18G21G22G27G29G31
  21450456.940   112722915.48409  21450456.440    87836037.52448
  22745025.920   119525920.71008  22745026.220    93137080.75546
  21422281.420   112574856.87208  21422280.580    87720664.90848
  23952002.160   125868705.86806  23952002.060    98079544.13045
  22554638.180   118525439.90208  22554640.580    92357507.73447
  24299941.600   127697043.43405  24299942.900    99504203.44743
  22999098.080   120861059.69708  22999097.280    94177442.98447
 15 02 27 00 07  0.0000000  0  7G16G18G21G22G27G29G31
  21438103.000   112657995.15209  21438102.480    87785450.24548
  22733830.520   119467088.10208  22733830.740    93091237.17746
  21430212.700   112616536.32409  21430211.900    87753142.39548
  23934486.380   125776660.64506  23934486.200    98007820.78845
  22542919.120   118463854.42008  22542921.060    92309519.05747
  24314587.100   127774005.06005  24314588.880    99564173.50544
  23016967.780   120954966.06708  23016967.140    94250616.74647
 15 02 27 00 07 30.0000000  0  7G16G18G21G22G27G29G31
  21425803.540   112593361.09209  21425803.020    87735086.05248
  22722691.580   119408551.96508  22722691.720    93045624.62346
  21438207.700   112658550.07309  21438206.820    87785880.38148
  23916972.900   125684626.49506  23916972.560    97936106.06345
  22531224.760   118402399.57408  22531226.520    92261632.18647
  24329233.920   127850974.28205  24329235.520    99624149.46344
  23034870.120   121049044.10008  23034869.560    94323924.25447
 15 02 27 00 08  0.0000000  0  7G16G18G21G22G27G29G31
  21413558.160   112529010.91009  21413557.560    87684943.05548
  22711608.660   119350310.02608  22711608.580    93000241.29246
  21446265.140   112700891.84809  21446264.220    87818873.96848
  23899461.120   125592601.53006  23899460.480    97864398.50945
  22519554.240   118341070.83208  22519556.060    92213843.57247
  24343881.580   127927946.81205  24343882.500    99684128.03541
  23052803.800   121143286.21108  23052803.200    94397359.62046
 15 02 27 00 08 30.0000000  0  7G16G18G21G22G27G29G31
  21401366.720   112464944.34009  21401366.040    87635021.05448
  22700581.640   119292361.91408  22700581.320    92955086.93446
  21454384.260   112743557.64209  21454383.280    87852120.03948
  23881951.020   125500585.61506  23881950.300    97792697.99246
  22507907.180   118279865.53108  22507909.200    92166151.13047
  24358529.480   128004919.81605  24358529.440    99744106.96641
  23070767.680   121237686.78608  23070767.020    94470918.45847
 15 02 27 00 09  0.0000000  0  7G16G18G21G22G27G29G31
  21389231.760   112401174.88109  21389231.060    87585330.56648
  22689613.120   119234721.52708  22689612.620    92910172.35046
  21462566.780   112786557.01109  21462565.800    87885626.04148
  23864445.240   125408593.04006  23864444.420    97721015.64245
  22496285.920   118218795.16108  22496288.080    92118563.83548
  24373179.060   128081904.72204  24373179.500    99804095.16143
  23088763.340   121332254.26208  23088762.680    94544607.35447
 15 02 27 00 09 30.0000000  0  7G16G18G21G22G27G29G31
  21377151.680   112337693.52209  21377150.940    87535864.56648
  22678701.460   119177380.73708  22678700.940    92865491.25246
  21470810.380   112829877.50609  21470809.400    87919382.26948
  23846942.340   125316615.54906  23846941.540    97649345.02045
  22484688.260   118157848.93308  22484690.460    92071073.27847
  24387828.880   128158890.43205  24387829.740    99864083.98544
  23106788.140   121426975.08908  23106787.560    94618415.72747
 15 02 27 00 10  0.0000000  0  7G16G18G21G22G27G29G31
  21365126.940   112274502.76609  21365126.200    87486625.02648
  22667847.240   119120342.38308  22667846.780    92821045.79146
  21479114.880   112873517.89509  21479113.900    87953387.76548
  23829442.960   125224656.19107  23829442.060    97577688.54145
  22473114.220   118097027.20508  22473116.340    92023679.71847
  24402479.220   128235877.35605  24402480.040    99924073.75543
  23124841.560   121521846.71208  23124841.120    94692341.61547
 15 02 27 00 10 30.0000000  0  7G16G18G21G22G27G29G31
  21353159.760   112211614.58809  21353159.020    87437621.25348
  22657052.760   119063617.53808  22657052.300    92776844.62446
  21487481.660   112917485.67909  21487480.740    87987648.37548
  23811949.320   125132727.12807  23811948.280    97506055.66645
  22461565.700   118036339.39708  22461567.560    91976390.54547
  24417131.220   128312875.04704  24417132.000    99984071.88943
  23142924.920   121616875.53907  23142924.460    94766389.97846
 15 02 27 00 11  0.0000000  0  6G16G18G21G22G27G31
  21341246.140   112149008.13709  21341245.380    87388837.00548
  22646314.160   119007186.05308  22646313.660    92732872.04546
  21495905.900   112961755.16209  21495904.900    88022144.07648
  23794457.340   125040807.95006  23794456.540    97434430.45245
  22450038.260   117975762.39608  22450039.840    91929187.70347
  23161033.360   121712035.53908  23161032.820    94840540.57247
 15 02 27 00 11 30.0000000  0  6G16G18G21G22G27G31
  21329391.700   112086712.67109  21329390.840    87340295.08048
  22635637.060   118951077.76408  22635636.540    92689151.31046
  21504392.720   113006353.67009  21504391.600    88056896.15548
  23776972.960   124948928.69206  23776972.500    97362836.36846
  22438537.160   117915323.93108  22438538.700    91882092.80247
  23179171.520   121807351.48008  23179170.900    94914812.67546
 15 02 27 00 12  0.0000000  0  6G16G18G21G22G27G31
  21317595.680   112024723.92309  21317594.760    87291992.16148
  22625020.580   118895288.25508  22625020.220    92645678.98846
  21512940.560   113051272.74909  21512939.300    88091898.02848
  23759495.760   124857085.92207  23759495.360    97291270.70045
  22427061.200   117855017.52208  22427062.980    91835100.80748
  23197337.580   121902813.90808  23197336.920    94989198.93146
 15 02 27 00 12 30.0000000  0  7G16G18G21G22G27G29G31
  21305859.940   111963051.88309  21305859.020    87243936.03748
  22614466.600   118839827.80108  22614466.500    92602463.05846
  21521550.320   113096517.49108  21521549.080    88127153.66548
  23742027.440   124765289.75107  23742027.000    97219741.33745
  22415611.860   117794850.81608  22415613.960    91788217.67247
  24475745.320   128620911.34504  24475745.240   100224084.98944
  23215532.280   121998427.42908  23215531.720    95063702.91446
 15 02 27 00 13  0.0000000  0  6G16G18G21G22G27G31
  21294177.720   111901661.71509  21294176.880    87196099.53848
  22603968.720   118784661.67108  22603968.760    92559476.47146
  21530214.740   113142049.50408  21530213.600    88162633.16248
  23724561.580   124673506.01107  23724560.940    97148221.67345
  22404182.140   117734786.93008  22404184.360    91741414.65248
  23233748.160   122094152.46608  23233747.700    95138293.78546
 15 02 27 00 13 30.0000000  0  7G16G18G21G22G27G29G31
  21282559.320   111840607.26509  21282558.660    87148524.64248
  22593537.260   118729843.92608  22593537.380    92516761.34546
  21538943.420   113187919.36009  21538942.400    88198375.91148
  23707108.560   124581789.32807  23707107.680    97076754.22645
  22392781.840   117674877.67008  22392783.900    91694732.12847
  24505056.900   128774938.69905  24505057.120   100344102.80745
  23251994.480   122190037.82507  23251994.180    95213009.58147
 15 02 27 00 14  0.0000000  0  6G16G18G21G22G27G31
  21270989.020   111779805.69309  21270988.580    87101146.79848
  22583156.480   118675292.06008  22583156.580    92474253.40846
  21547719.780   113234039.64308  21547718.840    88234313.78448
  23689652.540   124490057.21307  23689651.480    97005274.74046
  22381394.700   117615038.03008  22381396.380    91648103.84947
  23270254.560   122285995.46107  23270254.480    95287781.69147
 15 02 27 00 14 30.0000000  0  7G16G18G21G22G27G29G31
  21259495.560   111719407.60209  21259495.160    87054083.35048
  22572854.920   118621156.46108  22572854.900    92432069.83046
  21556571.820   113280557.36409  21556570.840    88270561.35248
  23672222.200   124398460.54507  23672220.760    96933900.81746
  22370048.860   117555416.43108  22370050.360    91601645.46147
  24534372.460   128928988.49005  24534373.380   100464151.42144
  23288556.140   122382170.81807  23288556.240    95362723.44647
 15 02 27 00 15  0.0000000  0  7G16G18G21G22G27G29G31
  21248052.060   111659271.93509  21248051.640    87007224.38348
  22562605.800   118567296.14108  22562605.620    92390100.76646
  21565471.840   113327327.30608  21565470.820    88307005.45948
  23654790.860   124306858.74407  23654789.220    96862522.87245
  22358717.260   117495869.57208  22358718.820    91555245.31348
  24549030.300   129006013.79705  24549031.080   100524171.09744
  23306871.380   122478417.71207  23306871.600    95437720.94447
 15 02 27 00 15 30.0000000  0  6G16G18G21G22G27G31
  21236662.260   111599418.50509  21236661.820    86960585.34748
  22552412.840   118513731.28608  22552412.560    92348361.93746
  21574422.920   113374365.91708  21574421.900    88343658.92248
  23637362.720   124215272.75907  23637360.680    96791157.28645
  22347403.540   117436415.55408  22347405.260    91508917.52348
  23325203.180   122574751.17307  23325203.400    95512785.90246
 15 02 27 00 16  0.0000000  0  6G16G18G21G22G27G31
  21225343.820   111539939.70109  21225343.340    86914238.23148
  22542293.700   118460554.56008  22542293.340    92306925.54746
  21583441.880   113421761.20308  21583440.880    88380590.31148
  23619955.020   124123795.36407  23619952.980    96719876.28745
  22336124.760   117377144.65508  22336126.760    91462732.41548
  23343568.120   122671258.60607  23343568.220    95587986.41846
 15 02 27 00 16 30.0000000  0  6G16G18G21G22G27G31
  21214084.580   111480771.28409  21214084.020    86868132.96648
  22532236.140   118407701.52308  22532235.780    92265741.38346
  21592515.800   113469445.25809  21592514.840    88417746.71648
  23602555.660   124032362.97007  23602553.900    96648630.35246
  22324868.220   117317990.43908  22324870.460    91416638.22948
  23361952.780   122767870.61807  23361952.880    95663268.41746
 15 02 27 00 17  0.0000000  0  6G16G18G21G22G27G31
  21202886.640   111421924.99709  21202886.020    86822278.71748
  22522242.320   118355183.73408  22522242.020    92224818.43947
  21601646.200   113517425.74408  21601645.260    88455134.10848
  23585167.160   123940987.31807  23585165.680    96577428.62145
  22313635.640   117258962.41208  22313638.040    91370642.37248
  23380358.520   122864593.75807  23380358.740    95738637.01746
 15 02 27 00 17 30.0000000  0  6G16G18G21G22G27G31
  21191749.200   111363397.25509  21191748.580    86776672.68848
  22512311.740   118302998.53108  22512311.540    92184154.66046
  21610831.620   113565695.37908  21610830.740    88492746.80648
  23567789.300   123849666.18107  23567787.820    96506269.40246
  22302426.040   117200055.20708  22302428.320    91324740.66648
  23398783.760   122961419.45207  23398784.180    95814085.52646
 15 02 27 00 18  0.0000000  0  7G16G18G19G21G22G27G31
  21180677.640   111305215.55209  21180676.980    86731336.29848
  22502449.540   118251173.06108  22502449.440    92143771.19046
  24507396.980   128787238.79606  24507394.740   100353688.22345
  21620076.520   113614277.29308  21620075.660    88530602.83748
  23550426.880   123758427.13906  23550425.520    96435174.12246
  22291244.060   117141293.97608  22291246.180    91278952.70448
  23417232.960   123058370.31307  23417233.480    95889631.55046
 15 02 27 00 18 30.0000000  0  7G16G18G19G21G22G27G31
  21169659.080   111247312.30009  21169658.340    86686216.88548
  22492642.920   118199639.89208  22492642.900    92103615.49046
  24492127.960   128707001.76906  24492125.700   100291165.88345
  21629367.360   113663100.39909  21629366.460    88568646.81548
  23533067.420   123667203.38107  23533066.380    96364090.72546
  22280076.540   117082609.06908  22280078.580    91233224.21548
  23435692.160   123155373.60207  23435692.600    95965218.43246
 15 02 27 00 19  0.0000000  0  7G16G18G19G21G22G27G31
  21158714.880   111189799.70509  21158714.060    86641401.88048
  22482913.320   118148511.07408  22482913.380    92063774.86347
  24476886.100   128626910.65905  24476884.320   100228757.24945
  21638724.620   113712272.60108  21638723.700    88606962.80948
  23515732.660   123576107.67407  23515731.480    96293107.14646
  22268944.500   117024110.74708  22268946.660    91187641.11148
  23454181.780   123252536.55407  23454182.040    96040929.70046
 15 02 27 00 19 30.0000000  0  7G16G18G19G21G22G27G31
  21147833.740   111132618.89609  21147832.900    86596845.41248
  22473249.520   118097727.67308  22473249.660    92024203.40246
  24461660.100   128546904.19705  24461659.180   100166414.59246
  21648136.360   113761731.39708  21648135.440    88645502.12948
  23498411.120   123485081.47907  23498409.900    96222177.70947
  22257836.440   116965737.81608  22257838.720    91142155.73348
  23472689.460   123349794.94207  23472689.540    96116715.34946
 15 02 27 00 20  0.0000000  0  7G16G18G19G21G22G27G31
  21137013.900   111075760.34809  21137013.080    86552540.05248
  22463649.840   118047280.72208  22463649.920    91984894.09646
  24446448.880   128466971.65506  24446448.660   100104129.54445
  21657600.100   113811463.64708  21657599.180    88684254.53148
  23481101.020   123394116.10607  23481099.780    96151295.68646
  22246750.260   116907479.11308  22246752.480    91096759.35348
  23491212.620   123447134.41407  23491212.580    96192564.09746
 15 02 27 00 20 30.0000000  0  7G16G18G19G21G22G27G31
  21126257.660   111019236.38009  21126256.900    86508495.40348
  22454116.420   117997182.20408  22454116.520    91945856.30446
  24431254.300   128387122.89106  24431254.380   100041909.76045
  21667117.360   113861477.46508  21667116.480    88723226.33148
  23463804.700   123303224.39807  23463803.760    96080471.03546
  22235687.800   116849344.61308  22235689.640    91051459.74748
  23509752.640   123544562.31907  23509752.620    96268481.77846
 15 02 27 00 21  0.0000000  0  7G16G18G19G21G22G27G31
  21115566.780   110963055.86509  21115566.120    86464718.38148
  22444650.900   117947440.89708  22444651.040    91907096.86046
  24416077.080   128307364.69806  24416077.060    99979760.58345
  21676689.200   113911778.01009  21676688.340    88762421.55548
  23446524.260   123212416.11807  23446523.640    96009711.42346
  22224650.260   116791341.24708  22224651.800    91006262.32148
  23528310.220   123642082.47407  23528310.320    96344471.34946
 15 02 27 00 21 30.0000000  0  7G16G18G19G21G22G27G31
  21104942.500   110907225.08609  21104941.920    86421213.88248
  22435254.520   117898063.12008  22435254.620    91868620.68146
  24400917.560   128227701.19806  24400917.620    99917685.10845
  21686315.980   113962367.12209  21686315.080    88801841.63448
  23429261.020   123121697.96807  23429260.580    95939022.01746
  22213638.380   116733473.20708  22213639.820    90961170.35048
  23546885.600   123739696.01707  23546885.860    96420533.66046
 15 02 27 00 22  0.0000000  0  7G16G18G19G21G22G27G31
  21094383.540   110851737.25309  21094382.980    86377976.60348
  22425926.100   117849042.16108  22425926.160    91830422.54346
  24385774.500   128148123.70006  24385774.180    99855676.70244
  21695995.700   114013234.25509  21695994.740    88841478.35548
  23412013.840   123031063.83507  23412013.280    95868398.08746
  22202650.360   116675731.69108  22202652.060    90916176.97448
  23565476.680   123837391.64307  23565477.020    96496659.96646
 15 02 27 00 22 30.0000000  0  7G16G18G19G21G22G27G31
  21083889.740   110796592.23809  21083889.240    86335006.47248
  22416665.580   117800378.12808  22416665.600    91792502.51946
  24370647.660   128068629.94006  24370646.320    99793733.60745
  21705727.560   114064375.75008  21705726.640    88881328.86948
  23394782.700   122940513.99607  23394782.000    95797839.85546
  22191685.960   116618114.52908  22191688.020    90871280.49848
  23584082.380   123935163.81407  23584082.620    96572845.94046
 15 02 27 00 23  0.0000000  0  7G16G18G19G21G22G27G31
  21073462.980   110741799.21809  21073462.440    86292310.61248
  22407474.760   117752079.98508  22407474.740    91754867.62146
  24355537.860   127989227.27406  24355536.120    99731861.47345
  21715512.580   114115796.54809  21715511.660    88921397.01748
  23377569.760   122850058.40807  23377568.760    95727355.04346
  22180746.660   116560628.83108  22180749.020    90826486.45848
  23602703.380   124033016.64707  23602703.500    96649094.74945
 15 02 27 00 23 30.0000000  0  7G16G18G19G21G22G27G31
  21063105.440   110687370.10909  21063104.920    86249898.32448
  22398355.860   117704159.36408  22398355.740    91717526.89046
  24340446.500   127909925.53005  24340445.620    99670067.91545
  21725352.320   114167504.79409  21725351.380    88961689.15048
  23360377.140   122759709.65507  23360375.940    95656953.45046
  22169834.440   116503284.58108  22169836.900    90781802.63548
  23621341.020   124130957.41807  23621341.060    96725412.07746
 15 02 27 00 24  0.0000000  0  7G16G18G19G21G22G27G31
  21052812.920   110633282.80409  21052812.480    86207752.37249
  22389304.780   117656594.70608  22389304.560    91680463.53246
  24325370.140   127830700.52905  24325369.820    99608334.16045
  21735241.860   114219474.47309  21735240.840    89002184.99348
  23343200.600   122669446.34407  23343199.180    95586618.44946
  22158944.700   116446057.69908  22158947.120    90737210.26848
  23639990.120   124228958.88407  23639990.140    96801776.75245
 15 02 27 00 24 30.0000000  0  7G16G18G19G21G22G27G31
  21042586.140   110579541.05109  21042585.800    86165875.67948
  22380322.000   117609389.05108  22380321.720    91643679.91947
  24310309.360   127751553.79606  24310308.900    99546661.42646
  21745181.120   114271705.41808  21745180.040    89042884.42148
  23326041.040   122579272.38707  23326039.300    95516353.06746
  22148077.620   116388949.73608  22148079.820    90692710.56248
  23658650.440   124327019.54607  23658650.420    96878187.56746
 15 02 27 00 25  0.0000000  0  7G16G18G19G21G22G27G31
  21032428.260   110526161.22909  21032428.000    86124281.01449
  22371410.560   117562558.92308  22371410.240    91607188.92747
  24295266.580   127672500.08506  24295265.360    99485061.20946
  21755172.480   114324210.28508  21755171.440    89083797.30348
  23308901.740   122489205.33107  23308899.760    95446171.00246
  22137235.880   116331975.29608  22137237.900    90648314.89748
  23677324.220   124425151.01707  23677324.280    96954653.50146
 15 02 27 00 25 30.0000000  0  7G16G18G19G21G22G27G31
  21022339.580   110473144.82609  21022339.280    86082969.53448
  22362570.940   117516106.18308  22362570.500    91570991.99946
  24280241.080   127593538.67306  24280239.200    99423532.89046
  21765215.500   114376986.69608  21765214.520    89124921.77748
  23291783.200   122399247.29207  23291781.180    95376073.85446
  22126419.300   116275133.75808  22126421.280    90604022.79748
  23696010.840   124523349.80207  23696011.000    97031171.89645
 15 02 27 00 26  0.0000000  0  7G16G18G19G21G22G27G31
  21012321.720   110420500.61909  21012321.300    86041948.06749
  22353804.820   117470039.58808  22353804.220    91535095.95547
  24265233.920   127514676.39606  24265232.300    99362081.82646
  21775310.960   114430038.81508  21775310.080    89166261.08648
  23274687.200   122309407.61107  23274685.180    95306068.94446
  22115629.200   116218432.01008  22115631.260    90559839.63148
  23714711.100   124621619.82507  23714711.340    97107745.76346
 15 02 27 00 26 30.0000000  0  7G16G18G19G21G22G27G31
  21002372.800   110368218.61509  21002372.360    86001208.84449
  22345110.020   117424348.46608  22345109.420    91499492.49147
  24250243.200   127435900.98306  24250242.060    99300698.40846
  21785456.280   114483352.89208  21785455.480    89207804.52248
  23257611.880   122219676.75007  23257609.860    95236148.81846
  22104863.320   116161857.89808  22104865.560    90515755.91648
  23733422.100   124719945.64507  23733422.280    97184363.07746
 15 02 27 00 27  0.0000000  0  7G16G18G19G21G22G27G31
  20992493.880   110316304.16209  20992493.460    85960756.02949
  22336487.580   117379038.19908  22336487.180    91464185.80247
  24235269.720   127357215.96606  24235268.940    99239385.45346
  21795651.900   114536931.15208  21795651.140    89249553.81048
  23240558.620   122130061.15107  23240556.280    95166318.54446
  22094122.540   116105415.13908  22094124.880    90471774.55348
  23752144.000   124818328.12507  23752144.040    97261024.46746
 15 02 27 00 27 30.0000000  0  7G16G18G19G21G22G27G31
  20982684.160   110264753.40709  20982683.720    85920586.61049
  22327937.020   117334105.07108  22327936.780    91429172.98147
  24220312.500   127278615.21006  24220311.360    99178138.18044
  21805896.280   114590765.84808  21805895.600    89291502.91148
  23223526.540   122040557.33707  23223524.220    95096575.35346
  22083405.660   116049097.67808  22083407.940    90427890.83248
  23770875.020   124916758.48907  23770874.880    97337723.20645
 15 02 27 00 28  0.0000000  0  7G16G18G19G21G22G27G31
  20972944.720   110213572.20409  20972944.240    85880705.14949
  22319459.240   117289554.29408  22319459.120    91394458.09247
  24205372.340   127200102.75506  24205370.260    99116959.68845
  21816189.640   114644857.98308  21816189.000    89333652.62348
  23206516.840   121951171.87407  23206514.740    95026924.40346
  22072713.400   115992909.27208  22072715.560    90384107.66148
  23789615.300   125015237.47607  23789614.820    97414459.83745
 15 02 27 00 28 30.0000000  0  7G16G18G19G21G22G27G31
  20963276.500   110162765.20809  20963275.980    85841115.28649
  22311055.140   117245390.71608  22311055.120    91360044.91847
  24190449.200   127121681.28006  24190446.680    99055852.05245
  21826532.160   114699208.73408  21826531.600    89376003.85148
  23189530.700   121861909.91007  23189529.080    94957369.66246
  22062046.220   115936852.68208  22062048.260    90340427.20348
  23808364.700   125113764.94807  23808364.040    97491234.33146
 15 02 27 00 29  0.0000000  0  7G16G18G19G21G22G27G31
  20953679.780   110112334.07009  20953679.280    85801818.29149
  22302725.040   117201615.92908  22302725.020    91325934.71547
  24175543.320   127043350.34406  24175540.940    98994814.98946
  21836923.580   114753816.45108  21836923.060    89418555.31148
  23172568.540   121772773.93307  23172567.280    94887913.12046
  22051404.080   115880927.68508  22051406.000    90296849.29748
  23827122.540   125212337.37607  23827121.840    97568043.83145
 15 02 27 00 29 30.0000000  0  7G16G18G19G21G22G27G31
  20944153.720   110062274.57009  20944153.360    85762810.89349
  22294468.180   117158225.65008  22294468.180    91292124.12747
  24160653.580   126965104.05606  24160651.900    98933843.91546
  21847362.320   114808672.65408  21847361.820    89461300.40248
  23155629.920   121683760.59007  23155628.640    94818552.13546
  22040785.780   115825128.33908  22040787.680    90253369.29448
  23845887.160   125310945.57907  23845886.480    97644881.03145
 15 02 27 00 30  0.0000000  0  7G16G18G19G21G22G27G31
  20934701.620   110012603.57309  20934701.320    85724106.21749
  22286287.680   117115236.28608  22286287.620    91258625.92547
  24145782.380   126886956.89106  24145781.700    98872950.00646
  21857850.840   114863790.04908  21857850.260    89504249.02048
  23138717.960   121594887.27707  23138716.620    94749300.23846
  22030194.100   115769469.32608  22030196.000    90209998.63648
  23864660.920   125409601.88807  23864660.440    97721755.87346
 15 02 27 00 30 30.0000000  0  7G16G18G19G21G22G27G31
  20925320.920   109963307.44109  20925320.560    85685693.64749
  22278180.820   117072634.16008  22278180.700    91225429.47047
  24130927.360   126808893.45506  24130926.840    98812121.38845
  21868385.900   114919151.66108  21868385.240    89547387.93248
  23121830.220   121506141.15307  23121828.860    94680147.43846
  22019626.300   115713935.25208  22019628.120    90166725.32548
  23883440.200   125508287.52107  23883439.960    97798653.42746
 15 02 27 00 31  0.0000000  0  7G16G18G19G21G22G27G31
  20916013.260   109914394.94009  20916012.740    85647580.00449
  22270149.300   117030428.36608  22270149.160    91192541.84447
  24116089.740   126730920.68107  24116088.680    98751363.42145
  21878968.280   114974761.89708  21878967.500    89590720.57748
  23104968.580   121417531.85307  23104967.160    94611101.26046
  22009083.740   115658532.98708  22009085.460    90123554.72748
  23902225.940   125607006.67806  23902226.000    97875577.14445
 15 02 27 00 31 30.0000000  0  7G16G18G19G21G22G27G31
  20906778.780   109865867.39109  20906778.200    85609766.32749
  22262193.200   116988619.35108  22262193.080    91159963.40747
  24101269.160   126653037.51306  24101267.460    98690675.28645
  21889597.460   115030618.30508  21889596.620    89634245.05148
  23088133.180   121329060.99807  23088131.700    94542162.95446
  21998566.100   115603261.68808  21998567.800    90080486.18748
  23921017.260   125705755.06706  23921017.720    97952523.64045
 15 02 27 00 32  0.0000000  0  7G16G18G19G21G22G27G31
  20897619.520   109817735.03409  20897618.880    85572260.59449
  22254314.640   116947217.51208  22254314.520    91127702.24447
  24086466.960   126575252.54706  24086465.040    98630063.62945
  21900274.740   115086727.84308  21900273.940    89677966.76248
  23071325.860   121240739.41207  23071324.480    94473340.95746
  21988074.860   115548130.01708  21988076.680    90037526.44448
  23939815.480   125804539.15506  23939816.220    98029498.00045
 15 02 27 00 32 30.0000000  0  7G16G18G19G21G22G27G31
  20888532.540   109769982.59209  20888531.840    85535050.90249
  22246510.680   116906207.18208  22246510.520    91095746.15747
  24071680.300   126497548.54406  24071678.460    98569515.06045
  21910996.480   115143071.02408  21910995.740    89721870.53848
  23054544.520   121152552.97507  23054542.960    94404624.31646
  21977606.800   115493120.68508  21977608.900    89994662.04948
  23958616.440   125903338.43006  23958617.460    98106484.41845
 15 02 27 00 33  0.0000000  0  7G16G18G19G21G22G27G31
  20879519.820   109722620.57109  20879519.100    85498145.43949
  22238783.200   116865598.98708  22238783.100    91064103.41247
  24056910.940   126419934.16906  24056909.320    98509036.34545
  21921764.020   115199654.30308  21921763.160    89765961.40148
  23037790.880   121064512.63007  23037789.300    94336021.47546
  21967163.740   115438242.40208  21967165.960    89951899.75948
  23977421.220   126002158.10306  23977422.320    98183486.48245
 15 02 27 00 33 30.0000000  0  7G16G18G19G21G22G27G31
  20870581.960   109675651.82309  20870581.260    85461546.41549
  22231132.660   116825395.45908  22231132.700    91032776.00047
  24042158.760   126342409.92906  24042156.980    98448627.90945
  21932577.000   115256476.27108  21932575.940    89810238.25348
  23021065.840   120976622.30407  23021064.260    94267535.53946
  21956745.940   115383496.15908  21956748.080    89909240.35748
  23996229.420   126100995.61706  23996230.540    98260502.08845
 15 02 27 00 34  0.0000000  0  7G16G18G19G21G22G27G31
  20861721.100   109629087.63709  20861720.440    85425262.63349
  22223561.260   116785607.61208  22223561.260    91001772.48747
  24027425.100   126264985.17406  24027423.460    98388296.97046
  21943437.000   115313545.58408  21943435.780    89854707.84148
  23004371.760   120888894.07508  23004370.020    94199175.90446
  21946355.060   115328891.43308  21946357.060    89866691.21848
  24015042.540   126199858.82006  24015043.860    98337537.96345
 15 02 27 00 34 30.0000000  0  7G16G18G19G21G22G27G31
  20852935.920   109582921.36509  20852935.340    85389288.91749
  22216067.780   116746228.57308  22216067.540    90971087.52747
  24012708.660   126187652.13706  24012707.620    98328037.46946
  21954341.960   115370851.55908  21954340.720    89899361.83748
  22987707.600   120801322.00408  22987705.400    94130937.97646
  21935989.520   115274419.82908  21935991.300    89824245.81848
  24033858.440   126298736.15906  24033860.000    98414585.01545
 15 02 27 00 35  0.0000000  0  7G16G18G19G21G22G27G31
  20844225.520   109537148.11709  20844224.960    85353621.44649
  22208651.100   116707253.14908  22208650.600    90940717.08047
  23998008.540   126110403.19506  23998008.020    98267843.53145
  21965290.080   115428384.78808  21965288.940    89944192.91548
  22971072.300   120713901.84308  22971069.860    94062818.40546
  21925647.960   115220074.50208  21925649.600    89781898.80848
  24052675.040   126397617.30506  24052676.980    98491635.03945
 15 02 27 00 35 30.0000000  0  7G16G18G19G21G22G27G31
  20835590.940   109491772.93009  20835590.340    85318264.16249
  22201312.020   116668686.21808  22201311.440    90910664.94047
  23983325.460   126033241.47507  23983324.860    98207717.55145
  21976281.740   115486146.94208  21976280.760    89989202.37948
  22954466.720   120626639.42207  22954464.400    93994821.73246
  21915330.980   115165858.62408  21915332.580    89739652.66548
  24071492.460   126496502.54306  24071494.740    98568688.24446
 15 02 27 00 36  0.0000000  0  7G16G18G19G21G22G27G31
  20827033.760   109446804.22809  20827033.140    85283223.62149
  22194052.280   116630535.75108  22194051.500    90880937.30347
  23968660.220   125956173.64706  23968659.240    98147664.72045
  21987317.960   115544143.20608  21987317.140    90034394.26548
  22937892.700   120539543.71807  22937890.640    93926954.95346
  21905039.900   115111778.86208  21905041.600    89697512.59148
  24090311.480   126595395.72006  24090313.940    98645747.57246
 15 02 27 00 36 30.0000000  0  7G16G18G19G21G22G27G31
  20818555.660   109402251.41409  20818555.000    85248507.13949
  22186873.600   116592811.14108  22186872.580    90851541.51647
  23954013.600   125879207.37306  23954012.640    98087691.03746
  21998399.660   115602378.36908  21998398.940    90079772.31248
  22921352.480   120452625.04208  22921350.540    93859226.15447
  21894776.140   115057842.95708  21894778.080    89655484.62748
  24109133.120   126694301.64407  24109135.380    98722816.91645
 15 02 27 00 37  0.0000000  0  7G16G18G19G21G22G27G31
  20810154.600   109358103.76709  20810153.860    85214106.37249
  22179773.700   116555501.33308  22179772.680    90822468.95847
  23939383.780   125802330.06206  23939382.980    98027786.67146
  22009524.180   115660838.32608  22009523.460    90125325.52348
  22904844.200   120365873.62708  22904842.340    93791627.66347
  21884537.320   115004038.31408  21884539.620    89613558.93848
  24127954.300   126793204.22307  24127956.160    98799883.52545
 15 02 27 00 37 30.0000000  0  7G16G18G19G21G22G27G31
  20801829.600   109314355.63609  20801828.840    85180016.92249
  22172751.480   116518599.83008  22172750.620    90793714.55147
  23924770.000   125725533.76707  23924769.200    97967945.44746
  22020689.700   115719513.63508  22020688.980    90171046.53748
  22888366.820   120279284.14808  22888365.020    93724155.37847
  21874322.100   114950357.40208  21874324.680    89571729.67048
  24146772.940   126892093.40207  24146774.380    98876939.79946
 15 02 27 00 38  0.0000000  0  7G16G18G19G21G22G27G31
  20793582.160   109271015.24609  20793581.460    85146245.19349
  22165808.620   116482115.28308  22165808.040    90765285.05047
  23910173.440   125648825.35407  23910172.260    97908172.71246
  22031896.920   115778407.93908  22031896.140    90216938.19748
  22871922.080   120192865.90608  22871920.340    93656816.50847
  21864131.780   114896806.83808  21864134.420    89530001.97448
  24165589.500   126990972.79007  24165590.860    98953988.47845
 15 02 27 00 38 30.0000000  0  7G16G18G19G21G22G27G31
  20785414.240   109228093.04909  20785413.660    85112799.32049
  22158947.020   116446057.54408  22158946.620    90737188.11347
  23895595.000   125572213.14906  23895593.640    97848474.92446
  22043147.260   115837528.53908  22043146.420    90263006.19248
  22855512.080   120106630.14608  22855510.380    93589619.84847
  21853968.020   114843395.33008  21853970.540    89488382.63448
  24184404.980   127089847.84607  24184406.560    99031033.86445
 15 02 27 00 39  0.0000000  0  7G16G18G19G21G22G27G31
  20777326.920   109185594.16609  20777326.360    85079683.30749
  22152167.680   116410431.82808  22152167.280    90709427.82447
  23881034.860   125495700.28406  23881033.640    97788854.54345
  22054441.100   115896877.63008  22054440.220    90309252.23548
  22839137.860   120020583.07908  22839136.220    93522570.21447
  21843831.360   114790126.33608  21843833.680    89446874.34148
  24203219.580   127188719.29907  24203221.500    99108076.38145
 15 02 27 00 39 30.0000000  0  7G16G18G19G21G22G27G31
  20769318.700   109143510.70909  20769318.040    85046891.00349
  22145468.940   116375229.51908  22145468.520    90681997.45247
  23866491.760   125419277.55206  23866490.380    97729304.39245
  22065776.000   115956442.57108  22065775.140    90355666.46748
  22822798.100   119934717.61208  22822796.460    93455662.07947
  21833719.800   114736990.30008  21833722.120    89405469.64048
  24222031.180   127287574.92707  24222033.360    99185106.63645
 15 02 27 00 40  0.0000000  0  7G16G18G19G21G22G27G31
  20761389.320   109101841.36509  20761388.620    85014421.38749
  22138850.340   116340448.65708  22138849.920    90654895.49247
  23851965.520   125342941.23007  23851963.740    97669821.57145
  22077151.140   116016219.09408  22077150.340    90402245.57348
  22806492.860   119849032.94808  22806491.080    93388894.82446
  21823632.820   114683984.03908  21823635.180    89364166.07448
  24240838.520   127386408.06607  24240840.760    99262119.34044
 15 02 27 00 40 30.0000000  0  7G16G18G19G21G22G27G31
  20753540.060   109060593.04209  20753539.360    84982279.83449
  22132313.280   116306096.52708  22132312.920    90628127.60247
  23837456.880   125266696.48007  23837454.580    97610410.10845
  22088567.060   116076210.02408  22088566.280    90448991.74748
  22790223.580   119763536.88908  22790221.600    93322274.53547
  21813571.580   114631112.69708  21813573.960    89322967.64248
  24259642.000   127485220.91807  24259644.080    99339116.20845
 15 02 27 00 41  0.0000000  0  7G16G18G19G21G22G27G31
  20745772.280   109019773.01409  20745771.540    84950472.02049
  22125859.100   116272179.59808  22125858.740    90601698.83747
  23822966.360   125190548.86406  23822964.020    97551074.30245
  22100024.440   116136418.61008  22100023.600    90495907.52048
  22773991.560   119678237.19308  22773989.420    93255807.25847
  21803537.320   114578381.87608  21803539.540    89281878.71148
  24278442.000   127584015.87106  24278443.980    99416099.09245
 15 02 27 00 41 30.0000000  0  7G16G18G19G21G22G27G31
  20738085.660   108979379.63009  20738084.840    84918996.65549
  22119487.300   116238695.72608  22119486.900    90575607.49947
  23808493.420   125114495.00106  23808491.360    97491811.55346
  22111522.340   116196840.02008  22111521.380    90542989.13448
  22757796.800   119593133.55908  22757794.540    93189492.77546
  21793529.300   114525788.34608  21793531.320    89240896.75048
  24297237.560   127682787.12907  24297239.420    99493063.54145
 15 02 27 00 42  0.0000000  0  7G16G18G19G21G22G27G31
  20730479.820   108939411.02509  20730479.020    84887852.28249
  22113197.620   116205643.34508  22113197.320    90549852.41047
  23794037.660   125038531.09306  23794035.960    97432618.92246
  22123059.640   116257468.74408  22123058.600    90590232.28548
  22741639.160   119508224.94808  22741636.880    93123330.25546
  21783546.700   114473328.82708  21783548.640    89200019.21548
  24316027.400   127781528.42106  24316029.260    99570004.70045
 15 02 27 00 42 30.0000000  0  7G16G18G19G21G22G27G31
  20722955.160   108899868.74909  20722954.520    84857040.11949
  22106990.240   116173023.29608  22106990.100    90524434.20647
  23779599.240   124962657.11206  23779598.080    97373496.37246
  22134635.960   116318302.32708  22134634.780    90637635.07548
  22725519.140   119423513.62908  22725516.840    93057321.45646
  21773589.420   114421002.92608  21773591.400    89159245.79148
  24334810.920   127880236.23506  24334812.880    99646919.78645
 15 02 27 00 43  0.0000000  0  7G16G18G19G21G22G27G31
  20715512.800   108860758.63909  20715512.200    84826564.70249
  22100866.240   116140841.13008  22100866.080    90499357.20847
  23765178.660   124886876.90506  23765177.860    97314446.89146
  22146251.640   116379343.19008  22146250.380    90685199.38048
  22709437.840   119339006.29208  22709435.660    92991471.59547
  21763658.280   114368815.02408  21763660.440    89118579.90848
  24353588.360   127978912.15906  24353590.600    99723809.97545
 15 02 27 00 43 30.0000000  0  7G16G18G19G21G22G27G31
  20708152.760   108822081.84309  20708152.220    84796426.95049
  22094825.700   116109097.76508  22094825.480    90474622.12847
  23750775.780   124811190.14206  23750775.460    97255470.21746
  22157906.180   116440588.45808  22157904.940    90732922.94948
  22693395.640   119254705.20308  22693393.720    92925782.45547
  21753753.400   114316764.80408  21753755.640    89078021.31448
  24372359.140   128077552.76706  24372361.620    99800672.69445
 15 02 27 00 44  0.0000000  0  7G16G18G19G21G22G27G31
  20700874.940   108783836.97709  20700874.400    84766625.75349
  22088868.200   116077790.78908  22088867.880    90450227.08447
  23736390.240   124735593.26707  23736389.620    97196563.59845
  22169598.740   116502033.51508  22169597.540    90780802.20848
  22677392.580   119170609.28008  22677390.780    92860253.17347
  21743874.220   114264849.02409  21743876.420    89037567.46748
  24391122.140   128176151.68606  24391124.560    99877502.89045
 15 02 27 00 44 30.0000000  0  7G16G18G19G21G22G27G31
  20693680.080   108746027.68009  20693679.520    84737163.97049
  22082994.420   116046923.87208  22082994.060    90426174.94747
  23722022.480   124660088.37107  23722021.020    97137728.64746
  22181329.360   116563678.51208  22181328.260    90828837.26548
  22661429.660   119086723.43008  22661427.840    92794887.59647
  21734021.160   114213069.79009  21734023.100    88997220.01948
  24409876.980   128274707.96606  24409879.240    99954299.77245
 15 02 27 00 45  0.0000000  0  7G16G18G19G21G22G27G31
  20686569.080   108708658.64009  20686568.460    84708045.23049
  22077205.240   116016501.45208  22077204.840    90402469.17447
  23707672.800   124584678.40207  23707670.700    97078967.68346
  22193098.240   116625524.52308  22193097.260    90877028.94948
  22645507.860   119003053.49408  22645505.940    92729690.27447
  21724194.620   114161430.24608  21724196.320    88956981.43448
  24428623.760   128373221.93806  24428625.820   100031063.67245
 15 02 27 00 45 30.0000000  0  7G16G18G19G21G22G27G31
  20679542.540   108671733.70509  20679541.860    84679272.55449
  22071501.180   115986526.45108  22071500.700    90379112.04047
  23693341.220   124509365.54107  23693339.160    97020282.33146
  22204905.360   116687571.45708  22204904.500    90925377.19948
  22629628.020   118919603.85908  22629625.920    92664664.61147
  21714394.940   114109932.66208  21714396.540    88916853.45248
  24447362.360   128471692.78106  24447364.300   100107793.89344
 15 02 27 00 46  0.0000000  0  7G16G18G19G21G22G27G31
  20672600.260   108635251.74509  20672599.520    84650845.05149
  22065882.000   115956997.53208  22065881.440    90356102.50547
  23679027.340   124434146.86006  23679025.920    96961670.39645
  22216749.800   116749814.60408  22216749.060    90973878.34448
  22613790.020   118836374.36508  22613787.800    92599810.48547
  21704621.740   114058574.44409  21704623.420    88876834.06748
  24466091.660   128570115.04506  24466093.480   100184486.24645
 15 02 27 00 46 30.0000000  0  7G16G18G19G21G22G27G31
  20665741.760   108599210.06609  20665741.080    84622760.63049
  22060347.220   115927911.79608  22060346.560    90333438.30247
  23664730.640   124359017.95406  23664729.420    96903128.40645
  22228630.420   116812247.76508  22228629.740    91022527.54648
  22597993.540   118753363.12408  22597991.340    92535126.41947
  21694874.300   114007351.34009  21694876.080    88836919.96248
  24484810.300   128668481.49206  24484812.240   100261135.05345
 15 02 27 00 47  0.0000000  0  7G16G18G19G21G22G27G31
  20658968.380   108563615.71409  20658967.760    84595024.76749
  22054898.160   115899276.33308  22054897.540    90311124.94947
  23650452.000   124283984.18206  23650450.920    96844660.56746
  22240547.920   116874874.69208  22240547.300    91071327.74148
  22582240.040   118670578.19908  22582237.980    92470618.70347
  21685153.680   113956269.01109  21685155.500    88797115.55848
  24503518.700   128766794.89706  24503521.300   100337742.59445
 15 02 27 00 47 30.0000000  0  7G16G18G19G21G22G27G31
  20652280.300   108528469.46109  20652279.740    84567638.08149
  22049534.640   115871090.57108  22049534.140    90289162.03147
  23636191.260   124209044.64907  23636190.300    96786266.14246
  22252501.700   116937692.26708  22252501.100    91120276.49048
  22566529.980   118588021.20808  22566528.000    92406288.59747
  21675459.560   113905326.48708  21675461.460    88757420.08548
  24522216.220   128865051.12805  24522219.360   100414305.53545
 15 02 27 00 48  0.0000000  0  7G16G18G19G21G22G27G31
  20645677.880   108493772.96409  20645677.200    84540601.84949
  22044256.780   115843355.52708  22044256.420    90267550.32247
  23621948.640   124134199.49607  23621947.740    96727945.25246
  22264491.500   117000699.04608  22264490.860    91169372.68048
  22550863.860   118505694.88908  22550861.840    92342138.23547
  21665792.040   113854524.04908  21665794.000    88717833.77648
  24540902.540   128963247.66705  24540906.160   100490821.99545
 15 02 27 00 48 30.0000000  0  7G16G18G19G21G22G27G31
  20639160.360   108459523.19609  20639159.720    84513913.72049
  22039064.100   115816068.34008  22039063.840    90246287.59247
  23607723.380   124059443.69707  23607722.360    96669693.98646
  22276516.020   117063888.28308  22276515.380    91218611.04548
  22535241.160   118423596.95508  22535239.120    92278165.84547
  21656150.340   113803857.31708  21656152.320    88678353.20848
  24559576.040   129061376.95105  24559580.100   100567285.93045
 15 02 27 00 49  0.0000000  0  7G16G18G19G21G22G27G31
  20632728.520   108425723.88809  20632727.960    84487576.59149
  22033957.320   115789232.39508  22033957.040    90225376.47647
  23593515.760   123984779.46507  23593514.160    96611514.06946
  22288575.280   117127260.09308  22288574.620    91267991.66648
  22519662.800   118341732.02608  22519660.740    92214375.01047
  21646534.940   113753328.53508  21646536.880    88638980.13348
  24578236.660   129159438.49306  24578241.020   100643697.14244
 15 02 27 00 49 30.0000000  0  7G16G18G19G21G22G27G31
  20626384.020   108392383.32909  20626383.460    84461596.93449
  22028937.980   115762855.67208  22028937.680    90204823.19647
  23579326.800   123910214.10407  23579324.480    96553411.22946
  22300670.280   117190819.75308  22300669.620    91317518.66148
  22504130.620   118260109.73808  22504128.620    92150773.24147
  21636947.200   113702944.72408  21636949.140    88599720.03548
  24596885.320   129257436.37105  24596889.700   100720058.70745
 15 02 27 00 50  0.0000000  0  7G16G18G19G21G22G27G31
  20620126.360   108359499.43509  20620125.900    84435973.12549
  22024005.440   115736935.21508  22024005.180    90184625.44947
  23565155.480   123835743.04407  23565152.660    96495381.85046
  22312799.940   117254561.27308  22312799.220    91367187.36747
  22488644.200   118178728.89508  22488642.380    92087359.61247
  21627386.420   113652702.14209  21627388.360    88560569.97148
  24615520.700   129355363.91205  24615525.020   100796365.45245
 15 02 27 00 50 30.0000000  0  7G16G18G19G21G22G27G31
  20613956.380   108327076.29409  20613955.940    84410708.34049
  22019160.380   115711474.53908  22019160.200    90164785.97247
  23551002.340   123761369.28907  23550999.580    96437428.30346
  22324964.360   117318485.25908  22324963.560    91416998.26147
  22473204.600   118097594.52908  22473202.960    92024138.05047
  21617853.040   113602603.51309  21617854.980    88521532.08648
  24634142.760   129453220.68406  24634146.740   100872617.09945
 15 02 27 00 51  0.0000000  0  7G16G18G19G21G22G27G31
  20607874.280   108295114.64009  20607873.800    84385803.15549
  22014402.880   115686474.06008  22014402.740    90145305.09347
  23536867.320   123687091.73507  23536865.320    96379549.71246
  22337163.020   117382589.49208  22337162.180    91466949.60647
  22457812.380   118016708.04308  22457810.720    91961109.63647
  21608346.980   113552648.42609  21608348.880    88482606.04948
  24652750.760   129551003.11806  24652754.380   100948810.77445
 15 02 27 00 51 30.0000000  0  7G16G18G19G21G22G27G31
  20601879.740   108263612.84909  20601879.160    84361256.30349
  22009732.600   115661931.76008  22009732.360    90126181.23947
  23522750.200   123612907.44807  23522749.140    96321743.78847
  22349394.920   117446868.50208  22349394.020    91517037.13847
  22442467.380   117936069.16108  22442465.580    91898274.17747
  21598867.620   113502833.90109  21598869.480    88443789.54648
  24671343.440   129648705.64105  24671346.820   101024942.21744
 15 02 27 00 52  0.0000000  0  7G16G18G19G21G22G27G31
  20595972.980   108232572.62909  20595972.320    84337069.11049
  22005149.620   115637848.07408  22005149.220    90107414.73947
  23508651.060   123538816.71807  23508650.880    96264010.76746
  22361659.740   117511320.99008  22361658.860    91567259.85147
  22427170.080   117855680.52608  22427168.100    91835633.70547
  21589414.960   113453160.05509  21589416.760    88405082.66748
  24689920.300   129746325.69706  24689923.580   101101009.33044
 15 02 27 00 52 30.0000000  0  6G16G18G19G21G22G27
  20590152.580   108201986.44709  20590151.920    84313235.72149
  22000652.460   115614215.63808  22000652.000    90088999.86847
  23494568.120   123464810.31407  23494568.200    96206343.45746
  22373955.420   117575935.73608  22373954.600    91617608.99947
  22411919.120   117775535.57808  22411917.000    91773183.12047
  21579987.380   113403618.18208  21579989.140    88366478.61848
 15 02 27 00 53  0.0000000  0  6G16G18G19G21G22G27
  20584424.260   108171883.79609  20584423.580    84289779.11049
  21996246.720   115591063.65708  21996246.300    90070959.37447
  23480506.620   123390915.63707  23480506.260    96148763.20246
  22386286.920   117640738.57408  22386286.160    91668104.71047
  22396720.140   117695664.51008  22396717.960    91710945.93247
  21570590.240   113354236.30908  21570592.060    88327999.24348
 15 02 27 00 53 30.0000000  0  6G16G18G19G21G22G27
  20578783.860   108142243.02809  20578783.160    84266682.40849
  21991928.180   115568369.57608  21991927.760    90053275.67447
  23466462.140   123317110.09807  23466461.060    96091252.41146
  22398649.520   117705704.94608  22398648.900    91718727.84347
  22381569.260   117616046.71308  22381567.100    91648906.10347
  21561219.240   113304991.69209  21561221.180    88289626.81648
 15 02 27 00 54  0.0000000  0  6G16G18G19G21G22G27
  20573232.900   108113072.35009  20573232.180    84243952.00849
  21987698.260   115546141.05508  21987697.860    90035954.76147
  23452435.760   123243399.96007  23452433.820    96033815.96646
  22411044.240   117770839.55508  22411043.680    91769482.07147
  22366468.420   117536691.74108  22366466.260    91587071.06847
  21551875.700   113255891.17909  21551877.760    88251366.68048
 15 02 27 00 54 30.0000000  0  6G16G18G19G21G22G27
  20567772.020   108084374.90909  20567771.240    84221590.36349
  21983557.460   115524380.99108  21983557.120    90018998.88147
  23438427.780   123169786.93207  23438425.340    95976455.19346
  22423471.040   117836142.21808  22423470.480    91820367.25547
  22351418.420   117457603.62008  22351416.220    91525443.97947
  21542559.900   113206936.48009  21542562.100    88213220.16448
 15 02 27 00 55  0.0000000  0  6G16G18G19G21G22G27
  20562400.920   108056149.61909  20562400.140    84199596.62949
  21979505.460   115503087.45808  21979505.140    90002406.52847
  23424437.840   123096268.95607  23424435.360    95919168.47446
  22435928.980   117901608.54008  22435928.440    91871379.96447
  22336419.260   117378782.18508  22336416.960    91464024.68547
  21533271.480   113158125.58509  21533273.740    88175185.71248
 15 02 27 00 55 30.0000000  0  6G16G18G19G21G22G27
  20557121.060   108028403.92309  20557120.300    84177976.59949
  21975543.540   115482267.31808  21975543.200    89986183.05447
  23410466.720   123022851.90406  23410464.800    95861960.40447
  22448418.900   117967243.01908  22448418.360    91922523.70747
  22321472.420   117300235.68408  22321470.060    91402819.64547
