     2.11           OBSERVATION DATA    G                   RINEX VERSION / TYPE
SPIDER V4,0,0,3554                      2015 03 15 00:35    PGM / RUN BY / DATE 
EMHD                                                        MARKER NAME         
EMHD                                                        MARKER NUMBER       
                                                            OBSERVER / AGENCY   
462397              LEICA GRX1200PRO    8.20/2.127          REC # / TYPE / VERS 
103297              LEIAT504                                ANT # / TYPE        
  5146535.6892   265261.6083  3747697.6292                  APPROX POSITION XYZ 
        0.0470        0.0000        0.0000                  ANTENNA: DELTA H/E/N
     1     1                                                WAVELENGTH FACT L1/2
     4    C1    L1    P2    L2                              # / TYPES OF OBSERV 
    30.000                                                  INTERVAL            
  2015    02    27    00    00    0.0000000     GPS         TIME OF FIRST OBS   
  2015    02    27    02    35   30.0000000     GPS         TIME OF LAST OBS    
    16                                                      LEAP SECONDS        
    11                                                      # OF SATELLITES     
   G 4   149   149   149   149                              PRN / # OF OBS      
   G11    58    58    58    58                              PRN / # OF OBS      
   G16   312   312   312   312                              PRN / # OF OBS      
   G18   312   312   312   312                              PRN / # OF OBS      
   G19   262   262   262   262                              PRN / # OF OBS      
   G21   289   289   288   288                              PRN / # OF OBS      
   G22   312   312   312   312                              PRN / # OF OBS      
   G27   312   312   312   312                              PRN / # OF OBS      
   G29    41    41    41    41                              PRN / # OF OBS      
   G31   101   101   101   101                              PRN / # OF OBS      
   G32    43    43    43    43                              PRN / # OF OBS      
BIT 2 OF LLI FLAGS DATA COLLECTED UNDER A/S CONDITION       COMMENT             
SNR is mapped to RINEX snr flag value [2-9]                 COMMENT             
Lx:     = 25dBHz -> 1; 26-27dBHz -> 2; 28-31dBHz -> 3       COMMENT             
       32-35dBHz -> 4; 36-38dBHz -> 5; 39-41dBHz -> 6       COMMENT             
       42-44dBHz -> 7; 45-48dBHz -> 8; >=49dBHz -> 9        COMMENT             
                                                            END OF HEADER       
 15 02 27 00 00  0.0000000  0  7G16G18G21G22G27G29G31
  21678034.200   113918848.48707  21678032.380    88767928.81647
  22802785.240   119829472.85706  22802783.860    93373624.74046
  21275663.300   111804370.80807  21275660.800    87120282.75848
  24150398.000   126911261.64804  24150396.800    98891917.71044
  22829730.100   119971049.09405  22829730.860    93483952.85147
  23975260.300   125990828.04705  23975259.420    98174663.60845
  22822158.860   119931245.18706  22822157.460    93452904.65547
 15 02 27 00 00 30.0000000  0  7G16G18G21G22G27G29G31
  21664709.020   113848824.08507  21664707.160    88713364.35648
  22790776.260   119766364.71606  22790774.860    93324449.57946
  21282519.440   111840399.85707  21282516.820    87148357.34648
  24132677.100   126818140.08604  24132676.100    98819355.86045
  22817399.580   119906252.01806  22817400.380    93433461.63847
  23989694.620   126066680.57405  23989693.800    98233769.42246
  22839468.040   120022205.06106  22839466.440    93523782.45547
 15 02 27 00 01  0.0000000  0  7G16G18G21G22G27G29G31
  21651433.520   113779061.15407  21651431.680    88659003.63848
  22778818.720   119703527.03306  22778817.160    93275485.17346
  21289442.500   111876780.50207  21289439.780    87176705.90648
  24114952.900   126725000.58704  24114951.680    98746779.99745
  22805091.780   119841574.33906  22805092.640    93383063.45747
  24004132.440   126142551.91505  24004131.700    98292889.91246
  22856815.860   120113368.58106  22856814.220    93594818.92947
 15 02 27 00 01 30.0000000  0  7G16G18G21G22G27G29G31
  21638207.240   113709556.57007  21638205.380    88604844.22047
  22766912.040   119640957.21506  22766910.420    93226729.48946
  21296431.060   111913505.75807  21296428.420    87205322.99648
  24097224.720   126631839.65404  24097223.280    98674187.43345
  22792805.780   119777010.84206  22792806.620    93332754.25947
  24018572.820   126218436.48205  24018572.160    98352020.71746
  22874200.960   120204727.65406  22874199.300    93666007.77446
 15 02 27 00 02  0.0000000  0  7G16G18G21G22G27G29G31
  21625030.860   113640314.41007  21625029.000    88550889.29247
  22755057.140   119578659.70706  22755055.560    93178185.97946
  21303485.260   111950576.49207  21303482.800    87234209.27348
  24079493.380   126538661.86104  24079491.840    98601581.68645
  22780541.960   119712563.51606  22780542.660    93282535.56947
  24033016.160   126294336.55405  24033015.540    98411163.56745
  22891623.060   120296281.36506  22891621.340    93737348.29746
 15 02 27 00 02 30.0000000  0  7G16G18G21G22G27G29G31
  21611905.260   113571338.70607  21611903.360    88497141.99347
  22743254.800   119516638.23906  22743253.160    93129857.58345
  21310605.160   111987992.28607  21310602.800    87263364.42848
  24061759.640   126445471.39304  24061758.100    98528966.05845
  22768300.520   119648233.84906  22768301.140    93232408.57447
  24047462.620   126370253.19804  24047462.080    98470319.38945
  22909081.940   120388028.21006  22909080.080    93808839.32246
 15 02 27 00 03  0.0000000  0  7G16G18G21G22G27G29G31
  21598830.740   113502631.47707  21598828.860    88443603.89048
  22731505.680   119454896.01306  22731503.840    93081746.77845
  21317790.580   112025751.91807  21317788.160    87292787.51948
  24044024.280   126352271.49105  24044022.480    98456343.06344
  22756081.500   119584022.25006  22756082.080    93182373.56847
  24061912.260   126446186.84704  24061911.720    98529488.41745
  22926577.180   120479965.80706  22926575.160    93880478.95946
 15 02 27 00 03 30.0000000  0  7G16G18G21G22G27G29G31
  21585807.620   113434194.03607  21585805.660    88390276.01847
  22719810.080   119393434.79906  22719808.100    93033854.93146
  21325041.100   112063853.13807  21325038.560    87322476.78548
  24026287.500   126259064.13104  24026285.360    98383714.24845
  22743884.720   119519927.93106  22743885.340    93132429.95347
  24076364.920   126522136.62104  24076364.400    98588670.01346
  22944108.080   120572090.41506  22944105.900    93952264.33747
 15 02 27 00 04  0.0000000  0  7G16G18G21G22G27G29G31
  21572835.760   113366026.32007  21572833.740    88337158.32347
  22708167.940   119332254.40706  22708165.900    92986181.91146
  21332355.760   112102291.53907  21332353.180    87352428.79048
  24008549.180   126165849.08204  24008546.880    98311079.43244
  22731709.860   119455948.42806  22731710.480    93082575.80547
  24090820.240   126598099.72004  24090819.760    98647861.98644
  22961673.240   120664396.41606  22961671.180    94024191.04846
 15 02 27 00 04 30.0000000  0  7G16G18G21G22G27G29G31
  21559915.620   113298130.66807  21559913.640    88284252.63148
  22696579.500   119271356.91506  22696577.460    92938729.33846
  21339734.180   112141065.73607  21339731.700    87382642.45148
  23990809.860   126072628.90905  23990807.480    98238440.59046
  22719556.800   119392083.87406  22719557.480    93032811.24447
  24105278.200   126674076.00604  24105277.600    98707064.26245
  22979272.380   120756881.28606  22979270.540    94096257.15046
 15 02 27 00 05  0.0000000  0  7G16G18G21G22G27G29G31
  21547048.200   113230512.31907  21547046.280    88231563.00848
  22685045.980   119210748.30506  22685044.060    92891501.87646
  21347176.740   112180177.21807  21347174.420    87413118.92248
  23973070.620   125979409.63804  23973068.180    98165802.42845
  22707426.320   119328337.44906  22707426.960    92983138.71747
  24119739.300   126750069.13904  24119738.720    98766279.63245
  22996905.680   120849545.05006  22996903.960    94168462.64146
 15 02 27 00 05 30.0000000  0  7G16G18G21G22G27G29G31
  21534234.160   113163174.29207  21534232.260    88179091.82248
  22673568.100   119150432.13006  22673566.320    92844502.27346
  21354683.420   112219624.94807  21354681.120    87443857.41148
  23955332.000   125886194.42404  23955329.640    98093167.45245
  22695318.400   119264709.87106  22695318.980    92933558.79747
  24134203.600   126826079.40704  24134202.940    98825508.38545
  23014572.660   120942385.38006  23014570.960    94240805.71946
 15 02 27 00 06  0.0000000  0  7G16G18G21G22G27G29G31
  21521473.580   113096116.70707  21521471.620    88126839.16148
  22662145.980   119090408.47106  22662144.220    92797730.59746
  21362253.440   112259405.39907  21362251.160    87474855.16048
  23937594.280   125792984.30404  23937592.120    98020536.40945
  22683232.720   119201199.30906  22683233.200    92884070.05647
  24148670.760   126902104.89604  24148670.140    98884749.01846
  23032272.360   121035397.74006  23032270.640    94313282.83947
 15 02 27 00 06 30.0000000  0  7G16G18G21G22G27G29G31
  21508766.780   113029341.57607  21508764.700    88074806.58948
  22650779.920   119030679.75106  22650778.280    92751188.76446
  21369886.340   112299516.13607  21369884.060    87506110.28048
  23919857.920   125699781.43104  23919856.080    97947911.01745
  22671169.200   119137805.54306  22671169.680    92834672.33047
  24163140.740   126978145.03904  24163140.060    98944001.02743
  23050004.180   121128578.89906  23050002.500    94385891.49046
 15 02 27 00 07  0.0000000  0  7G16G18G21G22G27G29G31
  21496113.020   112962845.43207  21496110.860    88022991.41048
  22639469.340   118971242.33606  22639467.700    92704873.90446
  21377580.880   112339950.90107  21377578.500    87537617.89648
  23902122.600   125606582.99404  23902120.860    97875289.05945
  22659126.920   119074523.01106  22659127.360    92785361.28147
  24177612.740   127054194.80804  24177612.100    99003260.54345
  23067766.400   121221920.02406  23067764.860    94458624.80347
 15 02 27 00 07 30.0000000  0  7G16G18G21G22G27G29G31
  21483514.680   112896640.77407  21483512.460    87971403.36948
  22628216.660   118912109.31406  22628215.100    92658796.23646
  21385338.540   112380717.70107  21385336.100    87569384.23148
  23884390.680   125513401.92604  23884388.840    97802680.60145
  22647107.800   119011362.09106  22647108.180    92736144.98547
  24192088.220   127130263.83804  24192087.620    99062535.10345
  23085560.540   121315428.87405  23085559.140    94531488.80947
 15 02 27 00 08  0.0000000  0  7G16G18G21G22G27G29G31
  21470971.120   112830723.80307  21470968.840    87920039.49848
  22617021.180   118853277.04506  22617019.640    92612952.92646
  21393157.920   112421808.84107  21393155.400    87601403.29748
  23866661.480   125420234.82705  23866659.520    97730083.02946
  22635110.720   118948316.88406  22635111.160    92687018.86047
  24206566.220   127206346.42004  24206565.580    99121820.20645
  23103384.800   121409096.43606  23103383.480    94604476.46547
 15 02 27 00 08 30.0000000  0  7G16G18G21G22G27G29G31
  21458483.100   112765098.84407  21458480.860    87868903.17048
  22605883.740   118794749.58106  22605882.200    92567347.12546
  21401039.180   112463224.88407  21401036.560    87633675.53948
  23848935.700   125327086.14205  23848933.720    97657499.82246
  22623135.980   118885389.25606  22623136.520    92637984.37747
  24221047.160   127282444.23904  24221046.540    99181117.14844
  23121239.160   121502921.59505  23121237.800    94677586.93347
 15 02 27 00 09  0.0000000  0  7G16G18G21G22G27G29G31
  21446050.620   112699765.97307  21446048.480    87817994.44548
  22594804.440   118736527.39606  22594802.780    92521979.20946
  21408981.520   112504961.92907  21408978.900    87666197.91148
  23831213.640   125233956.68705  23831211.760    97584931.55345
  22611183.340   118822577.29306  22611183.800    92589039.99547
  24235530.580   127358555.25604  24235530.060    99240424.42045
  23139122.600   121596899.37006  23139121.240    94750816.31546
 15 02 27 00 09 30.0000000  0  7G16G18G21G22G27G29G31
  21433674.500   112634728.91008  21433672.400    87767316.21748
  22583784.060   118678614.97406  22583782.240    92476852.64446
  21416984.940   112547020.22207  21416982.340    87698970.60348
  23813496.100   125140850.84805  23813494.120    97512381.69045
  22599253.000   118759882.88106  22599253.440    92540187.23147
  24250016.980   127434681.20804  24250016.280    99299743.27044
  23157034.960   121691028.84206  23157033.520    94824163.91546
 15 02 27 00 10  0.0000000  0  7G16G18G21G22G27G29G31
  21421354.980   112569989.19907  21421352.880    87716869.69048
  22572822.860   118621014.23606  22572821.100    92431968.97246
  21425049.020   112589397.59007  21425046.460    87731991.92648
  23795783.540   125047770.81405  23795781.180    97439851.94945
  22587344.900   118697305.43006  22587345.280    92491425.59147
  24264506.080   127510821.49904  24264505.240    99359073.34246
  23174975.500   121785306.44305  23174974.020    94897626.93446
 15 02 27 00 10 30.0000000  0  7G16G18G21G22G27G29G31
  21409092.880   112505551.48607  21409090.800    87666658.48848
  22561921.780   118563728.76806  22561920.060    92387330.95246
  21433173.840   112632094.13007  21433171.320    87765261.95248
  23778076.740   124954721.19705  23778074.280    97367345.87245
  22575459.360   118634847.05506  22575459.660    92442756.74047
  24278998.080   127586978.23204  24278997.580    99418416.19845
  23192943.980   121879731.16705  23192942.580    94971204.59046
 15 02 27 00 11  0.0000000  0  7G16G18G21G22G27G29G31
  21396888.420   112441416.69008  21396886.340    87616683.32648
  22551081.100   118506760.22906  22551079.240    92342939.88746
  21441358.700   112675105.93907  21441356.200    87798777.64348
  23760375.960   124861703.40605  23760373.520    97294864.61046
  22563596.160   118572506.40906  22563596.560    92394179.62547
  24293492.940   127663149.72904  24293492.500    99477770.53244
  23210939.660   121974298.78605  23210938.320    95044893.59646
 15 02 27 00 11 30.0000000  0  7G16G18G21G22G27G29G31
  21384741.400   112377583.63407  21384739.260    87566943.28348
  22540300.600   118450107.84406  22540298.700    92298795.20245
  21449602.920   112718429.84907  21449600.480    87832536.52748
  23742681.140   124768716.90905  23742678.600    97222407.73046
  22551754.840   118510280.67206  22551755.380    92345692.05347
  24307990.300   127739333.26104  24307989.740    99537134.28945
  23228961.360   122069003.45905  23228960.020    95118689.39447
 15 02 27 00 12  0.0000000  0  7G16G18G21G22G27G29G31
  21372652.600   112314056.59107  21372650.420    87517441.68848
  22529580.960   118393775.78506  22529579.180    92254900.10346
  21457906.580   112762065.91907  21457904.140    87866538.66248
  23724993.320   124675766.90105  23724990.600    97149979.24546
  22539935.940   118448171.98606  22539936.540    92297295.67847
  24322490.220   127815530.70204  24322489.780    99596508.91146
  23247008.880   122163844.30505  23247007.560    95192591.29346
 15 02 27 00 12 30.0000000  0  7G16G18G21G22G27G29G31
  21360622.480   112250837.89907  21360620.300    87468180.37248
  22518922.580   118337766.53706  22518920.960    92211256.53946
  21466269.220   112806011.55007  21466266.700    87900782.00448
  23707312.860   124582855.68205  23707309.920    97077580.98946
  22528139.420   118386180.31406  22528140.000    92248990.49747
  24336992.760   127891741.96704  24336992.340    99655894.26146
  23265081.780   122258818.15905  23265080.520    95266596.83246
 15 02 27 00 13  0.0000000  0  7G16G18G21G22G27G29G31
  21348651.800   112187931.58508  21348649.580    87419162.46548
  22508326.440   118282084.25706  22508324.920    92167867.75046
  21474690.820   112850267.24607  21474688.280    87935266.96148
  23689640.620   124489987.94405  23689637.640    97005216.61245
  22516365.500   118324307.63706  22516366.040    92200778.02747
  24351498.240   127967968.98104  24351497.900    99715291.90846
  23283179.880   122353924.26405  23283178.680    95340705.43247
 15 02 27 00 13 30.0000000  0  7G16G18G21G22G27G29G31
  21336740.600   112125337.94307  21336738.400    87370388.20548
  22497792.700   118226729.30306  22497791.260    92124734.04046
  21483170.800   112894829.96807  21483168.260    87969991.15348
  23671976.720   124397164.73404  23671973.820    96932886.92646
  22504613.800   118262552.18106  22504614.280    92152656.91447
  24366006.500   128044210.11304  24366006.060    99774700.52144
  23301302.200   122449157.84305  23301301.100    95414913.35046
 15 02 27 00 14  0.0000000  0  7G16G18G21G22G27G29G31
  21324889.740   112063061.45108  21324887.620    87321861.07048
  22487322.320   118171706.49606  22487320.700    92081859.14446
  21491709.220   112939699.62807  21491706.700    88004954.51548
  23654322.020   124304390.80105  23654319.280    96860595.66244
  22492884.760   118200916.29306  22492885.240    92104628.95747
  24380517.840   128120467.29104  24380517.420    99834121.66646
  23319448.740   122544518.13105  23319447.580    95489220.00846
 15 02 27 00 14 30.0000000  0  7G16G18G21G22G27G29G31
  21313098.900   112001100.45207  21313096.820    87273579.77448
  22476914.800   118117013.88206  22476912.980    92039241.53646
  21500305.060   112984870.92507  21500302.520    88040152.93248
  23636676.680   124211664.76205  23636673.880    96788341.68346
  22481177.840   118139396.07906  22481178.240    92056691.13647
  24395031.460   128196736.51904  24395031.100    99893552.20046
  23337618.120   122639998.18705  23337616.840    95563619.98047
 15 02 27 00 15  0.0000000  0  7G16G18G21G22G27G29G31
  21301369.060   111939459.91108  21301367.020    87225548.18448
  22466570.960   118062656.41706  22466569.120    91996885.07346
  21508958.440   113030344.64707  21508955.920    88075586.99548
  23619041.580   124118991.99405  23619038.700    96716129.22245
  22469493.400   118077994.28206  22469493.960    92008845.59047
  24409547.840   128273020.62904  24409547.600    99952994.32946
  23355810.280   122735597.87105  23355808.840    95638113.16546
 15 02 27 00 15 30.0000000  0  7G16G18G21G22G27G29G31
  21289700.100   111878138.89908  21289698.000    87177765.57748
  22456290.640   118008633.49906  22456288.920    91954789.31146
  21517668.520   113076116.50007  21517666.060    88111253.36648
  23601416.680   124026372.64305  23601413.720    96643958.38546
  22457831.060   118016708.28406  22457831.780    91961090.27248
  24424066.560   128349316.68904  24424066.280   100012445.76346
  23374024.140   122831311.35005  23374022.480    95712695.02346
 15 02 27 00 16  0.0000000  0  7G16G18G21G22G27G29G31
  21278093.020   111817143.25608  21278090.920    87130236.50048
  22446075.120   117954951.17806  22446073.460    91912958.93546
  21526435.600   113122187.87107  21526433.180    88147153.12948
  23583803.200   123933812.87005  23583800.100    96571833.96746
  22446191.380   117955541.69206  22446192.220    91913428.00247
  24438588.280   128425628.40704  24438587.760   100071909.40945
  23392259.880   122927139.45805  23392258.040    95787366.21046
 15 02 27 00 16 30.0000000  0  7G16G18G21G22G27G29G31
  21266547.980   111756473.47508  21266545.860    87082961.34448
  22435924.680   117901609.76206  22435922.860    91871394.21646
  21535259.140   113168555.62907  21535256.680    88183283.85248
  23566201.380   123841313.79105  23566198.200    96499756.84946
  22434574.140   117894492.93306  22434575.020    91865857.53947
  24453112.640   128501954.25504  24453112.040   100131384.07145
  23410516.440   123023077.46605  23410514.560    95862123.01646
 15 02 27 00 17  0.0000000  0  7G16G18G21G22G27G29G31
  21255065.560   111696133.00008  21255063.480    87035942.79348
  22425839.700   117848612.31406  22425837.780    91830097.52146
  21544138.960   113215219.05907  21544136.500    88219644.96248
  23548611.640   123748878.84205  23548608.400    96427729.68746
  22422979.620   117833563.13306  22422980.500    91818379.78548
  24467639.880   128578295.12204  24467639.240   100190870.42245
  23428793.440   123119123.60805  23428791.640    95936964.08145
 15 02 27 00 17 30.0000000  0  7G16G18G21G22G27G29G31
  21243645.720   111636121.43908  21243643.680    86989180.53748
  22415820.160   117795959.37406  22415818.220    91789069.25846
  21553074.240   113262174.09707  21553071.820    88256233.29548
  23531034.120   123656508.89205  23531031.000    96355753.18345
  22411407.440   117772750.14406  22411408.140    91770993.05048
  24482169.440   128654648.27904  24482169.000   100250366.36843
  23447089.980   123215272.40105  23447088.160    96011885.15347
 15 02 27 00 18  0.0000000  0  7G16G18G21G22G27G29G31
  21232289.420   111576443.91807  21232287.420    86942678.57548
  22405867.020   117743655.66106  22405865.120    91748313.13146
  21562065.100   113309421.46407  21562062.740    88293049.42148
  23513469.900   123564209.14405  23513466.980    96283831.35946
  22399858.000   117712056.71806  22399858.460    91723699.47847
  24496701.880   128731016.98904  24496701.580   100309874.41545
  23465406.040   123311524.12205  23465404.200    96086886.41846
 15 02 27 00 18 30.0000000  0  7G16G18G21G22G27G29G31
  21220996.960   111517101.60608  21220994.960    86896437.81448
  22395980.580   117691702.43106  22395978.760    91707830.12746
  21571111.080   113356958.83307  21571108.780    88330091.52248
  23495919.420   123471981.42205  23495916.520    96211965.68146
  22388331.080   117651482.00806  22388331.340    91676498.41147
  24511237.100   128807400.18604  24511236.920   100369393.78145
  23483740.960   123407874.60605  23483739.220    96161964.63045
 15 02 27 00 19  0.0000000  0  7G16G18G21G22G27G29G31
  21209769.380   111458100.25408  21209767.360    86850462.73748
  22386161.940   117640105.23506  22386160.180    91667624.52347
  21580212.520   113404787.59307  21580210.240    88367360.68248
  23478384.020   123379832.09205  23478380.960    96140161.07445
  22376827.280   117591029.73506  22376827.600    91629392.76548
  24525776.140   128883826.47904  24525774.960   100428944.20044
  23502094.760   123504324.63105  23502093.160    96237120.40346
 15 02 27 00 19 30.0000000  0  7G16G18G21G22G27G29G31
  21198604.880   111399430.34508  21198602.780    86804745.92548
  22376409.200   117588854.44006  22376407.520    91627688.84746
  21589366.940   113452894.63707  21589364.680    88404846.68848
  23460861.740   123287751.91805  23460858.580    96068410.34246
  22365344.500   117530688.23406  22365344.960    91582373.41347
  24540316.040   128960234.04804  24540314.680   100488482.52942
  23520464.660   123600859.40405  23520463.260    96312342.20646
 15 02 27 00 20  0.0000000  0  7G16G18G21G22G27G29G31
  21187506.620   111341108.30908  21187504.420    86759300.18448
  22366725.680   117537966.97306  22366723.940    91588036.28646
  21598576.740   113501292.71407  21598574.560    88442559.46648
  23443355.740   123195758.02405  23443352.720    95996726.85645
  22353885.580   117470472.10106  22353886.200    91535451.75747
  24554859.640   129036662.16204  24554858.820   100548036.89346
  23538853.020   123697490.44905  23538851.640    96387639.03646
 15 02 27 00 20 30.0000000  0  6G16G18G21G22G27G31
  21176467.720   111283098.28508  21176465.460    86714097.57448
  22357104.480   117487406.56607  22357102.680    91548638.57946
  21607834.320   113549941.77807  21607832.240    88480467.81948
  23425859.300   123103815.08805  23425856.560    95925083.06945
  22342443.480   117410343.29706  22342444.120    91488598.15247
  23557251.880   123794176.80605  23557250.500    96462978.96746
 15 02 27 00 21  0.0000000  0  6G16G18G21G22G27G31
  21165500.800   111225466.52608  21165498.480    86669189.70848
  22347558.020   117437239.29606  22347556.180    91509547.21846
  21617151.600   113598904.33907  21617149.500    88518620.45448
  23408385.380   123011990.19805  23408382.740    95853531.27446
  22331030.260   117350365.99506  22331030.880    91441862.60247
  23575672.840   123890979.59605  23575671.580    96538409.60046
 15 02 27 00 21 30.0000000  0  6G16G18G21G22G27G31
  21154599.760   111168181.08008  21154597.400    86624551.69848
  22338080.180   117387433.20306  22338078.320    91470737.29746
  21626521.660   113648143.95807  21626519.440    88556988.98848
  23390928.080   122920251.80105  23390925.440    95782046.86947
  22319639.420   117290506.15406  22319640.040    91395218.57848
  23594109.000   123987861.76405  23594107.720    96613902.11446
 15 02 27 00 22  0.0000000  0  6G16G18G21G22G27G31
  21143765.760   111111247.92608  21143763.400    86580188.20848
  22328672.140   117337994.31006  22328670.380    91432213.49346
  21635944.880   113697662.90407  21635942.520    88595575.18148
  23373488.600   122828606.45705  23373485.800    95710634.96446
  22308271.680   117230767.84106  22308272.320    91348669.25248
  23612560.620   124084824.52305  23612559.200    96689457.38746
 15 02 27 00 22 30.0000000  0  6G16G18G21G22G27G31
  21132998.240   111054664.39408  21132995.960    86536097.15048
  22319333.700   117288920.08507  22319331.880    91393973.84546
  21645419.980   113747454.89507  21645417.640    88634374.12648
  23356066.300   122737051.83405  23356063.440    95639293.74446
  22296926.080   117171146.30006  22296926.780    91302210.92047
  23631026.100   124181859.86405  23631024.480    96765069.24146
 15 02 27 00 23  0.0000000  0  6G16G18G21G22G27G31
  21122299.400   110998442.02908  21122297.240    86492287.52348
  22310066.800   117240221.80507  22310064.880    91356027.15246
  21654948.420   113797527.30607  21654946.120    88673391.58148
  23338663.680   122645600.38105  23338660.820    95568032.92446
  22285604.340   117111651.05406  22285605.060    91255850.99447
  23649506.540   124278974.23105  23649504.760    96840742.65146
 15 02 27 00 23 30.0000000  0  6G16G18G21G22G27G31
  21111667.920   110942573.18708  21111665.780    86448753.36348
  22300869.860   117191891.55907  22300867.920    91318367.23146
  21664528.080   113847868.67507  21664525.740    88712618.62648
  23321279.300   122554244.92305  23321276.380    95496846.90745
  22274304.900   117052272.50306  22274305.500    91209581.99647
  23667999.700   124376155.35705  23667997.900    96916468.09645
 15 02 27 00 24  0.0000000  0  6G16G18G21G22G27G31
  21101103.360   110887055.94708  21101101.180    86405493.18048
  22291742.640   117143927.80206  22291740.760    91280992.88147
  21674157.760   113898473.09607  21674155.360    88752050.63548
  23303912.940   122462984.26405  23303910.000    95425734.73446
  22263027.040   116993006.72806  22263027.560    91163400.87648
  23686504.020   124473395.96805  23686502.300    96992239.88646
 15 02 27 00 24 30.0000000  0  7G16G18G19G21G22G27G31
  21090608.020   110831902.50808  21090605.780    86362516.47648
  22282687.280   117096342.04207  22282685.540    91243913.08646
  24450352.780   128487472.37304  24450350.580   100120096.60944
  21683839.000   113949348.92507  21683836.660    88791694.14148
  23286567.000   122371830.68705  23286563.920    95354706.00745
  22251772.540   116933863.75806  22251773.020    91117315.45748
  23705020.900   124570703.11305  23705019.380    97068063.48346
 15 02 27 00 25  0.0000000  0  7G16G18G19G21G22G27G31
  21080180.300   110777104.41408  21080178.020    86319816.67148
  22273702.320   117049125.86107  22273700.680    91207121.26346
  24435174.900   128407712.23304  24435172.500   100057945.87145
  21693569.620   114000483.94907  21693567.360    88831539.60248
  23269240.240   122280776.92905  23269236.920    95283755.07846
  22240539.480   116874833.39806  22240539.940    91071317.78248
  23723547.940   124668063.58405  23723546.700    97143928.66646
 15 02 27 00 25 30.0000000  0  7G16G18G19G21G22G27G31
  21069822.960   110722676.24908  21069820.660    86277405.12248
  22264790.500   117002294.17306  22264788.920    91170629.06547
  24420012.780   128328034.30004  24420010.600    99995859.24645
  21703351.700   114051888.85907  21703349.460    88871595.36348
  23251935.200   122189838.06505  23251931.860    95212893.68346
  22229330.240   116815928.09706  22229330.660    91025417.56048
  23742086.920   124765486.81505  23742085.940    97219842.72345
 15 02 27 00 26  0.0000000  0  7G16G18G19G21G22G27G31
  21059536.080   110668618.30108  21059533.740    86235282.04348
  22255951.800   116955847.18706  22255950.340    91134436.61146
  24404866.040   128248436.95604  24404863.900    99933835.37845
  21713184.340   114103559.32307  21713182.060    88911858.05748
  23234652.100   122099014.95805  23234648.820    95142122.49246
  22218144.440   116757146.27406  22218144.880    90979613.55548
  23760637.120   124862968.37705  23760636.260    97295802.27745
 15 02 27 00 26 30.0000000  0  7G16G18G19G21G22G27G31
  21049319.960   110614932.16208  21049317.580    86193448.69048
  22247186.500   116909785.77106  22247185.120    91098544.60847
  24389734.300   128168919.39904  24389732.200    99871873.68446
  21723067.040   114155493.18107  21723064.720    88952326.00048
  23217391.280   122008309.59905  23217388.120    95071443.01646
  22206981.980   116698487.34606  22206982.460    90933905.30548
  23779197.660   124960504.25305  23779196.820    97371804.11946
 15 02 27 00 27  0.0000000  0  7G16G18G19G21G22G27G31
  21039174.540   110561617.75408  21039172.160    86151905.00448
  22238494.560   116864109.82006  22238493.300    91062952.95446
  24374617.320   128089479.84704  24374615.180    99809972.76846
  21732999.200   114207687.19707  21732996.880    88992996.65148
  23200153.200   121917722.92205  23200150.000    95000856.04246
  22195842.560   116639949.63706  22195843.060    90888291.51647
  23797767.640   125058089.93005  23797766.760    97447844.76446
 15 02 27 00 27 30.0000000  0  7G16G18G19G21G22G27G31
  21029099.480   110508672.89908  21029097.120    86110649.27148
  22229875.660   116818817.20306  22229874.440    91027660.02647
  24359514.420   128010113.65404  24359512.040    99748128.99945
  21742979.760   114260135.32507  21742977.440    89033865.31748
  23182937.300   121827253.14305  23182934.140    94930360.15346
  22184725.400   116581528.80106  22184725.900    90842768.79148
  23816345.680   125155718.12404  23816344.780    97523918.55045
 15 02 27 00 28  0.0000000  0  7G16G18G19G21G22G27G31
  21019096.180   110456105.26308  21019093.860    86069687.48348
  22221331.080   116773914.92207  22221329.840    90992671.25047
  24344426.600   127930826.67404  24344424.120    99686346.97444
  21753009.300   114312840.37507  21753006.960    89074934.19148
  23165745.120   121736908.59205  23165742.300    94859961.84246
  22173631.580   116523230.39106  22173632.080    90797341.47348
  23834932.180   125253391.34204  23834931.340    97600027.36146
 15 02 27 00 28 30.0000000  0  7G16G18G19G21G22G27G31
  21009164.580   110403914.34008  21009162.260    86029019.23548
  22212860.700   116729402.58006  22212859.420    90957986.32947
  24329353.440   127851616.36304  24329350.940    99624624.71144
  21763086.920   114365798.30807  21763084.600    89116200.10448
  23148576.820   121646689.17005  23148574.160    94789661.03046
  22162560.660   116465051.99907  22162561.160    90752007.67747
  23853526.240   125351104.07404  23853525.640    97676166.96145
 15 02 27 00 29  0.0000000  0  7G16G18G19G21G22G27G31
  20999306.600   110352110.23408  20999304.280    85988652.39948
  22204466.300   116685290.17007  22204465.060    90923613.03547
  24314296.300   127772490.81104  24314293.660    99562968.45345
  21773213.940   114419015.96507  21773211.580    89157668.40548
  23131434.480   121556605.83405  23131431.940    94719466.25546
  22151514.140   116407001.88207  22151514.600    90706773.82148
  23872129.040   125448861.41705  23872128.460    97752341.31245
 15 02 27 00 29 30.0000000  0  7G16G18G19G21G22G27G31
  20989520.600   110300684.29108  20989518.240    85948580.24048
  22196146.360   116641568.92707  22196145.140    90889544.54146
  24299253.220   127693439.59304  24299250.740    99501370.14644
  21783387.940   114472480.39907  21783385.480    89199329.00448
  23114316.680   121466650.69905  23114313.980    94649371.37746
  22140490.020   116349069.67206  22140490.480    90661631.84248
  23890737.760   125546650.08405  23890737.100    97828540.05646
 15 02 27 00 30  0.0000000  0  7G16G18G19G21G22G27G31
  20979806.460   110249636.05508  20979804.100    85908802.39748
  22187900.720   116598237.86406  22187899.420    90855780.08346
  24284224.200   127614461.82804  24284221.240    99439829.50246
  21793608.040   114526187.02507  21793605.460    89241178.32748
  23097223.240   121376823.79506  23097220.300    94579376.43646
  22129487.740   116291252.75506  22129488.280    90616579.70348
  23909351.480   125644464.28704  23909350.660    97904758.68845
 15 02 27 00 30 30.0000000  0  7G16G18G19G21G22G27G31
  20970167.840   110198984.97208  20970165.540    85869334.02348
  22179733.020   116555316.33706  22179731.740    90822334.74447
  24269211.940   127535571.25504  24269209.120    99378356.33846
  21803877.260   114580151.90307  21803874.660    89283228.87448
  23080158.040   121287145.35105  23080154.780    94509497.15346
  22118510.780   116233568.81107  22118511.340    90571631.18548
  23927972.920   125742318.87005  23927971.960    97981008.76946
 15 02 27 00 31  0.0000000  0  7G16G18G19G21G22G27G31
  20960603.480   110148724.14708  20960601.240    85830169.74448
  22171641.960   116512797.71407  22171640.680    90789203.36347
  24254214.720   127456761.09904  24254212.040    99316945.86845
  21814193.400   114634363.81407  21814190.900    89325471.91748
  23063119.860   121197609.33405  23063116.480    94439728.86546
  22107557.540   116176009.09407  22107558.060    90526779.45848
  23946599.900   125840202.16405  23946598.780    98057281.26945
 15 02 27 00 31 30.0000000  0  7G16G18G19G21G22G27G31
  20951112.560   110098848.99408  20951110.360    85791305.98548
  22163626.560   116470676.48407  22163625.200    90756381.63247
  24239231.520   127378024.35104  24239229.060    99255592.59645
  21824554.920   114688814.36007  21824552.480    89367900.91248
  23046107.980   121108211.33205  23046104.520    94370068.11446
  22096626.700   116118566.90307  22096627.120    90482019.31348
  23965230.200   125938104.01104  23965229.120    98133568.23645
 15 02 27 00 32  0.0000000  0  7G16G18G19G21G22G27G31
  20941696.340   110049366.25908  20941694.120    85752748.00948
  22155688.120   116428959.49607  22155686.720    90723874.90246
  24224263.360   127299365.96004  24224260.740    99194300.37744
  21834962.500   114743506.97707  21834960.100    89410518.54048
  23029123.640   121018958.62805  23029120.280    94300520.60346
  22085719.180   116061247.33307  22085719.580    90437354.72148
  23983864.540   126036027.05905  23983863.500    98209871.76946
 15 02 27 00 32 30.0000000  0  7G16G18G19G21G22G27G31
  20932355.480   110000279.59508  20932353.260    85714498.66148
  22147827.240   116387649.92207  22147825.740    90691685.63646
  24209310.380   127220787.78004  24209307.540    99133070.63644
  21845416.060   114798441.17907  21845413.660    89453324.40948
  23012167.940   120929856.12806  23012164.600    94231090.11646
  22074835.280   116004052.14707  22074835.760    90392787.04848
  24002502.500   126133969.71705  24002501.560    98286190.63245
 15 02 27 00 33  0.0000000  0  6G16G18G21G22G27G31
  20923097.080   109951626.30408  20923094.860    85676587.00148
  22140051.000   116346785.12407  22140049.400    90659842.94447
  21855921.960   114853650.17207  21855919.540    89496344.39748
  22995248.100   120840941.39506  22995244.700    94161805.93045
  22063981.780   115947016.75106  22063982.340    90348343.87848
  24021150.420   126231964.38604  24021149.500    98362549.93945
 15 02 27 00 33 30.0000000  0  7G16G18G19G21G22G27G31
  20913901.620   109903304.10308  20913899.440    85638933.34448
  22132339.800   116306262.51807  22132338.260    90628266.90247
  24179449.580   127063864.43904  24179448.340    99010797.80245
  21866459.880   114909027.40507  21866457.540    89539495.47548
  22978344.700   120752113.25506  22978341.320    94092589.23046
  22053138.800   115890037.09207  22053139.440    90303944.15448
  24039787.800   126329903.78804  24039786.940    98438866.20245
 15 02 27 00 34  0.0000000  0  7G16G18G19G21G22G27G31
  20904787.300   109855408.13908  20904785.120    85601611.81848
  22124711.720   116266176.81807  22124710.120    90597031.30247
  24164540.980   126985516.77904  24164538.960    98949747.68945
  21877047.480   114964665.37607  21877045.140    89582849.72948
  22961476.020   120663467.55206  22961472.620    94023514.68247
  22042324.260   115833206.51906  22042324.940    90259660.58948
  24058431.720   126427878.39804  24058430.940    98515209.87445
 15 02 27 00 34 30.0000000  0  7G16G18G19G21G22G27G31
  20895750.320   109807918.45908  20895748.100    85564606.87148
  22117162.940   116226507.83007  22117161.260    90566120.41147
  24149648.140   126907252.14804  24149645.440    98888762.31244
  21887680.140   115020540.14307  21887677.800    89626388.50848
  22944638.400   120574984.99306  22944634.900    93954567.25747
  22031534.080   115776503.33607  22031534.700    90215476.30248
  24077077.660   126525863.28804  24077076.860    98591561.49744
 15 02 27 00 35  0.0000000  0  7G16G18G19G21G22G27G31
  20886790.180   109760832.61908  20886787.940    85527916.60148
  22109692.960   116187252.76007  22109691.200    90535532.05447
  24134770.040   126829065.34204  24134766.840    98827837.55746
  21898356.540   115076644.71707  21898354.120    89670106.35847
  22927831.460   120486663.76506  22927827.920    93885745.56746
  22020767.340   115719923.16007  22020767.860    90171387.86448
  24095724.100   126623851.07304  24095723.500    98667915.40446
 15 02 27 00 35 30.0000000  0  7G16G18G19G21G22G27G31
  20877907.820   109714155.53908  20877905.560    85491544.84948
  22102302.700   116148416.31107  22102300.880    90505269.89747
  24119907.240   126750959.38704  24119903.680    98766975.77645
  21909076.900   115132980.66307  21909074.480    89714004.50048
  22911056.320   120398509.53306  22911052.680    93817053.97946
  22010024.560   115663469.11007  22010025.000    90127397.69948
  24114371.100   126721841.86404  24114370.740    98744271.56046
 15 02 27 00 36  0.0000000  0  7G16G18G19G21G22G27G31
  20869104.680   109667894.70008  20869102.440    85455497.44448
  22094993.440   116110005.47207  22094991.560    90475339.37947
  24105060.520   126672939.95904  24105057.320    98706181.47845
  21919842.120   115189552.21507  21919839.780    89758086.21448
  22894314.400   120310530.25006  22894310.740    93748498.71946
  21999306.840   115607146.88507  21999307.180    90083510.26448
  24133019.420   126819838.72704  24133019.280    98820632.52046
 15 02 27 00 36 30.0000000  0  7G16G18G19G21G22G27G31
  20860379.760   109622044.62808  20860377.480    85419770.11548
  22087764.060   116072014.67407  22087762.200    90445736.17047
  24090228.800   126594999.79004  24090225.720    98645448.88946
  21930650.260   115246349.27407  21930647.960    89802343.65947
  22877604.820   120222721.39506  22877601.240    93680076.26046
  21988612.820   115550949.38107  21988613.100    90039720.01148
  24151667.000   126917831.31704  24151666.980    98896990.25046
 15 02 27 00 37  0.0000000  0  7G16G18G19G21G22G27G31
  20851732.740   109576603.88708  20851730.420    85384361.74648
  22080614.200   116034442.06907  22080612.360    90416458.82447
  24075411.620   126517135.44904  24075408.340    98584775.41345
  21941500.400   115303367.02407  21941498.080    89846773.06848
  22860927.560   120135082.37206  22860923.940    93611786.13546
  21977941.800   115494873.31807  21977942.200    89996024.39448
  24170312.540   127015813.18504  24170312.580    98973339.61246
 15 02 27 00 37 30.0000000  0  7G16G18G19G21G22G27G31
  20843164.980   109531579.83908  20843162.620    85349278.07248
  22073545.180   115997294.14007  22073543.320    90387512.38347
  24060609.940   126439352.20104  24060606.480    98524165.12044
  21952393.200   115360609.07707  21952390.840    89891377.26547
  22844284.180   120047620.89606  22844280.460    93543634.37646
  21967294.980   115438924.17907  21967295.460    89952427.67748
  24188956.360   127113786.69804  24188956.520    99049682.46746
 15 02 27 00 38  0.0000000  0  7G16G18G19G21G22G27G31
  20834676.860   109486974.44908  20834674.460    85314520.62348
  22066557.380   115960573.20807  22066555.600    90358898.68646
  24045823.700   126361650.56304  24045820.100    98463618.38445
  21963328.160   115418072.74307  21963325.780    89936154.14048
  22827675.180   119960339.91706  22827671.300    93475623.24246
  21956672.380   115383102.36307  21956672.940    89908930.16648
  24207598.080   127211749.10104  24207598.060    99126016.53746
 15 02 27 00 38 30.0000000  0  7G16G18G19G21G22G27G31
  20826268.300   109442787.25208  20826265.900    85280089.03948
  22059650.560   115924278.14107  22059648.900    90330616.82347
  24031052.540   126284027.90104  24031049.140    98403133.23145
  21974304.600   115475754.46907  21974302.300    89981100.93748
  22811100.540   119873239.72506  22811096.700    93407752.99146
  21946073.600   115327405.65807  21946074.240    89865530.14848
  24226236.960   127309694.92204  24226236.740    99202337.60246
 15 02 27 00 39  0.0000000  0  7G16G18G19G21G22G27G31
  20817940.160   109399022.61808  20817937.760    85245986.72848
  22052825.680   115888413.39407  22052824.100    90302670.27647
  24016296.820   126206486.58404  24016293.760    98342711.44044
  21985322.820   115533655.72407  21985320.600    90026218.78248
  22794561.400   119786325.70506  22794557.560    93340027.80446
  21935499.160   115271836.88207  21935499.880    89822229.82248
  24244872.660   127407624.27904  24244872.340    99278645.78245
 15 02 27 00 39 30.0000000  0  7G16G18G19G21G22G27G31
  20809692.440   109355680.73008  20809690.080    85212213.82748
  22046082.620   115852978.33507  22046081.080    90275058.55746
  24001556.300   126129025.41704  24001553.300    98282352.12046
  21996381.920   115591771.89907  21996379.760    90071504.10548
  22778057.820   119699598.86506  22778054.000    93272448.47046
  21924948.760   115216394.51107  21924949.560    89779027.98448
  24263504.380   127505533.23004  24263504.140    99354938.16147
 15 02 27 00 40  0.0000000  0  7G16G18G19G21G22G27G31
  20801525.080   109312761.19508  20801522.760    85178770.03548
  22039421.200   115817971.88207  22039419.500    90247780.81147
  23986830.680   126051641.70104  23986827.720    98222053.14145
  22007481.300   115650099.63007  22007479.120    90116954.27847
  22761589.800   119613059.25906  22761586.140    93205015.03747
  21914422.020   115161076.29707  21914422.820    89735922.88948
  24282131.140   127603416.09804  24282131.080    99431210.28645
 15 02 27 00 40 30.0000000  0  7G16G18G19G21G22G27G31
  20793439.440   109270270.87208  20793437.100    85145660.69548
  22032842.640   115783401.18507  22032840.840    90220842.61446
  23972120.800   125974340.43904  23972117.680    98161818.42245
  22018621.520   115708641.74407  22018619.260    90162571.51547
  22745158.900   119526714.61206  22745155.400    93137733.52746
  21903919.980   115105887.39407  21903920.660    89692918.56148
  24300753.280   127701274.83604  24300753.380    99507463.65546
 15 02 27 00 41  0.0000000  0  7G16G18G19G21G22G27G31
  20785435.720   109228211.10308  20785433.380    85112886.84748
  22026347.080   115749266.74707  22026345.220    90194244.35947
  23957426.520   125897121.26404  23957423.240    98101647.64446
  22029801.940   115767395.54507  22029799.720    90208353.68747
  22728765.400   119440566.67906  22728761.960    93070605.29447
  21893442.480   115050827.49807  21893443.020    89650014.75248
  24319370.160   127799105.51904  24319370.160    99583694.90647
 15 02 27 00 41 30.0000000  0  7G16G18G19G21G22G27G31
  20777514.460   109186584.86108  20777512.180    85080450.81648
  22019935.020   115715570.98707  22019933.140    90167987.93247
  23942747.780   125819985.39904  23942744.860    98041541.80446
  22041022.560   115826360.83906  22041020.480    90254300.65148
  22712410.240   119354619.75406  22712406.700    93003633.67547
  21882989.820   114995898.01207  21882990.220    89607212.56348
  24337981.520   127896906.70504  24337981.280    99659902.93945
 15 02 27 00 42  0.0000000  0  7G16G18G19G21G22G27G31
  20769675.000   109145388.44408  20769672.780    85048349.71248
  22013605.740   115682310.43207  22013603.860    90142070.62447
  23928084.100   125742927.34804  23928081.160    97981496.58446
  22052282.060   115885530.26607  22052280.140    90300406.68347
  22696092.820   119268870.97606  22696089.160    92936816.46947
  21872560.920   114941093.85207  21872561.320    89564508.03348
  24356585.900   127994671.39304  24356585.720    99736082.91246
 15 02 27 00 42 30.0000000  0  7G16G18G19G21G22G27G31
  20761918.400   109104627.19608  20761916.220    85016587.70348
  22007360.140   115649489.68007  22007358.260    90116496.01347
  23913435.920   125665950.65804  23913432.740    97921514.78145
  22063580.820   115944905.19607  22063578.800    90346672.85247
  22679814.220   119183326.31106  22679810.440    92870158.30546
  21862156.520   114886418.47107  21862156.980    89521903.85048
  24375183.240   128092399.25104  24375183.180    99812234.16446
 15 02 27 00 43  0.0000000  0  7G16G18G19G21G22G27G31
  20754245.100   109064303.34908  20754242.860    84985166.52549
  22001198.580   115617110.62407  22001196.680    90091265.59647
  23898803.320   125589055.69504  23898800.040    97861596.66045
  22074918.500   116004484.41307  22074916.240    90393098.22247
  22663575.060   119097988.76506  22663571.220    92803661.53546
  21851776.760   114831872.68207  21851777.300    89479400.64748
  24393773.120   128190088.53104  24393773.160    99888355.47846
 15 02 27 00 43 30.0000000  0  7G16G18G19G21G22G27G31
  20746655.300   109024418.31008  20746653.000    84954087.27248
  21995121.320   115585174.37307  21995119.400    90066380.21447
  23884186.240   125512242.30304  23884183.020    97801742.08646
  22086294.480   116064265.39907  22086292.040    90439680.81147
  22647375.740   119012860.92206  22647372.000    92737328.18146
  21841421.720   114777456.41907  21841422.260    89436998.37448
  24412354.880   128287735.12004  24412355.160    99964443.21945
 15 02 27 00 44  0.0000000  0  7G16G18G19G21G22G27G31
  20739149.940   108984977.51708  20739147.660    84923354.18849
  21989129.120   115553685.31007  21989127.280    90041843.29247
  23869585.060   125435513.77704  23869582.220    97741953.64646
  22097709.120   116124250.32107  22097706.820    90486422.29847
  22631217.340   118927948.46106  22631213.760    92671162.65247
  21831092.000   114723173.35607  21831092.520    89394699.89848
  24430928.860   128385340.37504  24430929.440   100040498.88443
 15 02 27 00 44 30.0000000  0  7G16G18G19G21G22G27G31
  20731727.800   108945974.24408  20731725.600    84892962.02348
  21983220.700   115522636.62107  21983218.920    90017649.51747
  23854998.700   125358861.81704  23854995.880    97682224.84645
  22109160.700   116184428.90607  22109158.500    90533314.68647
  22615098.840   118843245.83906  22615095.480    92605160.61747
  21820786.020   114669015.22107  21820786.520    89352498.76748
  24449492.920   128482893.56404  24449493.580   100116514.29844
 15 02 27 00 45  0.0000000  0  7G16G18G19G21G22G27G31
  20724390.700   108907417.66308  20724388.540    84862917.93449
  21977397.760   115492037.21707  21977396.060    89993805.82547
  23840428.300   125282293.87504  23840425.460    97622561.53745
  22120650.300   116244806.78307  22120648.100    90580362.38047
  22599022.300   118758763.40306  22599019.120    92539330.16646
  21810505.180   114614989.69307  21810505.740    89310400.96848
  24468047.820   128580398.22204  24468048.300   100192491.75344
 15 02 27 00 45 30.0000000  0  7G16G18G19G21G22G27G31
  20717138.500   108869307.07108  20717136.360    84833221.37349
  21971660.180   115461885.43407  21971658.420    89970310.94047
  23825873.400   125205807.50304  23825870.320    97562961.79046
  22132176.960   116305379.35407  22132174.760    90627561.77647
  22582987.700   118674500.95406  22582984.500    92473671.14147
  21800249.220   114561094.48607  21800249.760    89268404.70748
  24486592.380   128677849.22904  24486592.840   100268427.21945
 15 02 27 00 46  0.0000000  0  7G16G18G19G21G22G27G31
  20709971.720   108831645.21708  20709969.540    84803874.47649
  21966008.240   115432183.75607  21966006.380    89947166.78547
  23811334.280   125129403.78104  23811331.060    97503426.44046
  22143740.460   116366145.78907  22143738.280    90674912.23648
  22566995.660   118590462.13506  22566992.340    92408186.36147
  21790018.360   114507331.00407  21790018.880    89226511.09248
  24505126.240   128775245.24104  24505126.980   100344319.93244
 15 02 27 00 46 30.0000000  0  7G16G18G19G21G22G27G31
  20702890.980   108794435.85308  20702888.780    84774880.16449
  21960442.440   115402935.60507  21960440.620    89924376.02647
  23796811.220   125053084.65104  23796807.920    97443957.01345
  22155340.840   116427106.26807  22155338.620    90722413.90747
  22551047.080   118506651.42706  22551043.580    92342879.32647
  21779813.000   114453701.37007  21779813.480    89184721.76948
  24523649.420   128872585.24604  24523650.560   100420168.87345
 15 02 27 00 47  0.0000000  0  7G16G18G19G21G22G27G31
  20695896.080   108757677.50508  20695893.820    84746237.29248
  21954962.620   115374139.56907  21954960.900    89901937.56747
  23782303.720   124976847.02905  23782300.500    97384551.08246
  22166977.340   116488256.13307  22166975.000    90770063.15447
  22535141.860   118423068.40306  22535138.140    92277749.72246
  21769632.540   114400202.86507  21769633.040    89143034.62948
  24542160.880   128969863.45204  24542162.360   100495969.68945
 15 02 27 00 47 30.0000000  0  7G16G18G19G21G22G27G31
  20688987.560   108721372.84308  20688985.240    84717947.94348
  21949569.100   115345796.89207  21949567.480    89879852.37547
  23767811.920   124900691.78305  23767808.740    97325209.36546
  22178649.640   116549594.12707  22178647.240    90817858.98347
  22519280.540   118339716.54106  22519276.740    92212800.24247
  21759477.260   114346836.41407  21759477.740    89101450.39548
  24560660.260   129067077.51104  24560661.720   100571720.43144
 15 02 27 00 48  0.0000000  0  6G16G18G19G21G22G27
  20682164.360   108685516.68508  20682162.040    84690008.08149
  21944260.860   115317901.71107  21944259.240    89858115.87847
  23753334.600   124824612.36704  23753331.540    97265926.72146
  22190356.120   116611111.97907  22190353.800    90865794.95948
  22503462.400   118256591.69406  22503458.700    92148027.65847
  21749345.880   114293595.48907  21749346.300    89059963.96948
 15 02 27 00 48 30.0000000  0  7G16G18G19G21G22G27G31
  20675430.640   108650130.64308  20675428.300    84662434.54249
  21939041.940   115290475.75707  21939040.240    89836745.00747
  23738875.360   124748628.25105  23738872.320    97206718.34646
  22202100.220   116672827.60406  22202097.980    90913885.03847
  22487691.680   118173716.17706  22487688.060    92083449.34547
  21739242.260   114240500.40307  21739242.620    89018591.18148
  24597621.620   129261372.86804  24597622.980   100723150.97345
 15 02 27 00 49  0.0000000  0  6G16G18G19G21G22G27
  20668782.540   108615194.76508  20668780.220    84635211.78249
  21933908.380   115263498.67007  21933906.640    89815723.91247
  23724430.140   124672718.08405  23724427.220    97147567.57846
  22213877.460   116734717.48606  22213875.260    90962110.92147
  22471964.880   118091070.87206  22471961.220    92019050.41746
  21729162.320   114187529.74807  21729162.640    88977315.36048
 15 02 27 00 49 30.0000000  0  7G16G18G19G21G22G27G31
  20662224.100   108580730.06108  20662221.800    84608356.17149
  21928864.160   115236991.08907  21928862.380    89795068.66047
  23710002.700   124596901.89005  23710000.000    97088490.05745
  22225691.280   116796799.55807  22225689.040    91010486.56147
  22456286.120   118008678.11506  22456282.420    91954848.28747
  21719109.720   114134703.27807  21719110.100    88936151.88748
  24634528.100   129455320.16804  24634531.060   100874278.69845
 15 02 27 00 50  0.0000000  0  7G16G18G19G21G22G27G31
  20655752.980   108546724.04108  20655750.680    84581857.96949
  21923906.720   115210939.59207  21923904.920    89774768.80347
  23695590.140   124521164.55905  23695587.540    97029473.98246
  22237538.580   116859057.53706  22237536.320    91058999.26847
  22440653.120   117926526.25506  22440649.460    91890833.87847
  21709081.940   114082006.90407  21709082.260    88895089.79048
  24652960.180   129552180.56604  24652962.640   100949754.16244
 15 02 27 00 50 30.0000000  0  7G16G18G19G21G22G27G31
  20649369.020   108513175.87608  20649366.700    84555716.54049
  21919035.840   115185342.74507  21919034.020    89754823.21447
  23681192.360   124445504.41605  23681189.640    96970518.01446
  22249418.540   116921487.08006  22249416.200    91107645.66347
  22425065.900   117844615.44506  22425062.300    91827007.29247
  21699078.460   114029438.53007  21699078.780    88854127.43948
  24671375.660   129648953.32714  24671378.040   101025168.02254
 15 02 27 00 51  0.0000000  0  7G16G18G19G21G22G27G31
  20643075.200   108480101.71008  20643072.960    84529944.46349
  21914254.460   115160216.30307  21914252.620    89735244.18047
  23666812.140   124369935.51805  23666809.040    96911633.17145
  22261333.540   116984101.36606  22261331.260    91156436.00248
  22409527.740   117762962.33806  22409524.140    91763381.51047
  21689102.180   113977013.11407  21689102.480    88813276.46948
  24689777.720   129745652.56404  24689779.200   101100517.62345
 15 02 27 00 51 30.0000000  0  6G16G18G19G21G22G27
  20636868.120   108447483.33708  20636865.960    84504527.55549
  21909559.040   115135541.64407  21909557.180    89716017.17747
  23652445.640   124294438.48405  23652442.200    96852804.35246
  22273279.560   117046878.43206  22273277.320    91205353.19047
  22394035.460   117681550.18606  22394031.800    91699943.48547
  21679149.440   113924711.20707  21679149.760    88772521.74548
 15 02 27 00 52  0.0000000  0  6G16G18G19G21G22G27
  20630752.840   108415347.45508  20630750.740    84479486.60849
  21904954.420   115111344.11307  21904952.500    89697161.96547
  23638097.620   124219038.60205  23638094.000    96794051.22546
  22285261.140   117109841.92907  22285258.880    91254415.65347
  22378594.260   117600406.46606  22378590.600    91636714.62947
  21669225.000   113872557.90907  21669225.340    88731882.81848
 15 02 27 00 52 30.0000000  0  6G16G18G19G21G22G27
  20624726.500   108383678.94308  20624724.380    84454809.84349
  21900437.680   115087608.74407  21900435.860    89678666.88747
  23623764.920   124143719.07405  23623761.280    96735360.70746
  22297274.680   117172973.07707  22297272.300    91303608.76947
  22363201.520   117519517.08706  22363197.860    91573683.96647
  21659325.720   113820537.01507  21659326.100    88691347.07148
 15 02 27 00 53  0.0000000  0  6G16G18G19G21G22G27
  20618790.980   108352487.65708  20618788.820    84430504.94449
  21896010.600   115064345.03307  21896008.920    89660539.31547
  23609448.820   124068487.62705  23609445.280    96676738.81846
  22309321.300   117236278.09007  22309318.820    91352937.35147
  22347859.180   117438892.46206  22347855.560    91510859.59447
  21649453.240   113768656.90907  21649453.680    88650921.01848
 15 02 27 00 53 30.0000000  0  6G16G18G19G21G22G27
  20612946.080   108321772.26108  20612943.840    84406570.86649
  21891672.880   115041550.65707  21891671.260    89642777.46847
  23595148.820   123993342.00904  23595145.560    96618183.83947
  22321400.140   117299752.77006  22321397.720    91402398.13147
  22332567.200   117358532.37806  22332563.540    91448241.35347
  21639607.180   113716915.26707  21639607.580    88610602.86248
 15 02 27 00 54  0.0000000  0  6G16G18G19G21G22G27
  20607191.600   108291531.88608  20607189.300    84383006.93749
  21887424.280   115019224.19507  21887422.600    89625380.23347
  23580864.660   123918279.42205  23580861.720    96559693.52946
  22333510.360   117363392.71107  22333508.060    91451987.68447
  22317325.660   117278437.23506  22317322.000    91385829.56747
  21629787.040   113665309.88107  21629787.400    88570390.87648
 15 02 27 00 54 30.0000000  0  6G16G18G19G21G22G27
  20601527.860   108261768.73908  20601525.600    84359814.87749
  21883265.120   114997367.52507  21883263.320    89608349.07847
  23566596.520   123843300.65405  23566593.880    96501268.52846
  22345651.860   117427196.87907  22345649.640    91501705.21047
  22302135.160   117198610.03806  22302131.440    91323626.57147
  21619992.880   113613841.56407  21619993.320    88530285.71348
 15 02 27 00 55  0.0000000  0  6G16G18G19G21G22G27
  20595955.360   108232485.18308  20595953.140    84336996.52349
  21879195.600   114975982.12407  21879193.800    89591685.12747
  23552344.680   123768407.08405  23552342.200    96442909.96046
  22357824.480   117491164.30007  22357822.220    91551549.94547
  22286996.120   117119054.11106  22286992.400    91261634.96447
  21610225.100   113562511.77807  21610225.580    88490288.48548
 15 02 27 00 55 30.0000000  0  6G16G18G19G21G22G27
  20590474.100   108203681.26908  20590471.920    84314551.91349
  21875215.680   114955067.46407  21875213.920    89575387.98747
  23538108.920   123693597.25605  23538106.460    96384616.59545
  22370027.620   117555292.13406  22370025.240    91601519.69247
  22271908.740   117039770.27406  22271905.100    91199855.36947
  21600483.500   113511319.44307  21600483.980    88450398.35848
 15 02 27 00 56  0.0000000  0  6G16G18G19G21G22G27
  20585085.120   108175362.23508  20585082.980    84292485.13349
  21871326.320   114934628.36607  21871324.560    89559461.41847
  23523889.820   123618874.86905  23523887.060    96326391.38146
  22382261.580   117619582.01207  22382259.100    91651615.71347
  22256874.480   116960765.48006  22256870.920    91138293.20847
  21590768.820   113460268.59707  21590769.280    88410618.49048
 15 02 27 00 56 30.0000000  0  6G16G18G19G21G22G27
  20579788.720   108147529.40008  20579786.580    84270797.20549
  21867527.600   114914665.43507  21867525.740    89543905.89147
  23509687.220   123544239.74905  23509684.420    96268234.18646
  22394525.980   117684031.90507  22394523.460    91701836.41047
  22241893.880   116882041.97407  22241890.340    91076950.22747
  21581081.120   113409359.41607  21581081.600    88370949.00548
 15 02 27 00 57  0.0000000  0  6G16G18G19G21G22G27
  20574584.920   108120183.31208  20574582.820    84249488.56849
  21863819.460   114895178.85707  21863817.560    89528721.55747
  23495501.020   123469691.11205  23495498.180    96210144.37346
  22406820.520   117748639.68107  22406817.960    91752180.12547
  22226967.120   116803601.20607  22226963.580    91015827.56447
  21571420.320   113358591.30707  21571420.780    88331389.44748
 15 02 27 00 57 30.0000000  0  6G16G18G19G21G22G27
  20569473.860   108093324.52608  20569471.760    84228559.64249
  21860201.960   114876168.55607  21860199.960    89513908.33747
  23481331.140   123395228.11905  23481328.400    96152121.29046
  22419144.480   117813402.20006  22419141.920    91802644.41747
