     2.11           OBSERVATION DATA    G                   RINEX VERSION / TYPE
SPIDER V4,0,0,3554                      2015 03 19 01:48    PGM / RUN BY / DATE 
OBHM                                                        MARKER NAME         
OBHM                                                        MARKER NUMBER       
                                                            OBSERVER / AGENCY   
496638              LEICA GRX1200+GNSS  8.20/4.007          REC # / TYPE / VERS 
10321015            LEIAR25         NONE                    ANT # / TYPE        
  5268006.0133   -44062.8765  3585543.8986                  APPROX POSITION XYZ 
        0.1200        0.0000        0.0000                  ANTENNA: DELTA H/E/N
     1     1                                                WAVELENGTH FACT L1/2
     4    C1    L1    P2    L2                              # / TYPES OF OBSERV 
    30.000                                                  INTERVAL            
  2015    02    27    00    00    0.0000000     GPS         TIME OF FIRST OBS   
  2015    02    27    23    59   30.0000000     GPS         TIME OF LAST OBS    
    16                                                      LEAP SECONDS        
    30                                                      # OF SATELLITES     
   G 1   844   844   844   844                              PRN / # OF OBS      
   G 2   919   919   919   919                              PRN / # OF OBS      
   G 3   842   842   842   842                              PRN / # OF OBS      
   G 4   854   854   854   854                              PRN / # OF OBS      
   G 5   682   682   682   682                              PRN / # OF OBS      
   G 6   644   644   644   644                              PRN / # OF OBS      
   G 7   743   743   743   743                              PRN / # OF OBS      
   G 9   780   780   780   780                              PRN / # OF OBS      
   G10   796   796   796   796                              PRN / # OF OBS      
   G11   810   810   809   809                              PRN / # OF OBS      
   G12   811   811   811   811                              PRN / # OF OBS      
   G13   833   833   833   833                              PRN / # OF OBS      
   G14   927   921   923   919                              PRN / # OF OBS      
   G15   743   743   743   743                              PRN / # OF OBS      
   G16   701   701   701   701                              PRN / # OF OBS      
   G17   925   924   924   924                              PRN / # OF OBS      
   G18   944   944   944   944                              PRN / # OF OBS      
   G19   794   794   794   794                              PRN / # OF OBS      
   G20   815   815   815   815                              PRN / # OF OBS      
   G21   697   693   693   693                              PRN / # OF OBS      
   G22   815   812   813   811                              PRN / # OF OBS      
   G23   722   722   722   722                              PRN / # OF OBS      
   G24   852   852   852   852                              PRN / # OF OBS      
   G25   860   860   860   860                              PRN / # OF OBS      
   G27   843   843   843   843                              PRN / # OF OBS      
   G28   917   917   917   917                              PRN / # OF OBS      
   G29   745   745   745   745                              PRN / # OF OBS      
   G30   687   687   687   687                              PRN / # OF OBS      
   G31   744   743   743   743                              PRN / # OF OBS      
   G32   736   736   736   736                              PRN / # OF OBS      
BIT 2 OF LLI FLAGS DATA COLLECTED UNDER A/S CONDITION       COMMENT             
SNR is mapped to RINEX snr flag value [2-9]                 COMMENT             
Lx:     = 25dBHz -> 1; 26-27dBHz -> 2; 28-31dBHz -> 3       COMMENT             
       32-35dBHz -> 4; 36-38dBHz -> 5; 39-41dBHz -> 6       COMMENT             
       42-44dBHz -> 7; 45-48dBHz -> 8; >=49dBHz -> 9        COMMENT             
                                                            END OF HEADER       
 15 02 27 00 00  0.0000000  0  7G16G18G21G22G27G29G31
  21645669.120   113748778.18409  21645665.280    88635409.06848
  22904732.100   120365339.92508  22904729.140    93791238.33646
  21429178.040   112611487.61708  21429174.320    87749371.55048
  24043448.620   126349258.35608  24043447.060    98453985.98745
  22608760.180   118809870.75409  22608759.900    92579140.60248
  24324195.540   127824984.19608  24324194.160    99604093.93046
  22566417.480   118587351.02209  22566414.500    92405731.34948
 15 02 27 00 00 30.0000000  0  7G16G18G21G22G27G29G31
  21632702.720   113680639.26909  21632698.880    88582313.81948
  22893584.380   120306759.17008  22893581.460    93745591.03246
  21437123.100   112653238.92109  21437119.340    87781905.04248
  24026465.340   126260011.98908  24026463.660    98384443.79045
  22597579.160   118751114.04809  22597578.780    92533356.17148
  24338607.700   127900719.25208  24338606.060    99663108.23946
  22583470.200   118676963.32109  22583467.200    92475559.06448
 15 02 27 00 01  0.0000000  0  7G16G18G21G22G27G29G31
  21619780.320   113612731.54109  21619776.480    88529398.70548
  22882486.860   120248442.16608  22882484.000    93700149.23546
  21445133.600   112695334.16509  21445129.800    87814706.51848
  24009478.640   126170747.45808  24009476.780    98314887.39145
  22586423.100   118692488.74809  22586422.660    92487674.13648
  24353017.260   127976440.51108  24353015.320    99722111.79046
  22600566.120   118766802.75909  22600563.220    92545563.74448
 15 02 27 00 01 30.0000000  0  7G16G18G21G22G27G29G31
  21606902.760   113545059.24609  21606898.860    88476667.04648
  22871440.500   120190393.75109  22871437.600    93654916.72646
  21453209.600   112737773.71109  21453205.800    87847776.29648
  23992489.240   126081468.83308  23992487.200    98245319.99545
  22575292.440   118633996.96109  22575291.960    92442096.13348
  24367424.400   128052149.90208  24367422.300    99781106.09646
  22617705.180   118856868.70409  22617702.280    92615744.93948
 15 02 27 00 02  0.0000000  0  7G16G18G21G22G27G29G31
  21594070.020   113477622.37209  21594066.100    88424118.84148
  22860445.380   120132614.32409  22860442.500    93609893.82446
  21461350.480   112780554.31309  21461346.680    87881111.83848
  23975497.260   125992176.65008  23975495.140    98175742.03946
  22564186.780   118575636.51309  22564186.260    92396620.48248
  24381828.880   128127845.74708  24381826.800    99840089.85446
  22634886.460   118947156.33009  22634883.520    92686098.87448
 15 02 27 00 02 30.0000000  0  7G16G18G21G22G27G29G31
  21581282.840   113410425.15809  21581278.940    88371757.37248
  22849502.320   120075107.90809  22849499.340    93565083.64746
  21469556.160   112823675.73109  21469552.400    87914712.93348
  23958503.540   125902875.47508  23958501.440    98106157.06746
  22553106.460   118517408.99409  22553105.860    92351248.39948
  24396230.880   128203529.35908  24396228.880    99899064.06846
  22652109.700   119037664.42409  22652106.680    92756624.59148
 15 02 27 00 03  0.0000000  0  7G16G18G21G22G27G29G31
  21568541.160   113343466.96309  21568537.240    88319582.17148
  22838611.380   120017875.14609  22838608.120    93520486.71646
  21477825.960   112867134.12809  21477822.280    87948576.62948
  23941508.300   125813565.97908  23941506.120    98036565.60846
  22542051.020   118459312.08609  22542050.380    92305978.10148
  24410630.040   128279198.82708  24410628.300    99958027.26546
  22669373.920   119128388.12109  22669370.900    92827318.32048
 15 02 27 00 03 30.0000000  0  7G16G18G21G22G27G29G31
  21555845.660   113276751.47809  21555841.720    88267596.07548
  22827773.280   119960920.22009  22827769.780    93476106.27146
  21486159.920   112910929.52309  21486156.260    87982702.90548
  23924512.320   125724252.62308  23924510.040    97966971.12146
  22531020.700   118401347.34209  22531020.060    92260810.77948
  24425026.760   128354855.64408  24425025.360   100016980.59646
  22686678.880   119219326.20409  22686675.920    92898179.09148
 15 02 27 00 04  0.0000000  0  7G16G18G21G22G27G29G31
  21543196.380   113210278.82409  21543192.380    88215799.21048
  22816988.040   119904243.21009  22816984.440    93431942.39546
  21494557.260   112955057.71109  21494553.560    88017088.51048
  23907515.560   125634935.45208  23907513.260    97897373.66146
  22520015.060   118343512.39009  22520014.420    92215744.59848
  24439420.660   128430497.33707  24439419.520   100075922.15946
  22704023.540   119310473.28409  22704020.680    92969202.71548
 15 02 27 00 04 30.0000000  0  7G16G18G21G22G27G29G31
  21530593.820   113144051.94809  21530589.760    88164193.85848
  22806256.220   119847846.91309  22806252.520    93387997.25346
  21503017.800   112999517.90209  21503014.080    88051732.81448
  23890518.660   125545617.77708  23890516.260    97827775.78246
  22509034.140   118285807.87308  22509033.620    92170780.05848
  24453811.900   128506124.58007  24453810.960   100134852.44445
  22721407.680   119401827.64609  22721404.860    93040387.85247
 15 02 27 00 05  0.0000000  0  7G16G18G21G22G27G29G31
  21518038.680   113078074.37909  21518034.620    88112782.77148
  22795578.540   119791735.60909  22795574.700    93344274.18046
  21511541.500   113044309.80109  21511537.740    88086635.58948
  23873522.520   125456304.05808  23873520.140    97758180.98846
  22498078.260   118228235.21708  22498077.880    92125918.26748
  24468200.900   128581739.37007  24468199.880   100193773.02845
  22738830.960   119493387.65009  22738828.160    93111733.23048
 15 02 27 00 05 30.0000000  0  7G16G18G21G22G27G29G31
  21505530.600   113012344.01409  21505526.520    88061564.30348
  22784954.720   119735907.83408  22784950.860    93300772.03446
  21520127.140   113089427.29709  21520123.360    88121792.07348
  23856526.720   125366992.38708  23856524.360    97688587.77246
  22487146.600   118170789.89708  22487146.320    92081155.70347
  24482586.920   128657337.13807  24482585.600   100252680.36644
  22756291.980   119585146.01309  22756289.240    93183233.16847
 15 02 27 00 06  0.0000000  0  7G16G18G21G22G27G29G31
  21493070.080   112946863.56809  21493066.020    88010540.58848
  22774385.340   119680366.30208  22774381.600    93257492.95146
  21528774.480   113134869.34109  21528770.780    88157201.45848
  23839532.020   125277686.50108  23839529.780    97618999.06146
  22476239.360   118113472.66308  22476239.080    92036492.94748
  24496970.040   128732918.57707  24496968.420   100311574.96645
  22773790.440   119677100.87809  22773787.760    93254886.23048
 15 02 27 00 06 30.0000000  0  7G16G18G21G22G27G29G31
  21480658.300   112881639.12409  21480654.260    87959716.34148
  22763871.720   119625117.57908  22763868.140    93214442.01446
  21537483.900   113180637.62109  21537480.220    88192865.04248
  23822539.760   125188392.70708  23822537.380    97549419.73146
  22465357.380   118056287.22509  22465356.960    91991932.87248
  24511350.700   128808487.42107  24511348.680   100370459.77245
  22791326.560   119769253.20709  22791323.860    93326693.14648
 15 02 27 00 07  0.0000000  0  7G16G18G21G22G27G29G31
  21468294.940   112816668.98509  21468290.940    87909090.25948
  22753413.480   119570159.87409  22753409.960    93171617.85146
  21546254.460   113226727.51909  21546250.820    88228779.25348
  23805549.700   125099110.11708  23805547.220    97479849.14846
  22454499.820   117999229.67109  22454499.220    91947472.45348
  24525728.120   128884040.33007  24525725.880   100429332.14244
  22808898.940   119861596.03309  22808896.220    93398648.50548
 15 02 27 00 07 30.0000000  0  7G16G18G21G22G27G29G31
  21455981.100   112751959.21409  21455977.160    87858667.07548
  22743011.900   119515499.87208  22743008.460    93129025.66246
  21555086.480   113273140.66208  21555082.960    88264945.33848
  23788563.060   125009845.33608  23788560.420    97410292.41146
  22443667.360   117942303.94009  22443666.620    91903114.75648
  24540103.040   128959580.82608  24540100.660   100488194.88145
  22826507.840   119954130.81209  22826505.100    93470753.44848
 15 02 27 00 08  0.0000000  0  7G16G18G21G22G27G29G31
  21443716.940   112687510.83109  21443713.100    87808447.55548
  22732667.200   119461138.81409  22732663.940    93086666.42046
  21563979.460   113319874.15009  21563976.040    88301361.03748
  23771580.080   124920599.89108  23771577.300    97340750.73146
  22432859.720   117885508.82209  22432858.920    91858858.81848
  24554475.320   129035108.03808  24554473.000   100547047.23544
  22844152.420   120046853.46909  22844149.740    93543004.76347
 15 02 27 00 08 30.0000000  0  6G16G18G21G22G27G31
  21431501.960   112623320.84109  21431498.180    87758429.39148
  22722378.880   119407073.51409  22722375.700    93044537.64246
  21572932.140   113366921.12608  21572928.780    88338021.01748
  23754600.240   124831370.97308  23754597.400    97271221.92646
  22422075.820   117828838.71409  22422075.000    91814700.30748
  22861831.160   120139755.64909  22861828.540    93615395.96747
 15 02 27 00 09  0.0000000  0  6G16G18G21G22G27G31
  21419338.160   112559399.94209  21419334.460    87708620.90548
  22712149.060   119353315.12909  22712145.780    93002648.01446
  21581945.800   113414288.32109  21581942.440    88374930.51948
  23737625.720   124742170.10208  23737622.800    97201714.97646
  22411317.300   117772302.31009  22411316.500    91770645.97448
  22879545.080   120232843.05509  22879542.600    93687931.48447
 15 02 27 00 09 30.0000000  0  6G16G18G21G22G27G31
  21407225.160   112495746.05009  21407221.500    87659020.47048
  22701977.420   119299862.40009  22701974.020    92960996.56046
  21591019.400   113461970.13309  21591015.920    88412085.16948
  23720656.300   124652996.03308  23720653.300    97132228.89646
  22400583.400   117715895.59509  22400582.660    91726692.69648
  22897293.100   120326109.06509  22897290.640    93760606.15747
 15 02 27 00 10  0.0000000  0  6G16G18G21G22G27G31
  21395163.920   112432364.05509  21395160.320    87609631.89748
  22691864.960   119246720.58409  22691861.480    92919587.36846
  21600153.140   113509967.66709  21600149.520    88449485.83748
  23703693.040   124563854.26008  23703689.940    97062767.97046
  22389874.660   117659621.19909  22389874.020    91682842.52148
  22915075.100   120419553.45709  22915072.620    93833419.77348
 15 02 27 00 10 30.0000000  0  6G16G18G21G22G27G31
  21383154.140   112369252.55309  21383150.620    87560454.11548
  22681811.240   119193887.35009  22681807.640    92878418.63347
  21609345.860   113558274.98209  21609342.100    88487127.89748
  23686735.700   124474743.56208  23686732.500    96993331.25946
  22379190.320   117603475.06009  22379189.800    91639092.30448
  22932889.740   120513168.75009  22932887.240    93906366.21047
 15 02 27 00 11  0.0000000  0  6G16G18G21G22G27G31
  21371196.060   112306412.47709  21371192.540    87511487.82448
  22671816.480   119141364.34809  22671812.840    92837491.63346
  21618596.740   113606888.11209  21618592.880    88525008.25148
  23669784.600   124385665.45008  23669781.260    96923919.93646
  22368530.120   117547455.78509  22368529.760    91595440.93148
  22950736.300   120606951.75008  22950733.980    93979443.46947
 15 02 27 00 11 30.0000000  0  7G16G18G19G21G22G27G31
  21359290.420   112243847.78709  21359286.920    87462736.11848
  22661881.540   119089156.04909  22661877.900    92796809.85846
  24544870.880   128984165.81608  24544867.240   100507129.72645
  21627906.120   113655808.98209  21627902.220    88563128.40248
  23652840.620   124296624.65508  23652837.100    96854537.67446
  22357894.520   117491565.60109  22357894.280    91551890.14848
  22968614.660   120700901.84909  22968612.500    94052651.08548
 15 02 27 00 12  0.0000000  0  7G16G18G19G21G22G27G31
  21347435.020   112181547.14309  21347431.540    87414190.16948
  22652004.300   119037251.04409  22652000.680    92756364.41246
  24530039.380   128906226.37808  24530035.940   100446397.74945
  21637271.040   113705022.01809  21637267.160    88601476.21848
  23635901.660   124207610.73908  23635898.120    96785176.36146
  22347280.980   117435790.89309  22347280.760    91508429.35148
  22986521.660   120795002.28509  22986519.600    94125975.81747
 15 02 27 00 12 30.0000000  0  7G16G18G19G21G22G27G31
  21335635.460   112119540.14909  21335632.000    87365873.03948
  22642190.440   118985679.14809  22642186.800    92716178.54346
  24515229.600   128828400.69508  24515226.240   100385754.42146
  21646696.220   113754551.87909  21646692.420    88640070.90648
  23618973.480   124118653.48508  23618969.920    96715859.18746
  22336694.600   117380158.83809  22336694.360    91465079.71148
  23004461.840   120889277.23209  23004459.820    94199436.48347
 15 02 27 00 13  0.0000000  0  7G16G18G19G21G22G27G31
  21323890.040   112057817.50609  21323886.560    87317777.47548
  22632438.240   118934431.13308  22632434.540    92676245.02946
  24500439.240   128750677.21208  24500436.060   100325190.72846
  21656179.220   113804385.58709  21656175.480    88678902.36648
  23602054.340   124029744.18708  23602050.840    96646579.37746
  22326133.140   117324657.86509  22326132.840    91421832.20948
  23022432.640   120983712.88109  23022430.640    94273022.47847
 15 02 27 00 13 30.0000000  0  7G16G18G19G21G22G27G31
  21312198.180   111996376.27809  21312194.640    87269901.19648
  22622747.100   118883504.25309  22622743.400    92636561.77146
  24485667.540   128673051.64908  24485664.360   100264703.32745
  21665718.860   113854516.90709  21665715.140    88717965.73448
  23585144.060   123940880.87208  23585140.540    96577335.38246
  22315595.600   117269282.93409  22315595.280    91378682.92948
  23040432.480   121078301.22909  23040430.440    94346727.46447
 15 02 27 00 14  0.0000000  0  7G16G18G19G21G22G27G31
  21300560.700   111935220.83409  21300557.100    87222247.60348
  22613118.000   118832903.24108  22613114.420    92597132.42746
  24470914.760   128595525.32508  24470911.380   100204293.23745
  21675315.100   113904945.56509  21675311.400    88757260.78848
  23568243.420   123852068.20808  23568239.880    96508130.85246
  22305082.440   117214036.17109  22305082.100    91335633.51948
  23058461.200   121173041.50409  23058459.120    94420550.88247
 15 02 27 00 14 30.0000000  0  7G16G18G19G21G22G27G31
  21288977.800   111874352.06009  21288974.120    87174817.38648
  22603551.040   118782628.75309  22603547.620    92557957.50746
  24456180.600   128518096.89908  24456176.800   100143959.43045
  21684967.440   113955668.79709  21684963.740    88796785.37648
  23551352.700   123763307.45108  23551349.020    96438966.76946
  22294593.380   117158916.12509  22294593.060    91292682.85248
  23076517.960   121267929.20509  23076515.860    94494489.12247
 15 02 27 00 15  0.0000000  0  7G16G18G19G21G22G27G31
  21277450.420   111813775.04409  21277446.680    87127614.52648
  22594047.280   118732685.88909  22594043.920    92519041.01046
  24441465.660   128440769.72008  24441461.680   100083704.52146
  21694676.000   114006687.42109  21694672.300    88836540.14648
  23534472.960   123674604.20708  23534469.100    96369847.49546
  22284129.020   117103925.50309  22284128.660    91249833.03748
  23094602.780   121362964.59209  23094600.720    94568542.51247
 15 02 27 00 15 30.0000000  0  7G16G18G19G21G22G27G31
  21265978.660   111753490.17309  21265974.800    87080639.30848
  22584606.760   118683075.37709  22584603.480    92480383.48346
  24426769.700   128363542.29408  24426765.640   100023527.33946
  21704440.240   114057998.44209  21704436.480    88876522.75548
  23517604.480   123585959.99408  23517600.440    96300774.21946
  22273689.060   117049062.86409  22273688.620    91207082.94648
  23112714.760   121458142.92009  23112712.760    94642707.18847
 15 02 27 00 16  0.0000000  0  7G16G18G19G21G22G27G31
  21254563.080   111693500.68509  21254559.140    87033894.26048
  22575230.120   118633800.72809  22575226.960    92441987.68146
  24412092.900   128286415.64908  24412088.920    99963428.69846
  21714259.900   114109600.56509  21714256.040    88916732.20248
  23500747.960   123497378.55108  23500743.720    96231749.85246
  22263273.660   116994329.22309  22263273.160    91164433.37648
  23130853.680   121553462.83909  23130851.760    94716982.28647
 15 02 27 00 16 30.0000000  0  7G16G18G19G21G22G27G31
  21243203.800   111633807.22909  21243199.820    86987379.86948
  22565917.500   118584862.41609  22565914.360    92403853.93446
  24397434.920   128209388.13508  24397431.080    99903407.27946
  21724134.320   114161490.75809  21724130.420    88957166.10648
  23483903.600   123408861.08108  23483899.240    96162775.31246
  22252882.500   116939722.88109  22252881.900    91121882.98148
  23149018.620   121648919.73109  23149016.840    94791364.12447
 15 02 27 00 17  0.0000000  0  7G16G18G19G21G22G27G31
  21231901.540   111574413.49109  21231897.520    86941099.04248
  22556669.500   118536263.81909  22556666.360    92365984.91246
  24382796.160   128132461.27908  24382792.420    99843464.31146
  21734063.460   114213668.55409  21734059.500    88997824.12348
  23467072.140   123320411.44808  23467067.780    96093853.64146
  22242515.760   116885245.16809  22242515.120    91079432.83248
  23167209.320   121744511.91109  23167207.640    94865851.31648
 15 02 27 00 17 30.0000000  0  7G16G18G19G21G22G27G31
  21220656.060   111515318.24209  21220652.060    86895050.79248
  22547486.100   118488004.65609  22547482.920    92328380.38146
  24368176.100   128055632.34008  24368172.420    99783597.64846
  21744046.340   114266128.91709  21744042.360    89038702.32248
  23450253.620   123232029.75208  23450249.280    96024984.90447
  22232172.900   116830892.90909  22232172.220    91037080.43148
  23185424.600   121840233.15708  23185423.000    94940439.02746
 15 02 27 00 18  0.0000000  0  7G16G18G19G21G22G27G31
  21209468.660   111456528.36309  21209464.700    86849240.50348
  22538368.520   118440091.40009  22538365.420    92291045.39947
  24353575.480   127978905.09608  24353571.760    99723810.21746
  21754083.400   114318874.31209  21754079.440    89079802.62848
  23433449.320   123143722.94608  23433445.080    95956174.52847
  22221854.820   116776670.54709  22221853.980    90994829.24748
  23203664.840   121936085.69709  23203663.340    95015129.10047
 15 02 27 00 18 30.0000000  0  7G16G18G19G21G22G27G31
  21198338.920   111398041.78109  21198335.120    86803666.54148
  22529316.420   118392522.13509  22529313.360    92253978.45047
  24338993.400   127902275.64908  24338989.640    99664099.00046
  21764173.580   114371899.10208  21764169.680    89121120.64248
  23416659.000   123055489.79208  23416654.880    95887421.54847
  22211560.620   116722573.83709  22211559.640    90952675.97148
  23221928.640   122032061.98909  23221927.200    95089915.46447
 15 02 27 00 19  0.0000000  0  7G16G18G19G21G22G27G31
  21187268.000   111339864.25809  21187264.340    86758333.40848
  22520330.840   118345302.42809  22520327.820    92217183.88547
  24324430.560   127825747.60508  24324426.840    99604466.80346
  21774317.160   114425204.63709  21774313.360    89162657.42048
  23399883.900   122967336.64308  23399879.900    95818730.90847
  22201290.960   116668606.38409  22201289.940    90910623.42248
  23240216.240   122128163.28409  23240214.980    95164799.36947
 15 02 27 00 19 30.0000000  0  7G16G18G19G21G22G27G31
  21176256.340   111281998.11709  21176252.820    86713242.90548
  22511412.180   118298434.43009  22511409.180    92180663.38147
  24309886.900   127749320.84708  24309883.300    99544913.54046
  21784513.960   114478789.52609  21784510.240    89204411.86748
  23383124.520   122879266.17408  23383120.620    95750104.67746
  22191045.840   116614768.14309  22191044.920    90868671.55348
  23258527.040   122224386.43109  23258525.860    95239778.26748
 15 02 27 00 20  0.0000000  0  7G16G18G19G21G22G27G31
  21165303.480   111224440.95609  21165300.080    86668393.17548
  22502560.180   118251916.36509  22502557.240    92144415.55747
  24295361.780   127672991.55208  24295358.360    99485436.21446
  21794762.820   114532647.72509  21794759.140    89246379.29348
  23366380.620   122791276.82408  23366376.700    95681541.66247
  22180824.400   116561054.86809  22180823.640    90826817.07348
  23276859.660   122320724.40608  23276858.560    95314846.76147
 15 02 27 00 20 30.0000000  0  7G16G18G19G21G22G27G31
  21154410.680   111167199.32409  21154407.400    86623789.30648
  22493775.980   118205754.36509  22493772.960    92108445.18047
  24280856.060   127596763.74108  24280852.720    99426037.96146
  21805064.140   114586781.47209  21805060.460    89288561.42748
  23349653.580   122703375.72308  23349649.560    95613047.39747
  22170627.500   116507470.65009  22170626.880    90785063.14948
  23295214.400   122417178.59808  23295213.340    95390005.90447
 15 02 27 00 21  0.0000000  0  7G16G18G19G21G22G27G31
  21143577.440   111110270.61309  21143574.240    86579429.25748
  22485058.980   118159945.64009  22485055.860    92072750.06747
  24266368.840   127520632.68408  24266365.520    99366715.09247
  21815416.700   114641184.35309  21815413.040    89330953.26848
  23332943.000   122615561.15308  23332938.920    95544620.55647
  22160454.200   116454010.77009  22160453.720    90743406.10848
  23313589.640   122513740.88908  23313588.660    95465249.13147
 15 02 27 00 21 30.0000000  0  7G16G18G19G21G22G27G31
  21132804.880   111053660.68509  21132801.800    86535317.62948
  22476410.340   118114496.09709  22476407.140    92037334.85147
  24251900.720   127444601.91408  24251897.320    99307470.38347
  21825820.700   114695857.73909  21825817.060    89373555.90748
  23316250.080   122527839.41108  23316245.920    95476266.05647
  22150305.320   116400678.86309  22150304.960    90701848.80248
  23331985.660   122610412.45009  23331984.740    95540577.54147
 15 02 27 00 22  0.0000000  0  7G16G18G19G21G22G27G31
  21122094.120   110997375.27209  21122091.060    86491458.86248
  22467831.100   118069411.47909  22467827.820    92002203.99047
  24237452.340   127368675.27208  24237448.860    99248306.80646
  21836276.540   114750803.51309  21836272.860    89416370.78748
  23299576.000   122440216.94408  23299571.840    95407988.89547
  22140181.580   116347478.53909  22140181.220    90660394.01548
  23350402.660   122707194.02308  23350401.740    95615991.58247
 15 02 27 00 22 30.0000000  0  7G16G18G19G21G22G27G31
  21111444.060   110941408.71109  21111441.000    86447848.55848
  22459320.240   118024686.33509  22459316.860    91967353.24347
  24223022.240   127292844.81908  24223018.740    99189218.18146
  21846782.420   114806012.38509  21846778.760    89459390.68748
  23282919.740   122352688.47408  23282915.660    95339784.99747
  22130081.580   116294401.94009  22130081.100    90619035.64048
  23368838.460   122804074.16008  23368837.580    95691482.14346
 15 02 27 00 23  0.0000000  0  7G16G18G19G21G22G27G31
  21100856.240   110885769.13109  21100853.160    86404493.03748
  22450879.220   117980328.52209  22450875.860    91932788.72447
  24208611.600   127217116.63608  24208608.060    99130209.23746
  21857339.080   114861488.19709  21857335.400    89502618.58848
  23266283.060   122265262.98208  23266279.020    95271661.31747
  22120006.300   116241455.00109  22120005.600    90577778.28748
  23387293.880   122901057.08509  23387293.060    95767053.06547
 15 02 27 00 23 30.0000000  0  7G16G18G19G21G22G27G31
  21090330.900   110830457.58109  21090327.800    86361393.13048
  22442508.180   117936338.75709  22442504.820    91898510.99347
  24194220.160   127141489.65208  24194216.560    99071279.15846
  21867946.000   114917228.07109  21867942.360    89546052.25548
  23249666.280   122177942.15208  23249662.380    95203619.21247
  22109955.440   116188636.63909  22109954.600    90536621.13248
  23405768.000   122998138.47909  23405767.320    95842700.59348
 15 02 27 00 24  0.0000000  0  7G16G18G19G21G22G27G31
  21079867.700   110775472.51309  21079864.520    86318547.62748
  22434206.940   117892715.95609  22434203.680    91864519.21947
  24179847.320   127065960.11808  24179843.700    99012425.02346
  21878602.180   114973226.49709  21878598.500    89589687.39148
  23233069.340   122090725.16908  23233065.500    95135658.01047
  22099928.300   116135943.19009  22099927.400    90495561.31248
  23424259.640   123095311.83809  23424259.080    95918419.86547
 15 02 27 00 24 30.0000000  0  7G16G18G19G21G22G27G31
  21069467.440   110720818.29709  21069464.160    86275959.93248
  22425976.240   117849463.77509  22425973.080    91830816.23847
  24165493.480   126990530.18008  24165489.800    98953648.48446
  21889307.640   115029483.86409  21889303.920    89633524.29948
  23216493.060   122003616.57908  23216489.200    95067781.26747
  22089925.240   116083376.69409  22089924.320    90454600.41548
  23442768.680   123192576.68808  23442768.160    95994210.67147
 15 02 27 00 25  0.0000000  0  7G16G18G19G21G22G27G31
  21059130.560   110666497.40309  21059127.220    86233631.96748
  22417816.520   117806584.69509  22417813.380    91797403.98147
  24151158.680   126915200.42608  24151154.960    98894950.01446
  21900062.160   115085998.81709  21900058.380    89677561.91848
  23199938.180   121916620.03709  23199934.260    94999991.83447
  22079946.340   116030937.68109  22079945.480    90413738.85648
  23461294.560   123289930.13508  23461293.980    96070070.40647
 15 02 27 00 25 30.0000000  0  7G16G18G19G21G22G27G31
  21048857.600   110612512.77309  21048854.240    86191566.02148
  22409728.400   117764082.05009  22409725.340    91764285.04547
  24136843.020   126839971.52408  24136839.340    98836330.12946
  21910865.520   115142770.36309  21910861.640    89721799.47948
  23183405.300   121829739.12409  23183401.260    94932292.48447
  22069991.840   115978626.85109  22069991.040    90372977.17648
  23479836.900   123387370.35408  23479836.260    96145997.78947
 15 02 27 00 26  0.0000000  0  7G16G18G19G21G22G27G31
  21038648.360   110558863.17509  21038645.040    86149761.14448
  22401711.700   117721954.48809  22401708.680    91731458.38747
  24122545.940   126764840.15108  24122542.200    98777786.24546
  21921716.580   115199792.55309  21921712.620    89766232.34848
  23166894.220   121742973.16808  23166890.140    94864682.72047
  22060061.100   115926440.90409  22060060.340    90332312.81448
  23498394.620   123484891.26508  23498393.860    96221988.14747
 15 02 27 00 26 30.0000000  0  7G16G18G19G21G22G27G31
  21028503.860   110505553.88309  21028500.580    86108221.44048
  22393767.280   117680206.58909  22393764.320    91698927.57147
  24108268.000   126689809.24808  24108264.240    98719320.64446
  21932615.540   115257066.80608  21932611.600    89810861.63248
  23150406.020   121656327.90908  23150401.980    94797167.01447
  22050154.760   115874382.80409  22050154.020    90291748.06548
  23516967.560   123582492.17208  23516966.740    96298040.67547
 15 02 27 00 27  0.0000000  0  7G16G18G19G21G22G27G31
  21018424.400   110452586.16509  21018421.100    86066947.89048
  22385895.320   117638839.56209  22385892.380    91666693.53947
  24094009.000   126614878.08908  24094005.180    98660932.76846
  21943562.040   115314591.19608  21943558.180    89855685.82048
  23133941.180   121569805.67908  23133937.200    94729747.16647
  22040272.660   115822452.04709  22040271.960    90251282.54848
  23535555.260   123680170.67508  23535554.440    96374153.82047
 15 02 27 00 27 30.0000000  0  7G16G18G19G21G22G27G31
  21008410.360   110399962.11709  21008407.100    86025942.13848
  22378096.240   117597855.58209  22378093.300    91634757.97447
  24079768.960   126540046.39508  24079765.160    98602622.40046
  21954555.720   115372363.85608  21954551.980    89900703.46848
  23117500.220   121483408.99908  23117496.340    94662425.14947
  22030414.720   115770648.35409  22030414.120    90210916.04348
  23554157.040   123777923.43308  23554156.260    96450324.90746
 15 02 27 00 28  0.0000000  0  7G16G18G19G21G22G27G31
  20998462.200   110347684.11709  20998458.920    85985206.04548
  22370370.380   117557256.30809  22370367.500    91603122.19747
  24065547.960   126465314.52208  24065544.040    98544389.81346
  21965596.120   115430382.18808  21965592.520    89945912.55848
  23101083.820   121397140.90009  23101079.940    94595203.33147
  22020581.000   115718971.84809  22020580.440    90170648.65848
  23572772.380   123875747.38209  23572771.500    96526551.31047
 15 02 27 00 28 30.0000000  0  7G16G18G19G21G22G27G31
  20988580.000   110295752.70909  20988576.620    85944740.01248
  22362717.860   117517042.42509  22362715.000    91571786.71847
  24051345.720   126390680.98208  24051341.800    98486233.84046
  21976682.660   115488643.13708  21976679.160    89991310.69448
  23084692.240   121311002.46809  23084688.220    94528082.53747
  22010771.240   115667421.01509  22010770.620    90130479.18648
  23591400.460   123973638.12008  23591399.400    96602829.69846
 15 02 27 00 29  0.0000000  0  7G16G18G19G21G22G27G31
  20978764.460   110244171.61109  20978761.020    85904546.95548
  22355139.440   117477217.52509  22355136.560    91540754.34047
  24037162.440   126316147.25608  24037158.500    98428155.65346
  21987815.440   115547147.08908  21987812.080    90036898.18448
  23068326.220   121224998.23709  23068322.020    94461066.31947
  22000985.720   115615997.55809  22000985.020    90090408.96848
  23610041.040   124071594.80308  23610039.920    96679159.59747
 15 02 27 00 29 30.0000000  0  7G16G18G19G21G22G27G31
  20969015.640   110192941.17409  20969012.200    85864627.14048
  22347635.120   117437781.77609  22347632.160    91510025.19847
  24022997.880   126241711.94308  24022994.000    98370154.14146
  21998993.760   115605889.96508  21998990.400    90082671.85348
  23051986.020   121139129.39909  23051981.580    94394155.59347
  21991224.200   115564699.87509  21991223.360    90050436.75548
  23628693.180   124169612.61008  23628692.120    96755537.02346
 15 02 27 00 30  0.0000000  0  7G16G18G19G21G22G27G31
  20959334.680   110142067.36009  20959331.280    85824985.21148
  22340205.900   117398740.63609  22340202.780    91479603.54447
  24008852.720   126167378.35208  24008848.880    98312231.90846
  22010217.940   115664873.54408  22010214.540    90128633.07547
  23035672.820   121053402.46109  23035668.320    94327355.44547
  21981487.280   115513531.60709  21981486.300    90010565.38648
  23647357.140   124267692.52608  23647356.160    96831962.90847
 15 02 27 00 30 30.0000000  0  7G16G18G19G21G22G27G31
  20949721.080   110091547.66609  20949717.720    85785619.21448
  22332851.240   117360091.50309  22332847.980    91449487.33847
  23994726.120   126093142.22108  23994722.140    98254385.60346
  22021486.840   115724091.86108  22021483.340    90174777.21248
  23019386.280   120967815.68709  23019381.720    94260664.51847
  21971774.160   115462488.37109  21971773.040    89970791.44048
  23666031.480   124365826.91108  23666030.640    96908430.98747
 15 02 27 00 31  0.0000000  0  7G16G18G19G21G22G27G31
  20940175.760   110041386.73709  20940172.400    85746532.77148
  22325572.100   117321839.27209  22325568.720    91419680.40947
  23980618.560   126019006.19908  23980614.520    98196617.29646
  22032800.500   115783545.12508  22032796.860    90221104.41948
  23003127.420   120882374.58809  23003122.800    94194087.09647
  21962085.200   115411572.71309  21962084.140    89931116.91048
  23684716.340   124464016.23708  23684715.540    96984942.06446
 15 02 27 00 31 30.0000000  0  7G16G18G19G21G22G27G31
  20930699.160   109991586.94109  20930695.800    85707727.73648
  22318368.740   117283985.36509  22318365.280    91390183.87147
  23966529.980   125944970.10408  23966525.840    98138926.86146
  22044158.620   115843231.80009  22044154.780    90267613.50547
  22986896.660   120797081.83709  22986892.120    94127625.27547
  21952420.460   115360784.66909  21952419.600    89891541.82248
  23703410.960   124562256.96308  23703410.220    97061493.18146
 15 02 27 00 32  0.0000000  0  7G16G18G19G21G22G27G31
  20921291.600   109942150.17909  20921288.300    85669205.58648
  22311241.600   117246531.74409  22311238.000    91360999.24047
  23952460.380   125871034.00108  23952456.060    98081314.33046
  22055560.900   115903150.39709  22055556.840    90314303.31648
  22970694.580   120711939.85409  22970690.060    94061280.92447
  21942780.020   115310124.38709  21942779.320    89852066.29748
  23722114.980   124660547.02808  23722114.360    97138082.76247
 15 02 27 00 32 30.0000000  0  7G16G18G19G21G22G27G31
  20911953.520   109893078.45909  20911950.300    85630967.88148
  22304190.880   117209479.92909  22304187.260    91332127.70647
  23938409.720   125797197.83408  23938405.340    98023779.69146
  22067006.880   115963298.67109  22067002.640    90361172.09547
  22954521.760   120626951.90009  22954517.280    93995056.59747
  21933163.860   115259591.68809  21933163.300    89812690.18048
  23740827.720   124758882.92208  23740827.280    97214708.00346
 15 02 27 00 33  0.0000000  0  7G16G18G19G21G22G27G31
  20902685.680   109844375.67809  20902682.500    85593017.65248
  22297217.300   117172833.86309  22297213.760    91303572.33647
  23924378.420   125723463.52208  23924374.000    97966324.41246
  22078496.400   116023676.33308  22078492.140    90408219.61347
  22938379.100   120542122.17209  22938374.580    93928955.56047
  21923572.360   115209188.49109  21923571.880    89773414.96748
  23759549.120   124857264.13308  23759548.800    97291368.67947
 15 02 27 00 33 30.0000000  0  7G16G18G19G21G22G27G31
  20893487.700   109796039.74109  20893484.520    85555353.28848
  22290320.480   117136591.07409  22290316.960    91275331.21947
  23910365.640   125649826.50708  23910361.220    97908944.96946
  22090028.320   116084276.92109  22090024.160    90455440.84847
  22922266.360   120457449.71409  22922261.880    93862977.08747
  21914004.800   115158910.66809  21914004.280    89734237.46248
  23778277.680   124955683.15208  23778277.440    97368058.78746
 15 02 27 00 34  0.0000000  0  7G16G18G19G21G22G27G31
  20884359.940   109748072.87509  20884356.720    85517976.50548
  22283500.760   117100753.38209  22283497.220    91247405.75347
  23896371.520   125576286.83408  23896366.980    97851641.35246
  22101602.540   116145099.90008  22101598.540    90502835.36948
  22906184.120   120372937.44009  22906179.620    93797123.40847
  21904461.180   115108758.44409  21904460.560    89695157.80848
  23797012.980   125054137.58108  23797012.760    97444776.47347
 15 02 27 00 34 30.0000000  0  7G16G18G19G21G22G27G31
  20875303.280   109700479.55609  20875299.980    85480890.80248
  22276758.900   117065324.96809  22276755.380    91219799.20747
  23882396.560   125502847.75008  23882391.980    97794416.14346
  22113219.060   116206145.65308  22113215.260    90550403.48047
  22890133.400   120288590.58209  22890128.820    93731398.63447
  21894941.980   115058734.41009  21894941.240    89656178.04848
  23815755.000   125152627.00708  23815754.800    97521521.44346
 15 02 27 00 35  0.0000000  0  7G16G18G19G21G22G27G31
  20866318.220   109653262.39809  20866314.840    85444098.20148
  22270095.420   117030308.09709  22270091.840    91192513.33847
  23868440.620   125429509.04008  23868436.140    97737269.13346
  22124877.620   116267412.15909  22124873.940    90598143.60247
  22874114.800   120204412.32609  22874110.220    93665805.24747
  21885447.280   115008839.01809  21885446.460    89617298.52448
  23834503.160   125251149.03208  23834502.940    97598291.85246
 15 02 27 00 35 30.0000000  0  7G16G18G19G21G22G27G31
  20857405.080   109606423.29209  20857401.600    85407600.19248
  22263510.560   116995704.32409  22263507.000    91165549.37647
  23854503.700   125356270.49908  23854499.320    97680200.17346
  22136577.880   116328897.83408  22136574.320    90646054.51047
  22858128.840   120120405.32609  22858124.260    93600345.28447
  21875977.000   114959072.11409  21875976.120    89578519.12648
  23853256.860   125349700.24108  23853256.620    97675084.77046
 15 02 27 00 36  0.0000000  0  7G16G18G19G21G22G27G31
  20848563.760   109559961.79409  20848560.220    85371396.42848
  22257004.120   116961512.73009  22257000.540    91138906.58347
  23840585.380   125283129.79608  23840581.080    97623207.46046
  22148319.140   116390598.87208  22148315.700    90694133.23447
  22842175.520   120036569.68309  22842170.920    93535018.85847
  21866530.680   114909431.29109  21866529.760    89539837.97648
  23872015.200   125448276.09608  23872015.020    97751896.94546
 15 02 27 00 36 30.0000000  0  7G16G18G19G21G22G27G31
  20839795.300   109513882.99009  20839791.680    85335490.86848
  22250576.980   116927738.20509  22250573.400    91112588.78447
  23826686.320   125210089.99508  23826682.000    97566293.35846
  22160101.460   116452515.64108  22160098.120    90742380.05547
  22826255.960   119952911.34109  22826251.300    93469830.58947
  21857108.980   114859919.78909  21857108.000    89501257.59548
  23890778.300   125546876.70508  23890778.140    97828728.43446
 15 02 27 00 37  0.0000000  0  7G16G18G19G21G22G27G31
  20831099.160   109468184.42609  20831095.440    85299881.59348
  22244228.680   116894377.95009  22244225.080    91086593.78647
  23812805.640   125137146.67308  23812801.300    97509454.43946
  22171923.800   116514642.19509  22171920.420    90790790.35147
  22810369.840   119869428.76809  22810365.080    93404779.26647
  21847711.000   114810533.11309  21847709.980    89462774.47548
  23909544.780   125645494.47708  23909544.560    97905573.25346
 15 02 27 00 37 30.0000000  0  7G16G18G19G21G22G27G31
  20822476.680   109422872.95909  20822472.860    85264573.95748
  22237960.340   116861437.82109  22237956.720    91060926.16547
  23798944.160   125064304.28008  23798939.840    97452694.16046
  22183786.700   116576981.49809  22183783.180    90839366.42348
  22794518.480   119786129.11709  22794513.680    93339870.49047
  21838337.660   114761276.01809  21838336.640    89424392.33148
  23928314.920   125744131.36908  23928314.660    97982432.94647
 15 02 27 00 38  0.0000000  0  7G16G18G19G21G22G27G31
  20813927.900   109377948.73309  20813924.020    85229568.06848
  22231772.060   116828918.33709  22231768.460    91035586.32047
  23785101.640   124991561.42808  23785097.300    97396011.45046
  22195689.220   116639529.01109  22195685.520    90888104.73947
  22778702.080   119703013.59509  22778697.400    93275105.19347
  21828988.600   114712146.88909  21828987.660    89386109.89648
  23947087.900   125842782.92508  23947087.520    98059304.01446
 15 02 27 00 38 30.0000000  0  7G16G18G19G21G22G27G31
  20805452.960   109333412.51209  20805449.040    85194864.51548
  22225663.860   116796819.47509  22225660.260    91010574.23247
  23771277.740   124918916.55108  23771273.380    97339405.08146
  22207630.880   116702282.19809  22207627.000    90937003.32647
  22762920.940   119620083.66509  22762916.360    93210484.51847
  21819663.640   114663144.48409  21819662.780    89347926.21348
  23965862.920   125941444.72908  23965862.420    98136183.04946
 15 02 27 00 39  0.0000000  0  7G16G18G19G21G22G27G31
  20797053.040   109289270.47209  20797049.060    85160468.12448
  22219636.860   116765147.46309  22219633.280    90985894.76047
  23757473.180   124846373.66408  23757468.880    97282878.19946
  22219612.220   116765244.24509  22219608.260    90986064.65547
  22747176.400   119537346.59409  22747172.000    93146014.12047
  21810363.680   114614273.22409  21810362.900    89309844.72048
  23984640.260   126040118.75308  23984639.660    98213071.58646
 15 02 27 00 39 30.0000000  0  7G16G18G19G21G22G27G31
  20788727.700   109245520.42009  20788723.720    85126377.17348
  22213690.580   116733899.26709  22213686.960    90961545.52947
  23743687.280   124773929.03708  23743683.180    97226427.87646
  22231631.900   116828408.06309  22231627.960    91035283.20447
  22731468.300   119454800.93609  22731464.020    93081692.87147
  21801087.960   114565529.00009  21801087.220    89271862.21248
  24003418.660   126138798.15108  24003417.980    98289964.26046
 15 02 27 00 40  0.0000000  0  7G16G18G19G21G22G27G31
  20780477.560   109202165.70009  20780473.640    85092594.26848
  22207825.420   116703077.47709  22207821.780    90937528.56047
  23729920.340   124701583.54708  23729916.340    97170054.80346
  22243689.980   116891773.93009  22243686.080    91084659.19247
  22715797.380   119372450.50209  22715793.160    93017523.74747
  21791836.700   114516913.10409  21791835.960    89233979.69748
  24022197.680   126237480.77008  24022197.060    98366859.23847
 15 02 27 00 40 30.0000000  0  7G16G18G19G21G22G27G31
  20772302.820   109159207.33209  20772298.980    85059120.21348
  22202041.660   116672683.36909  22202037.940    90913844.85047
  23716172.180   124629336.26108  23716168.060    97113758.24946
  22255785.920   116955338.66308  22255782.100    91134190.14947
  22700164.080   119290297.17409  22700159.840    92953508.20047
  21782609.660   114468424.59409  21782608.920    89196196.44548
  24040976.660   126336163.07608  24040976.220    98443753.97146
 15 02 27 00 41  0.0000000  0  7G16G18G19G21G22G27G31
  20764203.840   109116647.06009  20764200.100    85025956.36748
  22196339.520   116642717.75109  22196335.640    90890495.03447
  23702442.740   124557186.93308  23702438.480    97057538.02147
  22267919.180   117019099.86308  22267915.520    91183874.19547
  22684568.740   119208343.09609  22684564.340    92889647.91247
  21773406.800   114420063.32509  21773406.060    89158512.34548
  24059755.040   126434842.21608  24059754.700    98520646.34246
 15 02 27 00 41 30.0000000  0  7G16G18G19G21G22G27G31
  20756181.400   109074488.86609  20756177.740    84993105.82948
  22190719.600   116613184.03909  22190715.580    90867481.76447
  23688732.400   124485137.73008  23688727.960    97001395.81547
  22280089.960   117083058.22708  22280086.400    91233711.87548
  22669012.320   119126593.57609  22669007.760    92825947.02447
  21764228.540   114371831.51909  21764227.780    89120929.12848
  24078532.720   126533517.71708  24078532.440    98597535.99347
 15 02 27 00 42  0.0000000  0  7G16G18G19G21G22G27G31
  20748235.340   109032731.93209  20748231.720    84960567.95549
  22185181.720   116584081.56109  22185177.580    90844804.52347
  23675040.560   124413185.74808  23675035.960    96945329.36447
  22292297.440   117147209.13608  22292293.960    91283699.58447
  22653494.800   119045048.57109  22653490.120    92762405.49447
  21755074.480   114323726.73609  21755073.680    89083444.88148
  24097308.620   126632183.87208  24097308.420    98674418.27346
 15 02 27 00 42 30.0000000  0  7G16G18G19G21G22G27G31
  20740366.840   108991382.40109  20740363.240    84928347.54248
  22179726.880   116555415.63609  22179722.680    90822467.44947
  23661368.020   124341335.26908  23661363.300    96889342.01747
  22304541.940   117211554.64608  22304538.540    91333838.94247
  22638017.500   118963714.88909  22638012.700    92699028.63447
  21745945.380   114275752.97509  21745944.520    89046062.73048
  24116082.940   126730842.28408  24116082.900    98751294.72046
 15 02 27 00 43  0.0000000  0  7G16G18G19G21G22G27G31
  20732575.900   108950440.61409  20732572.320    84896444.85149
  22174355.080   116527186.21109  22174350.880    90800470.51147
  23647714.380   124269584.52008  23647709.540    96833432.37147
  22316822.940   117276091.54508  22316819.480    91384127.43147
  22622580.580   118882593.63209  22622575.720    92635817.29847
  21736840.960   114227908.92809  21736840.120    89008781.65048
  24134854.920   126829488.70108  24134854.960    98828161.86146
 15 02 27 00 43 30.0000000  0  7G16G18G19G21G22G27G31
  20724862.920   108909908.78309  20724859.340    84864861.60448
  22169066.620   116499395.13009  22169062.500    90778815.12747
  23634079.680   124197934.00108  23634074.840    96777600.83746
  22329140.040   117340817.88808  22329136.460    91434563.53247
  22607184.760   118801688.14409  22607179.840    92572774.09547
  21727761.300   114180195.10309  21727760.540    88971602.04048
  24153624.040   126928119.94908  24153624.080    98905016.97246
 15 02 27 00 44  0.0000000  0  7G16G18G19G21G22G27G31
  20717228.060   108869787.62509  20717224.500    84833598.36448
  22163861.460   116472041.97109  22163857.400    90757500.98947
  23620463.660   124126382.12608  23620458.920    96721846.17046
  22341492.700   117405731.07808  22341489.000    91485145.23947
  22591830.160   118720999.32809  22591825.260    92509899.72647
  21718706.060   114132610.17109  21718705.540    88934522.88948
  24172389.580   127026731.94008  24172389.540    98981856.84246
 15 02 27 00 44 30.0000000  0  7G16G18G19G21G22G27G31
  20709671.840   108830079.71809  20709668.300    84802657.13548
  22158740.120   116445129.17109  22158736.120    90736529.98347
  23606866.580   124054929.67708  23606861.900    96666168.96547
  22353880.700   117470830.04309  22353876.880    91535871.69047
  22576517.540   118640530.96509  22576512.660    92447197.14047
  21709675.560   114085154.97809  21709675.180    88897544.82748
  24191151.340   127125323.68108  24191151.300    99058681.30946
 15 02 27 00 45  0.0000000  0  7G16G18G19G21G22G27G31
  20702194.080   108790784.48109  20702190.600    84772037.47648
  22153702.380   116418655.84009  22153698.500    90715901.43347
  23593287.940   123983574.18108  23593283.360    96610567.32146
  22366303.240   117536110.44809  22366299.360    91586739.54247
  22561247.020   118560283.62209  22561242.120    92384666.78047
  21700669.360   114037827.20109  21700669.020    88860666.05448
  24209908.060   127223889.15508  24209908.060    99135485.15246
 15 02 27 00 45 30.0000000  0  7G16G18G19G21G22G27G31
  20694796.060   108751908.53809  20694792.720    84741744.53648
  22148749.280   116392627.50709  22148745.480    90695619.63047
  23579728.720   123912320.33508  23579724.200    96555044.87446
  22378760.780   117601574.91509  22378756.860    91637750.80847
  22546019.860   118480264.34109  22546014.980    92322314.13247
  21691688.440   113990631.65409  21691687.940    88823890.30348
  24228660.120   127322430.37908  24228660.240    99212270.06746
 15 02 27 00 46  0.0000000  0  7G16G18G19G21G22G27G31
  20687477.800   108713451.62909  20687474.600    84711778.10948
  22143880.760   116367043.60409  22143877.020    90675684.12947
  23566188.480   123841165.98508  23566184.000    96499599.95746
  22391252.520   117667219.41808  22391248.580    91688902.36047
  22530836.180   118400473.77909  22530831.320    92260139.70348
  21682732.380   113943566.41109  21682731.660    88787216.08748
  24247406.680   127420942.74808  24247406.880    99289032.52646
 15 02 27 00 46 30.0000000  0  7G16G18G19G21G22G27G31
  20680239.780   108675415.87909  20680236.660    84682139.86048
  22139097.120   116341905.87309  22139093.480    90656096.29947
  23552667.180   123770111.27908  23552662.800    96444232.68347
  22403778.200   117733042.44208  22403774.320    91740193.02047
  22515696.520   118320914.77309  22515691.700    92198145.69948
  21673801.180   113896631.78409  21673800.220    88750643.65148
  24266147.220   127519423.46608  24266147.660    99365770.18546
 15 02 27 00 47  0.0000000  0  7G16G18G19G21G22G27G31
  20673081.880   108637800.88409  20673078.780    84652829.47348
  22134398.280   116317213.83309  22134394.800    90636855.75547
  23539164.480   123699153.97308  23539160.120    96388941.30846
  22416337.120   117799040.22008  22416333.260    91791619.84347
  22500601.020   118241587.88709  22500596.280    92136332.56848
  21664894.460   113849825.82409  21664893.320    88714171.47448
  24284880.960   127617868.37108  24284881.640    99442480.25747
 15 02 27 00 47 30.0000000  0  7G16G18G19G21G22G27G31
  20666005.200   108600612.25209  20666002.080    84623851.31348
  22129785.020   116292971.61109  22129781.660    90617965.72247
  23525681.020   123628297.73908  23525676.600    96333728.67446
  22428929.640   117865214.26909  22428925.720    91843184.02447
  22485550.920   118162499.50109  22485546.300    92074705.29148
  21656012.880   113803152.14109  21656011.640    88677802.37548
  24303607.900   127716277.56508  24303608.700    99519162.43546
 15 02 27 00 48  0.0000000  0  7G16G18G19G21G22G27G31
  20659009.980   108563851.52109  20659006.800    84595206.58248
  22125257.500   116269179.96109  22125254.280    90599426.77847
  23512216.740   123557542.42008  23512212.200    96278594.68246
  22441555.440   117931562.93609  22441551.460    91894884.27947
  22470546.740   118083652.17109  22470542.120    92013265.84147
  21647156.400   113756610.68609  21647155.120    88641536.30848
  24322327.480   127814647.92508  24322328.280    99595814.20646
 15 02 27 00 48 30.0000000  0  7G16G18G19G21G22G27G31
  20652096.160   108527518.44709  20652092.860    84566895.09648
  22120815.740   116245838.73509  22120812.580    90581238.81447
  23498771.120   123486885.62508  23498766.560    96223537.45847
  22454213.680   117998082.09808  22454209.620    91946717.38647
  22455588.540   118005046.32809  22455583.820    91952014.56847
  21638324.680   113710199.68409  21638323.440    88605371.89948
  24341038.920   127912975.36108  24341039.720    99672432.64446
 15 02 27 00 49  0.0000000  0  7G16G18G19G21G22G27G31
  20645264.360   108491616.38909  20645260.940    84538919.46648
  22116460.280   116222950.72809  22116457.140    90563404.00747
  23485344.560   123416328.91708  23485340.020    96168558.22846
  22466904.260   118064771.41208  22466900.140    91998683.07547
  22440677.120   117926686.09809  22440672.300    91890954.67747
  21629518.100   113663920.75709  21629516.860    88569310.39748
  24359741.920   128011258.45008  24359742.740    99749016.57246
 15 02 27 00 49 30.0000000  0  7G16G18G19G21G22G27G31
  20638514.020   108456142.43209  20638510.440    84511277.42048
  22112190.440   116200512.59109  22112187.260    90545919.75147
  23471936.280   123345868.24108  23471931.780    96113653.81447
  22479626.000   118131624.75408  22479621.920    92050776.57247
  22425812.120   117848569.83009  22425807.200    91830084.88347
  21620735.780   113617769.47509  21620734.560    88533348.35948
  24378435.060   128109490.11108  24378435.920    99825560.51146
 15 02 27 00 50  0.0000000  0  7G16G18G19G21G22G27G31
  20631846.800   108421105.40609  20631843.100    84483975.84749
  22108007.680   116178532.08609  22108004.380    90528792.10347
  23458547.460   123275509.64308  23458543.040    96058828.96147
  22492379.820   118198646.95608  22492375.820    92103001.66247
  22410995.440   117770707.16809  22410990.420    91769412.71148
  21611979.040   113571752.78209  21611977.860    88497491.21248
  24397119.140   128207674.35308  24397120.020    99902067.45645
 15 02 27 00 50 30.0000000  0  7G16G18G19G21G22G27G31
  20625262.640   108386504.95409  20625258.800    84457014.44848
  22103911.780   116157008.17609  22103908.460    90512020.22447
  23445177.720   123205251.54708  23445173.480    96004082.41647
  22505164.940   118265834.04208  22505161.080    92155355.22047
  22396227.100   117693098.63909  22396222.020    91708938.54947
  21603247.520   113525868.75209  21603246.440    88461737.41948
  24415793.240   128305806.26008  24415794.280    99978533.75645
 15 02 27 00 51  0.0000000  0  7G16G18G19G21G22G27G31
  20618761.580   108352341.56909  20618757.660    84430393.63748
  22099902.740   116135940.90409  22099899.420    90495604.17747
  23431826.860   123135092.39408  23431822.820    95949412.97947
  22517980.940   118333183.37108  22517977.240    92207835.21047
  22381507.220   117615745.26309  22381502.160    91648663.22248
  21594541.120   113480116.53209  21594540.140    88426086.35148
  24434456.520   128403881.49608  24434457.760   100054955.74246
 15 02 27 00 51 30.0000000  0  7G16G18G19G21G22G27G31
  20612343.580   108318614.73809  20612339.580    84404112.99148
  22095980.380   116115329.19409  22095977.140    90479543.11647
  23418494.420   123065030.07008  23418490.480    95894818.98446
  22530827.000   118400690.47608  22530823.400    92260438.13747
  22366836.020   117538647.86509  22366831.120    91588587.35848
  21585859.380   113434493.98809  21585858.500    88390536.32448
  24453108.180   128501895.71708  24453109.560   100131330.19146
 15 02 27 00 52  0.0000000  0  7G16G18G19G21G22G27G31
  20606009.960   108285331.56709  20606005.940    84378178.05048
  22092145.840   116095178.74509  22092142.680    90463841.47447
  23405181.420   122995070.07908  23405177.520    95840304.72147
  22543703.840   118468359.32108  22543700.360    92313167.08847
  22352215.000   117461814.33309  22352210.260    91528717.09848
  21577203.300   113389006.42209  21577202.540    88355091.47048
  24471748.640   128599851.28308  24471750.200   100207658.69045
 15 02 27 00 52 30.0000000  0  7G16G18G19G21G22G27G31
  20599760.460   108252490.75109  20599756.500    84352587.80848
  22088398.860   116075488.27109  22088395.720    90448498.25847
  23391887.220   122925209.24108  23391883.460    95785867.74147
  22556610.540   118536184.76008  22556607.100    92366018.07447
  22337644.160   117385244.27009  22337639.520    91469052.14348
  21568572.400   113343651.12809  21568571.680    88319749.69748
  24490376.820   128697742.33108  24490378.640   100283936.88646
 15 02 27 00 53  0.0000000  0  7G16G18G19G21G22G27G31
  20593595.520   108220094.31309  20593591.680    84327343.83348
  22084739.740   116056259.33209  22084736.640    90433514.68147
  23378611.780   122855447.21608  23378608.100    95731507.75647
  22569546.780   118604165.01608  22569543.280    92418989.68947
  22323123.940   117308940.27009  22323119.340    91409594.50048
  21559966.720   113298428.44209  21559966.080    88284511.24648
  24508992.440   128795566.66308  24508994.460   100360163.15345
 15 02 27 00 53 30.0000000  0  7G16G18G19G21G22G27G31
  20587515.520   108188144.41809  20587511.900    84302447.81248
  22081168.680   116037493.03309  22081165.540    90418891.59947
  23365355.400   122785785.00208  23365351.760    95677225.54047
  22582512.280   118672299.19108  22582508.780    92472081.24847
  22308654.960   117232905.46909  22308650.360    91350346.62848
  21551386.500   113253339.17909  21551385.880    88249376.76148
  24527595.060   128893322.67008  24527597.260   100436336.42945
 15 02 27 00 54  0.0000000  0  7G16G18G19G21G22G27G31
  20581520.720   108156642.11709  20581517.300    84277900.56148
  22077685.700   116019189.68909  22077682.540    90404629.26847
  23352117.900   122716221.51708  23352114.120    95623020.25047
  22595506.640   118740584.68008  22595503.140    92525290.71247
  22294237.720   117157142.16209  22294233.120    91291310.30548
  21542831.640   113208382.79709  21542830.940    88214345.82348
  24546183.940   128991006.26408  24546186.180   100512453.37545
 15 02 27 00 54 30.0000000  0  7G16G18G19G21G22G27G31
  20575611.500   108125589.19309  20575608.180    84253703.47148
  22074290.980   116001350.70409  22074287.840    90390728.76847
  23338899.240   122646756.87508  23338895.240    95568891.97747
  22608529.480   118809019.81408  22608525.980    92578616.77847
  22279872.660   117081652.88609  22279867.980    91232487.51048
  21534302.140   113163559.43609  21534301.280    88179418.52648
  24564758.500   129088615.10107  24564760.680   100588512.13944
 15 02 27 00 55  0.0000000  0  7G16G18G19G21G22G27G31
  20569788.400   108094988.58009  20569785.120    84229858.83249
  22070985.000   115983977.99509  22070981.900    90377191.59447
