     2.11           OBSERVATION DATA    G                   RINEX VERSION / TYPE
SPIDER V4,0,0,3554                      2015 03 24 04:44    PGM / RUN BY / DATE 
OJGS                                                        MARKER NAME         
OJGS                                                        MARKER NUMBER       
                                                            OBSERVER / AGENCY   
496552              LEICA GRX1200+GNSS  8.20/4.007          REC # / TYPE / VERS 
10401003            LEIAR25         NONE                    ANT # / TYPE        
  5198100.9450    88691.2920  3684205.7148                  APPROX POSITION XYZ 
        0.1200        0.0000        0.0000                  ANTENNA: DELTA H/E/N
     1     1                                                WAVELENGTH FACT L1/2
     4    C1    L1    P2    L2                              # / TYPES OF OBSERV 
    30.000                                                  INTERVAL            
  2015    02    27    00    00    0.0000000     GPS         TIME OF FIRST OBS   
  2015    02    27    19    00   30.0000000     GPS         TIME OF LAST OBS    
    16                                                      LEAP SECONDS        
    30                                                      # OF SATELLITES     
   G 1   833   833   833   833                              PRN / # OF OBS      
   G 2   627   627   627   627                              PRN / # OF OBS      
   G 3   839   839   839   839                              PRN / # OF OBS      
   G 4   844   844   844   844                              PRN / # OF OBS      
   G 5   674   674   673   673                              PRN / # OF OBS      
   G 6   689   688   688   688                              PRN / # OF OBS      
   G 7   724   724   724   724                              PRN / # OF OBS      
   G 9   783   782   782   782                              PRN / # OF OBS      
   G10   784   784   784   784                              PRN / # OF OBS      
   G11   798   798   798   798                              PRN / # OF OBS      
   G12   455   455   455   455                              PRN / # OF OBS      
   G13   822   822   822   822                              PRN / # OF OBS      
   G14   565   563   564   563                              PRN / # OF OBS      
   G15   716   715   715   715                              PRN / # OF OBS      
   G16   498   498   498   498                              PRN / # OF OBS      
   G17   930   929   929   929                              PRN / # OF OBS      
   G18   808   808   808   808                              PRN / # OF OBS      
   G19   782   782   782   782                              PRN / # OF OBS      
   G20   803   803   803   803                              PRN / # OF OBS      
   G21   298   298   298   298                              PRN / # OF OBS      
   G22   771   771   771   771                              PRN / # OF OBS      
   G23   727   726   726   726                              PRN / # OF OBS      
   G24   595   595   595   595                              PRN / # OF OBS      
   G25   281   280   280   280                              PRN / # OF OBS      
   G27   681   681   681   681                              PRN / # OF OBS      
   G28   913   913   913   913                              PRN / # OF OBS      
   G29   153   153   153   153                              PRN / # OF OBS      
   G30   692   692   691   691                              PRN / # OF OBS      
   G31   263   262   262   262                              PRN / # OF OBS      
   G32   740   740   740   740                              PRN / # OF OBS      
BIT 2 OF LLI FLAGS DATA COLLECTED UNDER A/S CONDITION       COMMENT             
SNR is mapped to RINEX snr flag value [2-9]                 COMMENT             
Lx:     = 25dBHz -> 1; 26-27dBHz -> 2; 28-31dBHz -> 3       COMMENT             
       32-35dBHz -> 4; 36-38dBHz -> 5; 39-41dBHz -> 6       COMMENT             
       42-44dBHz -> 7; 45-48dBHz -> 8; >=49dBHz -> 9        COMMENT             
                                                            END OF HEADER       
 15 02 27 00 00  0.0000000  0  7G16G18G21G22G27G29G31
  21638961.860   113713517.28209  21638957.880    88607931.81847
  22877422.980   120221773.91409  22877420.560    93679344.43746
  21352297.280   112207507.44408  21352293.600    87434608.33448
  24119777.020   126750358.82908  24119775.200    98766536.46445
  22695302.060   119264644.65308  22695301.800    92933499.64348
  24162693.800   126976299.36808  24162692.380    98942787.32546
  22701437.180   119296874.92809  22701434.560    92958611.36547
 15 02 27 00 00 30.0000000  0  7G16G18G21G22G27G29G31
  21625891.260   113644831.23109  21625887.300    88554410.23847
  22865793.840   120160662.13709  22865791.340    93631724.88546
  21359667.820   112246239.75609  21359664.140    87464789.35948
  24102425.300   126659177.16808  24102423.420    98695486.29246
  22683526.520   119202764.04808  22683526.240    92885281.01247
  24177202.280   127052541.19008  24177200.940    99002196.48947
  22718691.460   119387546.52209  22718688.800    93029264.51947
 15 02 27 00 01  0.0000000  0  7G16G18G21G22G27G29G31
  21612868.200   113576394.84909  21612864.300    88501083.19148
  22854215.400   120099816.75909  22854212.880    93584312.93146
  21367105.280   112285323.52309  21367101.560    87495244.24048
  24085069.960   126567976.52408  24085068.080    98624421.31445
  22671775.760   119141012.91008  22671775.300    92837163.26047
  24191711.380   127128786.21908  24191710.040    99061608.15646
  22735986.820   119478433.93409  22735984.140    93100085.83747
 15 02 27 00 01 30.0000000  0  7G16G18G21G22G27G29G31
  21599892.620   113508207.53209  21599888.640    88447950.21748
  22842687.580   120039237.77409  22842685.040    93537108.54346
  21374608.700   112324754.25009  21374604.980    87525969.48248
  24067710.840   126476756.08208  24067708.880    98553340.89645
  22660049.160   119079388.49108  22660048.600    92789144.24548
  24206220.360   127205031.55507  24206218.960    99121020.07846
  22753322.200   119569531.62709  22753319.440    93171071.00747
 15 02 27 00 02  0.0000000  0  7G16G18G21G22G27G29G31
  21586964.920   113440271.76309  21586960.900    88395013.25448
  22831211.020   119978928.07609  22831208.400    93490113.99046
  21382177.980   112364531.26708  21382174.300    87556964.55448
  24050348.560   126385518.91008  24050346.520    98482247.39446
  22648346.780   119017891.21508  22648346.200    92741224.29248
  24220729.380   127281277.92307  24220728.100    99180432.77746
  22770697.120   119660837.20609  22770694.320    93242218.16247
 15 02 27 00 02 30.0000000  0  7G16G18G21G22G27G29G31
  21574085.180   113372588.30109  21574081.180    88342272.89348
  22819785.820   119918888.18209  22819783.180    93443329.67546
  21389812.460   112404650.85608  21389808.800    87588226.56948
  24032983.300   126294265.94508  24032981.200    98411141.58846
  22636668.180   118956519.20308  22636667.440    92693401.96348
  24235238.420   127357523.03608  24235237.140    99239844.49446
  22788110.680   119752345.94209  22788107.920    93313523.62647
 15 02 27 00 03  0.0000000  0  7G16G18G21G22G27G29G31
  21561253.580   113305158.38509  21561249.720    88289730.11748
  22808412.420   119859120.59309  22808409.760    93396757.54646
  21397511.740   112445111.06408  21397508.120    87619754.00848
  24015615.560   126202999.73608  24015613.400    98340025.44946
  22625013.320   118895272.10908  22625012.520    92645676.97747
  24249747.380   127433766.74308  24249745.960    99299255.16046
  22805562.360   119844054.80309  22805559.580    93384985.03747
 15 02 27 00 03 30.0000000  0  7G16G18G21G22G27G29G31
  21548471.180   113237986.82909  21548467.480    88237388.65148
  22797091.840   119799630.56409  22797089.160    93350401.69846
  21405276.060   112485913.07208  21405272.440    87651547.77048
  23998246.400   126111725.79008  23998244.220    98268903.22946
  22613382.700   118834152.60508  22613381.860    92598051.40848
  24264256.520   127510011.65608  24264254.700    99358666.77045
  22823052.060   119935963.57609  22823049.320    93456602.20747
 15 02 27 00 04  0.0000000  0  7G16G18G21G22G27G29G31
  21535738.900   113171078.29909  21535735.140    88185252.12848
  22785824.920   119740422.68409  22785822.320    93304265.70246
  21413105.480   112527057.21408  21413101.860    87683608.14348
  23980876.680   126020448.70908  23980874.300    98197778.57046
  22601776.660   118773162.95708  22601775.920    92550527.01848
  24278765.960   127586259.83707  24278763.820    99418080.89245
  22840579.640   120028071.44109  22840576.920    93528374.52347
 15 02 27 00 04 30.0000000  0  7G16G18G21G22G27G29G31
  21523056.380   113104431.42209  21523052.720    88133319.50748
  22774611.420   119681495.44909  22774608.840    93258348.39446
  21420999.060   112568538.44908  21420995.460    87715931.18348
  23963506.160   125929167.41608  23963503.580    98126650.61046
  22590194.640   118712299.56708  22590193.900    92503101.00648
  24293275.300   127662507.57208  24293273.260    99477494.71846
  22858143.920   120120372.25909  22858141.220    93600297.18247
 15 02 27 00 05  0.0000000  0  7G16G18G21G22G27G29G31
  21510423.220   113038043.71509  21510419.520    88081588.82448
  22763451.040   119622847.09909  22763448.300    93212648.38546
  21428955.620   112610350.46208  21428952.020    87748511.97048
  23946134.460   125837880.20808  23946131.940    98055518.03246
  22578635.800   118651557.86808  22578634.980    92455769.82248
  24307783.940   127738750.59308  24307782.220    99536904.82946
  22875743.480   120212858.34509  22875740.740    93672364.20947
 15 02 27 00 05 30.0000000  0  7G16G18G21G22G27G29G31
  21497841.040   112971924.21509  21497837.400    88030067.14848
  22752345.520   119564487.33109  22752342.720    93167173.26646
  21436976.060   112652498.34808  21436972.440    87781354.47748
  23928763.500   125746596.38208  23928760.860    97984388.05846
  22567101.520   118590944.54708  22567100.580    92408538.67947
  24322292.980   127814995.48208  24322291.380    99596316.38846
  22893379.060   120305533.50709  22893376.180    93744578.57647
 15 02 27 00 06  0.0000000  0  7G16G18G21G22G27G29G31
  21485310.140   112906074.22509  21485306.600    87978755.46548
  22741295.140   119506417.36309  22741292.240    93121923.95146
  21445060.000   112694979.62408  21445056.320    87814456.77048
  23911393.560   125655318.16108  23911391.000    97913262.45246
  22555591.520   118530458.94208  22555590.540    92361407.04448
  24336802.160   127891241.52208  24336800.740    99655728.82246
  22911049.940   120398394.42409  22911047.020    93816937.67547
 15 02 27 00 06 30.0000000  0  7G16G18G21G22G27G29G31
  21472830.820   112840495.20009  21472827.340    87927654.93148
  22730300.280   119448639.16809  22730297.420    93076901.99346
  21453206.800   112737791.43308  21453203.060    87847816.61548
  23894025.040   125564047.22808  23894022.540    97842142.49946
  22544105.580   118470100.26908  22544104.680    92314374.33348
  24351311.320   127967487.73308  24351309.860    99715141.41545
  22928755.480   120491437.42609  22928752.520    93889438.65447
 15 02 27 00 07  0.0000000  0  7G16G18G21G22G27G29G31
  21460402.600   112775184.67909  21460399.200    87876763.61148
  22719360.480   119391150.15209  22719357.640    93032105.37946
  21461415.500   112780928.39608  21461411.740    87881429.83548
  23876657.660   125472781.83708  23876655.040    97771026.83946
  22532642.980   118409863.86808  22532642.120    92267436.88648
  24365819.800   128043729.90308  24365818.240    99774550.91045
  22946494.160   120584654.65809  22946491.240    93962075.40947
 15 02 27 00 07 30.0000000  0  7G16G18G21G22G27G29G31
  21448027.120   112710151.15009  21448023.800    87826088.13448
  22708477.460   119333959.44809  22708474.640    92987541.20546
  21469686.900   112824394.56708  21469683.040    87915299.57348
  23859293.060   125381531.01308  23859290.320    97699922.53246
  22521204.800   118349756.17908  22521204.100    92220599.73348
  24380328.600   128119973.97208  24380326.920    99833961.85746
  22964266.720   120678050.04909  22964263.920    94034850.97147
 15 02 27 00 08  0.0000000  0  7G16G18G21G22G27G29G31
  21435704.420   112645395.37609  21435701.200    87775629.09448
  22697651.380   119277067.99309  22697648.500    92943210.21146
  21478020.340   112868186.83009  21478016.380    87949423.41648
  23841931.440   125290295.92508  23841928.680    97628830.47646
  22509790.820   118289775.78708  22509790.080    92173861.77648
  24394837.360   128196218.72008  24394835.940    99893373.27846
  22982072.400   120771619.16409  22982069.540    94107761.91247
 15 02 27 00 08 30.0000000  0  7G16G18G21G22G27G29G31
  21423434.760   112580918.41709  21423431.580    87725387.31348
  22686882.440   119220476.67609  22686879.580    92899113.10646
  21486415.320   112912302.44009  21486411.240    87983799.22048
  23824573.060   125199077.86308  23824570.300    97557751.67246
  22498400.740   118229921.24808  22498400.080    92127221.88448
  24409346.120   128272462.72908  24409344.780    99952784.14146
  22999910.320   120865357.69809  22999907.440    94180804.86747
 15 02 27 00 09  0.0000000  0  7G16G18G21G22G27G29G31
  21411217.960   112516719.05709  21411214.840    87675361.85248
  22676170.440   119164184.63609  22676167.540    92855249.20146
  21494870.820   112956736.18008  21494866.640    88018422.91448
  23807217.860   125107876.31808  23807215.140    97486685.72946
  22487034.040   118170189.31208  22487033.340    92080677.53548
  24423854.280   128348702.65408  24423852.740   100012191.84546
  23017779.300   120959259.34109  23017776.340    94253974.92347
 15 02 27 00 09 30.0000000  0  7G16G18G21G22G27G29G31
  21399055.360   112452804.20409  21399052.300    87625558.05948
  22665516.840   119108199.67209  22665513.980    92811624.56446
  21503387.500   113001491.53608  21503383.260    88053297.20848
  23789867.280   125016698.98808  23789864.420    97415638.63946
  22475691.640   118110585.12608  22475690.900    92034232.72248
  24438362.660   128424943.42908  24438360.760   100071600.21045
  23035679.780   121053326.53309  23035676.740    94327273.96047
 15 02 27 00 10  0.0000000  0  7G16G18G21G22G27G29G31
  21386947.100   112389174.89209  21386944.020    87575976.78348
  22654921.940   119052523.17009  22654919.080    92768240.29946
  21511964.880   113046565.75909  21511960.600    88088419.98648
  23772521.620   124925547.56008  23772518.620    97344611.73746
  22464373.420   118051107.47608  22464372.480    91987886.51648
  24452870.820   128501184.14608  24452868.700   100131008.54245
  23053610.960   121147555.17309  23053607.860    94400698.81147
 15 02 27 00 10 30.0000000  0  7G16G18G21G22G27G29G31
  21374893.540   112325833.00409  21374890.420    87526619.47248
  22644385.960   118997156.05909  22644383.060    92725097.10446
  21520602.440   113091956.23509  21520598.180    88123789.18448
  23755181.240   124834424.00508  23755178.140    97273606.54146
  22453079.160   117991755.64708  22453078.260    91941638.34848
  24467378.740   128577424.09208  24467376.920   100190416.26046
  23071572.140   121241941.61409  23071569.040    94474246.62147
 15 02 27 00 11  0.0000000  0  7G16G18G21G22G27G29G31
  21362895.280   112262781.69609  21362892.180    87477488.57848
  22633909.600   118942102.21309  22633906.660    92682198.01946
  21529299.860   113137661.24409  21529295.620    88159403.48348
  23737846.860   124743331.98708  23737843.680    97202625.89846
  22441809.060   117932530.53008  22441808.140    91895488.91848
  24481886.720   128653663.93208  24481884.980   100249823.85346
  23089562.960   121336483.88509  23089559.860    94547915.85447
 15 02 27 00 11 30.0000000  0  7G16G18G21G22G27G29G31
  21350952.160   112200020.32709  21350949.040    87428583.61748
  22623492.800   118887361.54709  22623489.800    92639542.95946
  21538056.640   113183678.18409  21538052.420    88195260.83348
  23720518.600   124652271.64508  23720515.260    97131669.95546
  22430562.680   117873429.83409  22430561.680    91849436.43848
  24496394.300   128729901.48508  24496392.680   100309229.69446
  23107582.440   121431176.81109  23107579.340    94621702.46547
 15 02 27 00 12  0.0000000  0  7G16G18G21G22G27G29G31
  21339064.940   112137552.78709  21339061.880    87379907.61248
  22613136.300   118832937.80609  22613133.180    92597134.86546
  21546872.620   113230006.70609  21546868.500    88231360.97348
  23703197.200   124561247.71208  23703193.880    97060742.36046
  22419340.340   117814455.25709  22419339.260    91803482.22448
  24510901.760   128806138.34408  24510900.100   100368635.01845
  23125630.360   121526019.08609  23125627.320    94695605.46947
 15 02 27 00 12 30.0000000  0  7G16G18G21G22G27G29G31
  21327234.140   112075381.55309  21327231.100    87331462.50148
  22602840.660   118778833.69209  22602837.480    92554975.83246
  21555747.480   113276644.32609  21555743.400    88267701.97448
  23685883.200   124470262.76908  23685879.920    96989845.15646
  22408141.980   117755606.87608  22408140.780    91757626.35948
  24525409.060   128882374.78108  24525407.460   100428039.99946
  23143706.180   121621007.77309  23143703.080    94769622.55647
 15 02 27 00 13  0.0000000  0  7G16G18G21G22G27G29G31
  21315460.160   112013508.42109  21315457.040    87283249.67348
  22592606.140   118725051.08409  22592602.960    92513067.31346
  21564680.820   113323589.29709  21564676.840    88304282.46548
  23668577.120   124379319.25708  23668573.820    96918980.22246
  22396967.560   117696884.33709  22396966.220    91711868.55348
  24539916.120   128958610.29808  24539914.640   100487444.23946
  23161809.280   121716139.90609  23161806.240    94843751.41347
 15 02 27 00 13 30.0000000  0  7G16G18G21G22G27G29G31
  21303743.340   111951935.84309  21303740.140    87235271.04748
  22582433.240   118671592.63309  22582430.180    92471411.39946
  21573672.500   113370840.76309  21573668.560    88341101.78748
  23651279.540   124288420.47508  23651276.240    96848150.14246
  22385817.160   117638288.04309  22385815.680    91666209.12248
  24554423.240   129034845.52008  24554421.840   100546848.26346
  23179939.180   121811412.95009  23179936.220    94917990.07147
 15 02 27 00 14  0.0000000  0  6G16G18G21G22G27G31
  21292084.240   111890666.37809  21292080.940    87187528.60748
  22572322.580   118618461.22909  22572319.580    92430010.31446
  21582722.100   113418396.63209  21582718.200    88378158.30648
  23633991.000   124197569.31708  23633987.660    96777357.16146
  22374690.780   117579818.33009  22374689.240    91620648.31948
  23198095.400   121906824.24609  23198092.520    94992336.44747
 15 02 27 00 14 30.0000000  0  6G16G18G21G22G27G31
  21280482.900   111829700.71009  21280479.520    87140022.90348
  22562274.260   118565657.34009  22562271.320    92388864.44646
  21591829.020   113466254.01108  21591825.180    88415449.76648
  23616711.700   124106766.73208  23616708.280    96706602.03146
  22363588.160   117521473.67109  22363586.580    91575184.96048
  23216277.080   122002369.24109  23216274.280    95066786.99947
 15 02 27 00 15  0.0000000  0  6G16G18G21G22G27G31
  21268940.200   111769043.35409  21268936.760    87092757.42148
  22552289.120   118513185.46909  22552286.240    92347977.28346
  21600993.380   113514413.21109  21600989.660    88452976.40148
  23599442.580   124016017.72408  23599439.180    96635888.63147
  22352509.760   117463256.28909  22352508.180    91529820.76648
  23234484.080   122098047.37808  23234481.360    95141341.30147
 15 02 27 00 15 30.0000000  0  6G16G18G21G22G27G31
  21257455.620   111708691.15609  21257452.120    87045729.74248
  22542366.660   118461042.85009  22542363.780    92307346.68546
  21610213.900   113562867.66808  21610210.300    88490733.12148
  23582183.380   123925320.35508  23582179.900    96565215.47346
  22341454.660   117405161.26409  22341453.020    91484551.93348
  23252714.940   122193850.69209  23252712.180    95215993.15247
 15 02 27 00 16  0.0000000  0  7G16G18G19G21G22G27G31
  21246031.000   111648654.01809  21246027.460    86998947.56148
  22532508.820   118409239.61409  22532505.960    92266980.53946
  24538515.380   128950769.87708  24538510.880   100481106.88745
  21619491.580   113611622.85208  21619488.080    88528724.16148
  23564935.940   123834684.76608  23564932.300    96494590.45246
  22330424.320   117347196.27909  22330422.740    91439384.42648
  23270970.560   122289784.11309  23270967.720    95290746.36447
 15 02 27 00 16 30.0000000  0  7G16G18G19G21G22G27G31
  21234659.660   111588897.06509  21234656.180    86952383.71248
  22522708.920   118357740.77109  22522706.080    92226851.58946
  24523413.640   128871406.28207  24523408.220   100419265.05545
  21628819.180   113660640.24308  21628815.680    88566919.53148
  23547693.740   123744076.82208  23547690.080    96423986.96546
  22319411.680   117289324.30709  22319410.120    91394289.38948
  23289243.300   122385807.56009  23289240.500    95365569.73446
 15 02 27 00 17  0.0000000  0  7G16G18G19G21G22G27G31
  21223355.340   111529492.57009  21223351.900    86906094.48548
  22512980.640   118306618.23309  22512977.720    92187015.85146
  24508335.180   128792169.42708  24508330.420   100357522.11746
  21638209.640   113709987.91708  21638206.180    88605372.25148
  23530470.580   123653568.83108  23530466.760    96353461.36046
  22308430.000   117231615.24709  22308428.440    91349321.29448
  23307545.920   122481988.04109  23307543.140    95440515.41646
 15 02 27 00 17 30.0000000  0  7G16G18G19G21G22G27G31
  21212110.700   111470401.98209  21212107.360    86860049.89148
  22503316.820   118255834.41409  22503313.820    92147444.06646
  24493273.340   128713019.44907  24493269.000   100295846.83645
  21647654.960   113759623.63708  21647651.560    88644049.43048
  23513259.400   123563123.55908  23513255.340    96282984.62346
  22297471.620   117174028.72909  22297470.000    91304448.70448
  23325870.100   122578282.01808  23325867.380    95515549.49147
 15 02 27 00 18  0.0000000  0  7G16G18G19G21G22G27G31
  21200926.740   111411630.13109  21200923.400    86814253.63748
  22493718.280   118205393.75909  22493715.200    92108139.66246
  24478228.400   128633957.96608  24478224.240   100234240.50446
  21657155.240   113809547.80108  21657151.860    88682951.36548
  23496061.060   123472745.92208  23496056.900    96212560.57446
  22286537.040   117116567.21309  22286535.380    91259673.50048
  23344215.920   122674689.53509  23344213.340    95590672.04747
 15 02 27 00 18 30.0000000  0  7G16G18G19G21G22G27G31
  21189804.320   111353181.29009  21189800.860    86768709.08248
  22484185.940   118155300.68309  22484182.820    92069106.11446
  24463200.720   128554987.55808  24463196.380   100172705.16044
  21666710.560   113859761.20708  21666707.160    88722078.68648
  23478876.600   123382440.95908  23478872.300    96142193.16346
  22275626.700   117059232.88709  22275625.020    91214997.41248
  23362583.180   122771209.70909  23362580.740    95665882.39246
 15 02 27 00 19  0.0000000  0  7G16G18G19G21G22G27G31
  21178743.480   111295056.09209  21178739.900    86723416.71548
  22474719.760   118105555.64209  22474716.740    92030343.75546
  24448190.060   128476106.80408  24448185.820   100111239.63145
  21676320.240   113910260.09608  21676316.680    88761428.46648
  23461706.200   123292209.89308  23461701.760    96071883.33846
  22264740.320   117002024.30609  22264738.480    91170419.29548
  23380971.100   122867838.04809  23380968.640    95741177.00546
 15 02 27 00 19 30.0000000  0  7G16G18G19G21G22G27G31
  21167743.900   111237253.15009  21167740.420    86678375.48348
  22465319.520   118056157.14509  22465316.580    91991851.45246
  24433195.940   128397311.82707  24433191.700   100049840.94645
  21685983.280   113961039.43208  21685979.520    88800996.78048
  23444549.620   123202051.67008  23444545.140    96001630.26746
  22253877.080   116944937.78909  22253875.220    91125936.31948
  23399378.380   122964568.03008  23399375.880    95816550.89446
 15 02 27 00 20  0.0000000  0  7G16G18G19G21G22G27G31
  21156807.760   111179783.38409  21156804.340    86633593.85148
  22455987.420   118007116.68109  22455984.440    91953638.11246
  24418219.760   128318612.23508  24418215.440    99988516.66845
  21695701.080   114012106.48509  21695697.240    88840789.29348
  23427409.180   123111977.98408  23427404.520    95931443.05546
  22243038.740   116887982.52709  22243037.020    91081555.60648
  23417806.160   123061405.76408  23417803.640    95892008.74447
 15 02 27 00 20 30.0000000  0  7G16G18G19G21G22G27G31
  21145933.280   111122637.49009  21145929.880    86589064.58948
  22446721.620   117958424.54909  22446718.660    91915696.21046
  24403259.740   128239996.22608  24403255.260    99927257.44345
  21705471.040   114063447.72409  21705467.180    88880795.45747
  23410283.160   123021980.14608  23410278.360    95861314.96046
  22232223.180   116831146.81409  22232221.580    91037268.05448
  23436251.640   123158336.66908  23436249.080    95967539.14946
 15 02 27 00 21  0.0000000  0  7G16G18G19G21G22G27G31
  21135122.960   111065828.67309  21135119.520    86544797.98048
  22437524.600   117910093.81509  22437521.560    91878035.90746
  24388317.640   128161474.92408  24388313.440    99866072.08045
  21715294.980   114115072.59109  21715291.020    88921022.62447
  23393174.280   122932072.21809  23393169.340    95791256.91146
  22221432.580   116774441.87009  22221430.900    90993082.38748
  23454716.380   123255369.10408  23454713.920    96043148.71847
 15 02 27 00 21 30.0000000  0  7G16G18G19G21G22G27G31
  21124376.200   111009353.94709  21124372.600    86500791.69248
  22428395.760   117862121.49209  22428392.740    91840654.88946
  24373392.540   128083043.10408  24373388.500    99804956.37446
  21725171.440   114166973.58909  21725167.380    88961464.95447
  23376081.980   122842251.55908  23376077.000    95721266.85946
  22210665.880   116717862.50109  22210664.220    90948994.58848
  23473198.900   123352494.94508  23473196.580    96118831.11447
 15 02 27 00 22  0.0000000  0  7G16G18G19G21G22G27G31
  21113693.600   110953216.21809  21113689.880    86457048.00648
  22419335.740   117814510.57109  22419332.700    91803555.48446
  24358484.660   128004701.84708  24358480.800    99743911.28246
  21735100.240   114219149.88208  21735096.180    89002121.80447
  23359007.020   122752521.85208  23359001.920    95651347.68546
  22199923.200   116661409.61509  22199921.600    90905005.33848
  23491698.800   123449712.25808  23491696.640    96194584.73947
 15 02 27 00 22 30.0000000  0  7G16G18G19G21G22G27G31
  21103075.400   110897417.16909  21103071.700    86413568.22948
  22410344.860   117767262.94609  22410341.720    91766739.15846
  24343593.860   127926450.53608  24343589.960    99682936.28545
  21745081.080   114271599.54008  21745077.000    89042991.66747
  23341949.740   122662885.09409  23341944.480    95581500.93846
  22189204.540   116605082.81109  22189203.060    90861114.32848
  23510215.440   123547017.39608  23510213.320    96270406.78546
 15 02 27 00 23  0.0000000  0  7G16G18G19G21G22G27G31
  21092522.380   110841960.50709  21092518.680    86370355.24948
  22401423.740   117720382.05509  22401420.540    91730208.60746
  24328720.540   127848290.89308  24328716.240    99622032.71245
  21755113.800   114324322.05008  21755109.780    89084074.13447
  23324911.040   122573345.87909  23324905.580    95511730.19546
  22178510.140   116548883.67209  22178508.800    90817322.80148
  23528748.500   123644409.03108  23528746.520    96346296.21847
 15 02 27 00 23 30.0000000  0  7G16G18G19G21G22G27G31
  21082034.020   110786843.49009  21082030.300    86327406.92148
  22392571.820   117673864.84609  22392568.620    91693961.45246
  24313863.800   127770218.20208  24313859.140    99561196.88145
  21765197.200   114377310.81608  21765193.340    89125364.08047
  23307890.440   122483902.02009  23307884.860    95442033.75146
  22167839.100   116492807.42009  22167837.860    90773627.03548
  23547296.620   123741879.78108  23547294.760    96422247.27547
 15 02 27 00 24  0.0000000  0  7G16G18G19G21G22G27G31
  21071612.500   110732077.76209  21071608.720    86284732.33248
  22383791.400   117627723.45409  22383788.200    91658007.13746
  24299025.180   127692241.93408  24299021.000    99500436.20345
  21775332.660   114430573.54308  21775328.940    89166867.49648
  23290890.320   122394565.93109  23290884.740    95372421.29246
  22157193.280   116436863.66809  22157192.200    90730034.50748
  23565861.060   123839435.92809  23565859.220    96498264.81946
 15 02 27 00 24 30.0000000  0  7G16G18G19G21G22G27G31
  21061256.440   110677656.24709  21061252.680    86242325.95648
  22375081.000   117581950.09009  22375077.860    91622339.59747
  24284203.280   127614352.82108  24284198.920    99439743.40845
  21785518.220   114484099.18808  21785514.580    89208575.77848
  23273909.420   122305330.64109  23273903.760    95302887.36546
  22146570.940   116381043.10709  22146569.940    90686537.97048
  23584439.440   123937065.22008  23584437.640    96574339.31146
 15 02 27 00 25  0.0000000  0  7G16G18G19G21G22G27G31
  21050967.160   110623585.51609  21050963.400    86200192.91348
  22366441.880   117536551.40809  22366438.740    91586964.00747
  24269398.760   127536555.59608  24269394.420    99379122.25245
  21795754.380   114537890.60608  21795750.780    89250491.15848
  23256949.100   122216203.97009  23256943.480    95233438.07946
  22135972.940   116325350.48309  22135972.040    90643141.12948
  23603032.180   124034769.75808  23603030.480    96650472.44846
 15 02 27 00 25 30.0000000  0  7G16G18G19G21G22G27G31
  21040745.280   110569868.69109  21040741.400    86158335.63648
  22357874.740   117491530.89909  22357871.580    91551883.09746
  24254611.880   127458851.20508  24254607.980    99318573.41646
  21806040.980   114591946.97508  21806037.400    89292612.99847
  23240010.160   122127189.56609  23240004.600    95164076.26746
  22125399.400   116269786.72809  22125398.660    90599844.69648
  23621638.880   124132547.39708  23621637.200    96726662.55146
 15 02 27 00 26  0.0000000  0  7G16G18G19G21G22G27G31
  21030589.620   110516500.40809  21030585.760    86116749.96848
  22349378.560   117446883.11109  22349375.380    91517092.62947
  24239841.420   127381232.28708  24239837.640    99258091.20645
  21816376.020   114646258.29208  21816372.580    89334933.50348
  23223091.680   122038282.67909  23223086.200    95094798.22947
  22114848.940   116214344.54309  22114848.300    90556643.00248
  23640257.600   124230388.35908  23640255.940    96802902.13946
 15 02 27 00 26 30.0000000  0  7G16G18G19G21G22G27G31
  21020502.280   110463491.11309  21020498.400    86075444.02148
  22340955.160   117402617.80909  22340951.940    91482600.19446
  24225088.760   127303706.97708  24225085.020    99197681.92045
  21826760.860   114700831.19408  21826757.500    89377457.83447
  23206195.740   121949494.16709  23206190.220    95025612.43746
  22104323.140   116159032.14709  22104322.760    90513542.43848
  23658889.100   124328297.01608  23658887.440    96879194.40747
 15 02 27 00 27  0.0000000  0  7G16G18G19G21G22G27G31
  21010482.600   110410837.51809  21010478.740    86034415.24248
  22332603.900   117358731.69109  22332600.660    91448403.22346
  24210353.040   127226270.09608  24210349.400    99137341.54545
  21837194.300   114755659.25708  21837191.000    89420180.98248
  23189321.940   121860821.82309  23189316.400    94956517.16147
  22093821.140   116103844.54509  22093820.920    90470539.12248
  23677532.080   124426265.74108  23677530.520    96955533.34346
 15 02 27 00 27 30.0000000  0  7G16G18G19G21G22G27G31
  21000531.900   110358546.20709  21000528.020    85993668.76848
  22324326.040   117315231.43309  22324322.800    91414506.93847
  24195634.960   127148925.85908  24195631.340    99077073.33746
  21847676.840   114810745.12208  21847673.500    89463105.03047
  23172471.520   121772272.63409  23172465.980    94887517.84447
  22083343.760   116048786.11209  22083343.700    90427636.44248
  23696186.860   124524296.22108  23696185.320    97031920.44346
 15 02 27 00 28  0.0000000  0  7G16G18G19G21G22G27G31
  20990649.960   110306616.25409  20990646.120    85953203.87248
  22316121.300   117272115.43809  22316118.100    91380910.06547
  24180933.980   127071671.50608  24180930.460    99016875.17546
  21858207.340   114866082.97408  21858203.960    89506225.42348
  23155644.460   121683846.34409  23155638.940    94818614.29047
  22072890.340   115993853.74109  22072890.440    90384832.00248
  23714852.300   124622382.34609  23714850.820    97108350.88147
 15 02 27 00 28 30.0000000  0  7G16G18G19G21G22G27G31
  20980838.140   110255054.55609  20980834.240    85913025.93148
  22307991.000   117229390.72809  22307987.920    91347618.10647
  24166250.860   126994511.83308  24166247.560    98956750.81645
  21868786.460   114921676.14908  21868783.060    89549544.77547
  23138842.220   121595550.37909  23138836.800    94749812.29747
  22062461.840   115939052.31909  22062462.100    90342129.60348
  23733528.700   124720525.94008  23733527.240    97184826.06546
 15 02 27 00 29  0.0000000  0  7G16G18G19G21G22G27G31
  20971095.300   110203855.36009  20971091.340    85873130.45248
  22299934.040   117187051.48509  22299931.100    91314626.49446
  24151584.400   126917439.00808  24151580.680    98896694.08345
  21879412.400   114977515.60708  21879408.980    89593056.02448
  23122063.820   121507379.76709  23122058.480    94681107.96747
  22052056.780   115884374.26109  22052057.200    90299523.32648
  23752214.020   124818716.65908  23752212.640    97261338.08046
 15 02 27 00 29 30.0000000  0  7G16G18G19G21G22G27G31
  20961423.180   110153027.92109  20961419.140    85833524.65348
  22291952.160   117145106.81409  22291949.280    91281942.34347
  24136935.780   126840460.51808  24136931.980    98836710.89445
  21890086.200   115033606.25808  21890082.660    89636763.01548
  23105311.180   121419344.61509  23105305.880    94612509.20147
  22041676.660   115829826.91109  22041677.180    90257018.89948
  23770909.040   124916958.56708  23770907.680    97337889.91146
 15 02 27 00 30  0.0000000  0  7G16G18G19G21G22G27G31
  20951821.060   110102568.84509  20951817.140    85794205.89448
  22284044.660   117103552.86309  22284041.800    91249562.65147
  24122304.040   126763570.54708  24122300.360    98776796.67545
  21900806.340   115089940.55608  21900802.640    89680659.87048
  23088583.760   121331442.09409  23088578.520    94544013.77547
  22031320.520   115775404.73109  22031321.060    90214612.00048
  23789612.280   125015243.69008  23789611.000    97414475.61746
 15 02 27 00 30 30.0000000  0  7G16G18G19G21G22G27G31
  20942289.920   110052482.55309  20942286.020    85755177.61948
  22276212.360   117062393.96409  22276209.480    91217490.78047
  24107689.700   126686771.70108  24107686.040    98716953.41545
  21911572.960   115146519.51509  21911569.240    89724747.35547
  23071882.580   121243677.35809  23071877.460    94475625.71647
  22020988.740   115721110.27709  22020989.180    90172304.63548
  23808323.580   125113571.43109  23808322.320    97491094.57646
 15 02 27 00 31  0.0000000  0  7G16G18G19G21G22G27G31
  20932830.620   110002773.63009  20932826.720    85716443.39348
  22268456.200   117021634.97409  22268453.220    91185730.54247
  24093093.140   126610066.64708  24093089.580    98657183.29645
  21922386.160   115203343.32808  21922382.400    89769025.64648
  23055208.660   121156055.85809  23055203.660    94407349.27447
  22010681.780   115666946.19109  22010682.060    90130098.84748
  23827042.780   125211940.68208  23827041.400    97567745.52147
 15 02 27 00 31 30.0000000  0  7G16G18G19G21G22G27G31
  20923442.440   109953438.78909  20923438.600    85678000.66848
  22260775.360   116981271.73209  22260772.380    91154278.68047
  24078513.420   126533449.75408  24078510.020    98597481.87446
  21933244.640   115260404.89409  21933240.820    89813489.20047
  23038561.460   121068574.62609  23038556.560    94339182.12347
  22000398.560   115612906.98509  22000398.680    90087990.38148
  23845768.360   125310343.11008  23845767.000    97644422.16046
 15 02 27 00 32  0.0000000  0  7G16G18G19G21G22G27G31
  20914126.360   109904482.64209  20914122.580    85639853.03048
  22253170.700   116941308.90309  22253167.740    91123138.82646
  24063951.080   126456923.75208  24063947.680    98537851.25546
  21944148.560   115317705.45408  21944144.760    89858138.97947
  23021941.900   120981238.77709  23021937.000    94271128.26647
  21990139.660   115558995.58109  21990139.700    90045981.49948
  23864500.540   125408779.96108  23864499.300    97721125.84646
 15 02 27 00 32 30.0000000  0  7G16G18G19G21G22G27G31
  20904883.120   109855909.08609  20904879.360    85602003.50348
  22245642.900   116901749.95009  22245639.920    91092313.67347
  24049406.400   126380490.65308  24049402.900    98478293.04845
  21955097.960   115375244.71908  21955094.060    89902974.77647
  23005351.040   120894053.46808  23005346.040    94203191.68447
  21979905.480   115505213.82709  21979905.340    90004073.64748
  23883238.980   125507249.75108  23883237.880    97797855.37546
 15 02 27 00 33  0.0000000  0  7G16G18G19G21G22G27G31
  20895712.920   109807719.41209  20895709.160    85564453.11048
  22238192.220   116862596.27809  22238189.160    91061804.33147
  24034879.200   126304149.76008  24034875.460    98418806.68145
  21966092.200   115433019.88709  21966088.300    89947994.37947
  22988789.060   120807020.27509  22988784.120    94135373.64847
  21969695.900   115451561.13109  21969695.460    89962266.35248
  23901982.940   125605748.64908  23901981.960    97874607.53746
 15 02 27 00 33 30.0000000  0  7G16G18G19G21G22G27G31
  20886615.680   109759913.24009  20886611.940    85527201.54948
  22230818.520   116823847.14909  22230815.400    91031610.21146
  24020369.140   126227898.41508  24020365.140    98359390.07545
  21977130.360   115491026.24808  21977126.520    89993194.13147
  22972256.200   120720139.97209  22972251.280    94067674.75447
  21959510.460   115398035.18509  21959509.800    89920557.82448
  23920731.420   125704271.37808  23920730.520    97951378.34846
 15 02 27 00 34  0.0000000  0  7G16G18G19G21G22G27G31
  20877591.880   109712493.32909  20877588.220    85490250.97248
  22223522.240   116785504.95809  22223519.080    91001733.18746
  24005876.200   126151737.24108  24005872.080    98300043.75344
  21988212.560   115549263.87308  21988208.620    90038574.09847
  22955753.140   120633416.06109  22955748.220    94000097.71147
  21949349.340   115344636.91209  21949348.440    89878948.79048
  23939484.000   125802815.85508  23939483.140    98028166.05346
 15 02 27 00 34 30.0000000  0  7G16G18G19G21G22G27G31
  20868642.420   109665463.89909  20868638.840    85453604.66448
  22216304.100   116747573.65209  22216301.020    90972176.34147
  23991400.960   126075669.29708  23991396.560    98240770.06345
  21999338.800   115607732.91108  21999334.800    90084134.39247
  22939280.740   120546853.42508  22939275.880    93932646.34947
  21939212.920   115291368.67209  21939211.820    89837441.08348
  23958240.600   125901381.51308  23958239.780    98104970.30046
 15 02 27 00 35  0.0000000  0  7G16G18G19G21G22G27G31
  20859767.740   109618827.56709  20859764.140    85417264.66548
  22209164.580   116710055.55509  22209161.560    90942941.46247
  23976943.420   125999694.43208  23976939.160    98181568.91145
  22010508.720   115666431.43608  22010504.760    90129873.49947
  22922839.640   120460455.32409  22922834.820    93865323.18447
  21929101.340   115238231.10909  21929100.000    89796035.19448
  23977000.700   125999965.80008  23976999.920    98181789.03946
 15 02 27 00 35 30.0000000  0  7G16G18G19G21G22G27G31
  20850968.260   109572586.13709  20850964.700    85381232.38448
  22202104.000   116672952.20309  22202100.980    90914029.77047
  23962503.480   125923812.51908  23962499.280    98122440.21645
  22021721.920   115725357.84408  22021718.180    90175790.17647
  22906430.340   120374224.31209  22906425.560    93798130.22147
  21919014.560   115185224.08909  21919013.080    89754731.03348
  23995763.740   126098565.91508  23995762.960    98258620.09646
 15 02 27 00 36  0.0000000  0  7G16G18G19G21G22G27G31
  20842243.500   109526737.42609  20842239.960    85345506.11848
  22195121.900   116636260.92009  22195118.820    90885439.17547
  23948080.480   125848019.50508  23948076.020    98063380.73946
  22032977.400   115784506.67108  22032973.920    90221880.15847
  22890052.520   120288158.77308  22890047.840    93731066.20147
  21908951.780   115132343.55009  21908950.240    89713525.42948
  24014528.460   126197174.92408  24014527.820    98335458.08946
 15 02 27 00 36 30.0000000  0  7G16G18G19G21G22G27G31
  20833594.200   109481285.19009  20833590.720    85310088.79148
  22188218.900   116599985.40809  22188215.860    90857172.54647
  23933674.780   125772317.29508  23933670.180    98004392.04445
  22044275.120   115843876.97108  22044271.780    90268142.72247
  22873707.060   120202263.34408  22873702.520    93664134.73647
  21898913.380   115079591.53109  21898911.860    89672419.97148
  24033294.700   126295791.91208  24033294.180    98412302.33646
 15 02 27 00 37  0.0000000  0  7G16G18G19G21G22G27G31
  20825021.500   109436235.47609  20825018.100    85274985.11448
  22181396.080   116564131.36009  22181393.080    90829234.33947
  23919287.120   125696710.00208  23919282.600    97945477.29845
  22055615.600   115903471.38808  22055612.140    90314579.92447
  22857395.260   120116544.99808  22857390.880    93597341.25147
  21888900.160   115026972.15409  21888898.700    89631417.86848
  24052062.740   126394418.02708  24052062.280    98489153.75746
 15 02 27 00 37 30.0000000  0  7G16G18G19G21G22G27G31
  20816524.860   109391585.38709  20816521.520    85240192.84148
  22174652.720   116528694.93509  22174649.740    90801621.55047
  23904916.580   125621192.47008  23904912.100    97886632.50945
  22066997.560   115963283.21608  22066993.960    90361186.54747
  22841116.700   120031001.16308  22841112.420    93530683.74047
  21878911.220   114974480.57109  21878909.880    89590515.34048
  24070831.060   126493045.23608  24070830.480    98566006.08146
 15 02 27 00 38  0.0000000  0  7G16G18G19G21G22G27G31
  20808105.300   109347340.46909  20808102.060    85205716.28348
  22167989.960   116493682.08909  22167986.860    90774338.81547
  23890563.900   125545768.74108  23890559.460    97827860.80146
  22078421.040   116023313.31308  22078417.360    90407963.24447
  22824872.620   119945638.40408  22824868.460    93464167.32947
  21868947.300   114922120.68509  21868946.120    89549715.43948
  24089599.740   126591674.60608  24089599.100    98642860.02546
 15 02 27 00 38 30.0000000  0  7G16G18G19G21G22G27G31
  20799762.460   109303498.62509  20799759.200    85171553.80348
  22161407.280   116459090.01409  22161404.120    90747383.95847
  23876228.300   125470434.54108  23876224.020    97769158.86646
  22089884.940   116083556.43508  22089881.320    90454905.92847
  22808662.720   119860455.38808  22808658.700    93397790.98047
  21859007.640   114869888.48109  21859006.620    89509015.03548
  24108367.420   126690298.98108  24108366.820    98719710.14446
 15 02 27 00 39  0.0000000  0  7G16G18G19G21G22G27G31
  20791497.160   109260064.27209  20791493.880    85137708.85548
  22154905.560   116424923.22409  22154902.340    90720760.49547
  23861910.220   125395192.20008  23861906.280    97710528.50946
  22101389.720   116144014.04908  22101386.240    90502015.74347
  22792488.060   119775457.64008  22792484.200    93331559.00147
  21849092.840   114817786.76209  21849091.920    89468416.30348
  24127134.060   126788918.43208  24127133.500    98796556.39246
 15 02 27 00 39 30.0000000  0  7G16G18G19G21G22G27G31
  20783310.400   109217042.55009  20783307.120    85104185.43548
  22148485.600   116391186.07709  22148482.340    90694471.83047
  23847610.300   125320045.46308  23847606.440    97651972.65546
  22112935.380   116204686.42408  22112931.920    90549292.91247
  22776349.840   119690651.02408  22776346.000    93265475.94247
  21839203.560   114765818.90209  21839202.660    89427921.87248
  24145899.920   126887533.60808  24145899.280    98873399.30446
 15 02 27 00 40  0.0000000  0  7G16G18G19G21G22G27G31
  20775202.060   109174433.05409  20775198.760    85070983.22248
  22142147.140   116357877.45309  22142143.920    90668517.06247
  23833327.900   125244991.49708  23833324.160    97593489.08046
  22124521.280   116265570.21409  22124517.640    90596734.81647
  22760248.040   119606035.66008  22760244.240    93199541.91647
  21829339.340   114713982.52209  21829338.460    89387529.89248
  24164663.880   126986138.80908  24164663.380    98950234.41346
 15 02 27 00 40 30.0000000  0  7G16G18G19G21G22G27G31
  20767172.420   109132236.71909  20767169.060    85038102.96648
  22135890.460   116324998.59309  22135887.340    90642897.18347
  23819062.980   125170029.43508  23819059.280    97535077.10646
  22136146.740   116326662.16908  22136143.000    90644338.93347
  22744183.040   119521613.33908  22744179.180    93133758.31647
  21819499.960   114662276.76009  21819499.140    89347239.70048
  24183425.340   127084730.33708  24183424.840    99027058.89946
 15 02 27 00 41  0.0000000  0  7G16G18G19G21G22G27G31
  20759221.760   109090455.61109  20759218.380    85005546.25648
  22129715.820   116292550.70409  22129712.800    90617613.12247
  23804815.580   125095159.42608  23804811.920    97476736.88546
  22147811.380   116387960.34508  22147807.600    90692103.74547
  22728155.220   119437386.57308  22728151.340    93068127.08747
  21809685.520   114610701.90209  21809684.780    89307051.51248
  24202183.620   127183305.29908  24202183.140    99103870.48846
 15 02 27 00 41 30.0000000  0  7G16G18G19G21G22G27G31
  20751350.400   109049091.15709  20751347.040    84973314.21248
  22123623.360   116260534.67309  22123620.440    90592665.57247
  23790585.700   125020381.19408  23790581.940    97418468.15445
  22159514.900   116449462.90208  22159511.240    90740027.79947
  22712165.140   119353358.09408  22712161.240    93002650.37447
  21799895.980   114559257.72709  21799895.220    89266965.15248
  24220938.200   127281860.68808  24220937.700    99180666.73145
 15 02 27 00 42  0.0000000  0  7G16G18G19G21G22G27G31
  20743558.560   109008144.47709  20743555.180    84941407.70448
  22117613.380   116228951.86009  22117610.480    90568055.59847
  23776373.260   124945693.92908  23776369.340    97360270.31245
  22171256.860   116511167.25508  22171253.280    90788109.10747
  22696213.260   119269529.89408  22696209.240    92937329.70847
  21790131.260   114507943.89809  21790130.560    89226980.35448
  24239688.440   127380393.30508  24239688.000    99257445.27946
 15 02 27 00 42 30.0000000  0  7G16G18G19G21G22G27G31
  20735847.260   108967620.92509  20735843.840    84909830.91148
  22111686.700   116197806.84209  22111683.780    90543786.76447
  23762178.780   124871101.19608  23762174.480    97302146.10145
  22183037.520   116573074.74408  22183033.880    90836348.71147
  22680300.580   119185907.94908  22680296.480    92872169.77547
  21780392.000   114456763.72309  21780391.340    89187099.70448
  24258434.380   127478903.19108  24258433.920    99334206.00045
 15 02 27 00 43  0.0000000  0  7G16G18G19G21G22G27G31
  20728216.520   108927520.81709  20728213.060    84878584.07948
  22105843.340   116167099.60409  22105840.360    90519859.05547
  23748001.920   124796601.32008  23747997.520    97244094.27846
  22194856.180   116635182.21708  22194852.460    90884744.12847
  22664427.380   119102493.39509  22664423.200    92807171.44747
  21770678.000   114405716.03309  21770677.360    89147322.29348
  24277175.320   127577386.59908  24277174.800    99410946.07046
 15 02 27 00 43 30.0000000  0  7G16G18G19G21G22G27G31
  20720666.520   108887844.94909  20720662.980    84847667.81248
  22100083.340   116136830.65009  22100080.340    90496272.85947
  23733842.540   124722193.50208  23733838.160    97186114.16946
  22206712.220   116697486.35308  22206708.500    90933292.80047
  22648594.020   119019288.16609  22648589.700    92742336.22947
  21760989.040   114354800.01209  21760988.420    89107647.49148
  24295910.500   127675839.47108  24295910.040    99487662.27645
 15 02 27 00 44  0.0000000  0  7G16G18G19G21G22G27G31
  20713198.500   108848600.07409  20713194.920    84817087.38648
  22094407.820   116107005.63009  22094404.800    90473032.59247
  23719701.360   124647882.29308  23719697.100    97128209.35946
  22218606.400   116759990.69608  22218602.520    90981997.47447
  22632801.840   118936299.25409  22632797.420    92677669.55647
  21751326.120   114304020.52909  21751325.460    89068079.06648
  24314640.300   127774263.98308  24314639.980    99564356.42746
 15 02 27 00 44 30.0000000  0  7G16G18G19G21G22G27G31
  20705811.560   108809781.31309  20705807.940    84786839.00348
  22088815.860   116077619.62209  22088812.860    90450134.41047
  23705577.340   124573661.13608  23705573.520    97070374.72246
  22230537.080   116822686.75908  22230533.160    91030851.54347
  22617050.080   118853523.00409  22617045.680    92613168.60948
  21741687.900   114253371.09609  21741687.200    89028611.98048
  24333362.880   127872650.38608  24333362.600    99641020.78245
 15 02 27 00 45  0.0000000  0  7G16G18G19G21G22G27G31
  20698506.480   108771392.94609  20698502.840    84756925.98748
  22083308.180   116048676.63109  22083305.240    90427581.43647
  23691471.000   124499532.54708  23691467.460    97012612.21346
  22242504.340   116885575.18708  22242500.520    91079855.51147
  22601339.860   118770964.87009  22601335.420    92548837.61847
  21732074.960   114202854.37509  21732074.180    88989248.30348
  24352078.260   127970998.78808  24352077.960    99717655.59545
 15 02 27 00 45 30.0000000  0  7G16G18G19G21G22G27G31
  20691283.760   108733437.37509  20691280.140    84727350.22448
  22077885.060   116020178.02709  22077882.140    90405374.74847
  23677382.500   124425497.11908  23677378.840    96954922.28846
  22254507.840   116948654.44908  22254504.200    91129008.16647
  22585671.680   118688627.71109  22585667.100    92484678.81548
  21722487.420   114152471.12309  21722486.600    88949988.63648
  24370785.900   128069306.69108  24370785.560    99794258.81446
 15 02 27 00 46  0.0000000  0  7G16G18G19G21G22G27G31
  20684143.620   108695915.75709  20684140.020    84698112.59948
  22072546.660   115992124.74809  22072543.740    90383515.05947
  23663311.720   124351554.21608  23663307.960    96897304.46046
  22266547.180   117011922.00508  22266543.640    91178307.54447
  22570045.900   118606513.63009  22570041.260    92420693.83448
  21712925.180   114102220.92409  21712924.360    88910832.65348
  24389485.240   128167570.88108  24389485.020    99870827.92545
 15 02 27 00 46 30.0000000  0  7G16G18G19G21G22G27G31
  20677087.160   108658833.72509  20677083.580    84669217.50848
  22067294.020   115964522.11509  22067291.100    90362006.51747
  23649259.300   124277707.64608  23649255.480    96839761.70545
  22278622.740   117075379.92708  22278619.220    91227755.26946
  22554463.780   118524629.00809  22554459.120    92356887.66147
  21703389.040   114052107.77809  21703388.220    88871783.45348
  24408176.460   128265792.47508  24408176.360    99947363.86045
 15 02 27 00 47  0.0000000  0  7G16G18G19G21G22G27G31
  20670113.240   108622185.48109  20670109.640    84640660.43048
  22062126.040   115937364.32009  22062123.120    90340844.59747
  23635223.760   124203949.84708  23635219.700    96782288.11046
  22290732.840   117139019.10808  22290729.320    91277344.22547
  22538924.440   118442969.07009  22538919.800    92293256.55148
  21693877.600   114002124.46909  21693876.820    88832835.42648
  24426857.560   128363960.96808  24426857.640   100023858.33945
 15 02 27 00 47 30.0000000  0  7G16G18G19G21G22G27G31
  20663223.780   108585981.06109  20663220.180    84612449.19048
  22057044.340   115910660.00109  22057041.400    90320036.05747
  23621206.560   124130289.05908  23621202.420    96724890.10746
  22302878.640   117202845.65208  22302875.100    91327079.18847
  22523429.920   118361544.62609  22523425.240    92229808.95748
  21684392.420   113952279.18609  21684391.600    88793994.95248
  24445529.640   128462082.06508  24445529.960   100100316.02246
 15 02 27 00 48  0.0000000  0  7G16G18G19G21G22G27G31
  20656418.100   108550216.97909  20656414.540    84584581.07448
  22052048.140   115884404.95509  22052045.200    90299577.58047
  23607206.920   124056720.24408  23607202.700    96667563.77846
  22315058.820   117266852.90108  22315055.260    91376954.95647
  22507979.720   118280353.26709  22507974.960    92166542.98348
  21674932.520   113902566.98909  21674931.620    88755258.17548
  24464191.120   128560147.47508  24464191.540   100176730.22544
 15 02 27 00 48 30.0000000  0  7G16G18G19G21G22G27G31
  20649696.900   108514897.20509  20649693.400    84557059.18048
  22047138.280   115858603.29309  22047135.340    90279472.41247
  23593225.100   123983245.31808  23593220.960    96610310.60846
  22327273.480   117331041.01008  22327269.880    91426971.66147
  22492574.800   118199399.66909  22492569.940    92103462.27448
  21665498.320   113852990.40409  21665497.480    88716627.08848
  24482841.960   128658156.98708  24482842.460   100253100.87846
 15 02 27 00 49  0.0000000  0  7G16G18G19G21G22G27G31
  20643060.640   108480023.91209  20643057.180    84529885.18448
  22042315.040   115833256.72809  22042312.080    90259721.85847
  23579261.220   123909864.85408  23579257.440    96553131.05846
  22339522.300   117395408.57808  22339518.700    91477128.19947
  22477215.640   118118686.82509  22477210.760    92040569.17148
  21656090.060   113803550.10509  21656089.200    88678102.17848
  24501481.700   128756108.27608  24501482.420   100329426.14945
 15 02 27 00 49 30.0000000  0  7G16G18G19G21G22G27G31
  20636509.240   108445596.32809  20636505.800    84503058.49548
  22037578.220   115808364.13509  22037575.200    90240325.04448
  23565315.100   123836577.03908  23565311.260    96496023.68246
  22351804.540   117459951.68608  22351800.840    91527421.52247
  22461902.320   118038215.26809  22461897.540    91977864.09148
  21646707.360   113754243.90709  21646706.420    88639681.77848
  24520109.480   128853996.52008  24520110.240   100405702.32045
 15 02 27 00 50  0.0000000  0  7G16G18G19G21G22G27G31
  20630043.440   108411618.29009  20630040.020    84476582.10848
  22032928.300   115783928.35909  22032925.220    90221284.19647
  23551386.800   123763382.99208  23551382.720    96438989.39546
  22364120.160   117524670.28508  22364116.380    91577851.58547
  22446635.820   117957989.69309  22446631.000    91915350.67648
  21637350.560   113705073.91709  21637349.540    88601367.51148
  24538725.000   128951820.80508  24538725.980   100481928.65445
 15 02 27 00 50 30.0000000  0  7G16G18G19G21G22G27G31
  20623663.760   108378092.76209  20623660.360    84450458.31348
  22028365.740   115759951.76909  22028362.640    90202601.13747
  23537476.560   123690284.65008  23537472.280    96382029.67045
  22376469.080   117589563.75108  22376465.060    91628417.92446
  22431416.940   117878013.99609  22431412.080    91853031.95948
  21628019.880   113656041.66709  21628018.860    88563160.56748
  24557327.980   129049579.26308  24557329.200   100558103.65645
 15 02 27 00 51  0.0000000  0  7G16G18G19G21G22G27G31
  20617370.500   108345021.26809  20617367.060    84424688.31848
  22023890.720   115736435.48009  22023887.660    90184276.76447
  23523584.520   123617281.58208  23523579.960    96325144.15846
  22388850.920   117654630.60208  22388846.880    91679119.34647
  22416245.980   117798290.27109  22416241.100    91790909.60148
  21618715.480   113607147.47909  21618714.460    88525061.18948
  24575918.040   129147269.36308  24575919.440   100634225.41345
 15 02 27 00 51 30.0000000  0  7G16G18G19G21G22G27G31
  20611163.500   108312403.21609  20611160.000    84399271.66448
  22019503.100   115713378.46809  22019500.060    90166310.28547
  23509710.260   123544371.80308  23509706.000    96268331.35846
  22401264.860   117719866.39208  22401260.800    91729952.42647
  22401123.160   117718819.31309  22401118.200    91728984.19748
  21609436.980   113558389.31609  21609435.980    88487067.82448
  24594494.260   129244886.49208  24594495.680   100710290.32845
 15 02 27 00 52  0.0000000  0  7G16G18G19G21G22G27G31
  20605043.340   108280241.22909  20605039.720    84374210.37048
  22015203.120   115690781.97809  22015200.120    90148702.63347
  23495853.980   123471556.36908  23495849.800    96211592.08546
  22413710.920   117785270.64508  22413706.800    91780916.77347
  22386049.060   117639604.56109  22386044.120    91667258.44148
  21600184.580   113509768.08309  21600183.660    88449181.15748
  24613056.200   129342428.76308  24613057.640   100786296.87245
 15 02 27 00 52 30.0000000  0  7G16G18G19G21G22G27G31
  20599010.220   108248536.70709  20599006.520    84349505.55648
  22010991.040   115668647.53509  22010988.040    90131455.03447
  23482015.720   123398835.03108  23482011.300    96154926.10946
  22426188.560   117850841.03308  22426184.420    91832010.58046
  22371024.200   117560648.38609  22371019.300    91605734.17648
  21590958.320   113461284.00109  21590957.420    88411401.36748
  24631603.300   129439892.93908  24631604.740   100862242.51545
 15 02 27 00 53  0.0000000  0  7G16G18G19G21G22G27G31
  20593064.540   108217291.81109  20593060.780    84325158.87948
  22006867.260   115646976.93209  22006864.180    90114568.86448
  23468195.380   123326207.69508  23468190.860    96098333.39247
  22438697.480   117916576.01408  22438693.400    91883232.62747
  22356049.080   117481953.57909  22356044.140    91544413.56548
  21581758.300   113412937.63309  21581757.440    88373728.87248
  24650135.180   129537276.82108  24650136.840   100938125.57645
 15 02 27 00 53 30.0000000  0  7G16G18G19G21G22G27G31
  20587207.440   108186512.37509  20587203.600    84301174.89548
  22002832.640   115625775.00009  22002829.480    90098047.87648
  23454393.680   123253679.13208  23454389.280    96041817.66446
  22451238.320   117982478.43608  22451234.340    91934585.15246
  22341125.000   117403526.97209  22341120.020    91483301.93448
  21572585.440   113364733.63409  21572584.620    88336167.31948
  24668652.100   129634582.33908  24668653.980   101013947.66745
 15 02 27 00 54  0.0000000  0  7G16G18G19G21G22G27G31
  20581437.840   108156192.84809  20581434.040    84277549.28848
  21998886.080   115605035.59309  21998882.900    90081887.31147
  23440609.220   123181241.84508  23440604.900    95985373.03946
  22463809.260   118048539.18008  22463805.240    91986061.06046
  22326251.120   117325364.33909  22326246.120    91422396.01348
  21563438.360   113316665.03109  21563437.620    88298711.27548
  24687152.160   129731799.14708  24687154.000   101089700.64545
 15 02 27 00 54 30.0000000  0  6G16G18G19G21G22G27
  20575755.460   108126332.04509  20575751.840    84254281.13548
  21995027.200   115584757.20709  21995024.060    90066085.97647
  23426841.580   123108893.08908  23426837.120    95928997.39746
  22476409.400   118114753.73508  22476405.380    92037656.79546
  22311427.440   117247465.32509  22311422.400    91361695.49248
  21554316.560   113268729.17009  21554315.840    88261358.66248
 15 02 27 00 55  0.0000000  0  6G16G18G19G21G22G27
  20570163.140   108096944.39709  20570159.660    84231381.66748
