     2.11           OBSERVATION DATA    G                   RINEX VERSION / TYPE
SPIDER V4,0,0,3554                      2015 03 24 06:20    PGM / RUN BY / DATE 
CNAJ                                                        MARKER NAME         
CNAJ                                                        MARKER NUMBER       
                                                            OBSERVER / AGENCY   
496642              LEICA GRX1200+GNSS  8.10/4.007          REC # / TYPE / VERS 
10321018            LEIAR25         NONE                    ANT # / TYPE        
  5206098.7325   612081.0247  3621806.3029                  APPROX POSITION XYZ 
        0.0720        0.0000        0.0000                  ANTENNA: DELTA H/E/N
     1     1                                                WAVELENGTH FACT L1/2
     4    C1    L1    P2    L2                              # / TYPES OF OBSERV 
    30.000                                                  INTERVAL            
  2015    01    18    00    00    0.0000000     GPS         TIME OF FIRST OBS   
  2015    01    18    23    59   30.0000000     GPS         TIME OF LAST OBS    
    16                                                      LEAP SECONDS        
    30                                                      # OF SATELLITES     
   G 1   817   817   817   817                              PRN / # OF OBS      
   G 2   945   943   944   943                              PRN / # OF OBS      
   G 3   848   848   848   848                              PRN / # OF OBS      
   G 4   842   842   841   841                              PRN / # OF OBS      
   G 5   651   651   651   651                              PRN / # OF OBS      
   G 6   812   812   804   804                              PRN / # OF OBS      
   G 7   668   668   665   665                              PRN / # OF OBS      
   G 9   810   810   808   808                              PRN / # OF OBS      
   G10   760   760   760   760                              PRN / # OF OBS      
   G11   780   780   780   780                              PRN / # OF OBS      
   G12   843   843   841   841                              PRN / # OF OBS      
   G13   800   796   797   796                              PRN / # OF OBS      
   G14   948   948   944   944                              PRN / # OF OBS      
   G15   705   702   697   696                              PRN / # OF OBS      
   G16   665   665   662   662                              PRN / # OF OBS      
   G17   939   939   938   938                              PRN / # OF OBS      
   G18   903   903   902   902                              PRN / # OF OBS      
   G19   759   759   759   759                              PRN / # OF OBS      
   G20   845   845   845   845                              PRN / # OF OBS      
   G21   743   743   741   741                              PRN / # OF OBS      
   G22   655   655   654   654                              PRN / # OF OBS      
   G23   753   753   748   748                              PRN / # OF OBS      
   G24   830   830   830   830                              PRN / # OF OBS      
   G25   862   861   861   860                              PRN / # OF OBS      
   G27   797   796   797   796                              PRN / # OF OBS      
   G28   873   872   869   869                              PRN / # OF OBS      
   G29   774   771   770   770                              PRN / # OF OBS      
   G30   709   709   706   706                              PRN / # OF OBS      
   G31   850   849   848   848                              PRN / # OF OBS      
   G32   773   773   766   766                              PRN / # OF OBS      
BIT 2 OF LLI FLAGS DATA COLLECTED UNDER A/S CONDITION       COMMENT             
SNR is mapped to RINEX snr flag value [2-9]                 COMMENT             
Lx:     = 25dBHz -> 1; 26-27dBHz -> 2; 28-31dBHz -> 3       COMMENT             
       32-35dBHz -> 4; 36-38dBHz -> 5; 39-41dBHz -> 6       COMMENT             
       42-44dBHz -> 7; 45-48dBHz -> 8; >=49dBHz -> 9        COMMENT             
                                                            END OF HEADER       
 15 01 18 00 00  0.0000000  0  7G02G12G14G21G25G29G31
  24177693.620   127054658.79607  24177688.620    99003598.40044
  23083367.540   121304055.42908  23083363.660    94522717.57543
  23283874.120   122357586.55307  23283871.580    95343541.18944
  23219029.440   122016954.90708  23219028.140    95078094.97245
  20858793.940   109613746.19709  20858794.260    85413352.96148
  20160558.480   105944717.24708  20160559.040    82554368.98948
  21695344.460   114009819.50709  21695338.640    88838814.73646
 15 01 18 00 00 30.0000000  0  7G02G12G14G21G25G29G31
  24191460.260   127127002.00607  24191454.660    99059969.72844
  23095781.180   121369289.49508  23095776.800    94573549.33543
  23297364.800   122428483.76406  23297363.460    95398785.71545
  23201906.800   121926973.94908  23201905.460    95007980.01745
  20862640.900   109633962.34709  20862641.280    85429105.80848
  20164144.340   105963559.95408  20164144.640    82569051.61448
  21683548.380   113947832.16209  21683543.040    88790512.90746
 15 01 18 00 01  0.0000000  0  7G02G12G14G21G25G29G31
  24205288.820   127199670.93807  24205282.780    99116594.88644
  23108220.960   121434660.82808  23108216.300    94624488.04644
  23310901.460   122499624.89404  23310901.700    95454220.33244
  23184817.460   121837168.63808  23184815.880    94938001.95744
  20866533.940   109654420.25309  20866534.200    85445047.03148
  20167803.460   105982786.50008  20167803.280    82584033.32848
  21671828.540   113886244.26009  21671823.800    88742522.33447
 15 01 18 00 01 30.0000000  0  7G02G12G14G21G25G29G31
  24219178.000   127272658.90307  24219171.720    99173468.60744
  23120685.980   121500165.66208  23120681.460    94675530.78344
  23324483.180   122571002.62705  23324484.660    95509839.24445
  23167761.240   121747537.60508  23167759.480    94868159.64044
  20870472.260   109675116.25909  20870472.320    85461173.77947
  20171534.660   106002391.01708  20171533.920    82599309.56948
  21660184.600   113825053.80509  21660180.460    88694841.46447
 15 01 18 00 02  0.0000000  0  7G02G12G14G21G25G29G31
  24233126.720   127345959.71107  24233120.360    99230586.09744
  23133175.500   121565799.66008  23133171.320    94726674.15745
  23338109.380   122642609.50407  23338111.160    95565636.70644
  23150737.640   121658078.59008  23150735.540    94798451.38344
  20874455.140   109696046.65309  20874454.900    85477483.16447
  20175336.720   106022367.73508  20175335.420    82614875.83848
  21648616.000   113764258.72009  21648612.340    88647468.66447
 15 01 18 00 02 30.0000000  0  7G02G12G14G21G25G29G31
  24247134.740   127419571.86207  24247128.600    99287946.21644
  23145689.820   121631563.49408  23145686.200    94777918.65045
  23351779.420   122714443.25006  23351780.720    95621611.04045
  23133747.380   121568794.94108  23133744.900    94728879.77044
  20878482.920   109717212.69809  20878482.400    85493976.18247
  20179209.460   106042715.86009  20179207.620    82630731.52248
  21637123.280   113703862.22709  21637119.880    88600406.46048
 15 01 18 00 03  0.0000000  0  7G02G12G14G21G25G29G31
  24261202.980   127493500.67007  24261197.100    99345553.06244
  23158229.920   121697464.54808  23158226.400    94829270.06945
  23365493.640   122786507.41207  23365494.220    95677764.87045
  23116792.180   121479695.81707  23116789.320    94659451.93844
  20882556.960   109738621.76009  20882556.320    85510658.56247
  20183153.760   106063440.28809  20183151.440    82646880.42748
  21625708.080   113643873.40909  21625704.760    88553661.93448
 15 01 18 00 03 30.0000000  0  7G02G12G14G21G25G29G31
  24275330.060   127567739.02907  24275324.540    99403401.09544
  23170795.160   121763497.25008  23170791.900    94880724.15645
  23379250.260   122858794.58907  23379249.920    95734092.49445
  23099871.680   121390778.76708  23099869.000    94590165.96244
  20886676.420   109760269.54209  20886675.700    85527526.95647
  20187168.340   106084534.82309  20187165.720    82663317.71748
  21614369.700   113584289.07909  21614366.440    88507232.58848
 15 01 18 00 04  0.0000000  0  7G02G12G14G21G25G29G31
  24289516.480   127642289.69807  24289511.260    99461492.52744
  23183386.660   121829668.03908  23183384.140    94932285.75245
  23393049.420   122931306.33807  23393048.400    95790595.12545
  23082987.220   121302050.90908  23082984.860    94521027.46244
  20890842.340   109782161.41309  20890841.500    85544585.55447
  20191253.880   106106003.04309  20191251.020    82680046.20448
  21603109.600   113525116.79409  21603106.340    88461124.32048
 15 01 18 00 04 30.0000000  0  7G02G12G14G21G25G29G31
  24303761.080   127717146.40407  24303756.080    99519822.40544
  23196003.980   121895972.36908  23196001.500    94983951.45845
  23406889.760   123004035.30708  23406888.200    95847266.98945
  23066138.520   121213510.70108  23066136.420    94452035.16545
  20895054.000   109804293.60709  20895053.020    85561831.42847
  20195409.280   106127838.94209  20195406.200    82697061.18348
  21591927.420   113466354.39009  21591924.140    88415335.44348
 15 01 18 00 05  0.0000000  0  7G02G12G14G21G25G29G31
  24318063.320   127792305.88408  24318058.360    99578388.21344
  23208646.360   121962408.59808  23208643.740    95035719.92244
  23420770.420   123076976.88807  23420768.560    95904104.54045
  23049325.740   121125158.86908  23049323.640    94383189.65045
  20899311.220   109826665.31809  20899310.180    85579263.94047
  20199633.920   106150039.46509  20199630.740    82714360.29348
  21580823.400   113408002.83709  21580820.140    88369866.70848
 15 01 18 00 05 30.0000000  0  7G02G12G14G21G25G29G31
  24332423.320   127867768.80308  24332418.380    99637190.51444
  23221314.680   122028979.99208  23221311.780    95087593.72545
  23434691.460   123150131.31008  23434689.540    95961107.97345
  23032549.860   121037000.92808  23032547.760    94314495.21945
  20903614.620   109849280.12609  20903613.680    85596885.86947
  20203928.120   106172606.06709  20203924.860    82731944.66248
  21569798.460   113350066.96109  21569795.260    88324721.87048
 15 01 18 00 06  0.0000000  0  7G02G12G14G21G25G29G31
  24346840.480   127943531.97308  24346835.460    99696226.79044
  23234008.320   122095685.82307  23234005.380    95139572.26545
  23448652.080   123223494.27708  23448649.940    96018273.86045
  23015811.060   120949038.00308  23015808.920    94245952.74845
  20907964.120   109872137.41009  20907963.360    85614696.75047
  20208291.360   106195535.88609  20208288.020    82749812.06848
  21558852.880   113292548.01009  21558849.720    88279901.92847
 15 01 18 00 06 30.0000000  0  7G02G12G14G21G25G29G31
  24361314.900   128019595.88408  24361309.880    99755497.36644
  23246728.000   122162528.27108  23246724.900    95191657.25544
  23462652.220   123297065.30408  23462649.860    96075601.88044
  22999110.260   120861275.20608  22999108.120    94177566.22045
  20912360.340   109895240.38509  20912359.760    85632699.05647
  20212723.960   106218830.18409  20212720.540    82767963.47948
  21547987.560   113235450.83009  21547984.380    88235410.61747
 15 01 18 00 07  0.0000000  0  7G02G12G14G21G25G29G31
  24375845.420   128095954.99407  24375840.220    99814997.96744
  23259473.080   122229504.39407  23259469.760    95243846.42444
  23476690.660   123370837.63107  23476688.140    96133086.79345
  22982447.260   120773711.14108  22982445.120    94109334.54145
  20916802.720   109918585.77809  20916802.260    85650890.26547
  20217224.840   106242483.53709  20217221.400    82786394.67648
  21537202.160   113178773.63909  21537198.900    88191246.59447
 15 01 18 00 07 30.0000000  0  7G02G12G14G21G25G29G31
  24390432.020   128172608.89907  24390426.800    99874728.25644
  23272243.980   122296615.66408  23272240.540    95296140.91144
  23490767.100   123444809.86207  23490764.340    96190727.42144
  22965822.800   120686349.90208  22965820.700    94041260.91245
  20921291.660   109942175.83209  20921291.280    85669272.12147
  20221794.080   106266496.12009  20221790.700    82805105.78348
  21526497.580   113122520.69409  21526494.080    88147413.15147
 15 01 18 00 08  0.0000000  0  7G02G12G14G21G25G29G31
  24405074.280   128249555.04107  24405069.020    99934686.27844
  23285040.520   122363862.00607  23285036.860    95348540.61844
  23504880.740   123518978.41007  23504877.560    96248521.09543
  22949237.260   120599193.46808  22949234.960    93973346.86445
  20925827.140   109966010.78609  20925826.880    85687844.79647
  20226431.320   106290865.65009  20226428.020    82824095.02648
  21515874.080   113066693.55909  21515870.100    88103911.49247
 15 01 18 00 08 30.0000000  0  7G02G12G14G21G25G29G31
  24419772.300   128326793.91007  24419767.060    99994872.40544
  23297863.460   122431246.52008  23297859.100    95401048.02944
  23519031.500   123593343.38206  23519027.880    96306467.75043
  22932691.780   120512247.10908  22932689.300    93905596.51044
  20930409.880   109990093.77809  20930409.680    85706610.75647
  20231136.800   106315593.39009  20231133.560    82843363.38948
  21505332.660   113011296.99309  21505327.820    88060745.33347
 15 01 18 00 09  0.0000000  0  7G02G12G14G21G25G29G31
  24434525.120   128404320.61508  24434519.620   100055282.83144
  23310712.160   122498766.53608  23310707.540    95453661.02144
  23533218.160   123667898.45605  23533214.500    96364562.60643
  22916186.160   120425509.94708  22916183.100    93838009.13844
  20935039.460   110014422.52509  20935039.300    85725568.20648
  20235909.660   106340674.71809  20235906.360    82862907.28348
  21494873.060   112956330.09709  21494867.260    88017913.97947
 15 01 18 00 09 30.0000000  0  7G02G12G14G21G25G29G31
  24449332.080   128482131.18407  24449326.280   100115914.44044
  23323586.200   122566420.05808  23323581.560    95506378.00144
  23547440.000   123742638.77106  23547437.000    96422801.90043
  22899720.640   120338982.58008  22899717.200    93770585.22645
  20939715.620   110038995.77709  20939715.540    85744716.18748
  20240749.140   106366106.08709  20240745.840    82882723.93648
  21484495.320   112901793.41009  21484488.780    87975417.83547
 15 01 18 00 10  0.0000000  0  7G02G12G14G21G25G29G31
  24464192.600   128560222.89807  24464186.240   100176765.10944
  23336485.700   122634206.43908  23336480.700    95559198.58944
  23561696.540   123817560.70006  23561694.580    96481182.53643
  22883295.560   120252667.05108  22883291.740    93703326.43044
  20944438.260   110063813.47609  20944438.280    85764054.65348
  20245654.740   106391885.47209  20245651.620    82902811.78948
  21474199.660   112847688.55809  21474192.640    87933258.20847
 15 01 18 00 10 30.0000000  0  7G02G12G14G21G25G29G31
  24479107.360   128638599.78107  24479100.100   100237838.01443
  23349411.520   122702131.74508  23349405.780    95612127.35043
  23575988.260   123892666.72806  23575987.380    96539706.63443
  22866912.380   120166571.37008  22866908.620    93636238.91245
  20949208.580   110088881.97609  20949208.720    85783588.54148
  20250627.220   106418017.39209  20250624.580    82923174.33648
  21463987.580   112794023.26309  21463980.580    87891441.07247
 15 01 18 00 11  0.0000000  0  7G02G12G14G21G25G29G31
  24494074.760   128717252.79307  24494066.900   100299126.06244
  23362362.640   122770189.66008  23362356.160    95665159.52344
  23590313.420   123967947.09805  23590313.040    96598366.65244
  22850570.060   120080690.83908  22850566.320    93569319.07645
  20954025.460   110114194.75209  20954025.440    85803312.77648
  20255664.920   106444492.58709  20255662.840    82943804.36448
  21453858.100   112740792.35009  21453851.280    87849962.43947
 15 01 18 00 11 30.0000000  0  7G02G12G14G21G25G29G31
  24509094.720   128796182.02007  24509086.680   100360629.36244
  23375339.480   122838383.05908  23375332.760    95718297.21943
  23604672.140   124043401.56906  23604671.760    96657162.23344
  22834269.700   119995030.90808  22834266.060    93502571.13045
  20958889.640   110139755.25509  20958889.160    85823230.06348
  20260768.360   106471312.61909  20260766.420    82964703.09548
  21443812.240   112688001.21509  21443805.600    87808826.48947
 15 01 18 00 12  0.0000000  0  7G02G12G14G21G25G29G31
  24524167.340   128875388.35307  24524158.940   100422348.58744
  23388342.560   122906714.83708  23388335.960    95771542.77744
  23619064.080   124119029.85906  23619063.820    96716093.30545
  22818012.220   119909596.79608  22818008.660    93435999.15445
  20963801.680   110165566.88509  20963800.780    85843343.00848
  20265937.740   106498478.46509  20265935.760    82985871.29048
  21433850.880   112635654.63209  21433844.740    87768036.94047
 15 01 18 00 12 30.0000000  0  7G02G12G14G21G25G29G31
  24539292.040   128954868.72007  24539283.600   100484281.30644
  23401371.780   122975183.52208  23401365.600    95824894.97644
  23633488.480   124194827.73406  23633488.320    96775156.47145
  22801797.700   119824389.00708  22801794.260    93369603.52245
  20968761.380   110191629.05209  20968760.120    85863651.16148
  20271172.500   106525987.67209  20271170.380    83007307.04448
  21423974.180   112583753.18509  21423968.700    87727594.24647
 15 01 18 00 13  0.0000000  0  7G02G12G14G21G25G29G31
  24554468.500   129034623.04306  24554460.840   100546427.55844
  23414427.340   123043791.45208  23414421.960    95878355.65444
  23647944.880   124270793.94806  23647944.480    96834350.83044
  22785627.080   119739412.13608  22785623.860    93303387.85645
  20973769.140   110217944.12109  20973767.700    85884156.41348
  20276472.660   106553840.23209  20276470.240    83029010.35248
  21414183.040   112532301.23009  21414178.080    87687501.81347
 15 01 18 00 13 30.0000000  0  7G02G12G14G21G25G29G31
  24569696.160   129114646.77606  24569689.680   100608783.71745
  23427509.040   123112536.50708  23427504.120    95931923.22144
  23662432.180   124346923.24506  23662431.560    96893672.30545
  22769500.500   119654666.46508  22769497.240    93237352.31145
  20978824.700   110244510.38509  20978823.280    85904857.40148
  20281837.520   106582032.36209  20281834.900    83050978.25048
  21404477.380   112481298.37309  21404472.860    87647759.33148
 15 01 18 00 14  0.0000000  0  7G02G12G14G21G25G29G31
  24584974.420   129194935.44107  24584968.760   100671346.25045
  23440616.200   123181416.28808  23440611.680    95985595.77345
  23676949.420   124423210.13506  23676948.460    96953116.49145
  22753417.840   119570151.73908  22753414.480    93171496.70145
  20983927.680   110271325.94309  20983926.400    85925752.63848
  20287266.240   106610559.91609  20287263.600    83073207.52548
  21394857.140   112430744.17009  21394852.980    87608366.45448
 15 01 18 00 14 30.0000000  0  7G02G12G14G21G25G29G31
  24600303.040   129275487.78007  24600297.740   100734114.29944
  23453749.220   123250432.02008  23453745.280    96039374.24344
  23691496.300   124499652.65307  23691495.020    97012681.96744
  22737379.820   119485871.36208  22737376.220    93105823.69945
  20989078.420   110298392.52109  20989077.180    85946843.46848
  20292758.660   106639422.31509  20292756.160    83095697.69648
  21385322.980   112380641.92809  21385319.020    87569325.74748
 15 01 18 00 15  0.0000000  0  7G02G12G14G21G25G29G31
  24615681.400   129356301.79707  24615676.440   100797086.26645
  23466908.260   123319584.15608  23466904.680    96093259.02644
  23706072.260   124576247.50407  23706070.320    97072366.21944
  22721386.660   119401827.29308  22721382.860    93040334.86145
  20994276.900   110325710.44709  20994275.780    85968130.17448
  20298314.300   106668617.23009  20298312.000    83118446.98648
  21375875.280   112330993.52509  21375871.340    87530638.68948
 15 01 18 00 15 30.0000000  0  7G02G12G14G21G25G29G31
  24631109.580   129437378.00507  24631104.940   100860262.54445
  23480093.720   123388875.60808  23480090.580    96147252.33344
  23720677.200   124652994.54608  23720674.740    97132168.99044
  22705439.480   119318025.09308  22705435.640    92975034.51145
  20999523.980   110353283.25309  20999522.880    85989615.47948
  20303933.540   106698146.86109  20303931.400    83141457.10948
  21366514.880   112281803.88109  21366510.900    87492309.10948
 15 01 18 00 16  0.0000000  0  7G02G12G14G21G25G29G31
  24646586.460   129518711.02507  24646582.360   100923638.97045
  23493305.280   123458302.86208  23493301.720    96201351.46345
  23735309.800   124729887.09207  23735306.900    97192085.27244
  22689537.980   119234463.39208  22689534.180    92909921.53844
  21004818.960   110381107.84609  21004817.740    86011296.98748
  20309615.400   106728005.54409  20309613.240    83164723.62448
  21357241.380   112233071.12309  21357237.400    87454335.54648
 15 01 18 00 16 30.0000000  0  7G02G12G14G21G25G29G31
  24662112.620   129600303.44607  24662109.320   100987217.48645
  23506543.760   123527871.02308  23506539.620    96255560.37144
  23749970.300   124806927.26007  23749966.860    97252116.50244
  22673683.720   119151149.41308  22673679.740    92845001.57145
  21010162.820   110409189.82509  21010161.580    86033179.05048
  20315360.640   106758196.81409  20315358.320    83188249.29248
  21348056.120   112184802.39009  21348052.180    87416723.56248
 15 01 18 00 17  0.0000000  0  7G02G12G14G21G25G29G31
  24677686.740   129682148.59206  24677684.380   101050992.91544
  23519808.400   123597575.55608  23519803.920    96309875.58944
  23764657.280   124884107.25107  23764653.840    97312256.65543
  22657876.300   119068081.00508  22657872.300    92780272.99045
  21015554.840   110437525.10009  21015553.640    86055258.47748
  20321168.100   106788714.34409  20321165.540    83212029.17248
  21338958.660   112136994.98109  21338954.740    87379471.03148
 15 01 18 00 17 30.0000000  0  7G02G12G14G21G25G29G31
  24693309.060   129764247.21006  24693307.900   101114965.87045
  23533099.600   123667418.62908  23533094.800    96364298.73945
  23779370.680   124961426.74007  23779367.460    97372505.55843
  22642116.660   118985262.99108  22642112.600    92715739.49345
  21020995.600   110466116.96509  21020994.480    86077537.84448
  20327037.920   106819558.96709  20327035.120    83236063.95148
  21329949.860   112089653.63609  21329946.000    87342581.66548
 15 01 18 00 18  0.0000000  0  7G02G12G14G21G25G29G31
  24708978.840   129846594.96906  24708978.600   101179132.91445
  23546416.920   123737399.64808  23546411.940    96418829.37845
  23794109.600   125038880.75007  23794106.900    97432859.26642
  22626404.760   118902695.51408  22626400.580    92651401.23445
  21026484.760   110494963.76709  21026483.800    86100015.86448
  20332969.200   106850727.06009  20332966.280    83260350.77748
  21321029.760   112042778.17309  21321026.000    87306055.32448
 15 01 18 00 18 30.0000000  0  7G02G12G14G21G25G29G31
  24724695.800   129929189.85406  24724696.080   101243492.57345
  23559760.320   123807517.65408  23559754.900    96473466.76945
  23808873.260   125116466.30606  23808870.620    97493315.54041
  22610740.960   118820381.39308  22610736.620    92587260.41445
  21032022.540   110524066.34309  21032021.780    86122693.18348
  20338961.620   106882217.15609  20338958.620    83284888.50248
  21312198.740   111996370.69709  21312195.140    87269893.65148
 15 01 18 00 19  0.0000000  0  7G02G12G14G21G25G29G31
  24740459.060   130012026.65207  24740459.340   101308040.72144
  23573129.420   123877770.96008  23573123.840    96528209.59645
  23823660.600   125194177.51905  23823656.200    97553869.70343
  22595125.100   118738319.47908  22595120.560    92523316.09845
  21037608.600   110553422.28709  21037608.040    86145567.94348
  20345014.280   106914024.26509  20345011.200    83309673.26648
  21303456.540   111950430.32309  21303453.220    87234095.96148
 15 01 18 00 19 30.0000000  0  7G02G12G14G21G25G29G31
  24756268.900   130095106.73907  24756268.700   101372778.47245
  23586524.620   123948162.56708  23586519.460    96583060.17345
  23838471.960   125272014.55006  23838467.660    97614521.76743
  22579558.240   118656515.92108  22579553.720    92459573.11744
  21043243.640   110583035.41109  21043243.320    86168643.10048
  20351127.660   106946150.79809  20351124.560    83334706.93448
  21294804.100   111904962.02409  21294801.140    87198666.13648
 15 01 18 00 20  0.0000000  0  7G02G12G14G21G25G29G31
  24772123.900   130178423.04107  24772122.920   101437700.26745
  23599945.020   124018687.08209  23599940.140    96638014.31845
  23853306.260   125349969.04107  23853302.840    97675265.42441
  22564039.980   118574967.65508  22564035.560    92396029.03445
  21048926.820   110612901.23609  21048926.680    86191915.15748
  20357300.540   106978589.86909  20357297.400    83359984.13848
  21286240.900   111859962.82709  21286238.140    87163601.83348
 15 01 18 00 20 30.0000000  0  7G02G12G14G21G25G29G31
  24788024.320   130261977.18507  24788022.320   101502807.40745
  23613391.340   124089349.00608  23613386.760    96693075.53745
  23868163.500   125428042.03907  23868160.160    97736101.43244
  22548571.380   118493680.45708  22548567.260    92332688.39145
  21054659.020   110643024.22609  21054658.980    86215387.60148
  20363533.280   107011343.43908  20363530.200    83385506.40048
  21277768.200   111815438.58009  21277765.360    87128907.61348
 15 01 18 00 21  0.0000000  0  7G02G12G14G21G25G29G31
  24803969.800   130345767.53807  24803966.820   101568098.57945
  23626863.900   124160148.99808  23626859.880    96748244.32345
  23883043.020   125506231.24907  23883040.080    97797027.98544
  22533153.160   118412657.61608  22533149.280    92269553.74845
  21060440.400   110673405.35709  21060440.340    86239061.19948
  20369825.580   107044410.17408  20369822.740    83411272.68348
  21269386.380   111771391.57709  21269383.220    87094585.27447
 15 01 18 00 21 30.0000000  0  6G12G14G21G25G29G31
  23640360.060   124231072.69108  23640356.640    96803509.50745
  23897941.360   125584519.18108  23897938.500    97858031.41044
  22517782.960   118331886.73308  22517779.240    92206615.42345
  21066268.300   110704030.67909  21066268.220    86262925.07648
  20376174.480   107077774.41208  20376171.900    83437270.78748
  21261092.900   111727808.99309  21261089.360    87060624.81547
 15 01 18 00 22  0.0000000  0  6G12G14G21G25G29G31
  23653887.360   124302161.07408  23653884.520    96858903.00345
  23912865.500   125662943.45908  23912862.620    97919141.13744
  22502469.160   118251411.37208  22502465.480    92143907.37445
  21072150.580   110734942.00109  21072150.500    86287011.81048
  20382587.400   107111475.55408  20382585.100    83463531.41948
  21252895.920   111684734.04009  21252891.980    87027059.91347
 15 01 18 00 22 30.0000000  0  6G12G14G21G25G29G31
  23667439.720   124373381.51308  23667437.280    96914399.43145
  23927808.680   125741468.68408  23927805.840    97980329.48143
  22487205.740   118171200.90408  22487201.920    92081405.73945
  21078081.100   110766107.23609  21078080.920    86311296.38748
  20389057.820   107145479.01508  20389055.720    83490027.62748
  21244789.660   111642136.02909  21244785.380    86993866.64347
 15 01 18 00 23  0.0000000  0  6G12G14G21G25G29G31
  23681019.060   124444742.87208  23681016.620    96970005.69945
  23942771.960   125820100.27708  23942769.020    98041600.71543
  22471994.680   118091265.75308  22471990.720    92019118.61544
  21084061.620   110797534.99109  21084061.160    86335785.54748
  20395587.080   107179791.44908  20395584.900    83516764.60848
  21236776.060   111600025.04109  21236771.720    86961052.87647
 15 01 18 00 23 30.0000000  0  6G12G14G21G25G29G31
  23694624.000   124516238.77708  23694621.560    97025716.77444
  23957753.540   125898828.67507  23957750.400    98102947.42443
  22456834.980   118011601.54908  22456831.020    91957042.64645
  21090090.960   110829219.47409  21090090.160    86360474.74148
  20402173.640   107214404.96908  20402171.280    83543736.20948
  21228854.260   111558396.16609  21228850.020    86928614.78847
 15 01 18 00 24  0.0000000  0  6G12G14G21G25G29G31
  23708254.960   124587871.52208  23708252.320    97081534.46845
  23972753.300   125977652.87407  23972749.520    98164368.78444
  22441727.520   117932212.84208  22441723.960    91895181.35145
  21096169.640   110861163.36309  21096168.520    86385366.08348
  20408817.520   107249319.72408  20408815.040    83570942.52248
  21221025.080   111517253.32409  21221020.900    86896555.43047
 15 01 18 00 24 30.0000000  0  6G12G14G21G25G29G31
  23721911.700   124659638.48008  23721908.340    97137456.77744
  23987770.420   126056567.56107  23987766.260    98225860.60843
  22426672.320   117853099.59707  22426669.360    91833534.72845
  21102297.260   110893364.89109  21102296.000    86410458.18147
  20415518.040   107284532.27208  20415515.620    83598380.85748
  21213288.360   111476596.22409  21213284.180    86864874.56047
 15 01 18 00 25  0.0000000  0  6G12G14G21G25G29G31
  23735595.180   124731545.30808  23735591.600    97193488.06844
  24002805.260   126135575.28007  24002800.980    98287424.93843
  22411671.000   117774269.49107  22411668.460    91772108.70245
  21108475.020   110925830.02709  21108473.760    86435755.69448
  20422275.960   107320046.14108  20422273.720    83626053.99548
  21205645.340   111436431.78008  21205641.120    86833577.57747
 15 01 18 00 25 30.0000000  0  6G12G14G21G25G29G31
  23749305.080   124803591.04008  23749301.520    97249627.56944
  24017856.940   126214671.74306  24017853.140    98349058.43143
  22396723.660   117695723.30807  22396721.420    91710903.92145
  21114702.880   110958557.99609  21114701.640    86461258.01047
  20429090.840   107355858.38208  20429088.620    83653959.63448
  21198096.060   111396760.64208  21198091.960    86802665.00247
 15 01 18 00 26  0.0000000  0  6G12G14G21G25G29G31
  23763042.500   124875780.41608  23763038.900    97305879.00844
  24032925.640   126293858.70106  24032922.420    98410762.33044
  22381831.840   117617467.99008  22381829.820    91649925.77445
  21120981.900   110991554.07709  21120980.600    86486969.24847
  20435963.280   107391972.19008  20435960.940    83682100.26948
  21190641.840   111357589.62708  21190638.020    86772142.12647
 15 01 18 00 26 30.0000000  0  6G12G14G21G25G29G31
  23776806.360   124948108.06808  23776802.900    97362238.23144
  24048009.760   126373127.43706  24048007.460    98472529.94244
  22366995.100   117539500.41108  22366992.620    91589171.83245
  21127311.140   111024813.50209  21127309.640    86512885.68347
  20442891.800   107428380.22908  20442889.200    83710470.17048
  21183281.900   111318914.48608  21183278.500    86742005.64547
 15 01 18 00 27  0.0000000  0  6G12G14G21G25G29G31
  23790597.280   125020578.31308  23790594.220    97418708.50145
  24063109.700   126452479.45807  24063108.280    98534362.47444
  22352214.600   117461827.11908  22352211.480    91528647.18144
  21133691.400   111058340.92009  21133689.600    86539010.94348
  20449876.820   107465085.24308  20449873.960    83739071.48048
  21176017.380   111280741.45708  21176014.620    86712260.43647
 15 01 18 00 27 30.0000000  0  6G12G14G21G25G29G31
  23804414.580   125093186.62508  23804411.900    97475286.38645
  24078224.200   126531907.21707  24078222.920    98596254.01643
  22337489.700   117384445.24508  22337486.100    91468349.62744
  21140121.820   111092132.32209  21140119.740    86565341.90647
  20456917.260   107502081.02909  20456914.080    83767899.36148
  21168847.800   111243067.49808  21168845.780    86682904.10047
 15 01 18 00 28  0.0000000  0  6G12G14G21G25G29G31
  23818257.600   125165930.05008  23818255.080    97531969.56045
  24093352.140   126611404.31108  24093351.260    98658199.60243
  22322820.140   117307353.80108  22322816.240    91408278.38045
  21146601.820   111126184.79909  21146599.580    86591876.30647
  20464012.160   107539362.51609  20464008.620    83796949.87448
  21161772.980   111205890.88608  21161771.500    86653935.32448
 15 01 18 00 28 30.0000000  0  6G12G14G21G25G29G31
  23832126.780   125238811.73508  23832124.420    97588760.48345
  24108493.500   126690971.28408  24108492.900    98720199.64243
  22308206.840   117230558.20008  22308202.840    91348437.65645
  21153132.120   111160502.07509  21153129.960    86618617.04047
  20471161.800   107576931.33709  20471157.840    83826224.28648
  21154794.000   111169216.60008  21154792.700    86625357.96248
 15 01 18 00 29  0.0000000  0  6G12G14G21G25G29G31
  23846022.200   125311832.36908  23846020.020    97645659.64345
  24123647.760   126770605.77308  24123647.360    98782252.30343
  22293650.260   117154061.24508  22293646.320    91288829.67446
  21159712.960   111195085.43209  21159711.040    86645565.11347
  20478365.820   107614786.43709  20478361.480    83855721.78148
  21147911.320   111133047.06608  21147909.920    86597173.92648
 15 01 18 00 29 30.0000000  0  6G12G14G21G25G29G31
  23859944.080   125384992.72308  23859942.280    97702667.69145
  24138814.340   126850304.86608  24138813.500    98844355.34542
  22279150.860   117077865.57408  22279147.000    91229456.44545
  21166344.720   111229935.77909  21166343.020    86672721.22148
  20485623.880   107652926.65709  20485619.200    83885441.43148
  21141125.220   111097384.23608  21141123.560    86569384.70648
 15 01 18 00 30  0.0000000  0  6G12G14G21G25G29G31
  23873891.860   125458289.94408  23873890.500    97759782.39744
  24153992.140   126930062.86708  24153989.120    98906504.27541
  22264708.460   117001970.51808  22264704.860    91170317.47145
  21173026.980   111265051.06409  21173025.440    86700083.78348
  20492935.140   107691347.62909  20492930.260    83915379.84547
  21134435.480   111062227.07908  21134433.340    86541989.52747
 15 01 18 00 30 30.0000000  0  6G12G14G21G25G29G31
  23887866.120   125531727.38608  23887865.000    97817006.35145
  24169181.160   127009880.37408  24169175.780    98968699.71641
  22250324.080   116926381.55408  22250320.920    91111417.02746
  21179760.380   111300435.02509  21179759.000    86727655.68848
  20500300.120   107730051.27009  20500295.080    83945538.52647
  21127842.920   111027580.46208  21127840.320    86514992.16748
 15 01 18 00 31  0.0000000  0  6G12G14G21G25G29G31
  23901866.620   125605302.75108  23901865.940    97874337.81145
  24184380.420   127089752.09907  24184374.560    99030937.20941
  22235997.860   116851098.44708  22235994.920    91052754.90045
  21186544.620   111336085.71909  21186543.240    86755435.45048
  20507718.120   107769033.47309  20507713.060    83975914.27948
  21121347.380   110993443.66508  21121344.340    86488392.07848
 15 01 18 00 31 30.0000000  0  6G12G14G21G25G29G31
  23915893.160   125679013.89108  23915892.760    97931775.04444
  24199589.020   127169672.88607  24199584.320    99093212.91342
  22221729.720   116776120.90208  22221727.040    90994330.89446
  21193379.260   111372001.46409  21193378.020    86783421.74748
  20515188.420   107808290.18809  20515183.420    84006503.93347
  21114948.680   110959815.82608  21114945.260    86462188.58947
 15 01 18 00 32  0.0000000  0  6G12G14G21G25G29G31
  23929946.300   125752863.90308  23929946.060    97989320.48545
  24214806.940   127249642.44707  24214803.660    99155526.66343
  22207520.800   116701454.07108  22207518.200    90936148.97445
  21200264.920   111408185.74409  21200263.940    86811617.27348
  20522711.100   107847822.56408  20522706.360    84037308.37848
  21108647.680   110926701.65808  21108643.980    86436385.33248
 15 01 18 00 32 30.0000000  0  6G12G14G21G25G29G31
  23944025.940   125826852.52708  23944025.740    98046973.93245
  24230033.620   127329658.01107  24230030.700    99217876.13341
  22193371.420   116627100.19808  22193368.800    90878210.91845
  21207201.780   111444639.03409  21207201.040    86840022.42848
  20530285.800   107887629.46808  20530281.480    84068326.73047
  21102444.600   110894102.71108  21102440.680    86410983.56948
 15 01 18 00 33  0.0000000  0  6G12G14G21G25G29G31
  23958132.380   125900982.27008  23958132.180    98104737.33945
  24245268.780   127409718.62807  24245266.720    99280260.75843
  22179282.260   116553062.67108  22179279.460    90820519.35945
  21214190.300   111481363.76809  21214189.800    86868639.09648
  20537912.360   107927710.59308  20537908.820    84099558.73747
  21096340.100   110862022.20409  21096335.940    86385985.76948
 15 01 18 00 33 30.0000000  0  6G12G14G21G25G29G31
  23972265.460   125975251.92808  23972265.100    98162609.78545
  24260511.740   127489820.37207  24260509.780    99342677.41043
  22165253.740   116479343.31508  22165250.640    90763075.70345
  21221230.360   111518359.35409  21221229.980    86897466.81548
  20545590.860   107968063.91108  20545587.800    84131002.85847
  21090334.320   110830460.63409  21090329.840    86361392.32848
 15 01 18 00 34  0.0000000  0  6G12G14G21G25G29G31
  23986425.300   126049661.83208  23986424.740    98220591.50745
  24275761.920   127569960.36206  24275759.900    99405123.86943
  22151286.260   116405943.93508  22151282.880    90705881.41445
  21228322.020   111555626.46609  21228321.760    86926506.11948
  20553321.180   108008687.80208  20553318.180    84162657.85247
  21084427.560   110799419.48609  21084422.800    86337204.42048
 15 01 18 00 34 30.0000000  0  6G12G14G21G25G29G31
  24000611.320   126124209.33908  24000610.640    98278680.44345
  24291018.280   127650133.12206  24291015.920    99467595.90041
  22137379.720   116332864.04408  22137376.020    90648936.03445
  21235464.940   111593163.13209  21235464.720    86955755.46348
  20561102.300   108049577.82208  20561099.180    84194520.21847
  21078619.660   110768897.97809  21078614.660    86313421.41447
 15 01 18 00 35  0.0000000  0  6G12G14G21G25G29G31
  24014823.380   126198893.14208  24014822.520    98336875.60145
  24306280.140   127730334.46407  24306277.200    99530090.17643
  22123534.240   116260104.20708  22123530.280    90592240.07845
  21242658.900   111630968.67409  21242658.760    86985214.31848
  20568933.440   108090731.32908  20568930.420    84226587.88947
  21072910.580   110738896.45209  21072905.460    86290043.59447
 15 01 18 00 35 30.0000000  0  6G12G14G21G25G29G31
  24029062.340   126273718.07808  24029061.100    98395180.73845
  24321548.000   127810566.28107  24321545.100    99592608.20643
  22109751.080   116187671.48108  22109746.940    90535798.99445
  21249905.000   111669048.00609  21249904.860    87014886.51948
  20576815.140   108132151.09008  20576812.360    84258863.01847
  21067301.440   110709420.71109  21067296.320    86267075.48047
 15 01 18 00 36  0.0000000  0  6G12G14G21G25G29G31
  24043326.940   126348678.33508  24043325.320    98453591.33845
  24336820.140   127890819.98707  24336817.440    99655143.26744
  22096029.280   116115561.70608  22096025.020    90479609.56145
  21257202.300   111707395.89209  21257202.140    87044767.97448
  20584746.340   108173830.24808  20584743.720    84291340.27347
  21061791.420   110680466.59609  21061786.480    86244513.81947
 15 01 18 00 36 30.0000000  0  6G12G14G21G25G29G31
  24057618.120   126423778.95608  24057616.280    98512111.28445
  24352096.700   127971097.17507  24352094.400    99717696.58443
  22082370.220   116043782.27008  22082365.980    90423677.54345
  21264551.800   111746017.64109  21264551.560    87074862.83248
  20592727.840   108215771.81309  20592724.980    84324022.01547
  21056381.780   110652040.13809  21056377.080    86222363.31947
 15 01 18 00 37  0.0000000  0  6G12G14G21G25G29G31
  24071935.620   126499018.28108  24071933.760    98570739.30345
  24367376.900   128051393.74407  24367375.080    99780265.01144
  22068773.980   115972333.37808  22068769.780    90368003.09745
  21271953.320   111784912.33909  21271952.980    87105170.39748
  20600758.920   108257972.47809  20600755.580    84356905.67047
  21051072.540   110624141.02909  21051068.000    86200623.74747
 15 01 18 00 37 30.0000000  0  6G12G14G21G25G29G31
  24086279.560   126574396.20208  24086277.660    98629475.32745
  24382660.180   128131706.52507  24382658.700    99842846.08244
  22055240.940   115901216.74708  22055236.640    90312587.54445
  21279406.820   111824080.13409  21279406.440    87135690.76948
  20608839.080   108300430.69209  20608835.060    84389990.01547
  21045864.000   110596770.73309  21045859.520    86179296.24447
 15 01 18 00 38  0.0000000  0  6G12G14G21G25G29G31
  24100649.600   126649911.54208  24100647.420    98688318.46245
  24397945.660   128212031.29507  24397943.980    99905436.44544
  22041771.360   115830433.16608  22041766.720    90257431.51744
  21286912.040   111863520.17409  21286911.700    87166423.27348
  20616967.440   108343143.18109  20616962.880    84423272.47747
  21040756.160   110569929.17409  21040751.520    86158380.72047
 15 01 18 00 38 30.0000000  0  6G12G14G21G25G29G31
  24115046.380   126725568.10407  24115043.960    98747271.62644
  24413233.580   128292369.47305  24413231.680    99968037.25844
  22028366.260   115759988.73508  22028361.320    90202539.75145
  21294470.000   111903237.31409  21294469.680    87197371.68648
  20625144.440   108386112.66608  20625139.600    84456755.18347
  21035750.080   110543622.03809  21035745.220    86137881.63947
 15 01 18 00 39  0.0000000  0  5G12G21G25G29G31
  24129472.060   126801377.86106  24129469.760    98806344.13345
  22015028.120   115689896.68108  22015023.100    90147922.58245
  21302082.880   111943243.05009  21302082.580    87228544.99348
  20633371.880   108429348.55408  20633367.100    84490445.48647
  21030848.000   110517861.52009  21030842.960    86117808.50247
 15 01 18 00 39 30.0000000  0  5G12G21G25G29G31
  24143921.200   126877310.50407  24143919.480    98865512.38845
  22001751.700   115620129.09808  22001746.840    90093558.25045
  21309745.040   111983507.93309  21309744.780    87259920.22748
  20641644.120   108472820.30708  20641639.600    84524319.58147
  21026044.460   110492619.18909  21026039.260    86098139.15547
 15 01 18 00 40  0.0000000  0  6G12G14G21G25G29G31
  24158392.160   126953355.98507  24158390.920    98924768.59745
  24459102.660   128533441.74206  24459097.440   100155906.05542
  21988535.380   115550677.27808  21988530.680    90039439.97745
  21317454.600   112024022.39709  21317454.380    87291489.93848
  20649958.960   108516515.54809  20649954.800    84558367.83847
  21021337.760   110467886.15409  21021332.540    86078866.66947
 15 01 18 00 40 30.0000000  0  6G12G14G21G25G29G31
  24172893.440   127029560.44007  24172892.580    98984148.67945
  24474391.940   128613785.65306  24474387.780   100218511.27743
  21975388.580   115481589.98308  21975384.180    89985605.71846
  21325220.420   112064833.02809  21325220.320    87323290.41848
  20658324.800   108560478.84908  20658321.020    84592624.96647
  21016736.920   110443709.89009  21016731.780    86060028.01347
 15 01 18 00 41  0.0000000  0  6G12G14G21G25G29G31
  24187422.060   127105911.17305  24187421.980    99043642.68944
  24489681.820   128694133.39606  24489679.340   100281119.48544
  21962309.180   115412856.24208  21962305.120    89932046.96546
  21333040.200   112105927.55009  21333040.320    87355312.12048
  20666738.920   108604696.08208  20666735.500    84627079.96447
  21012239.780   110420078.89708  21012234.920    86041614.25347
 15 01 18 00 41 30.0000000  0  6G12G14G21G25G29G31
  24201977.120   127182399.64107  24201977.380    99103244.01944
  24504970.080   128774473.26906  24504969.060   100343721.52145
  21949295.800   115344469.23908  21949292.000    89878758.40746
  21340912.440   112147297.68609  21340912.740    87387548.58548
  20675199.180   108649156.88208  20675196.240    84661724.74347
  21007844.980   110396985.78808  21007840.520    86023619.62447
 15 01 18 00 42  0.0000000  0  6G12G14G21G25G29G31
  24216557.980   127259020.41808  24216558.100    99162948.59244
  24520255.220   128854797.41605  24520255.420   100406311.28144
  21936347.840   115276426.11008  21936344.180    89825737.81646
  21348836.300   112188938.98909  21348836.800    87419996.35148
  20683704.460   108693854.78408  20683702.040    84696554.26847
  21003551.760   110374426.58608  21003547.800    86006041.02547
 15 01 18 00 42 30.0000000  0  5G12G21G25G29G31
  24231166.580   127335786.33308  24231166.480    99222766.23445
  21923468.020   115208741.42908  21923464.420    89772996.50846
  21356814.440   112230864.98609  21356815.000    87452665.94148
  20692257.240   108738801.11308  20692255.100    84731577.37747
  20999362.880   110352415.62508  20999359.480    85988889.62547
 15 01 18 00 43  0.0000000  0  5G12G21G25G29G31
  24245800.620   127412686.88507  24245800.300    99282688.74445
  21910654.620   115141405.80308  21910650.820    89720527.18946
  21364844.760   112273064.72309  21364845.240    87485548.84148
  20700855.080   108783982.96008  20700853.080    84766784.00647
  20995276.440   110330942.55208  20995273.500    85972157.34447
 15 01 18 00 43 30.0000000  0  5G12G21G25G29G31
  24260461.040   127489730.30105  24260461.280    99342722.44745
  21897909.400   115074429.16208  21897905.400    89668337.61546
  21372928.960   112315546.75809  21372929.200    87518651.72548
  20709499.060   108829407.28108  20709497.220    84802179.57347
  20991294.240   110310016.62809  20991291.640    85955851.42147
 15 01 18 00 44  0.0000000  0  5G12G21G25G29G31
  24275147.100   127566907.82207  24275147.340    99402860.65345
  21885231.200   115007805.23908  21885226.920    89616422.88746
  21381065.420   112358303.03809  21381065.320    87551968.30748
  20718187.060   108875064.08608  20718185.600    84837756.30847
  20987414.940   110289630.78409  20987412.480    85939966.32947
 15 01 18 00 44 30.0000000  0  5G12G21G25G29G31
  24289857.160   127644207.78308  24289856.800    99463094.40544
  21872618.180   114941524.63808  21872613.700    89564775.66945
  21389252.000   112401322.61109  21389251.540    87585490.03248
  20726916.520   108920940.30908  20726915.600    84873503.98047
  20983636.520   110269774.76109  20983634.140    85924494.07147
 15 01 18 00 45  0.0000000  0  5G12G21G25G29G31
  24304592.840   127721641.07008  24304591.580    99523432.11144
  21860072.700   114875599.40908  21860068.040    89513405.36546
  21397490.820   112444616.73309  21397490.000    87619225.71748
  20735689.660   108967045.13408  20735689.100    84909429.81147
  20979961.320   110250460.63009  20979959.020    85909444.08648
 15 01 18 00 45 30.0000000  0  5G12G21G25G29G31
  24319355.720   127799217.49808  24319354.200    99583881.32544
  21847597.120   114810041.65708  21847592.480    89462321.41646
  21405783.720   112488195.60709  21405782.680    87653183.27548
  20744508.380   109013387.04208  20744507.640    84945540.39047
  20976391.280   110231698.70609  20976388.960    85894824.39348
 15 01 18 00 46  0.0000000  0  5G12G21G25G29G31
  24334145.020   127876933.95508  24334143.400    99644439.63445
  21835191.280   114744849.89608  21835186.760    89411522.63446
  21414130.220   112532056.54809  21414129.040    87687360.62648
  20753371.580   109059960.94008  20753370.340    84981831.75347
  20972925.900   110213486.95509  20972923.560    85880633.42048
 15 01 18 00 46 30.0000000  0  5G12G21G25G29G31
  24348961.360   127954795.25406  24348959.820    99705110.68745
  21822856.380   114680030.43408  21822852.120    89361013.99346
  21422531.360   112576204.63409  21422530.100    87721761.71747
  20762279.480   109106770.10008  20762277.880    85018306.43947
  20969566.380   110195831.36009  20969563.800    85866875.80948
 15 01 18 00 47  0.0000000  0  5G12G21G25G29G31
  24363801.520   128032782.50807  24363800.260    99765879.82945
  21810589.280   114615566.79908  21810585.280    89310782.59246
  21430983.620   112620621.86009  21430982.300    87756372.52447
  20771228.200   109153794.80608  20771226.440    85054949.06148
  20966309.340   110178714.26109  20966306.380    85853537.80248
 15 01 18 00 47 30.0000000  0  5G12G21G25G29G31
  24378667.520   128110903.40808  24378665.960    99826753.20645
  21798391.740   114551468.24308  21798388.020    89260835.67846
  21439488.480   112665316.08609  21439487.240    87791199.18447
  20780218.920   109201041.42108  20780217.260    85091764.59347
  20963156.400   110162144.12309  20963153.000    85840626.00848
 15 01 18 00 48  0.0000000  0  5G12G21G25G29G31
  24393559.640   128189160.80509  24393557.740    99887732.97044
  21786264.600   114487739.11208  21786260.880    89211176.63546
  21448046.560   112710290.51108  21448045.560    87826244.17447
  20789252.060   109248510.94808  20789250.440    85128753.80847
  20960108.300   110146124.87809  20960104.480    85828143.48048
 15 01 18 00 48 30.0000000  0  5G12G21G25G29G31
  24408477.640   128267554.06808  24408475.280    99948818.64643
  21774208.240   114424381.48508  21774204.240    89161807.05846
  21456658.040   112755545.45208  21456657.220    87861507.75247
  20798327.380   109296201.19608  20798325.420    85165915.04047
  20957165.100   110130657.29609  20957161.000    85816090.82648
 15 01 18 00 49  0.0000000  0  5G12G21G25G29G31
  24423422.040   128346085.75408                                
  21762223.340   114361398.88108  21762218.960    89112729.70746
  21465323.500   112801083.35609  21465322.860    87896991.81547
  20807445.140   109344113.43308  20807442.440    85203249.25347
  20954327.420   110115744.44809  20954323.260    85804470.42848
 15 01 18 00 49 30.0000000  0  5G12G21G25G29G31
  24438392.580   128424753.96105  24438391.300   100071123.41644
  21750309.860   114298791.71308  21750305.180    89063944.89845
  21474042.780   112846903.10909  21474042.140    87932695.50847
  20816604.460   109392244.64908  20816600.780    85240754.10946
  20951595.100   110101385.65509  20951591.100    85793281.74848
 15 01 18 00 50  0.0000000  0  5G12G21G25G29G31
  24453392.020   128503433.33006  24453391.700   100132534.33444
  21738474.460   114236595.04508  21738469.500    89015479.97046
  21482822.260   112893038.58909  21482821.480    87968645.22547
  20825811.160   109440625.93008  20825806.540    85278453.83546
  20948974.720   110087615.09509  20948971.000    85782551.43748
 15 01 18 00 50 30.0000000  0  5G12G21G25G29G31
  24468412.400   128582358.01608  24468411.280   100194034.03745
  21726701.380   114174726.24508  21726696.300    88967270.53246
  21491645.840   112939405.71709  21491644.920    88004775.44647
  20835049.200   109489172.74908  20835044.100    85316282.52746
  20946450.360   110074349.21809  20946446.920    85772214.38448
 15 01 18 00 51  0.0000000  0  5G12G21G25G29G31
  24483457.120   128661411.96409  24483455.180   100255634.49346
  21714999.160   114113230.55408  21714993.960    88919351.83246
  21500521.840   112986048.67309  21500520.860    88041120.60347
  20844326.720   109537927.13108  20844321.680    85354272.94946
  20944030.520   110061632.89409  20944027.300    85762305.56248
 15 01 18 00 51 30.0000000  0  5G12G21G25G29G31
  24498530.260   128740617.61609  24498527.600   100317353.14845
  21703372.300   114052132.09108  21703367.240    88871742.66746
  21509454.660   113032990.25009  21509453.700    88077698.45047
  20853647.740   109586909.67908  20853643.180    85392441.16847
  20941719.560   110049489.36609  20941716.540    85752843.06448
 15 01 18 00 52  0.0000000  0  5G12G21G25G29G31
  24513629.220   128819960.61708  24513626.100   100379178.83444
  21691818.620   113991418.81608  21691813.820    88824433.65246
  21518441.560   113080216.63309  21518440.760    88114498.22847
  20863009.060   109636104.25208  20863005.180    85430774.58547
  20939514.940   110037905.05009  20939512.120    85743816.32548
 15 01 18 00 52 30.0000000  0  5G12G21G25G29G31
  24528753.720   128899438.02505  24528750.460   100441109.23543
  21680338.040   113931089.22008  21680333.260    88777423.58146
  21527482.040   113127725.15709  21527481.380    88151517.82647
  20872409.980   109685507.09608  20872406.680    85469270.29147
  20937416.380   110026877.75509  20937413.600    85735223.61148
 15 01 18 00 53  0.0000000  0  5G12G21G25G29G31
  24543898.520   128979054.74506  24543900.580   100503152.80643
  21668930.160   113871140.79708  21668925.480    88730710.52245
  21536575.480   113175511.98809  21536574.820    88188754.31147
  20881849.560   109735112.88308  20881846.620    85507924.12947
  20935423.100   110016403.97809  20935420.300    85727062.22648
 15 01 18 00 53 30.0000000  0  5G12G21G25G29G31
  24559339.600   129060193.15208                                
  21657861.880   113812976.02508  21657857.200    88685387.31446
  21545988.600   113224978.55109  21545987.940    88227299.66947
  20891593.960   109786320.77108  20891591.320    85547826.36747
  20933801.920   110007885.59909  20933799.180    85720424.52548
 15 01 18 00 54  0.0000000  0  5G12G21G25G29G31
  24574332.180   129138975.36708  24574327.660   100627757.76844
  21646393.620   113752708.92708  21646389.040    88638425.93446
  21554981.820   113272237.87609  21554981.160    88264125.11347
  20900903.060   109835241.86408  20900900.860    85585946.68347
  20931813.320   109997435.94809  20931810.680    85712281.94748
 15 01 18 00 54 30.0000000  0  5G12G21G25G29G31
  24589506.920   129218716.28409  24589501.680   100689893.50544
  21635156.580   113693656.73508  21635151.940    88592411.22146
  21564185.980   113320605.28809  21564185.160    88301813.99147
  20910407.540   109885190.03008  20910405.880    85624867.29948
  20930088.380   109988370.78109  20930085.680    85705218.18348
 15 01 18 00 55  0.0000000  0  5G12G21G25G29G31
  24604755.240   129298845.24108  24604749.800   100752331.62445
  21624042.340   113635250.21908  21624037.840    88546899.65046
  21573492.520   113369510.61109  21573491.580    88339922.02447
  20919998.920   109935593.45108  20919997.500    85664142.67747
  20928518.680   109980120.40709  20928515.720    85698789.32648
 15 01 18 00 55 30.0000000  0  5G12G21G25G29G31
  24620033.620   129379132.98408  24620028.200   100814893.46744
  21613007.640   113577262.02708  21613003.240    88501714.05846
  21582857.860   113418725.01909  21582856.860    88378270.90247
  20929633.240   109986220.85408  20929631.780    85703592.60848
  20927060.540   109972456.03709  20927057.300    85692817.10648
 15 01 18 00 56  0.0000000  0  5G12G21G25G29G31
  24635338.300   129459562.60506  24635333.500   100877565.76844
  21602049.520   113519676.53408  21602045.100    88456842.24546
  21592278.860   113468231.87309  21592277.860    88416847.65047
  20939306.980   110037054.88008  20939305.320    85743203.52148
  20925710.680   109965361.29509  20925707.200    85687288.72648
 15 01 18 00 56 30.0000000  0  5G12G21G25G29G31
  24650668.820   129540130.26307  24650664.920   100940345.62244
  21591167.680   113462491.79008  21591163.200    88412282.72246
  21601754.980   113518028.11909  21601753.960    88455649.90947
  20949019.080   110088090.51008  20949017.140    85782971.53848
  20924468.540   109958833.63709  20924464.840    85682202.23547
 15 01 18 00 57  0.0000000  0  5G12G21G25G29G31
  24666021.140   129620809.31908  24666017.240   101003212.39743
  21580357.380   113405683.29508  21580352.960    88368016.38047
  21611281.180   113568087.95909  21611280.200    88494657.56347
  20958764.120   110139300.00308  20958762.020    85822875.03547
  20923329.320   109952847.26909  20923325.400    85677537.52847
 15 01 18 00 57 30.0000000  0  5G12G21G25G29G31
  24681398.960   129701620.02308  24681394.740   101066181.87242
  21569622.640   113349272.08708  21569618.420    88324059.60646
  21620861.140   113618430.95809  21620860.260    88533885.86147
  20968545.520   110190701.18408  20968543.300    85862927.89547
  20922296.880   109947422.18609  20922292.760    85673310.18547
 15 01 18 00 58  0.0000000  0  5G12G21G25G29G31
  24696802.500   129782565.15508  24696798.960   101129256.08943
  21558964.320   113293263.21008  21558960.400    88280416.34246
  21630495.680   113669060.89909  21630494.860    88573337.74547
  20978363.680   110242296.03408  20978361.340    85903131.67047
  20921371.980   109942562.47409  20921367.620    85669523.37747
 15 01 18 00 58 30.0000000  0  5G12G21G25G29G31
  24712231.660   129863644.72908  24712228.680   101192434.99544
  21548382.740   113237658.15608  21548379.280    88237087.74847
  21640184.900   113719978.34609  21640184.060    88613013.67847
  20988218.400   110294083.53908  20988215.980    85943485.57047
  20920554.800   109938268.72609  20920550.240    85666177.59647
 15 01 18 00 59  0.0000000  0  5G12G21G25G29G31
  24727685.500   129944854.22107  24727683.040   101255715.09645
  21537877.300   113182454.04208  21537874.560    88194071.59947
  21649928.080   113771179.06009  21649927.100    88652910.34147
  20998108.840   110346058.75608  20998106.340    85983985.75847
  20919844.760   109934537.25709  20919839.940    85663269.96247
 15 01 18 00 59 30.0000000  0  5G12G21G25G29G31
  24743164.180   130026195.66506  24743162.220   101319097.94944
  21527448.560   113127654.15608  21527446.640    88151370.42246
  21659725.620   113822665.25709  21659724.400    88693029.44347
  21008034.860   110398221.27608  21008032.440    86024631.87147
  20919242.220   109931370.02609  20919237.000    85660801.99447
 15 01 18 01 00  0.0000000  0  4G21G25G29G31
  21517097.760   113073263.57808  21517096.420    88108988.18846
  21669578.200   113874440.57809  21669576.780    88733373.84347
  21017996.940   110450573.13507  21017994.680    86065425.53346
  20918747.920   109928770.89909  20918742.180    85658776.70647
 15 01 18 01 00 30.0000000  0  4G21G25G29G31
  21506823.360   113019273.25708  21506822.040    88066917.83246
  21679483.900   113926495.06509  21679482.360    88773935.76247
  21027992.860   110503103.27307  21027990.860    86106358.08446
  20918359.880   109926730.32409  20918353.740    85657186.63347
 15 01 18 01 01  0.0000000  0  4G21G25G29G31
  21496626.380   112965688.02808  21496624.700    88025163.12346
  21689443.340   113978832.68009  21689441.800    88814718.29747
  21038022.960   110555813.72507  21038021.300    86147431.15646
  20918078.720   109925252.18709  20918072.400    85656034.82647
 15 01 18 01 01 30.0000000  0  4G21G25G29G31
  21486507.940   112912514.18408  21486505.580    87983728.96945
  21699457.480   114031457.92409  21699456.060    88855724.98347
  21048087.980   110608707.18907  21048086.400    86188646.83446
  20917905.300   109924340.83809  20917899.120    85655324.66547
 15 01 18 01 02  0.0000000  0  4G21G25G29G31
  21476468.660   112859755.06808  21476465.280    87942617.97845
  21709526.760   114084373.06809  21709525.520    88896957.53947
  21058188.320   110661784.49308  21058186.540    86230005.74747
  20917840.100   109923999.01109  20917834.340    85655058.27847
 15 01 18 01 02 30.0000000  0  4G21G25G29G31
  21466508.440   112807411.12108  21466504.120    87901830.49545
  21719651.040   114137577.27009  21719649.960    88938415.36547
  21068323.580   110715044.08308  21068321.260    86271506.73447
  20917883.060   109924226.05209  20917877.920    85655235.19148
 15 01 18 01 03  0.0000000  0  4G21G25G29G31
  21456625.780   112755475.15008  21456620.760    87861360.90845
  21729828.900   114191062.94709  21729827.900    88980092.49847
  21078491.660   110768475.68808  21078488.960    86313141.74347
  20918032.840   109925014.32909  20918028.180    85655849.42948
 15 01 18 01 03 30.0000000  0  4G21G25G29G31
  21446820.700   112703947.39408  21446815.240    87821209.40345
  21740060.120   114244828.79209  21740059.180    89021987.94547
  21088691.820   110822077.05808  21088689.140    86354909.04247
  20918289.240   109926362.59509  20918284.860    85656900.01348
