     2.11           OBSERVATION DATA    G                   RINEX VERSION / TYPE
SPIDER V4,0,0,3554                      2015 03 16 23:59    PGM / RUN BY / DATE 
ABZH                                                        MARKER NAME         
ABZH                                                        MARKER NUMBER       
                                                            OBSERVER / AGENCY   
462405              LEICA GRX1200PRO    8.20/2.127          REC # / TYPE / VERS 
103261              LEIAT504                                ANT # / TYPE        
  5106694.6829   270584.9059  3799508.1083                  APPROX POSITION XYZ 
        0.0770        0.0000        0.0000                  ANTENNA: DELTA H/E/N
     1     1                                                WAVELENGTH FACT L1/2
     4    C1    L1    P2    L2                              # / TYPES OF OBSERV 
    30.000                                                  INTERVAL            
  2015    02    23    00    00    0.0000000     GPS         TIME OF FIRST OBS   
  2015    02    23    23    59   30.0000000     GPS         TIME OF LAST OBS    
    16                                                      LEAP SECONDS        
    30                                                      # OF SATELLITES     
   G 1   818   818   818   818                              PRN / # OF OBS      
   G 2   918   918   916   916                              PRN / # OF OBS      
   G 3   834   834   834   834                              PRN / # OF OBS      
   G 4   833   833   833   833                              PRN / # OF OBS      
   G 5   662   662   662   662                              PRN / # OF OBS      
   G 6   788   788   788   788                              PRN / # OF OBS      
   G 7   665   665   665   665                              PRN / # OF OBS      
   G 9   785   785   785   785                              PRN / # OF OBS      
   G10   770   770   770   770                              PRN / # OF OBS      
   G11   782   782   782   782                              PRN / # OF OBS      
   G12   808   808   808   808                              PRN / # OF OBS      
   G13   806   806   806   806                              PRN / # OF OBS      
   G14   909   909   905   905                              PRN / # OF OBS      
   G15   719   719   719   719                              PRN / # OF OBS      
   G16   681   681   681   681                              PRN / # OF OBS      
   G17   924   924   924   924                              PRN / # OF OBS      
   G18   912   912   912   912                              PRN / # OF OBS      
   G19   768   768   768   768                              PRN / # OF OBS      
   G20   796   796   796   796                              PRN / # OF OBS      
   G21   699   699   699   699                              PRN / # OF OBS      
   G22   753   753   751   751                              PRN / # OF OBS      
   G23   733   733   733   733                              PRN / # OF OBS      
   G24   827   827   827   827                              PRN / # OF OBS      
   G25   838   838   838   838                              PRN / # OF OBS      
   G27   816   816   816   816                              PRN / # OF OBS      
   G28   880   880   879   879                              PRN / # OF OBS      
   G29   745   745   745   745                              PRN / # OF OBS      
   G30   696   696   696   696                              PRN / # OF OBS      
   G31   818   818   818   818                              PRN / # OF OBS      
   G32   746   746   746   746                              PRN / # OF OBS      
BIT 2 OF LLI FLAGS DATA COLLECTED UNDER A/S CONDITION       COMMENT             
SNR is mapped to RINEX snr flag value [2-9]                 COMMENT             
Lx:     = 25dBHz -> 1; 26-27dBHz -> 2; 28-31dBHz -> 3       COMMENT             
       32-35dBHz -> 4; 36-38dBHz -> 5; 39-41dBHz -> 6       COMMENT             
       42-44dBHz -> 7; 45-48dBHz -> 8; >=49dBHz -> 9        COMMENT             
                                                            END OF HEADER       
 15 02 23 00 00  0.0000000  0  7G16G18G21G25G27G29G31
  22094557.000   116107689.82808  22094556.220    90473536.63946
  23257816.340   122220669.57607  23257816.060    95236899.07944
  21078534.840   110768453.93208  21078533.580    86313078.04248
  24477887.060   128632142.45705  24477889.860   100232844.03742
  23243573.860   122145823.06507  23243576.340    95178580.78945
  23455182.680   123257807.75907  23455183.260    96045040.64444
  22334255.940   117367295.18408  22334255.640    91455028.09046
 15 02 23 00 00 30.0000000  0  7G16G18G21G25G27G29G31
  22079938.340   116030867.77808  22079937.360    90413675.30846
  23244247.320   122149363.79207  23244247.300    95181336.18644
  21082750.360   110790606.40808  21082749.100    86330339.71848
  24496375.160   128729298.72205  24496378.320   100308550.16943
  23230325.560   122076202.26407  23230328.080    95124330.82946
  23469597.920   123333559.42607  23469598.220    96104067.89744
  22350214.700   117451158.44508  22350214.160    91520376.06346
 15 02 23 00 01  0.0000000  0  7G16G18G21G25G27G29G31
  22065357.360   115954243.19408  22065356.140    90353967.84846
  23230712.460   122078237.15807  23230712.320    95125912.84343
  21087042.080   110813159.51208  21087040.860    86347913.56948
  24514892.820   128826610.42805  24514896.100   100384377.41143
  23217099.640   122006698.66507  23217102.180    95070172.19945
  23484018.340   123409337.92807  23484018.280    96163116.05445
  22366228.080   117535309.13308  22366227.360    91585947.99546
 15 02 23 00 01 30.0000000  0  7G16G18G21G25G27G29G31
  22050814.540   115877819.80708  22050813.200    90294417.17646
  23217212.480   122007293.80807  23217212.180    95070632.33944
  21091410.120   110836113.51508  21091408.900    86365799.81748
  24533440.320   128924078.08005  24533443.440   100460326.18443
  23203896.340   121937314.07807  23203898.640    95016106.31746
  23498443.960   123485144.57107  23498443.900    96222186.11645
  22382295.900   117619746.11308  22382295.160    91651743.01947
 15 02 23 00 02  0.0000000  0  7G16G18G21G25G27G29G31
  22036310.020   115801598.53908  22036308.740    90235023.97846
  23203747.620   121936535.91507  23203747.360    95015496.33544
  21095853.760   110859465.10608  21095852.580    86383995.86648
  24552017.100   129021699.19205  24552020.240   100536394.53643
  23190715.360   121868047.21907  23190717.440    94962132.15845
  23512874.600   123560977.91207  23512874.600    96281277.00245
  22398417.440   117704465.17008  22398416.720    91717757.84846
 15 02 23 00 02 30.0000000  0  7G16G18G21G25G27G29G31
  22021844.700   115725583.21108  22021843.520    90175791.26346
  23190318.940   121865968.34807  23190318.700    94960508.65344
  21100373.360   110883216.09308  21100372.260    86402503.12548
  24570623.120   129119474.47405  24570625.960   100612583.01441
  23177557.120   121798899.98508  23177559.140    94908251.21145
  23527310.600   123636839.69607  23527310.760    96340390.08544
  22414592.580   117789465.52108  22414591.800    91783991.87446
 15 02 23 00 03  0.0000000  0  7G16G18G21G25G27G29G31
  22007418.540   115649773.22408  22007417.400    90116718.55546
  23176926.300   121795590.52707  23176926.220    94905668.81744
  21104968.160   110907361.98508  21104967.040    86421318.10848
  24589257.840   129217400.29705  24589260.480   100688888.79742
  23164421.140   121729870.07807  23164423.140    94854461.70445
  23541751.440   123712726.80407  23541751.680    96399522.88444
  22430820.180   117874741.96708  22430819.500    91850441.02646
 15 02 23 00 03 30.0000000  0  7G16G18G21G25G27G29G31
  21993032.360   115574172.94108  21993031.140    90057809.24646
  23163570.780   121725407.32907  23163570.680    94850980.63744
  21109638.280   110931903.78408  21109637.120    86440441.58948
  24607921.420   129315477.45206  24607924.200   100765312.49843
  23151307.760   121660959.47407  23151309.780    94800765.14645
  23556197.480   123788641.33807  23556197.960    96458677.06445
  22447100.140   117960293.81508  22447099.600    91917104.78346
 15 02 23 00 04  0.0000000  0  7G16G18G21G25G27G29G31
  21978686.160   115498783.37908  21978685.020    89999064.15046
  23150252.780   121655420.47207  23150252.540    94796445.44944
  21114383.320   110956839.12408  21114382.080    86459871.72748
  24626613.280   129413703.64205  24626616.100   100841852.30143
  23138217.000   121592167.17107  23138219.000    94747160.75645
  23570648.400   123864582.28707  23570649.060    96517851.80744
  22463431.780   118046117.29708  22463431.440    91983980.21346
 15 02 23 00 04 30.0000000  0  7G16G18G21G25G27G29G31
  21964380.120   115423605.42008  21964379.140    89940483.92846
  23136972.400   121585631.30007  23136972.080    94742064.29644
  21119202.800   110982165.61208  21119201.440    86479606.66348
  24645333.080   129512076.55005  24645335.700   100918506.51744
  23125148.560   121523492.09707  23125150.600    94693647.73845
  23585104.220   123940547.83907  23585104.900    96577045.71145
  22479814.300   118132208.27308  22479814.080    92051064.06046
 15 02 23 00 05  0.0000000  0  7G16G18G21G25G27G29G31
  21950115.180   115348643.76808  21950114.400    89882072.27046
  23123730.720   121516045.42107  23123730.340    94687841.55144
  21124096.900   111007884.20008  21124095.480    86499647.12348
  24664080.860   129610597.56605  24664083.680   100995276.08344
  23112102.820   121454936.89407  23112104.880    94640228.10945
  23599565.200   124016540.56607  23599565.880    96636260.80845
  22496247.740   118218566.49608  22496247.420    92118356.17046
 15 02 23 00 05 30.0000000  0  7G16G18G21G25G27G29G31
  21935891.660   115273899.12108  21935890.940    89823829.69146
  23110527.900   121446663.61307  23110527.380    94633777.82644
  21129065.140   111033992.42508  21129063.700    86519991.19648
  24682856.320   129709264.13905  24682859.560   101072159.11244
  23099079.660   121386500.28307  23099081.720    94586900.91545
  23614031.020   124092558.79707  23614031.720    96695495.74745
  22512731.220   118305188.01808  22512730.880    92185853.43546
 15 02 23 00 06  0.0000000  0  7G16G18G21G25G27G29G31
  21921709.800   115199372.83108  21921709.060    89765757.25546
  23097364.340   121377488.26507  23097363.620    94579874.98044
  21134106.960   111060487.56808  21134105.600    86540636.76448
  24701659.100   129808074.21605  24701662.560   101149153.86141
  23086078.900   121318181.53007  23086081.160    94533665.53346
  23628501.340   124168601.14707  23628502.200    96754749.50945
  22529264.040   118392068.97808  22529263.740    92253552.85346
 15 02 23 00 06 30.0000000  0  8G16G18G21G22G25G27G29G31
  21907570.560   115125070.26008  21907569.780    89707859.15346
  23084241.040   121308525.05807  23084240.380    94526137.41044
  21139222.800   111087371.80308  21139221.540    86561585.52148
  24559908.140   129063197.54806  24559909.000   100568731.74244
  24720489.540   129907029.57905  24720493.520   101226261.89344
  23073101.200   121249983.68907  23073103.600    94480524.38945
  23642976.700   124244670.80207  23642977.760    96814024.52245
  22545846.300   118479209.63108  22545845.980    92321454.64746
 15 02 23 00 07  0.0000000  0  8G16G18G21G22G25G27G29G31
  21893471.000   115050976.56208  21893470.240    89650123.82246
  23071155.340   121239760.03907  23071154.920    94472554.31144
  21144409.360   111114627.13408  21144408.100    86582823.44948
  24542295.020   128970641.25506  24542295.980   100496610.31743
  24739344.380   130006112.62905  24739348.620   101303469.40141
  23060143.460   121181890.43207  23060145.880    94427464.73945
  23657454.180   124320751.10307  23657455.300    96873307.84344
  22562474.320   118566591.04408  22562473.940    92389544.03546
 15 02 23 00 07 30.0000000  0  8G16G18G21G22G25G27G29G31
  21879416.180   114977118.06608  21879415.500    89592571.76746
  23058112.380   121171219.72007  23058112.180    94419146.29744
  21149670.980   111142276.71608  21149669.680    86604368.58648
  24524669.520   128878020.02706  24524670.600   100424438.26843
  24758227.880   130105346.01805  24758232.200   101380794.05443
  23047210.140   121113925.75807  23047212.560    94374505.28946
  23671938.340   124396865.96206  23671939.280    96932618.14345
  22579152.200   118654234.22608  22579151.880    92457837.40746
 15 02 23 00 08  0.0000000  0  8G16G18G21G22G25G27G29G31
  21865404.840   114903487.73308  21865404.120    89535197.48046
  23045110.820   121102897.07007  23045110.780    94365907.90944
  21155005.460   111170309.28008  21155004.100    86626212.14748
  24507030.440   128785326.75606  24507031.520   100352210.08943
  24777137.800   130204719.07305  24777142.200   101458227.50644
  23034299.580   121046080.27607  23034302.000    94321638.71446
  23686427.140   124473005.60306  23686428.380    96991947.73845
  22595877.580   118742126.74408  22595877.400    92526325.05146
 15 02 23 00 08 30.0000000  0  8G16G18G21G22G25G27G29G31
  21851437.020   114830086.03808  21851436.180    89478001.36246
  23032151.140   121034794.07307  23032151.100    94312840.65344
  21160412.140   111198721.37808  21160410.760    86648351.44448
  24489377.760   128692562.67906  24489378.960   100279926.71444
  24796073.880   130304229.13605  24796078.420   101535767.73841
  23021411.460   120978352.67407  23021414.040    94268864.00345
  23700920.320   124549168.07006  23700921.900    97051295.06345
  22612649.700   118830264.27208  22612649.560    92595003.63046
 15 02 23 00 09  0.0000000  0  8G16G18G21G22G25G27G29G31
  21837513.220   114756915.50508  21837512.240    89420985.36546
  23019233.960   120966913.25607  23019233.660    94259946.54244
  21165890.960   111227512.77108  21165889.600    86670786.30848
  24471711.880   128599730.69905  24471713.340   100207590.40744
  24815036.060   130403875.25305  24815040.540   101613414.03844
  23008545.820   120910743.25607  23008548.280    94216181.37045
  23715418.000   124625353.71106  23715419.740    97110660.43745
  22629468.060   118918644.55208  22629468.000    92663871.35246
 15 02 23 00 09 30.0000000  0  7G16G18G21G22G27G29G31
  21823634.220   114683980.56308  21823633.120    89364152.93446
  23006360.180   120899259.80607  23006359.520    94207229.58344
  21171442.080   111256684.25408  21171440.740    86693517.33348
  24454033.820   128506835.47406  24454035.820   100135204.81844
  22995703.140   120843254.44907  22995705.540    94163592.72246
  23729920.400   124701564.44806  23729922.120    97170045.40245
  22646332.520   119007266.99408  22646332.460    92732927.76746
 15 02 23 00 10  0.0000000  0  7G16G18G21G22G27G29G31
  21809800.000   114611281.27508  21809798.900    89307504.14446
  22993529.620   120831833.69907  22993528.700    94154689.77844
  21177064.860   111286232.35408  21177063.540    86716541.83148
  24436343.980   128413877.32806  24436345.880   100062770.19644
  22982883.000   120775884.17407  22982885.460    94111096.43146
  23744427.280   124777798.47206  23744428.760    97229448.49945
  22663242.040   119096126.64808  22663241.940    92802169.03046
 15 02 23 00 10 30.0000000  0  7G16G18G21G22G27G29G31
  21796010.380   114538816.56208  21796009.340    89251038.14646
  22980742.260   120764634.87808  22980741.240    94102327.08844
  21182758.380   111316152.35308  21182757.160    86739856.11448
  24418642.320   128320855.90306  24418643.920    99990286.26643
  22970084.940   120708629.39707  22970087.300    94058690.13845
  23758937.920   124854052.14806  23758939.080    97288866.94745
  22680195.440   119185217.54308  22680195.300    92871590.48546
 15 02 23 00 11  0.0000000  0  7G16G18G21G22G27G29G31
  21782266.260   114466591.16808  21782265.340    89194758.63546
  22967999.080   120697668.42307  22967997.940    94050145.45444
  21188522.920   111346445.21208  21188521.740    86763460.94448
  24400929.720   128227776.28006  24400931.040    99917756.94544
  22957309.340   120641492.68507  22957311.640    94006375.87046
  23773452.820   124930327.66107  23773453.800    97348302.37144
  22697192.720   119274539.21508  22697192.420    92941191.78046
 15 02 23 00 11 30.0000000  0  7G16G18G21G22G27G29G31
  21768567.960   114394606.08108  21768567.000    89138666.35146
  22955300.180   120630935.51407  22955299.260    93998145.80945
  21194357.920   111377108.61508  21194356.800    86787354.50448
  24383206.360   128134639.69106  24383207.460    99845183.21444
  22944555.960   120574472.87707  22944558.160    93954152.65546
  23787971.860   125006624.24107  23787972.700    97407754.22344
  22714233.160   119364087.52008  22714232.640    93010969.65446
 15 02 23 00 12  0.0000000  0  7G16G18G21G22G27G29G31
  21754916.320   114322866.20208  21754915.320    89082765.15746
  22942646.680   120564441.83707  22942646.060    93946332.59545
  21200263.620   111408143.22308  21200262.520    86811537.31948
  24365473.100   128041451.22706  24365473.900    99772569.10143
  22931825.240   120507572.69407  22931827.340    93902022.67546
  23802495.440   125082944.20407  23802496.000    97467224.28344
  22731316.840   119453862.67008  22731316.180    93080924.29446
 15 02 23 00 12 30.0000000  0  7G16G18G21G22G27G29G31
  21741311.020   114251370.14708  21741310.080    89027053.95346
  22930038.500   120498186.50707  22930038.100    93894705.07044
  21206239.120   111439544.73708  21206238.040    86836006.03248
  24347729.820   127948210.35806  24347730.300    99699914.09744
  22919116.820   120440789.15208  22919118.780    93849983.57646
  23817022.860   125159283.86207  23817022.960    97526709.71144
  22748442.620   119543858.55508  22748441.900    93151050.92546
 15 02 23 00 13  0.0000000  0  7G16G18G21G22G27G29G31
  21727753.760   114180126.48008  21727752.900    88971539.41647
  22917477.300   120432178.09607  22917477.220    93843269.97944
  21212285.200   111471317.14408  21212284.100    86860763.75848
  24329978.300   127854925.86106  24329978.540    99627225.10044
  22906431.580   120374128.26007  22906433.520    93798040.04446
  23831554.860   125235649.36006  23831554.840    97586215.28944
  22765610.980   119634078.13408  22765610.180    93221351.86046
 15 02 23 00 13 30.0000000  0  7G16G18G21G22G27G29G31
  21714243.800   114109131.15608  21714242.940    88916218.39046
  22904962.580   120366413.29508  22904962.640    93792024.71445
  21218400.560   111503453.75608  21218399.480    86885805.27248
  24312217.700   127761593.94306  24312217.820    99554499.15344
  22893768.580   120307583.95608  22893770.480    93746187.35446
  23846090.580   125312034.25106  23846090.560    97645735.95544
  22782820.080   119724512.27108  22782819.320    93291819.98846
 15 02 23 00 14  0.0000000  0  7G16G18G21G22G27G29G31
  21700782.480   114038391.32108  21700781.580    88861096.45547
  22892495.660   120300899.28007  22892495.860    93740974.88244
  21224585.760   111535957.23308  21224584.680    86911132.65648
  24294449.360   127668221.91106  24294449.540    99481741.98744
  22881128.720   120241160.91508  22881130.560    93694429.15646
  23860630.640   125388442.91606  23860630.640    97705275.13944
  22800070.320   119815163.06708  22800069.680    93362456.94346
 15 02 23 00 14 30.0000000  0  7G16G18G21G22G27G29G31
  21687369.520   113967905.76908  21687368.640    88806172.65747
  22880076.540   120235635.97008  22880076.780    93690120.37745
  21230839.940   111568823.19508  21230838.760    86936742.50348
  24276673.300   127574809.64306  24276673.600    99408953.40643
  22868511.400   120174856.55808  22868513.220    93642763.44945
  23875174.740   125464872.62807  23875174.740    97764830.73044
  22817360.640   119906024.86708  22817360.140    93433258.33346
 15 02 23 00 15  0.0000000  0  7G16G18G21G22G27G29G31
  21674005.380   113897676.87109  21674004.580    88751448.85947
  22867705.620   120170625.85307  22867705.760    93639463.15944
  21237162.940   111602050.69208  21237161.660    86962634.06548
  24258889.900   127481359.30006  24258890.480    99336135.17445
  22855916.660   120108670.99707  22855918.520    93591190.28846
  23889722.880   125541323.46207  23889722.900    97824402.77444
  22834690.540   119997094.74908  22834690.200    93504221.85046
 15 02 23 00 15 30.0000000  0  7G16G18G21G22G27G29G31
  21660690.540   113827706.54909  21660689.660    88696926.53647
  22855383.100   120105870.90207  22855383.180    93589004.78045
  21243554.300   111635637.47908  21243553.020    86988805.58548
  24241099.920   127387873.73206  24241100.620    99263289.45744
  22843344.360   120042603.75108  22843346.360    93539709.34846
  23904274.880   125617794.72706  23904274.860    97883990.75744
  22852059.480   120088369.39508  22852059.120    93575344.94046
 15 02 23 00 16  0.0000000  0  7G16G18G21G22G27G29G31
  21647425.400   113757997.69708  21647424.460    88642607.96046
  22843109.760   120041374.47207  22843109.720    93538747.84045
  21250013.880   111669582.89508  21250012.620    87015256.56348
  24223303.760   127294356.00406  24223304.500    99190418.68444
  22830794.800   119976655.84607  22830796.880    93488321.39746
  23918830.700   125694286.95006  23918830.860    97943595.06144
  22869467.020   120179846.81908  22869466.680    93646626.01546
 15 02 23 00 16 30.0000000  0  7G16G18G21G22G27G29G31
  21634210.360   113688552.25409  21634209.420    88588494.64447
  22830886.180   119977139.33607  22830886.120    93488694.50444
  21256541.380   111703885.17608  21256540.120    87041985.60948
  24205501.860   127200808.34606  24205502.500    99117524.61244
  22818267.960   119910827.04707  22818270.040    93437026.25546
  23933390.480   125770799.84107  23933390.800    98003215.44544
  22886912.620   120271523.90808  22886912.340    93718062.68346
 15 02 23 00 17  0.0000000  0  7G16G18G21G22G27G29G31
  21621045.300   113619369.44609  21621044.340    88534585.96547
  22818712.200   119913164.77807  22818712.100    93438844.23444
  21263135.880   111738539.69408  21263134.640    87068989.13448
  24187694.600   127107230.76506  24187694.860    99044607.21344
  22805763.360   119845114.58107  22805765.480    93385821.75046
  23947953.700   125847330.31507  23947953.900    98062849.56044
  22904395.080   120363394.75808  22904394.800    93789650.33646
 15 02 23 00 17 30.0000000  0  7G16G18G21G22G27G29G31
  21607931.540   113550456.22809  21607930.520    88480887.35947
  22806589.140   119849458.10407  22806589.000    93389202.69245
  21269798.020   111773549.49708  21269796.820    87096269.50448
  24169882.960   127013630.40906  24169882.940    98971672.04945
  22793281.520   119779523.15407  22793283.920    93334711.56845
  23962521.260   125923883.28606  23962521.260    98122501.19744
  22921914.680   120455461.09008  22921914.540    93861390.30846
 15 02 23 00 18  0.0000000  0  7G16G18G21G22G27G29G31
  21594869.160   113481812.64509  21594868.020    88427398.85347
  22794517.060   119786019.37608  22794516.860    93339769.94244
  21276527.020   111808910.48608  21276525.800    87123823.52348
  24152066.960   126920007.48506  24152066.840    98898719.31444
  22780822.320   119714050.46507  22780824.900    93283693.92346
  23977092.520   126000456.03906  23977092.640    98182168.27144
  22939470.620   120547717.92508  22939470.500    93933278.72746
 15 02 23 00 18 30.0000000  0  7G16G18G21G22G27G29G31
  21581858.360   113413440.23809  21581857.100    88374121.65147
  22782496.560   119722851.08608  22782496.300    93290547.93245
  21283322.600   111844621.42708  21283321.340    87151650.22848
  24134247.060   126826364.22506  24134246.840    98825750.67444
  22768385.780   119648696.36107  22768388.400    93232768.67046
  23991667.600   126077048.15006  23991667.660    98241850.41144
  22957062.200   120640161.92408  22957062.100    94005312.97645
 15 02 23 00 19  0.0000000  0  7G16G18G21G22G27G29G31
  21568899.580   113345341.32309  21568898.280    88321057.56447
  22770527.960   119659955.65808  22770527.700    93241538.52644
  21290184.560   111880681.17008  21290183.280    87179748.72948
  24116423.860   126732703.57006  24116423.480    98752768.48744
  22755971.880   119583460.98107  22755974.380    93181935.91946
  24006246.200   126153659.44106  24006246.280    98301547.52744
  22974689.040   120732790.49208  22974688.700    94077491.06746
 15 02 23 00 19 30.0000000  0  7G16G18G21G22G27G29G31
  21555993.580   113277520.15609  21555992.380    88268209.90747
  22758612.160   119597337.68008  22758611.940    93192745.31344
  21297112.820   111917089.39008  21297111.580    87208118.77748
  24098598.220   126639030.01406  24098597.840    98679776.27643
  22743580.940   119518346.33007  22743583.340    93131197.26346
  24020828.760   126230291.98406  24020828.740    98361261.18844
  22992350.660   120825602.35908  22992350.120    94149811.96445
 15 02 23 00 20  0.0000000  0  7G16G18G21G22G27G29G31
  21543140.340   113209976.31309  21543139.280    88215578.35547
  22746749.160   119534996.81808  22746748.940    93144168.03544
  21304106.540   111953841.62908  21304105.360    87236756.88248
  24080770.220   126545343.27606  24080769.600    98606773.77443
  22731212.400   119453349.88107  22731214.820    93080550.73246
  24035414.840   126306942.75106  24035414.800    98420989.06944
  23010046.100   120918592.24008  23010045.340    94222271.57445
 15 02 23 00 20 30.0000000  0  7G16G18G21G22G27G29G31
  21530340.520   113142712.81809  21530339.460    88163165.24647
  22734939.580   119472936.57008  22734939.380    93095809.42945
  21311165.740   111990937.90208  21311164.540    87265663.06848
  24062940.380   126451647.03106  24062939.500    98533763.84744
  22718866.520   119388472.68007  22718869.040    93029997.09346
  24050004.820   126383612.97506  24050004.560    98480732.06444
  23027774.880   121011757.98408  23027774.200    94294868.24545
 15 02 23 00 21  0.0000000  0  7G16G18G21G22G27G29G31
  21517594.220   113075730.58009  21517593.100    88110971.29147
  22723183.620   119411158.11608  22723183.380    93047670.40245
  21318289.820   112028374.95608  21318288.520    87294834.80147
  24045109.080   126357942.67806  24045107.880    98460747.60144
  22706543.280   119323713.39008  22706545.820    92979535.33246
  24064598.140   126460300.90606  24064597.940    98540488.83844
  23045536.260   121105095.46408  23045535.820    94367598.70045
 15 02 23 00 21 30.0000000  0  7G16G18G21G22G27G29G31
  21504902.280   113009034.32209  21504901.180    88059000.19147
  22711482.360   119349666.85408  22711481.920    92999755.15444
  21325478.980   112066153.91008  21325477.560    87324272.95147
  24027277.080   126264235.64006  24027275.820    98387729.28344
  22694243.120   119259074.86407  22694245.500    92929167.68646
  24079195.200   126537009.30506  24079195.360    98600261.59444
  23063330.440   121198604.44008  23063330.140    94440462.81946
 15 02 23 00 22  0.0000000  0  7G16G18G21G22G27G29G31
  21492265.320   112942626.53309  21492264.160    88007253.86247
  22699836.100   119288464.98508  22699835.420    92952065.42045
  21332732.860   112104273.23608  21332731.400    87353976.32048
  24009445.040   126170528.29406  24009443.640    98314710.69543
  22681965.880   119194557.28608  22681968.140    92878894.25446
  24093796.080   126613737.89606  24093796.380    98660050.10044
  23081156.800   121292282.11908  23081156.520    94513458.37445
 15 02 23 00 22 30.0000000  0  7G16G18G21G22G27G29G31
  21479682.640   112876503.94109  21479681.420    87955729.76247
  22688244.220   119227549.28708  22688243.400    92904598.65245
  21340050.020   112142725.36308  21340048.560    87383939.01448
  23991612.460   126076818.09506  23991611.160    98241689.87944
  22669710.640   119130155.13707  22669712.820    92828710.78646
  24108399.920   126690481.29906  24108400.040    98719850.12644
  23099013.740   121386119.69008  23099013.260    94586578.53045
 15 02 23 00 23  0.0000000  0  7G16G18G21G22G27G29G31
  21467155.680   112810674.07209  21467154.340    87904433.75247
  22676708.240   119166927.67008  22676707.380    92857361.06245
  21347431.320   112181514.80108  21347429.860    87414164.55048
  23973780.920   125983113.20606  23973779.740    98168673.19743
  22657478.440   119065874.07108  22657480.500    92778621.65746
  24123007.620   126767244.95806  24123007.700    98779665.96844
  23116901.760   121480120.20908  23116901.040    94659825.66145
 15 02 23 00 23 30.0000000  0  7G16G18G21G22G27G29G31
  21454684.380   112745136.96409  21454682.940    87853365.86947
  22665228.400   119106601.21608  22665227.600    92810353.46244
  21354876.120   112220637.87808  21354874.780    87444650.06648
  23955950.480   125889414.03906  23955949.320    98095660.99244
  22645268.940   119001712.10408  22645270.900    92728625.34146
  24137618.820   126844026.96706  24137619.040    98839496.06044
  23134819.760   121574278.89108  23134818.860    94733196.02645
 15 02 23 00 24  0.0000000  0  7G16G18G21G22G27G29G31
  21442269.320   112679895.81909  21442267.960    87802528.61847
  22653805.260   119046572.79908  22653804.560    92763578.08045
  21362384.400   112260094.48608  21362383.120    87475395.47248
  23938121.800   125795724.26106  23938120.580    98022656.10244
  22633082.240   118937670.20008  22633084.180    92678722.58746
  24152233.640   126920827.84906  24152233.980    98899340.88944
  23152767.280   121668593.58807  23152766.380    94806687.94945
 15 02 23 00 24 30.0000000  0  7G16G18G21G22G27G29G31
  21429911.000   112614953.08709  21429909.900    87751923.90647
  22642439.380   118986844.99908  22642438.760    92717036.95145
  21369955.760   112299882.21508  21369954.520    87506398.89848
  23920295.420   125702046.54106  23920294.040    97949660.56944
  22620918.360   118873748.59508  22620920.220    92628913.57346
  24166852.180   126997647.55806  24166852.500    98959200.41644
  23170743.640   121763060.92207  23170742.860    94880298.84445
 15 02 23 00 25  0.0000000  0  7G16G18G21G22G27G29G31
  21417609.860   112550310.53609  21417608.960    87701553.09147
  22631131.040   118927419.57608  22631130.560    92670731.47045
  21377589.720   112339998.66208  21377588.460    87537658.46147
  23902471.700   125608382.95106  23902470.180    97876676.05645
  22608777.380   118809946.99408  22608779.120    92579198.05046
  24181474.160   127074485.72206  24181474.340    99019074.28243
  23188748.460   121857678.13807  23188747.980    94954026.51845
 15 02 23 00 25 30.0000000  0  7G16G18G21G22G27G29G31
  21405366.600   112485971.83109  21405365.860    87651419.03547
  22619881.100   118868301.00708  22619880.740    92624665.06745
  21385286.200   112380443.51108  21385284.920    87569173.92448
  23884651.640   125514737.91107  23884650.000    97803705.96344
  22596659.440   118746267.10008  22596661.340    92529577.36346
  24196099.840   127151343.76306  24196100.000    99078963.67144
  23206781.540   121952443.72707  23206781.260    95027869.80845
 15 02 23 00 26  0.0000000  0  7G16G18G21G22G27G29G31
  21393181.020   112421936.15209  21393180.300    87601521.11047
  22608689.420   118809488.35008  22608689.020    92578837.04145
  21393044.460   112421213.21408  21393043.160    87600942.53048
  23866835.140   125421111.27507  23866833.340    97730750.25344
  22584564.160   118682706.03708  22584566.100    92480049.28346
  24210728.720   127228218.74206  24210728.580    99138866.24644
  23224841.880   122047351.84307  23224841.660    95101824.14945
 15 02 23 00 26 30.0000000  0  7G16G18G21G22G27G29G31
  21381054.060   112358208.24809  21381053.260    87551863.00647
  22597556.940   118750986.83108  22597556.420    92533251.46045
  21400864.720   112462308.66408  21400863.420    87632964.95047
  23849022.880   125327508.01306  23849020.940    97657812.73544
  22572492.040   118619266.48508  22572493.940    92430615.88246
  24225361.140   127305112.97806  24225360.820    99198783.79144
  23242929.360   122142402.21307  23242929.140    95175889.33845
 15 02 23 00 27  0.0000000  0  7G16G18G21G22G27G29G31
  21368985.620   112294787.86509  21368984.700    87502444.52947
  22586483.480   118692795.66908  22586482.960    92487907.72445
  21408746.000   112503725.06208  21408744.760    87665237.47048
  23831215.100   125233928.44107  23831213.120    97584893.68444
  22560442.500   118555945.90608  22560444.480    92381275.18846
  24239996.880   127382024.21006  24239996.540    99258714.60944
  23261042.980   122237589.40008  23261042.660    95250061.12545
 15 02 23 00 27 30.0000000  0  7G16G18G21G22G27G29G31
  21356976.800   112231680.79609  21356975.780    87453270.19347
  22575470.400   118634921.78408  22575469.920    92442811.21344
  21416688.760   112545464.70508  21416687.560    87697761.86347
  23813412.960   125140378.85406  23813411.160    97511997.99444
  22548416.200   118492748.10308  22548418.240    92332030.13046
  24254636.320   127458955.72006  24254636.000    99318661.24444
  23279182.860   122332914.00208  23279182.340    95324339.98244
 15 02 23 00 28  0.0000000  0  7G16G18G21G22G27G29G31
  21345027.300   112168885.46309  21345026.260    87404338.77147
  22564517.260   118577363.21808  22564516.820    92397960.39545
  21424691.900   112587521.83908  21424690.700    87730533.65647
  23795616.320   125046857.79107  23795614.580    97439124.53544
  22536412.620   118429669.41108  22536414.560    92282877.92546
  24269278.960   127535903.89606  24269278.580    99378620.83544
  23297347.600   122428369.24807  23297346.900    95398720.65345
 15 02 23 00 28 30.0000000  0  7G16G18G21G22G27G29G31
  21333137.660   112106404.71309  21333136.600    87355652.47447
  22553624.640   118520122.54708  22553624.300    92353357.29945
  21432755.240   112629895.35508  21432754.040    87763551.97248
  23777826.040   124953369.16307  23777824.000    97366276.31444
  22524431.900   118366710.49908  22524433.800    92233819.06046
  24283924.900   127612868.67006  24283924.540    99438593.37644
  23315536.600   122523953.00207  23315535.760    95473201.45645
 15 02 23 00 29  0.0000000  0  7G16G18G21G22G27G29G31
  21321308.480   112044241.61909  21321307.400    87307213.70147
  22542793.320   118463203.62408  22542793.000    92309004.91045
  21440878.880   112672585.41308  21440877.660    87796816.95547
  23760042.580   124859916.72006  23760040.540    97293456.32344
  22512474.180   118303872.70908  22512476.240    92184854.56246
  24298574.280   127689851.78406  24298573.960    99498580.22443
  23333749.680   122619663.53307  23333748.760    95547781.05845
 15 02 23 00 29 30.0000000  0  7G16G18G21G22G27G29G31
  21309540.360   111982399.36509  21309539.240    87259024.93347
  22532023.840   118406609.35408  22532023.440    92264905.48145
  21449062.460   112715590.48208  21449061.280    87830327.40248
  23742266.560   124766503.22807  23742264.500    97220666.64244
  22500539.600   118241156.62208  22500541.820    92135984.90046
  24313227.280   127766853.71306  24313226.860    99558581.68744
  23351986.340   122715498.37207  23351985.580    95622457.52445
 15 02 23 00 30  0.0000000  0  7G16G18G21G22G27G29G31
  21297833.520   111920879.77409  21297832.440    87211087.59747
  22521316.600   118350342.45708  22521316.120    92221061.17045
  21457305.600   112758908.71408  21457304.540    87864081.87347
  23724498.440   124673131.73707  23724496.500    97147909.72445
  22488628.200   118178562.53307  22488630.520    92087210.29846
  24327883.680   127843874.38206  24327883.460    99618597.75844
  23370246.240   122811454.62608  23370245.600    95697228.59045
 15 02 23 00 30 30.0000000  0  7G16G18G21G22G27G29G31
  21286188.220   111859683.61409  21286187.180    87163402.28647
  22510671.740   118294403.33208  22510671.140    92177472.25845
  21465607.680   112802536.70508  21465606.720    87898077.70747
  23706738.620   124579803.41806  23706736.680    97075186.41244
  22476739.640   118116088.79607  22476742.200    92038529.48846
  24342543.320   127920912.28006  24342543.540    99678627.26443
  23388528.340   122907527.78107  23388527.880    95772090.74145
 15 02 23 00 31  0.0000000  0  7G16G18G21G22G27G29G31
  21274604.680   111798812.14209  21274603.640    87115969.97847
  22500089.480   118238793.19608  22500088.820    92134139.70145
  21473968.340   112846472.29108  21473967.440    87932313.23547
  23688987.380   124486519.90206  23688985.380    97002498.02545
  22464874.020   118053734.74908  22464876.680    91989941.95046
  24357205.980   127997966.02405  24357206.340    99738669.11444
  23406832.060   123003714.32607  23406831.640    95847041.26545
 15 02 23 00 31 30.0000000  0  7G16G18G21G22G27G29G31
  21263083.760   111738269.68509  21263082.760    87068794.04647
  22489570.760   118183516.73108  22489570.080    92091067.15745
  21482387.580   112890715.93708  21482386.780    87966788.79547
  23671245.460   124393286.14506  23671243.500    96929848.42744
  22453031.760   117991502.70908  22453034.200    91941449.46146
  24371872.100   128075038.12706  24371872.580    99798725.30643
  23425157.320   123100013.66107  23425156.980    95922079.64645
 15 02 23 00 32  0.0000000  0  7G16G18G21G22G27G29G31
  21251625.500   111678056.11209  21251624.460    87021874.37647
  22479115.440   118128573.29908  22479114.700    92048254.12445
  21490864.620   112935263.20608  21490863.860    88001500.95748
  23653513.140   124300102.28007  23653511.120    96857237.69244
  22441212.280   117929390.34208  22441214.600    91893050.24346
  24386541.420   128152126.01305  24386542.100    99858793.78544
  23443502.840   123196419.63507  23443502.520    95997201.14444
 15 02 23 00 32 30.0000000  0  7G16G18G21G22G27G29G31
  21240230.640   111618175.49009  21240229.520    86975214.16347
  22468724.460   118073968.02108  22468723.720    92005704.57545
  21499399.540   112980114.56108  21499398.780    88036450.06547
  23635791.380   124206973.35007  23635789.300    96784669.76544
  22429416.080   117867399.84708  22429418.180    91844745.96746
  24401214.140   128229231.81906  24401214.940    99918876.19444
  23461868.580   123292931.88807  23461868.220    96072405.43344
 15 02 23 00 33  0.0000000  0  7G16G18G21G22G27G29G31
  21228899.700   111558631.14309  21228898.540    86928815.97747
  22458398.400   118019703.92808  22458397.740    91963420.88345
  21507992.200   113025269.32008  21507991.400    88071635.58147
  23618080.880   124113903.08607  23618078.440    96712147.51844
  22417643.220   117805532.43508  22417645.180    91796537.59846
  24415890.380   128306356.25406  24415891.380    99978973.15444
  23480254.180   123389548.68407  23480253.820    96147691.20945
 15 02 23 00 33 30.0000000  0  7G16G18G21G22G27G29G31
  21217632.520   111499422.07509  21217631.440    86882679.04947
  22448136.980   117965779.70208  22448136.360    91921402.03845
  21516641.860   113070723.13308  21516640.900    88107054.13747
  23600381.420   124020890.64207  23600378.700    96639670.32444
  22405893.180   117743785.00408  22405895.100    91748422.73146
  24430569.660   128383496.26006  24430570.940   100039082.26243
  23498658.300   123486263.82007  23498658.120    96223053.61245
 15 02 23 00 34  0.0000000  0  7G16G18G21G22G27G29G31
  21206430.320   111440553.86409  21206429.200    86836807.71847
  22437941.260   117912201.36808  22437940.780    91879652.70345
  21525348.660   113116477.13008  21525347.500    88142706.60247
  23582694.200   123927942.63607  23582691.420    96567243.40445
  22394166.620   117682161.22308  22394168.480    91700404.21746
  24445252.660   128460655.66205  24445253.960   100099206.42044
  23517081.180   123583077.88507  23517081.300    96298493.09845
 15 02 23 00 34 30.0000000  0  7G16G18G21G22G27G29G31
  21195292.720   111382025.40009  21195291.600    86791201.13347
  22427811.100   117858967.63508  22427810.700    91838171.88745
  21534111.540   113162526.17008  21534110.260    88178588.95847
  23565018.960   123835058.01007  23565016.100    96494865.83344
  22382462.900   117620657.65208  22382464.680    91652479.36546
  24459938.660   128537830.43005  24459939.660   100159342.60944
  23535521.900   123679984.47807  23535522.100    96374004.68645
 15 02 23 00 35  0.0000000  0  7G16G18G21G22G27G29G31
  21184220.580   111323840.77709  21184219.480    86745862.46647
  22417747.340   117806082.59208  22417746.960    91796962.78345
  21542930.620   113208870.40608  21542929.220    88214701.34847
  23547356.540   123742241.71607  23547353.760    96422541.51844
  22370782.500   117559276.63608  22370784.200    91604650.02246
  24474627.980   128615022.81005  24474628.920   100219492.48344
  23553980.200   123776982.93707  23553980.360    96449587.84044
 15 02 23 00 35 30.0000000  0  7G16G18G21G22G27G29G31
  21173214.200   111266001.93909  21173213.200    86700793.24547
  22407750.340   117753548.37108  22407749.960    91756027.03245
  21551805.580   113255508.10308  21551804.000    88251042.41347
  23529707.460   123649496.08907  23529704.680    96350272.24544
  22359125.380   117498017.94108  22359127.060    91556915.96847
  24489320.560   128692232.66506  24489321.580   100279655.99644
  23572455.460   123874069.71207  23572455.460    96525239.82945
 15 02 23 00 36  0.0000000  0  7G16G18G21G22G27G29G31
  21162274.120   111208511.68209  21162273.160    86655995.65147
  22397820.640   117701367.57908  22397820.280    91715366.70445
  21560736.280   113302438.65408  21560734.540    88287611.66547
  23512072.480   123556824.68707  23512069.860    96278060.82244
  22347491.700   117436882.59508  22347493.360    91509278.05946
  24504016.600   128769460.45406  24504017.560   100339833.45143
  23590947.180   123971242.93207  23590947.000    96600959.15044
 15 02 23 00 36 30.0000000  0  7G16G18G21G22G27G29G31
  21151400.940   111151372.69409  21151399.940    86611471.76247
  22387958.820   117649543.17108  22387958.420    91674984.06245
  21569722.360   113349660.34508  21569720.480    88324407.78847
  23494452.320   123464230.63907  23494449.920    96205909.67944
  22335881.680   117375871.14208  22335883.160    91461736.68746
  24518716.080   128846707.06806  24518716.980   100400025.59144
  23609454.800   124068500.14407  23609454.580    96676743.91645
 15 02 23 00 37  0.0000000  0  7G16G18G21G22G27G29G31
  21140594.540   111094585.03609  21140593.500    86567221.65147
  22378164.840   117598075.31908  22378164.480    91634879.25345
  21578763.040   113397169.04008  21578761.100    88361427.54247
  23476847.000   123371714.56207  23476844.820    96133819.27944
  22324294.720   117314981.59008  22324296.160    91414290.29547
  24533418.700   128923969.78206  24533419.460   100460230.24844
  23627977.360   124165836.36507  23627977.200    96752590.26345
 15 02 23 00 37 30.0000000  0  8G16G18G19G21G22G27G29G31
  21129856.860   111038157.96009  21129855.720    86523252.50147
  22368440.380   117546973.06808  22368440.060    91595059.33045
  24550476.760   129013626.34406  24550476.960   100530092.94844
  21587859.520   113444971.02608  21587857.560    88398675.84547
  23459258.260   123279286.38907  23459256.400    96061797.39844
  22312732.320   117254221.30908  22312733.940    91366944.63847
  24548125.760   129001256.05605  24548126.440   100520453.32944
  23646515.520   124263255.65807  23646515.520    96828501.35145
 15 02 23 00 38  0.0000000  0  7G16G18G19G21G22G27G31
  21119181.700   110982059.51109  21119180.540    86479539.43647
  22358779.360   117496204.38308  22358779.120    91555499.33645
  24535013.100   128932364.58506  24535012.880   100466772.12444
  21597004.780   113493029.91008  21597002.900    88436124.31747
  23441680.280   123186914.86607  23441678.660    95989819.64945
  22301188.160   117193556.28908  22301189.840    91319673.21047
  23665062.480   124360721.26007  23665062.600    96904448.53945
 15 02 23 00 38 30.0000000  0  7G16G18G19G21G22G27G31
  21108581.060   110926352.72109  21108579.980    86436131.54848
  22349193.840   117445832.57708  22349193.680    91516248.59645
  24519570.440   128851213.15606  24519570.560   100403537.28944
  21606210.200   113541405.06008  21606208.440    88473819.23647
  23424125.220   123094663.55407  23424123.740    95917935.56344
  22289673.820   117133047.76108  22289675.520    91272523.73247
  23683629.200   124458291.25707  23683629.820    96980477.03845
 15 02 23 00 39  0.0000000  0  7G16G18G19G21G22G27G31
  21098046.220   110870991.60109  21098045.140    86392993.02548
  22339675.020   117395811.31908  22339674.920    91477270.99645
  24504139.840   128770123.97006  24504140.020   100340350.96644
  21615466.360   113590046.54308  21615464.680    88511721.68647
  23406584.560   123002487.02107  23406583.160    95846109.74045
  22278180.080   117072647.61608  22278181.760    91225458.70947
  23702206.060   124555914.43207  23702207.320    97056546.96545
 15 02 23 00 39 30.0000000  0  7G16G18G19G21G22G27G31
  21087581.300   110815998.24809  21087580.140    86350141.06247
  22330227.120   117346162.40108  22330227.040    91438583.54845
  24488724.780   128689117.23105  24488724.780   100277228.82545
  21624776.620   113638972.50808  21624775.040    88549845.81647
  23389062.540   122910407.58207  23389061.120    95774359.58845
  22266710.740   117012375.98508  22266712.400    91178493.82047
  23720796.460   124653608.00607  23720797.880    97132671.77244
 15 02 23 00 40  0.0000000  0  7G16G18G19G21G22G27G31
  21077185.300   110761366.90809  21077184.160    86307571.19648
  22320849.100   117296880.44708  22320848.920    91400182.04445
  24473324.060   128608184.97306  24473323.820   100214164.77844
  21634139.100   113688173.31108  21634137.720    88588184.10047
  23371558.120   122818420.55707  23371556.600    95702681.44945
  22255264.300   116952225.12208  22255266.040    91131623.04346
  23739398.400   124751361.11407  23739399.600    97208842.97045
 15 02 23 00 40 30.0000000  0  7G16G18G19G21G22G27G31
  21066859.400   110707103.83209  21066858.220    86265288.27848
  22311542.080   117247971.40308  22311541.760    91362071.13245
  24457938.360   128527331.42806  24457937.860   100151162.05644
  21643554.320   113737651.16708  21643553.080    88626738.26447
  23354072.480   122726532.80407  23354070.800    95631080.64045
  22243841.680   116892199.32708  22243843.480    91084849.71046
  23758012.080   124849174.94707  23758012.940    97285061.47045
 15 02 23 00 41  0.0000000  0  7G16G18G19G21G22G27G31
  21056604.440   110653213.39309  21056603.220    86223295.72648
  22302306.740   117199439.71408  22302306.340    91324254.24745
  24442567.940   128446558.86106  24442567.400   100088222.40644
  21653022.420   113787406.73108  21653021.180    88665508.83547
  23336606.520   122634749.03207  23336604.860    95559560.89545
  22232443.320   116832300.99608  22232445.180    91038175.70046
  23776637.080   124947048.68207  23776637.560    97361326.67344
 15 02 23 00 41 30.0000000  0  7G16G18G19G21G22G27G31
  21046419.160   110599689.28609  21046418.000    86181588.63648
  22293142.100   117151279.10008  22293141.500    91286726.50245
  24427211.420   128365859.41206  24427210.880   100025339.74544
  21662541.460   113837430.01808  21662540.240    88704488.02247
  23319159.280   122543063.62407  23319157.520    95488117.75545
  22221067.700   116772522.01908  22221069.580    90991594.71046
  23795271.280   125044971.47507  23795271.480    97437630.07644
 15 02 23 00 42  0.0000000  0  7G16G18G19G21G22G27G31
  21036304.960   110546538.70609  21036303.760    86140172.60048
  22284049.480   117103496.85508  22284048.780    91249493.60845
  24411869.860   128285238.12206  24411869.140    99962518.01144
  21672112.080   113887724.26208  21672110.920    88743678.33847
  23301732.420   122451484.74607  23301730.600    95416757.63045
  22209715.940   116712867.85008  22209717.760    90945110.95446
  23813915.300   125142945.75507  23813915.120    97513973.61344
 15 02 23 00 42 30.0000000  0  7G16G18G19G21G22G27G31
  21026263.240   110493769.07409  21026262.060    86099053.41048
  22275030.140   117056099.98208  22275029.400    91212560.99545
  24396543.960   128204700.18406  24396543.120    99899761.23244
  21681734.940   113938292.81208  21681733.800    88783082.40547
  23284327.320   122360020.07607  23284325.480    95345486.52245
  22198388.800   116653343.68208  22198390.660    90898728.51246
  23832569.580   125240973.52807  23832569.100    97590358.79944
 15 02 23 00 43  0.0000000  0  7G16G18G19G21G22G27G31
  21016293.360   110441377.13009  21016292.280    86058228.52748
  22266083.440   117009084.77408  22266082.700    91175925.78046
  24381232.960   128124240.49906  24381232.220    99837065.37744
  21691408.640   113989128.54008  21691407.480    88822694.66147
  23266943.380   122268667.04407  23266941.600    95274302.38445
  22187085.440   116593944.41908  22187087.220    90852443.38446
  23851232.600   125339046.62607  23851231.820    97666779.32744
 15 02 23 00 43 30.0000000  0  7G16G18G19G21G22G27G31
  21006396.240   110389367.53209  21006395.200    86017701.56948
  22257210.280   116962455.92008  22257209.460    91139591.62245
  24365937.120   128043861.59106  24365936.700    99774432.46744
  21701133.320   114040232.15508  21701132.200    88862515.66147
  23249581.580   122177430.83207  23249579.860    95203209.27045
  22175806.320   116534672.54808  22175808.120    90806257.54247
  23869903.980   125437164.11607  23869903.080    97743234.42044
 15 02 23 00 44  0.0000000  0  7G16G18G19G21G22G27G31
  20996570.220   110337731.74009  20996569.280    85977465.89348
  22248409.080   116916205.41508  22248408.340    91103552.28845
  24350654.960   127963553.17006  24350654.320    99711854.55644
  21710906.720   114091591.91308  21710905.680    88902536.24847
  23232240.600   122086303.95507  23232238.900    95132201.35545
  22164549.500   116475518.22708  22164551.320    90760163.28446
  23888581.220   125535313.52707  23888580.400    97819714.39344
 15 02 23 00 44 30.0000000  0  7G16G18G19G21G22G27G31
  20986817.120   110286479.43709  20986816.300    85937529.04248
  22239681.620   116870342.34708  22239680.880    91067814.84145
  24335387.640   127883322.96106  24335386.800    99649337.52144
  21720729.860   114143213.27408  21720728.900    88942760.68947
  23214922.380   121995296.45507  23214920.600    95061286.46344
  22153316.520   116416488.99208  22153318.360    90714166.49646
  23907265.140   125633499.48806  23907264.620    97896222.86245
 15 02 23 00 45  0.0000000  0  7G16G18G19G21G22G27G31
  20977138.060   110235615.94809  20977137.320    85897895.15748
  22231028.940   116824871.95508  22231028.100    91032383.37145
  24320135.760   127803174.20606  24320134.960    99586883.97644
  21730603.000   114195097.39608  21730602.160    88983189.87547
  23197628.160   121904414.46607  23197626.280    94990469.37845
  22142108.060   116357588.22608  22142109.920    90668269.81846
  23925955.840   125731722.04106  23925955.940    97972759.84345
 15 02 23 00 45 30.0000000  0  7G16G18G19G21G22G27G31
  20967533.180   110185142.30709  20967532.480    85858565.05148
  22222451.040   116779795.13808  22222450.260    90997258.59945
  24304899.280   127723106.03705  24304898.600    99524493.25445
  21740525.760   114247242.14308  21740525.020    89023822.13747
  23180358.180   121813659.54907  23180356.100    94919751.29144
  22130923.880   116298815.18208  22130925.760    90622472.66347
  23944653.000   125829977.29707  23944653.560    98049322.27545
 15 02 23 00 46  0.0000000  0  7G16G18G19G21G22G27G31
  20958001.500   110135052.96509  20958000.680    85819534.38848
  22213947.000   116735106.33808  22213946.240    90962436.17145
  24289677.200   127643116.99806  24289676.220    99462169.49544
  21750496.280   114299637.44508  21750495.500    89064649.65247
  23163111.420   121723027.17607  23163109.280    94849128.71445
  22119762.760   116240162.49108  22119764.600    90576769.29847
  23963354.760   125928254.96307  23963355.340    98125902.20144
 15 02 23 00 46 30.0000000  0  7G16G18G19G21G22G27G31
  20948548.540   110085377.43509  20948547.700    85780826.18648
  22205522.280   116690834.35308  22205521.560    90927938.53845
  24274473.060   127563222.27705  24274472.080    99399913.90744
  21760519.480   114352309.48308  21760518.700    89105692.79847
  23145893.540   121632547.04007  23145891.420    94778624.75345
  22108629.760   116181657.57408  22108631.420    90531181.06146
  23982065.540   126026579.60107  23982066.000    98202518.69644
 15 02 23 00 47  0.0000000  0  7G16G18G19G21G22G27G31
  20939167.020   110036077.08109  20939166.100    85742410.32348
  22197169.520   116646940.50808  22197168.880    90893735.55646
  24259281.240   127483374.68005  24259281.400    99337694.20343
  21770587.260   114405215.48808  21770586.400    89146918.25647
  23128697.360   121542180.96407  23128695.200    94708209.65544
  22097517.080   116123259.95208  22097518.640    90485676.43947
  24000777.000   126124907.58907  24000777.280    98279137.80744
 15 02 23 00 47 30.0000000  0  7G16G18G19G21G22G27G31
  20929861.900   109987178.16109  20929860.920    85704307.26948
  22188893.740   116603451.22708  22188893.120    90859847.80645
  24244105.240   127403624.29306  24244104.680    99275551.08444
  21780703.840   114458377.93308  21780702.880    89188343.53847
  23111528.100   121451956.39307  23111526.100    94637904.84044
  22086429.560   116064994.24908  22086431.040    90440274.60547
  24019493.120   126223260.26506  24019493.160    98355776.17045
 15 02 23 00 48  0.0000000  0  7G16G18G19G21G22G27G31
  20920631.600   109938672.40509  20920630.620    85666510.58248
  22180693.340   116560357.97608  22180692.780    90826268.67445
  24228943.600   127323947.97805  24228942.240    99213465.68944
  21790866.900   114511784.68608  21790865.840    89229959.19647
  23094384.300   121361865.61207  23094382.520    94567704.26745
  22075365.240   116006850.25908  22075366.680    90394967.62447
  24038211.340   126321624.54007  24038211.460    98432423.53544
 15 02 23 00 48 30.0000000  0  7G16G18G19G21G22G27G31
  20911479.180   109890575.81909  20911478.120    85629032.71848
  22172571.400   116517676.85108  22172570.860    90793010.66145
  24213798.480   127244360.17706  24213796.620    99151449.22744
  21801078.920   114565448.76608  21801077.760    89271775.37247
  23077269.340   121271925.97407  23077267.600    94497621.45645
  22064326.780   115948842.61308  22064328.280    90349766.87347
  24056933.900   126420011.82006  24056934.140    98509088.83244
 15 02 23 00 49  0.0000000  0  7G16G18G19G21G22G27G31
  20902402.700   109842878.34509  20902401.540    85591865.84948
  22164525.920   116475397.21408  22164525.320    90760065.50946
  24198667.920   127164848.72106  24198665.920    99089492.30743
  21811337.100   114619355.70308  21811335.920    89313780.76647
  23060181.180   121182127.24307  23060179.480    94427648.47045
  22053311.820   115890959.25908  22053313.480    90304662.98247
  24075657.960   126518406.89907  24075658.360    98585760.24744
 15 02 23 00 49 30.0000000  0  7G16G18G19G21G22G27G31
  20893403.260   109795585.34309  20893401.940    85555014.15248
  22156557.760   116433524.19808  22156557.080    90727437.18946
  24183552.540   127085416.98406  24183550.560    99027597.51944
  21821641.840   114673506.93108  21821640.520    89355976.52947
  23043121.080   121092476.01408  23043119.360    94357790.40545
  22042321.200   115833203.64708  22042322.920    90259658.61747
  24094383.600   126616810.72606  24094384.320    98662438.42244
 15 02 23 00 50  0.0000000  0  7G16G18G19G21G22G27G31
  20884481.540   109748701.20209  20884480.260    85518481.06048
  22148667.720   116392061.58708  22148667.040    90695128.67046
  24168452.800   127006067.38006  24168450.820    98965766.70643
  21831993.180   114727903.34808  21831991.760    89398363.34647
  23026090.120   121002977.37908  23026088.200    94288051.23545
  22031355.380   115775578.27908  22031357.180    90214755.75747
  24113110.800   126715222.55306  24113111.640    98739122.84244
 15 02 23 00 50 30.0000000  0  7G16G18G19G21G22G27G31
  20875637.700   109702226.45409  20875636.480    85482266.96948
  22140855.860   116351010.37708  22140855.220    90663140.73246
  24153368.400   126926798.85406  24153366.520    98903999.08345
  21842390.360   114782540.73208  21842388.860    89440937.93347
  23009088.300   120913632.13607  23009086.320    94218431.59845
  22020414.220   115718082.20808  22020416.020    90169953.64747
  24131838.600   126813637.83207  24131839.220    98815809.95843
 15 02 23 00 51  0.0000000  0  7G16G18G19G21G22G27G31
  20866871.600   109656160.34209  20866870.420    85446371.29848
  22133122.100   116310369.36508  22133121.480    90631472.43245
  24138298.920   126847608.45206  24138297.200    98842292.36244
  21852832.740   114837415.85408  21852831.240    89483697.77247
  22992115.620   120824440.74708  22992113.840    94148931.84945
  22009497.180   115660712.75708  22009498.940    90125250.19547
  24150566.100   126912051.19906  24150566.560    98892495.55144
 15 02 23 00 51 30.0000000  0  7G16G18G19G21G22G27G31
  20858184.140   109610507.53409  20858182.960    85410797.67548
  22125467.320   116270143.00408  22125466.600    90600127.22946
  24123244.860   126768499.02407  24123243.260    98780648.69144
  21863320.580   114892529.72308  21863319.160    89526643.64647
  22975173.340   120735408.88008  22975171.720    94079556.40145
  21998604.760   115603472.95308  21998606.640    90080647.76947
  24169293.240   127010462.90006  24169293.540    98969179.84543
 15 02 23 00 52  0.0000000  0  7G16G18G19G21G22G27G31
  20849576.040   109565271.66409  20849574.840    85375548.94148
  22117891.980   116230334.46808  22117891.320    90569107.61045
  24108206.500   126689471.99106  24108205.000    98719069.25844
  21873853.540   114947881.03508  21873852.280    89569774.53147
  22958262.100   120646540.12308  22958260.540    94010308.04846
  21987737.320   115546364.40208  21987739.300    90036147.60947
  24188019.960   127108871.51307  24188019.740    99045861.75943
 15 02 23 00 52 30.0000000  0  7G16G18G19G21G22G27G31
  20841047.860   109520456.12709  20841046.760    85340627.75048
  22110396.800   116190946.98108  22110396.100    90538416.07446
  24093183.960   126610529.44007  24093182.620    98657555.62744
  21884431.700   115003469.91108  21884430.540    89613090.54047
  22941382.760   120557838.99207  22941381.220    93941190.30645
  21976895.240   115489389.11308  21976897.220    89991751.29847
  24206745.800   127207275.45506  24206745.340    99122539.99844
 15 02 23 00 53  0.0000000  0  7G16G18G19G21G22G27G31
  20832597.780   109476050.89409  20832596.760    85306026.26748
  22102979.860   116151970.53608  22102979.100    90508044.83446
  24078175.560   126531659.49707  24078174.180    98596098.59044
  21895052.640   115059283.40408  21895051.460    89656581.56947
  22924533.620   120469296.51408  22924532.100    93872196.19745
  21966076.320   115432535.47308  21966078.240    89947449.77147
  24225468.100   127305660.16607  24225467.680    99199203.24145
 15 02 23 00 53 30.0000000  0  7G16G18G19G21G22G27G31
  20824228.740   109432071.39109  20824227.760    85271756.52348
  22095643.860   116113420.01108  22095643.260    90478005.48046
  24063183.520   126452875.83507  24063182.260    98534708.75044
  21905718.460   115115332.88208  21905717.260    89700256.48547
  22907717.720   120380928.63907  22907716.240    93803338.15445
  21955283.140   115375817.35208  21955285.020    89903253.84347
  24244188.820   127404036.75006  24244188.560    99275860.15444
 15 02 23 00 54  0.0000000  0  7G16G18G19G21G22G27G31
  20815939.860   109388513.08009  20815938.840    85237814.97548
  22088388.080   116075290.68508  22088387.600    90448294.32746
  24048206.700   126374171.64907  24048205.320    98473380.84045
  21916427.480   115171609.52208  21916426.300    89744108.41947
