     2.11           OBSERVATION DATA    G                   RINEX VERSION / TYPE
SPIDER V4,0,0,3554                      2015 03 13 03:25    PGM / RUN BY / DATE 
ADJF                                                        MARKER NAME         
ADJF                                                        MARKER NUMBER       
                                                            OBSERVER / AGENCY   
496631              LEICA GRX1200+GNSS  8.20/4.007          REC # / TYPE / VERS 
103293              LEIAT504                                ANT # / TYPE        
  5273000.2084   285396.0090  3566759.2257                  APPROX POSITION XYZ 
        0.0480        0.0000        0.0000                  ANTENNA: DELTA H/E/N
     1     1                                                WAVELENGTH FACT L1/2
     4    C1    L1    P2    L2                              # / TYPES OF OBSERV 
    30.000                                                  INTERVAL            
  2015    02    23    00    00    0.0000000     GPS         TIME OF FIRST OBS   
  2015    02    23    23    59   30.0000000     GPS         TIME OF LAST OBS    
    16                                                      LEAP SECONDS        
    30                                                      # OF SATELLITES     
   G 1   834   833   833   833                              PRN / # OF OBS      
   G 2   934   933   933   933                              PRN / # OF OBS      
   G 3   853   853   853   853                              PRN / # OF OBS      
   G 4   852   851   852   851                              PRN / # OF OBS      
   G 5   668   668   667   667                              PRN / # OF OBS      
   G 6   761   761   760   760                              PRN / # OF OBS      
   G 7   657   657   657   657                              PRN / # OF OBS      
   G 9   799   798   798   798                              PRN / # OF OBS      
   G10   781   781   781   781                              PRN / # OF OBS      
   G11   797   797   797   797                              PRN / # OF OBS      
   G12   827   827   827   827                              PRN / # OF OBS      
   G13   822   821   821   821                              PRN / # OF OBS      
   G14   937   937   937   937                              PRN / # OF OBS      
   G15   726   726   726   726                              PRN / # OF OBS      
   G16   685   685   685   685                              PRN / # OF OBS      
   G17   935   935   935   935                              PRN / # OF OBS      
   G18   929   929   929   929                              PRN / # OF OBS      
   G19   778   778   778   778                              PRN / # OF OBS      
   G20   809   809   809   809                              PRN / # OF OBS      
   G21   724   724   724   724                              PRN / # OF OBS      
   G22   731   730   730   730                              PRN / # OF OBS      
   G23   740   740   740   740                              PRN / # OF OBS      
   G24   845   845   844   844                              PRN / # OF OBS      
   G25   872   870   870   869                              PRN / # OF OBS      
   G27   831   831   831   831                              PRN / # OF OBS      
   G28   897   897   897   897                              PRN / # OF OBS      
   G29   766   766   766   766                              PRN / # OF OBS      
   G30   704   704   704   704                              PRN / # OF OBS      
   G31   810   810   810   810                              PRN / # OF OBS      
   G32   755   755   755   755                              PRN / # OF OBS      
BIT 2 OF LLI FLAGS DATA COLLECTED UNDER A/S CONDITION       COMMENT             
SNR is mapped to RINEX snr flag value [2-9]                 COMMENT             
Lx:     = 25dBHz -> 1; 26-27dBHz -> 2; 28-31dBHz -> 3       COMMENT             
       32-35dBHz -> 4; 36-38dBHz -> 5; 39-41dBHz -> 6       COMMENT             
       42-44dBHz -> 7; 45-48dBHz -> 8; >=49dBHz -> 9        COMMENT             
                                                            END OF HEADER       
 15 02 23 00 00  0.0000000  0  8G16G18G21G22G25G27G29G31
  22265564.640   117006339.62808  22265561.860    91173777.22647
  23065945.600   121212433.44208  23065943.740    94451266.39746
  21108786.720   110927428.21409  21108783.460    86436947.32349
  24507569.140   128788141.61107  24507569.480   100354409.86045
  24302887.160   127712506.52806  24302888.800    99516234.02944
  23284762.260   122362268.23307  23284763.180    95347225.46247
  23557574.980   123795881.08807  23557573.480    96464312.62746
  22137631.820   116334028.91909  22137629.560    90649877.69248
 15 02 23 00 00 30.0000000  0  8G16G18G21G22G25G27G29G31
  22250632.300   116927869.66008  22250629.440    91112631.80447
  23053155.780   121145222.65508  23053153.980    94398894.40846
  21114049.560   110955084.75909  21114046.320    86458497.88649
  24490398.260   128697912.87306  24490398.980   100284102.38145
  24320734.160   127806292.46006  24320735.740    99589313.97045
  23272334.200   122296957.90607  23272334.920    95296334.32747
  23571377.240   123868412.33307  23571375.820    96520830.47246
  22152744.840   116413448.38909  22152742.620    90711762.97648
 15 02 23 00 01  0.0000000  0  8G16G18G21G22G25G27G29G31
  22235731.840   116849567.29808  22235728.940    91051616.98547
  23040403.920   121078211.44908  23040402.020    94346677.92146
  21119386.080   110983128.21709  21119382.840    86480349.94049
  24473210.700   128607597.50206  24473212.140   100213727.42745
  24338615.040   127900256.95107  24338616.880    99662532.92746
  23259927.020   122231757.74307  23259927.640    95245529.02746
  23585181.700   123940955.23607  23585180.480    96577357.37946
  22167917.180   116493179.58909  22167915.040    90773891.16648
 15 02 23 00 01 30.0000000  0  8G16G18G21G22G25G27G29G31
  22220862.780   116771429.87608  22220859.940    90990730.69847
  23027689.560   121011397.49108  23027687.540    94294615.13146
  21124795.000   111011552.34909  21124791.780    86502498.61549
  24456006.920   128517193.40407  24456008.280   100143283.20145
  24356528.960   127994394.31307  24356531.100    99735886.58345
  23247539.820   122166662.99808  23247540.400    95194805.87946
  23598987.400   124013504.87107  23598986.220    96633889.54646
  22183147.420   116573215.02809  22183145.340    90836256.41248
 15 02 23 00 02  0.0000000  0  8G16G18G21G22G25G27G29G31
  22206026.100   116693462.62008  22206023.320    90929977.00547
  23015013.940   120944787.19708  23015012.060    94242711.06346
  21130276.520   111040357.92809  21130273.300    86524944.52349
  24438787.340   128426705.96507  24438788.560   100072774.10046
  24374476.140   128088706.52707  24374478.320    99809376.50146
  23235173.300   122101676.54208  23235173.920    95144167.10447
  23612795.000   124086064.24907  23612793.620    96690429.30646
  22198435.660   116653554.84809  22198433.560    90898858.85148
 15 02 23 00 02 30.0000000  0  8G16G18G21G22G25G27G29G31
  22191222.580   116615669.75208  22191219.800    90869359.19647
  23002378.100   120878385.93808  23002376.380    94190969.85946
  21135831.020   111069547.07009  21135827.800    86547689.31149
  24421552.620   128336140.14006  24421553.900   100002203.91745
  24392456.820   128183194.56305  24392459.080    99883003.49544
  23222827.800   122036800.57507  23222828.380    95093614.42547
  23626604.880   124158635.61907  23626603.400    96746978.41346
  22213781.760   116734198.74609  22213779.660    90961698.22548
 15 02 23 00 03  0.0000000  0  8G16G18G21G22G25G27G29G31
  22176452.340   116538051.63808  22176449.440    90808877.55547
  22989782.120   120812194.03908  22989780.520    94139391.80446
  21141457.820   111099116.12509  21141454.580    86570730.13749
  24404303.160   128245496.80606  24404304.480    99931573.27645
  24410470.280   128277856.08206  24410472.560    99956765.58845
  23210503.000   121972033.60607  23210503.520    95043146.67747
  23640416.720   124231217.01807  23640415.120    96803535.34846
  22229184.840   116815142.51209  22229182.800    91024771.26348
 15 02 23 00 03 30.0000000  0  8G16G18G21G22G25G27G29G31
  22161715.880   116460611.00509  22161712.960    90748534.21947
  22977226.680   120746214.74908  22977225.040    94087979.39046
  21147156.760   111129064.26209  21147153.500    86594066.34749
  24387039.620   128154778.63207  24387040.580    99860884.27945
  24428516.560   128372690.07006  24428518.580   100030662.01044
  23198198.920   121907375.78107  23198199.480    94992763.98547
  23654230.520   124303809.00307  23654228.840    96860100.51346
  22244644.540   116896383.84109  22244642.520    91088076.17048
 15 02 23 00 04  0.0000000  0  8G16G18G21G22G25G27G29G31
  22147012.880   116383346.20508  22147009.980    90688327.88547
  22964711.480   120680447.01008  22964709.700    94036731.83446
  21152926.820   111159386.26809  21152923.580    86617693.88749
  24369761.860   128063984.61707  24369762.800    99790136.22046
  24446594.900   128467691.76006  24446596.800   100104689.25645
  23185914.900   121842823.31908  23185915.360    94942463.37846
  23668045.760   124376407.99607  23668044.080    96916671.15446
  22260159.660   116977916.35509  22260157.580    91151607.97548
 15 02 23 00 04 30.0000000  0  8G16G18G21G22G25G27G29G31
  22132344.960   116306265.96808  22132342.060    90628265.38147
  22952238.240   120614900.10108  22952236.360    93985656.36446
  21158769.040   111190087.55409  21158765.820    86641616.97349
  24352471.260   127973124.08706  24352471.840    99719336.31344
  24464706.100   128562866.80307  24464708.280   100178851.37345
  23173652.300   121778382.92108  23173652.620    94892250.09347
  23681863.340   124449020.36507  23681861.940    96973252.20346
  22275730.900   117059743.83909  22275728.780    91215369.62848
 15 02 23 00 05  0.0000000  0  8G16G18G21G22G25G27G29G31
  22117711.320   116229365.80208  22117708.460    90568343.18047
  22939806.280   120549570.34108  22939804.580    93934750.10046
  21164681.840   111221159.64109  21164678.640    86665828.98549
  24335167.220   127882192.84807  24335167.620    99648481.30745
  24482848.780   128658207.40904  24482851.020   100253142.51543
  23161409.840   121714047.85508  23161410.120    94842118.88347
  23695682.180   124521639.43007  23695680.980    97029838.43846
  22291356.460   117141856.84809  22291354.400    91279353.76248
 15 02 23 00 05 30.0000000  0  8G16G18G21G22G25G27G29G31
  22103112.340   116152647.65509  22103109.540    90508562.81647
  22927416.160   120484459.79808  22927414.500    93884014.64546
  21170664.940   111252601.19909  21170661.740    86690328.90849
  24317850.520   127791193.51607  24317850.340    99577573.14545
  24501022.980   128753712.95406  24501024.920   100327601.71645
  23149187.360   121649817.88508  23149187.680    94792069.58847
  23709502.460   124594264.96107  23709501.240    97086429.75545
  22307035.900   117224252.70409  22307033.840    91343558.30248
 15 02 23 00 06  0.0000000  0  8G16G18G21G22G25G27G29G31
  22088549.300   116076118.10609  22088546.460    90448929.41547
  22915069.200   120419576.06408  22915067.480    93833455.92046
  21176718.820   111284414.64809  21176715.660    86715118.60849
  24300522.040   127700132.82707  24300521.880    99506617.23045
  24519229.060   128849385.50204  24519232.020   100402154.73943
  23136985.700   121585697.42608  23136986.020    94742105.60147
  23723324.780   124666901.07007  23723323.300    97143029.30645
  22322769.440   117306932.88609  22322767.360    91407984.39448
 15 02 23 00 06 30.0000000  0  8G16G18G21G22G25G27G29G31
  22074022.740   115999780.40709  22074019.840    90389445.50347
  22902766.020   120354922.62908  22902764.140    93783076.65546
  21182843.460   111316599.82209  21182840.300    86740197.97349
  24283182.420   127609014.20907  24283182.400    99435616.17345
  24537466.940   128945225.50706  24537469.340   100476837.10246
  23124804.940   121521687.24808  23124805.300    94692227.56847
  23737149.260   124739548.78507  23737147.580    97199637.92146
  22338556.780   117389895.54409  22338554.600    91472630.59548
 15 02 23 00 07  0.0000000  0  8G16G18G21G22G25G27G29G31
  22059532.920   115923636.03109  22059530.000    90330112.23547
  22890507.120   120290501.89008  22890505.180    93732878.70146
  21189038.520   111349154.92909  21189035.340    86765565.59449
  24265832.260   127517840.17907  24265832.120    99364571.89645
  24555736.040   129041231.38906  24555739.140   100551646.58845
  23112645.080   121457787.15707  23112645.400    94642435.30147
  23750975.840   124812208.02207  23750974.220    97256255.45546
  22354397.380   117473138.05409  22354395.060    91537494.86648
 15 02 23 00 07 30.0000000  0  8G16G18G21G22G25G27G29G31
  22045079.020   115847680.31309  22045076.100    90270925.96747
  22878291.640   120226309.28308  22878289.840    93682858.52046
  21195302.420   111382071.93809  21195299.260    86791215.21149
  24248470.660   127426606.30807  24248470.040    99293480.95045
  24574035.420   129137394.93606  24574038.520   100626578.96645
  23100504.820   121393990.04108  23100505.140    94592723.29047
  23764803.320   124884871.77007  23764801.780    97312876.54746
  22370289.320   117556650.45308  22370286.920    91602569.43148
 15 02 23 00 08  0.0000000  0  8G16G18G21G22G25G27G29G31
  22030661.860   115771917.68409  22030658.980    90211890.15647
  22866120.480   120162349.19608  22866118.780    93633019.52646
  21201635.200   111415350.92709  21201632.040    86817146.89249
  24231098.560   127335316.98206  24231097.740    99222346.76345
  24592365.840   129233757.19906  24592367.880   100701630.21345
  23088384.600   121330297.82308  23088384.800    94543093.00347
  23778631.980   124957541.82907  23778630.460    97369502.53245
  22386232.380   117640431.83008  22386230.060    91667853.59548
 15 02 23 00 08 30.0000000  0  8G16G18G21G22G25G27G29G31
  22016281.700   115696349.49409  22016278.840    90153005.86047
  22853994.080   120098624.52808  22853992.280    93583363.97846
  21208036.340   111448989.21009  21208033.180    86843358.54249
  24213716.220   127243974.38107  24213715.660    99151171.13046
  24610725.340   129330236.19806  24610727.140   100776808.38944
  23076284.280   121266709.92908  23076284.400    94493544.00247
  23792461.720   125030217.31907  23792460.000    97426132.76245
  22402225.980   117724478.74209  22402223.820    91733344.66448
 15 02 23 00 09  0.0000000  0  8G16G18G21G22G25G27G29G31
  22001941.500   115620991.49909  22001938.720    90094285.35847
  22841915.520   120035150.95708  22841913.620    93533904.08346
  21214508.320   111482999.61909  21214505.160    86869860.16149
  24196327.000   127152594.68007  24196326.560    99079966.53945
  24629116.360   129426884.57406  24629118.840   100852118.47045
  23064206.360   121203239.75708  23064206.480    94444086.74247
  23806295.120   125102911.93607  23806293.360    97482777.91046
  22418272.240   117808802.18108  22418270.160    91799051.20948
 15 02 23 00 09 30.0000000  0  8G16G18G21G22G25G27G29G31
  21987638.580   115545829.23909  21987635.760    90035717.36947
  22829882.060   119971914.74008  22829880.200    93484629.14746
  21221047.620   111517363.90109  21221044.480    86896637.52849
  24178928.220   127061163.81307  24178927.440    99008722.04544
  24647536.840   129523684.52706  24647539.560   100927546.78445
  23052147.580   121139870.63508  23052147.880    94394708.23047
  23820128.800   125175608.91407  23820127.260    97539424.85646
  22434367.420   117893382.74109  22434365.340    91864958.11348
 15 02 23 00 10  0.0000000  0  8G16G18G21G22G25G27G29G31
  21973374.780   115470872.71709  21973371.980    89977309.69348
  22817895.620   119908925.73008  22817893.700    93435546.83346
  21227655.460   111552088.37409  21227652.360    86923695.55449
  24161521.420   126969691.94607  24161519.920    98937445.56945
  24665987.480   129620642.47207  24665990.700   101003098.31945
  23040109.460   121076610.30807  23040109.860    94345414.49747
  23833964.520   125248316.42107  23833963.220    97596080.04246
  22450512.480   117978225.36509  22450510.220    91931069.22848
 15 02 23 00 10 30.0000000  0  8G16G18G21G22G25G27G29G31
  21959149.760   115396119.93409  21959147.060    89919060.78248
  22805955.980   119846182.94508  22805954.060    93386656.37646
  21234330.720   111587167.24609  21234327.680    86951029.74149
  24144106.580   126878177.90807  24144105.200    98866136.25045
  24684467.340   129717753.39905                                
  23028091.180   121013454.61708  23028091.680    94296202.30747
  23847801.460   125321030.03607  23847800.320    97652739.98246
  22466706.080   118063323.17109  22466703.760    91997379.18448
 15 02 23 00 11  0.0000000  0  8G16G18G21G22G25G27G29G31
  21944963.340   115321569.86809  21944960.640    89860969.82548
  22794063.100   119783685.62508  22794061.200    93337957.19846
  21241072.500   111622595.58209  21241069.480    86978636.23249
  24126683.660   126786621.10607  24126682.680    98794793.62346
  24702975.020   129815012.49505  24702977.240   101154546.37344
  23016092.260   120950400.28208  23016092.820    94247069.06347
  23861639.020   125393746.28207  23861637.920    97709401.95346
  22482947.040   118148669.97408  22482944.740    92063883.15748
 15 02 23 00 11 30.0000000  0  8G16G18G21G22G25G27G29G31
  21930819.020   115247240.88309  21930816.240    89803051.14048
  22782220.440   119721452.30008  22782218.460    93289463.72346
  21247883.640   111658388.27409  21247880.620    87006526.63849
  24109256.240   126695040.12607  24109255.380    98723432.15746
  24721513.780   129912434.20207  24721516.900   101230458.92946
  23004115.740   120887463.27608  23004116.200    94198027.24647
  23875480.300   125466481.99807  23875478.960    97766079.12445
  22499237.880   118234279.00208  22499235.720    92130591.45248
 15 02 23 00 12  0.0000000  0  8G16G18G21G22G25G27G29G31
  21916713.980   115173118.57409  21916711.180    89745293.50448
  22770425.480   119659469.32308  22770423.360    93241165.32346
  21254760.560   111694526.58309  21254757.460    87034686.36349
  24091821.340   126603420.80607  24091820.220    98652040.79444
  24740080.720   130010001.91305  24740084.400   101306485.64044
  22992158.400   120824626.95608  22992158.780    94149063.89547
  23889322.020   125539220.23907  23889320.400    97822758.27046
  22515575.060   118320131.13208  22515572.900    92197489.19548
 15 02 23 00 12 30.0000000  0  8G16G18G21G22G25G27G29G31
  21902649.880   115099211.05109  21902647.020    89687703.21848
  22758679.680   119597745.17408  22758677.560    93193068.60046
  21261704.180   111731015.46109  21261701.040    87063119.25049
  24074380.940   126511772.17307  24074379.540    98580626.54945
  24758676.180   130107720.31705  24758679.680   101382629.92944
  22980221.440   120761897.57908  22980221.760    94100183.87347
  23903165.080   125611966.98207  23903163.700    97879443.99145
  22531959.020   118406229.78208  22531956.900    92264579.01248
 15 02 23 00 13  0.0000000  0  8G16G18G21G22G25G27G29G31
  21888626.060   115025515.19809  21888623.220    89630277.88548
  22746982.600   119536276.77708  22746980.480    93145171.18346
  21268713.060   111767847.12909  21268709.840    87091819.25049
  24056934.500   126420091.39507  24056933.060    98509187.24346
  24777298.360                    24777300.140                  
  22968303.720   120699269.37308  22968304.120    94051382.68847
  23917008.860   125684716.79707  23917007.520    97936132.15346
  22548388.240   118492566.21108  22548386.240    92331854.12048
 15 02 23 00 13 30.0000000  0  8G16G18G21G22G25G27G29G31
  21874643.580   114952036.76409  21874640.700    89573021.97348
  22735335.460   119475070.53308  22735333.440    93097478.03446
  21275787.680   111805024.54809  21275784.420    87120788.66749
  24039483.000   126328384.41207  24039481.780    98437727.56446
  24795949.460   130303588.37106  24795950.620   101535270.13443
  22956405.860   120636745.91708  22956406.300    94002663.14247
  23930853.960   125757473.12607  23930852.480    97992825.38845
  22564862.940   118579141.10408  22564860.960    92399315.04548
 15 02 23 00 14  0.0000000  0  8G16G18G21G22G25G27G29G31
  21860703.860   114878783.05709  21860700.960    89515941.16648
  22723739.600   119414133.67508  22723737.620    93049994.79946
  21282928.620   111842550.38809  21282925.320    87150029.58549
  24022027.880   126236658.83007  24022026.860    98366253.38345
  24814628.220   130401745.10806  24814630.100   101611755.97945
  22944528.780   120574331.80608  22944529.280    93954028.79047
  23944701.140   125830240.64507  23944699.820    98049527.33046
  22581383.400   118665956.73108  22581381.440    92466963.55748
 15 02 23 00 14 30.0000000  0  7G16G18G21G22G27G29G31
  21846808.240   114805761.03109  21846805.300    89459040.87648
  22712196.520   119353474.21208  22712194.440    93002727.71246
  21290136.540   111880428.23209  21290133.240    87179544.78849
  24004570.740   126144922.64007  24004569.600    98294770.91845
  22932673.560   120512032.51708  22932674.160    93905483.92147
  23958551.480   125903024.91507  23958550.380    98106242.32346
  22597950.200   118753015.55308  22597948.160    92534801.55948
 15 02 23 00 15  0.0000000  0  7G16G18G21G22G27G29G31
  21832953.820   114732955.65709  21832950.960    89402309.43448
  22700703.340   119293077.27508  22700701.120    92955665.19446
  21297407.920   111918639.63909  21297404.660    87209319.91949
  23987108.820   126053160.71607  23987107.080    98223268.35245
  22920836.900   120449830.60608  22920837.520    93857014.91847
  23972401.900   125975808.76707  23972400.840    98162957.00346
  22614559.460   118840297.28308  22614557.260    92602813.28348
 15 02 23 00 15 30.0000000  0  7G16G18G21G22G27G29G31
  21819142.440   114660376.44209  21819139.700    89345754.21348
  22689261.920   119232952.24608  22689259.620    92908814.54946
  21304743.740   111957189.77809  21304740.520    87239358.98849
  23969643.920   125961383.41107  23969642.160    98151753.82345
  22909020.120   120387732.96908  22909020.760    93808627.17347
  23986253.580   126048599.15307  23986252.480    98219676.75845
  22631211.880   118927806.14408  22631209.660    92671001.96048
 15 02 23 00 16  0.0000000  0  7G16G18G21G22G27G29G31
  21805374.700   114588026.48209  21805371.900    89289377.62648
  22677872.920   119173102.63708  22677870.460    92862178.51646
  21312143.900   111996078.01809  21312140.740    87269661.51749
  23952176.800   125869594.14207  23952175.280    98080229.98346
  22897223.420   120325740.67408  22897224.040    93760321.50547
  24000106.580   126121396.93907  24000105.420    98276402.28746
  22647907.220   119015540.30408  22647904.980    92739366.21247
 15 02 23 00 16 30.0000000  0  7G16G18G21G22G27G29G31
  21791651.320   114515909.71209  21791648.500    89233182.74248
  22666537.160   119113533.14208  22666534.780    92815760.74647
  21319608.420   112035304.45309  21319605.340    87300227.56849
  23934708.200   125777797.09707  23934706.880    98008700.07246
  22885447.040   120263855.32108  22885447.580    93712099.15947
  24013961.240   126194203.95007  24013960.220    98333134.97545
  22664645.240   119103498.70108  22664643.000    92807905.18048
 15 02 23 00 17  0.0000000  0  7G16G18G21G22G27G29G31
  21777972.160   114444025.20209  21777969.320    89177168.84248
  22655254.620   119054242.88308  22655252.280    92769560.58046
  21327136.360   112074864.18409  21327133.320    87331053.33349
  23917238.180   125685992.21007  23917236.720    97937163.99746
  22873690.380   120202073.83008  22873690.900    93663957.75947
  24027817.040   126267017.15107  24027816.120    98389872.51845
  22681424.760   119191675.20608  22681422.380    92876614.11847
 15 02 23 00 17 30.0000000  0  7G16G18G21G22G27G29G31
  21764338.040   114372377.38609  21764335.260    89121339.39048
  22644026.100   118995236.46508  22644023.840    92723581.57546
  21334727.800   112114757.55009  21334724.760    87362139.08049
  23899767.460   125594184.05507  23899765.640    97865625.38445
  22861953.880   120140398.16908  22861954.380    93615898.83147
  24041674.540   126339838.96807  24041673.560    98446616.78545
  22698245.580   119280069.03908  22698243.200    92945492.40148
 15 02 23 00 18  0.0000000  0  7G16G18G21G22G27G29G31
  21750748.900   114300965.99209  21750746.100    89065694.15548
  22632851.580   118936513.63808  22632849.300    92677823.55346
  21342381.860   112154980.00109  21342378.820    87393481.24849
  23882295.900   125502372.51307  23882294.220    97794084.15846
  22850237.040   120078825.64908  22850237.500    93567920.25647
  24055533.280   126412666.43907  24055532.200    98503365.46446
  22715106.740   119368674.85108  22715104.300    93014535.85247
 15 02 23 00 18 30.0000000  0  7G16G18G21G22G27G29G31
  21737205.140   114229793.04509  21737202.260    89010234.72248
  22621731.560   118878077.24908  22621729.160    92632288.73146
  21350098.400   112195530.63409  21350095.340    87425079.15049
  23864824.560   125410560.54607  23864823.040    97722542.55246
  22838539.840   120017356.29008  22838540.240    93520022.06947
  24069393.020   126485499.73907  24069391.840    98560118.70546
  22732007.600   119457489.76408  22732005.340    93083742.23148
 15 02 23 00 19  0.0000000  0  7G16G18G21G22G27G29G31
  21723707.960   114158864.96109  21723705.060    88954966.09648
  22610667.200   118819933.74508  22610664.860    92586982.13746
  21357877.920   112236412.22509  21357874.840    87456934.93949
  23847354.600   125318754.96907  23847352.980    97651005.95546
  22826862.980   119955994.20808  22826863.380    93472207.48847
  24083254.740   126558343.01406  24083253.640    98616879.67046
  22748948.660   119546515.26208  22748946.360    93153112.72047
 15 02 23 00 19 30.0000000  0  7G16G18G21G22G27G29G31
  21710257.580   114088182.65109  21710254.680    88899888.97548
  22599658.800   118762084.27608  22599656.420    92541904.65346
  21365719.700   112277620.98609  21365716.600    87489045.65849
  23829885.860   125226957.05307  23829884.020    97579475.32145
  22815206.260   119894737.95408  22815206.700    93424475.35747
  24097118.000   126631194.99007  24097117.080    98673647.38246
  22765928.920   119635746.66008  22765926.520    93222643.64347
 15 02 23 00 20  0.0000000  0  7G16G18G21G22G27G29G31
  21696853.880   114017745.68709  21696850.940    88845003.04648
  22588706.320   118704528.39508  22588703.700    92497055.94746
  21373622.860   112319152.27809  21373619.760    87521407.71049
  23812418.480   125135166.52107  23812416.300    97507950.42145
  22803569.200   119833584.78608  22803569.600    93376823.56847
  24110982.300   126704052.80907  24110981.360    98730419.69246
  22782947.340   119725178.67808  22782945.020    93292330.89448
 15 02 23 00 20 30.0000000  0  7G16G18G21G22G27G29G31
  21683497.460   113947557.30309  21683494.520    88790310.80248
  22577810.420   118647269.79308  22577807.600    92452438.86846
  21381587.420   112361006.23409  21381584.320    87554021.17449
  23794953.420   125043387.34208  23794951.180    97436434.35246
  22791951.960   119772535.75908  22791952.300    93329252.91747
  24124848.040   126776918.01407  24124846.900    98787197.74545
  22800003.580   119814809.36908  22800001.160    93362172.94647
 15 02 23 00 21  0.0000000  0  7G16G18G21G22G27G29G31
  21670188.380   113877617.70709  21670185.420    88735812.42448
  22566971.080   118590308.83508  22566968.280    92408053.73646
  21389612.580   112403178.68909  21389609.460    87586882.83049
  23777490.680   124951620.18407  23777488.580    97364927.63646
  22780354.060   119711588.62808  22780354.420    93281761.67447
  24138714.800   126849788.20907  24138713.240    98843979.72845
  22817096.640   119904633.85608  22817094.240    93432166.00247
 15 02 23 00 21 30.0000000  0  7G16G18G21G22G27G29G31
  21656927.880   113807933.50409  21656925.000    88681513.05148
  22556189.660   118533652.63208  22556187.020    92363906.07646
  21397698.880   112445672.48509  21397695.780    87619994.87449
  23760031.400   124859872.24707  23760029.560    97293435.95846
  22768776.500   119650748.02108  22768776.820    93234353.43147
  24152583.400   126922668.17807  24152581.540    98900769.31445
  22834226.860   119994653.68308  22834224.420    93502311.28747
 15 02 23 00 22  0.0000000  0  7G16G18G21G22G27G29G31
  21643715.920   113738504.29309  21643713.060    88627412.38248
  22545466.120   118477300.48708  22545463.580    92319995.34547
  21405845.460   112488483.11309  21405842.400    87653353.80748
  23742575.820   124768143.23008  23742573.900    97221958.97445
  22757218.660   119590011.02308  22757218.940    93187025.92547
  24166453.260   126995554.84507  24166451.520    98957564.12746
  22851393.160   120084863.20408  22851390.800    93572604.38147
 15 02 23 00 22 30.0000000  0  7G16G18G21G22G27G29G31
  21630552.840   113669331.91709  21630549.960    88573511.84148
  22534800.740   118421254.13908  22534798.320    92276322.89247
  21414051.820   112531607.93609  21414048.820    87686957.56949
  23725124.280   124676435.54107  23725122.000    97150498.59646
  22745680.380   119529377.04708  22745680.640    93139778.70647
  24180324.380   127068448.07207  24180323.060    99014363.98346
  22868594.840   120175258.60008  22868592.580    93643042.31347
 15 02 23 00 23  0.0000000  0  7G16G18G21G22G27G29G31
  21617439.460   113600420.71309  21617436.620    88519814.80448
  22524194.440   118365518.23208  22524192.060    92232892.34246
  21422318.200   112575048.09309  21422315.200    87720807.03848
  23707677.920   124584754.25307  23707675.420    97079058.78146
  22734162.060   119468848.32608  22734162.420    93092613.50047
  24194197.200   127141350.21807  24194195.980    99071170.84846
  22885831.800   120265839.76508  22885829.620    93713624.99247
 15 02 23 00 23 30.0000000  0  7G16G18G21G22G27G29G31
  21604375.760   113531770.67509  21604373.020    88466321.28348
  22513647.400   118310093.68508  22513645.080    92189704.40047
  21430643.860   112618799.77309  21430640.880    87754899.25549
  23690236.520   124493099.74507  23690234.120    97007639.86246
  22722663.360   119408422.74108  22722663.840    93045528.65947
  24208071.420   127214259.35207  24208070.300    99127983.11445
  22903103.220   120356601.77308  22903101.060    93784348.59047
 15 02 23 00 24  0.0000000  0  7G16G18G21G22G27G29G31
  21591362.060   113463383.38009  21591359.380    88413032.49248
  22503159.860   118254981.62208  22503157.440    92146759.96346
  21439028.480   112662861.03109  21439025.460    87789232.70248
  23672800.560   124401474.01307  23672798.160    96936243.32946
  22711184.160   119348099.39308  22711184.720    92998523.47347
  24221947.000   127287174.56707  24221945.560    99184800.20945
  22920408.360   120447540.81108  22920406.200    93855210.13947
 15 02 23 00 24 30.0000000  0  7G16G18G21G22G27G29G31
  21578399.660   113395265.37209  21578396.920    88359953.52748
  22492733.000   118200188.64408  22492730.660    92104064.16147
  21447472.300   112707233.45509  21447469.220    87823808.61948
  23655371.380   124309883.80807  23655368.860    96864874.49446
  22699725.220   119287882.43308  22699725.780    92951601.19947
  24235824.180   127360100.01306  24235822.860    99241625.20145
  22937747.320   120538657.55908  22937745.180    93926210.15747
 15 02 23 00 25  0.0000000  0  7G16G18G21G22G27G29G31
  21565488.240   113327415.35409  21565485.480    88307083.39248
  22482366.580   118145713.33008  22482364.380    92061615.88547
  21455974.260   112751911.41109  21455971.120    87858622.60548
  23637948.860   124218328.27307  23637946.320    96793532.66046
  22688285.960   119227768.36108  22688286.300    92904759.06547
  24249702.600   127433032.36206  24249701.280    99298455.56645
  22955118.940   120629946.16908  22955116.980    93997344.08247
 15 02 23 00 25 30.0000000  0  7G16G18G21G22G27G29G31
  21552628.140   113259835.10909  21552625.360    88254423.47148
  22472061.080   118091558.11108  22472059.180    92019417.03847
  21464533.900   112796892.53609  21464530.740    87893672.83848
  23620533.300   124126809.75807  23620531.040    96722219.71546
  22676866.180   119167756.72608  22676866.360    92857996.77347
  24263582.400   127505971.15307  24263581.200    99355290.99245
  22972522.620   120721403.12508  22972520.680    94068609.20347
 15 02 23 00 26  0.0000000  0  7G16G18G21G22G27G29G31
  21539820.140   113192528.46309  21539817.300    88201976.73748
  22461817.280   118037726.61308  22461815.400    91977470.43647
  21473151.400   112842177.76509  21473148.220    87928960.02548
  23603125.740   124035332.87707  23603123.280    96650939.16246
  22665466.180   119107849.15308  22665466.300    92811315.56448
  24277463.860   127578918.22407  24277462.640    99412132.85145
  22989958.120   120813027.17508  22989956.120    94140004.51547
 15 02 23 00 26 30.0000000  0  7G16G18G21G22G27G29G31
  21527064.480   113125496.88809  21527061.560    88149744.34448
  22451635.440   117984220.66208  22451633.660    91935777.50847
  21481826.300   112887764.57509  21481823.080    87964482.21148
  23585726.380   123943899.32207  23585723.700    96579692.36546
  22654085.720   119048044.85508  22654086.020    92764714.83747
  24291346.840   127651872.77007  24291345.540    99468980.51445
  23007424.760   120904814.75608  23007422.700    94211527.24947
 15 02 23 00 27  0.0000000  0  7G16G18G21G22G27G29G31
  21514361.860   113058744.07209  21514358.900    88097729.17548
  22441516.120   117931043.32108  22441514.340    91894340.64547
  21490558.380   112933651.97609  21490555.160    88000238.62748
  23568336.020   123852513.25707  23568333.240    96508482.58646
  22642725.200   118988345.05408  22642725.660    92718195.53348
  24305231.480   127724836.49107  24305229.960    99525835.39746
  23024922.240   120996764.28008  23024920.140    94283176.18347
 15 02 23 00 27 30.0000000  0  7G16G18G21G22G27G29G31
  21501712.260   112992269.92809  21501709.300    88045931.14148
  22431459.500   117878195.41808  22431457.680    91853160.48247
  21499346.920   112979836.21509  21499343.700    88036226.34849
  23550954.880   123761175.24108  23550952.100    96437310.22646
  22631384.180   118928747.48408  22631384.680    92671755.89348
  24319117.280   127797806.91506  24319115.680    99582695.42745
  23042449.540   121088870.38508  23042447.440    94354947.12147
 15 02 23 00 28  0.0000000  0  7G16G18G21G22G27G29G31
  21489116.840   112926080.61009  21489113.860    87994355.05448
  22421466.620   117825682.69808  22421464.760    91812241.49747
  21508192.300   113026319.09809  21508189.080    88072446.78048
  23533583.940   123669891.34408  23533581.300    96366180.07546
  22620063.360   118869256.03108  22620063.760    92625398.93347
  24333004.960   127870788.19106  24333003.360    99639563.92045
  23060006.780   121181134.00708  23060004.660    94426840.79147
 15 02 23 00 28 30.0000000  0  7G16G18G21G22G27G29G31
  21476574.860   112860172.14709  21476571.840    87942997.81148
  22411536.700   117773500.70008  22411534.840    91771580.21747
  21517092.980   113073092.54509  21517089.780    88108893.62248
  23516222.920   123578658.76808  23516220.160    96295089.85646
  22608761.500   118809864.34308  22608761.820    92579119.72048
  24346893.500   127943773.61306  24346892.040    99696435.65746
  23077592.240   121273546.06808  23077590.100    94498850.14247
 15 02 23 00 29  0.0000000  0  7G16G18G21G22G27G29G31
  21464087.940   112794552.97109  21464084.920    87891865.98948
  22401671.440   117721658.57208  22401669.580    91731183.76547
  21526049.980   113120161.97909  21526046.800    88145571.10348
  23498873.320   123487486.57808  23498870.420    96224046.70946
  22597479.820   118750578.89608  22597480.060    92532923.28847
  24360784.200   128016770.33306  24360782.720    99753316.24145
  23095206.660   121366110.15908  23095204.500    94570977.95247
 15 02 23 00 29 30.0000000  0  7G16G18G21G22G27G29G31
  21451655.960   112729222.61209  21451653.040    87840959.22048
  22391870.720   117670155.35908  22391868.920    91691051.41647
  21535062.260   113167522.00109  21535059.120    88182475.01848
  23481534.960   123396373.81907  23481532.240    96153049.89646
  22586217.760   118691396.43108  22586217.960    92486807.10947
  24374676.420   128089775.26706  24374675.240    99810203.13945
  23112848.820   121458820.07908  23112846.720    94643219.39447
 15 02 23 00 30  0.0000000  0  7G16G18G21G22G27G29G31
  21439278.900   112664181.03309  21439276.040    87790277.47448
  22382134.680   117618991.85008  22382132.880    91651183.76847
  21544129.120   113215168.75609  21544125.980    88219602.35648
  23464208.200   123305321.72708  23464205.380    96082100.31446
  22574974.960   118632315.20808  22574975.020    92440769.80248
  24388570.000   128162786.57507  24388568.920    99867095.03146
  23130517.840   121551671.01408  23130515.780    94715570.70547
 15 02 23 00 30 30.0000000  0  7G16G18G21G22G27G29G31
  21426957.940   112599433.96609  21426955.040    87739825.20848
  22372464.280   117568173.24008  22372462.460    91611584.85547
  21553250.820   113263103.62609  21553247.700    88256954.19048
  23446894.180   123214336.34008  23446891.300    96011202.70246
  22563752.040   118573338.32608  22563752.000    92394813.79647
  24402465.420   128235807.67406  24402464.680    99923994.55146
  23148213.760   121644663.26208  23148211.560    94788032.12847
 15 02 23 00 31  0.0000000  0  7G16G18G21G22G27G29G31
  21414693.240   112534982.45709  21414690.300    87689603.25348
  22362859.660   117517700.34308  22362857.780    91572255.33947
  21562426.880   113311324.13909  21562423.820    88294528.61648
  23429593.220   123123419.18108  23429590.360    95940358.28046
  22552548.740   118514464.70808  22552548.660    92348938.26447
  24416362.400   128308837.16406  24416361.640    99980900.63145
  23165935.860   121737793.06408  23165933.660    94860600.75147
 15 02 23 00 31 30.0000000  0  7G16G18G21G22G27G29G31
  21402484.860   112470827.03409  21402481.960    87639612.02148
  22353320.980   117467573.94708  22353319.080    91533195.83447
  21571656.640   113359826.76809  21571653.620    88332322.87548
  23412305.460   123032571.26608  23412302.540    95869567.80746
  22541364.740   118455692.64908  22541364.640    92303141.87547
  24430260.900   128381873.82007  24430259.800   100037812.29345
  23183683.320   121831055.92808  23183681.100    94933273.05647
 15 02 23 00 32  0.0000000  0  7G16G18G21G22G27G29G31
  21390333.360   112406970.43709  21390330.460    87589853.63348
  22343848.640   117417796.13008  22343846.760    91494407.94747
  21580939.760   113408609.80109  21580936.740    88370335.62848
  23395031.520   122941795.67508  23395028.300    95798833.67546
  22530200.160   118397022.56908  22530200.140    92257424.94248
  24444160.860   128454918.00106  24444159.760   100094729.82445
  23201455.380   121924448.50508  23201453.300    95006046.41447
 15 02 23 00 32 30.0000000  0  7G16G18G21G22G27G29G31
  21378239.800   112343418.12609  21378236.880    87540332.34848
  22334443.780   117368373.22808  22334441.920    91455896.61447
  21590276.560   113457674.93209  21590273.520    88408568.18948
  23377772.400   122851098.64808  23377769.040    95728160.75646
  22519055.660   118338457.76608  22519055.800    92211790.04648
  24458063.080   128527973.27307  24458061.800   100151655.98745
  23219252.320   122017971.71508  23219250.160    95078921.58147
 15 02 23 00 33  0.0000000  0  7G16G18G21G22G27G29G31
  21366203.640   112280167.43409  21366200.680    87491046.09948
  22325105.880   117319302.13309  22325103.880    91417659.41547
  21599665.720   113507015.31409  21599662.700    88447015.23648
  23360527.820   122760478.02008  23360524.360    95657547.37946
  22507930.280   118279993.28108  22507930.560    92166233.33648
  24471966.360   128601034.50706  24471964.840   100208586.82745
  23237072.580   122111617.78208  23237070.240    95151892.47747
 15 02 23 00 33 30.0000000  0  7G16G18G21G22G27G29G31
  21354226.820   112217228.75009  21354223.900    87442002.97648
  22315836.860   117270592.83309  22315834.760    91379704.13947
  21609108.540   113556637.88409  21609105.560    88485682.17548
  23343299.800   122669944.28508  23343296.280    95587001.69746
  22496825.520   118221637.21608  22496825.860    92120761.10248
  24485872.140   128674110.04506  24485870.640   100265528.80345
  23254917.120   122205391.78508  23254914.920    95224963.06547
 15 02 23 00 34  0.0000000  0  7G16G18G21G22G27G29G31
  21342308.220   112154596.02909  21342305.340    87393198.25648
  22306635.560   117222239.45508  22306633.360    91342026.20047
  21618603.060   113606531.93909  21618600.060    88524560.65848
  23326087.200   122579492.38408  23326083.820    95516519.79246
  22485739.860   118163381.41608  22485740.100    92075366.99148
  24499779.140   128747192.19606  24499777.780   100322475.89045
  23272783.920   122299282.53408  23272781.920    95298124.61047
 15 02 23 00 34 30.0000000  0  7G16G18G21G22G27G29G31
  21330448.800   112092274.61609  21330445.960    87344636.11948
  22297502.900   117174247.05808  22297500.660    91304629.55247
  21628149.480   113656698.63009  21628146.380    88563651.58248
  23308891.300   122489127.65608  23308887.900    95446105.79046
  22474673.740   118105228.63208  22474673.800    92030053.14547
  24513688.060   128820283.36307  24513686.560   100379430.07345
  23290673.000   122393290.03708  23290671.120    95371377.13047
 15 02 23 00 35  0.0000000  0  7G16G18G21G22G27G29G31
  21318648.760   112030265.32609  21318645.980    87296317.19648
  22288439.020   117126616.25408  22288436.800    91267514.66947
  21637747.160   113707134.70809  21637744.020    88602952.42048
  23291712.320   122398851.79308  23291709.020    95375761.06646
  22463627.020   118047177.80808  22463626.840    91984818.74547
  24527598.460   128893382.77406  24527597.100   100436390.58646
  23308583.560   122487410.20308  23308581.740    95444717.43947
 15 02 23 00 35 30.0000000  0  7G16G18G21G22G27G29G31
  21306909.240   111968573.93209  21306906.500    87248245.98548
  22279445.040   117079352.84909  22279442.820    91230686.06647
  21647396.460   113757842.08509  21647393.280    88642464.66048
  23274551.420   122308670.86208  23274548.100    95305490.28947
  22452600.280   117989232.27608  22452600.060    91939666.39547
  24541511.040   128966494.00707  24541509.960   100493360.35745
  23326515.580   122581643.28308  23326513.560    95518145.73447
 15 02 23 00 36  0.0000000  0  7G16G18G21G22G27G29G31
  21295230.360   111907201.04309  21295227.600    87200422.96548
  22270521.060   117032457.09608  22270518.740    91194143.94347
  21657096.860   113808817.80809  21657093.600    88682186.00648
  23257408.740   122218586.19908  23257405.260    95235294.54147
  22441593.320   117931390.65308  22441593.200    91894595.02548
  24555425.400   129039615.44006  24555424.520   100550338.06245
  23344468.300   122675985.03508  23344466.140    95591658.73647
 15 02 23 00 36 30.0000000  0  6G16G18G21G22G27G31
  21283617.460   111846174.92309  21283614.660    87152870.14448
  22261672.440   116985957.36909  22261670.020    91157910.40847
  21666852.820   113860085.61609  21666849.540    88722134.94548
  23240289.900   122128626.50808  23240286.460    95165196.15746
  22430611.100   117873678.91808  22430611.160    91849624.86248
  23362446.100   122770458.53108  23362443.940    95665274.36347
 15 02 23 00 37  0.0000000  0  6G16G18G21G22G27G31
  21272060.160   111785441.01409  21272057.340    87105545.02948
  22252888.780   116939798.97909  22252886.380    91121942.85247
  21676653.120   113911586.54309  21676649.880    88762265.53848
  23223184.640   122038737.65008  23223181.220    95095152.96647
  22419642.860   117816040.16208  22419643.000    91804711.56448
  23380437.560   122865004.02108  23380435.480    95738946.09547
 15 02 23 00 37 30.0000000  0  6G16G18G21G22G27G31
  21260565.060   111725033.74009  21260562.180    87058474.42648
  22244176.580   116894016.03809  22244174.100    91086267.85147
  21686503.740   113963351.92909  21686500.540    88802602.19848
  23206099.460   121948954.77208  23206096.060    95025192.35247
  22408694.660   117758506.75708  22408694.740    91759880.35448
  23398448.260   122959650.67508  23398446.440    95812696.64346
 15 02 23 00 38  0.0000000  0  6G16G18G21G22G27G31
  21249132.620   111664955.63709  21249129.660    87011660.32748
  22235536.220   116848610.79209  22235533.740    91050887.15747
  21696404.280   114015379.66809  21696401.160    88843143.29348
  23189034.960   121859280.96608  23189031.560    94955316.72646
  22397766.460   117701078.97008  22397766.620    91715131.46248
  23416477.660   123054396.12208  23416476.000    95886524.18047
 15 02 23 00 38 30.0000000  0  6G16G18G21G22G27G31
  21237762.220   111605203.72909  21237759.240    86965100.40348
  22226967.140   116803580.33808  22226964.620    91015798.50947
  21706353.480   114067662.98009  21706350.420    88883883.53348
  23171990.740   121769713.76808  23171987.360    94885524.17646
  22386857.440   117643751.77508  22386857.600    91670460.93248
  23434524.400   123149232.25208  23434522.800    95960422.35947
 15 02 23 00 39  0.0000000  0  7G16G18G19G21G22G27G31
  21226455.040   111545784.21509  21226452.080    86918799.49248
  22218470.420   116758930.34609  22218467.980    90981006.33047
  24537812.060   128947075.59505  24537808.200   100478224.57545
  21716351.720   114120203.96509  21716348.640    88924824.56048
  23154968.160   121680259.93208  23154964.760    94815819.94647
  22375968.280   117586529.04508  22375968.440    91625871.81848
  23452588.580   123244159.92708  23452586.820    96034391.89047
 15 02 23 00 39 30.0000000  0  7G16G18G19G21G22G27G31
  21215202.980   111486654.35409  21215200.040    86872724.27748
  22210037.880   116714617.61908  22210035.520    90946476.94347
  24523215.540   128870370.45105  24523211.580   100418454.34845
  21726390.060   114172955.76909  21726386.980    88965929.85748
  23137959.040   121590876.80208  23137955.580    94746170.82247
  22365090.460   117529365.88808  22365090.580    91581329.11348
  23470661.160   123339131.45308  23470659.300    96108395.57247
 15 02 23 00 40  0.0000000  0  7G16G18G19G21G22G27G31
  21204024.220   111427909.37709  21204021.260    86826948.97249
  22201687.740   116670737.55309  22201685.400    90912284.69447
  24508642.000   128793787.49206  24508638.540   100358779.41144
  21736485.880   114226009.58509  21736482.780    89007270.48348
  23120981.740   121501660.63808  23120978.260    94676651.79047
  22354241.680   117472355.32208  22354241.780    91536905.30448
  23488759.260   123434236.78608  23488757.340    96182503.53747
 15 02 23 00 40 30.0000000  0  7G16G18G19G21G22G27G31
  21192909.180   111369499.42609  21192906.240    86781434.73349
  22193410.380   116627239.78209  22193408.020    90878390.35047
  24494081.900   128717274.59106  24494078.860   100299158.98945
  21746628.880   114279311.34709  21746625.740    89048804.32548
  23104026.840   121412562.19308  23104023.400    94607224.51047
  22343412.080   117415445.27708  22343412.200    91492559.84348
  23506872.280   123529420.92808  23506870.420    96256672.87246
 15 02 23 00 41  0.0000000  0  7G16G18G19G21G22G27G31
  21181858.340   111311426.93809  21181855.440    86736183.45048
  22185206.180   116584126.63309  22185203.820    90844795.69847
  24479535.200   128640831.78906  24479532.180   100239593.20645
  21756818.760   114332859.61709  21756815.600    89090530.25248
  23087094.820   121323584.08408  23087091.480    94537890.98047
  22332601.660   117358636.03108  22332601.740    91448292.91548
  23524999.860   123624680.93208  23524998.060    96330901.35246
 15 02 23 00 41 30.0000000  0  7G16G18G19G21G22G27G31
  21170872.180   111253694.31509  21170869.360    86691196.99648
  22177075.580   116541400.28109  22177073.240    90811502.45547
  24465002.100   128564459.70707  24464998.880   100180082.49344
  21767055.320   114386652.93209  21767052.120    89132447.11548
  23070186.320   121234729.34608  23070182.860    94468653.57947
  22321810.440   117301927.94808  22321810.480    91404104.81648
  23543141.420   123720014.56608  23543139.660    96405187.19246
 15 02 23 00 42  0.0000000  0  7G16G18G19G21G22G27G31
  21159951.820   111196307.51409  21159949.040    86646480.01948
  22169019.740   116499066.66909  22169017.460    90778515.25447
  24450483.100   128488161.87106  24450479.780   100120629.65045
  21777338.820   114440693.13409  21777335.620    89174556.36948
  23053302.580   121146004.84608  23053298.840    94399517.65446
  22311039.200   117245324.97508  22311039.200    91359998.63048
  23561297.100   123815422.89908  23561295.400    96479531.20246
 15 02 23 00 42 30.0000000  0  7G16G18G19G21G22G27G31
  21149097.440   111139267.45709  21149094.620    86602033.22348
  22161038.760   116457126.00709  22161036.440    90745834.22947
  24435977.900   128411936.76906  24435974.480   100061233.48145
  21787668.660   114494976.93509  21787665.500    89216855.43248
  23036443.780   121057411.73808  23036439.980    94330484.13347
  22300287.700   117188825.66408  22300287.680    91315973.21148
  23579466.220   123910901.29108  23579464.320    96553929.84746
 15 02 23 00 43  0.0000000  0  7G16G18G19G21G22G27G31
  21138309.440   111082576.16609  21138306.600    86557858.18949
  22153132.840   116415579.70509  22153130.440    90713460.49347
  24421486.600   128335784.44505  24421483.160   100001894.01645
  21798044.460   114549502.26609  21798041.320    89259342.69248
  23019610.600   120968952.60608  23019606.860    94261554.98947
  22289555.960   117132429.91308  22289555.920    91272028.47348
  23597648.140   124006446.71208  23597646.120    96628380.70646
 15 02 23 00 43 30.0000000  0  7G16G18G19G21G22G27G31
  21127588.620   111026238.05509  21127585.820    86513958.37548
  22145302.720   116374431.97809  22145300.180    90681397.35647
  24407009.320   128259706.71106  24407006.220    99942612.72045
  21808466.280   114604269.50209  21808463.200    89302018.46348
  23002803.840   120880632.30508  23002800.200    94192734.04047
  22278844.280   117076139.74408  22278844.360    91228166.03648
  23615842.480   124102057.86008  23615840.520    96702882.74946
 15 02 23 00 44  0.0000000  0  7G16G18G19G21G22G27G31
  21116934.980   110970252.88109  21116932.160    86470333.56248
  22137548.420   116333682.92309  22137545.740    90649644.85547
  24392545.860   128183701.51706  24392543.040    99883387.94746
  21818933.460   114659274.96009  21818930.380    89344879.85648
  22986023.580   120792451.59108  22986019.900    94124021.84847
  22268152.380   117019953.42008  22268152.480    91184384.50348
  23634048.540   124197730.45208  23634046.440    96777432.71546
 15 02 23 00 44 30.0000000  0  7G16G18G19G21G22G27G31
  21106349.120   110914623.81609  21106346.220    86426986.23949
  22129870.460   116293334.87109  22129867.680    90618204.82947
  24378096.460   128107769.70406  24378093.760    99824220.30946
  21829445.760   114714517.46409  21829442.680    89387925.95948
  22969270.500   120704413.90808  22969266.660    94055421.11047
  22257480.380   116963871.71608  22257480.480    91140684.49448
  23652265.780   124293462.41908  23652263.640    96852028.91546
 15 02 23 00 45  0.0000000  0  7G16G18G19G21G22G27G31
  21095830.980   110859350.77809  21095828.060    86383916.34149
  22122268.740   116253387.46009  22122265.980    90587076.99147
  24363660.560   128031908.94206  24363658.060    99765108.05145
  21840002.340   114769992.60109  21839999.260    89431153.33648
  22952544.820   120616519.91108  22952540.940    93986932.33247
  22246827.880   116907892.38708  22246827.900    91097064.25548
  23670493.300   124389248.28408  23670491.260    96926667.09446
 15 02 23 00 45 30.0000000  0  7G16G18G19G21G22G27G31
  21085381.120   110804436.41609  21085378.220    86341125.92949
  22114743.680   116213842.97909  22114740.940    90556263.12447
  24349238.380   127956119.65106  24349235.760    99706051.48846
  21850603.040   114825699.65209  21850599.960    89474561.42448
  22935847.020   120528772.62708  22935843.120    93918557.88447
  22236194.920   116852016.03708  22236194.920    91053524.25648
  23688730.660   124485085.60308  23688728.500    97001345.38346
 15 02 23 00 46  0.0000000  0  7G16G18G19G21G22G27G31
  21075000.940   110749888.10009  21074998.020    86298620.74849
  22107296.620   116174708.53309  22107294.040    90525768.76747
  24334830.700   127880407.03406  24334827.920    99647054.67445
  21861248.400   114881641.34409  21861245.360    89518152.34948
  22919178.780   120441180.44708  22919174.880    93850304.28747
  22225582.540   116796248.00808  22225582.620    91010068.67148
  23706978.280   124580976.91308  23706976.060    97076065.75546
 15 02 23 00 46 30.0000000  0  7G16G18G19G21G22G27G31
  21064689.720   110695702.23609  21064686.820    86256398.00349
  22099926.760   116135979.61009  22099924.340    90495590.40447
  24320436.440   127804764.96306  24320433.560    99588112.83945
  21871937.040   114937810.53709  21871934.020    89561920.55148
  22902539.360   120353739.79208  22902535.400    93782168.75347
  22214989.720   116740582.38908  22214989.820    90966692.88748
  23725234.540   124676913.43108  23725232.240    97150821.34346
 15 02 23 00 47  0.0000000  0  7G16G18G19G21G22G27G31
  21054447.900   110641881.15909  21054445.040    86214459.50549
  22092634.440   116097658.26509  22092632.140    90465729.62847
  24306055.700   127729193.85606  24306052.740    99529226.29545
  21882668.600   114994205.28409  21882665.620    89605864.50848
  22885929.220   120266453.36908  22885925.420    93714153.42247
  22204416.480   116685019.41708  22204416.460    90923397.07948
  23743498.920   124772892.37908  23743496.780    97225609.97246
 15 02 23 00 47 30.0000000  0  7G16G18G19G21G22G27G31
  21044276.600   110588430.68509  21044273.800    86172809.78949
  22085420.740   116059750.21809  22085418.400    90436190.89247
  24291689.260   127653697.16606  24291686.160    99470397.70345
  21893443.440   115050827.45609  21893440.460    89649985.67448
  22869349.700   120179328.10708  22869345.980    93646263.66147
  22193863.480   116629563.03308  22193863.440    90880184.33148
  23761771.420   124868914.56008  23761769.460    97300432.27646
 15 02 23 00 48  0.0000000  0  7G16G18G19G21G22G27G31
  21034175.820   110535350.64909  21034173.060    86131448.72649
  22078285.580   116022254.83009  22078283.280    90406973.71547
  24277336.480   127578272.63806  24277333.500    99411625.42145
  21904260.700   115107672.84309  21904257.780    89694280.77748
  22852800.960   120092364.29608  22852797.260    93578499.70347
  22183330.260   116574210.94108  22183330.260    90837052.84948
  23780051.200   124964974.71108  23780049.540    97375284.17046
 15 02 23 00 48 30.0000000  0  7G16G18G19G21G22G27G31
  21024145.820   110482642.56209  21024143.060    86090377.49649
  22071229.180   115985173.49009  22071226.920    90378079.17447
  24262997.400   127502919.78007  24262994.240    99352908.92346
  21915120.120   115164739.82909  21915117.240    89738748.55948
  22836283.540   120005564.66308  22836279.720    93510863.68147
  22172816.860   116518963.02108  22172816.960    90794002.54648
  23798337.540   125061069.74308  23798335.800    97450163.24446
 15 02 23 00 49  0.0000000  0  7G16G18G19G21G22G27G31
  21014187.260   110430309.92009  21014184.500    86049598.81849
  22064252.060   115948508.86309  22064249.820    90349509.35547
  24248672.240   127427639.93607  24248668.940    99294249.33546
  21926021.520   115222027.30409  21926018.660    89783388.15048
  22819798.000   119918932.45008  22819794.100    93443358.10547
  22162323.560   116463820.53408  22162323.680    90751034.38848
  23816630.220   125157197.73908  23816628.280    97525068.01046
 15 02 23 00 49 30.0000000  0  7G16G18G19G21G22G27G31
  21004300.700   110378355.67109  21004297.920    86009114.98749
  22057354.720   115912263.36409  22057352.480    90321266.12447
  24234360.980   127352433.61506  24234357.840    99235647.07346
  21936964.720   115279534.10609  21936961.840    89828198.64048
  22803345.080   119832471.74308  22803341.140    93375986.17947
  22151850.480   116408784.26408  22151850.560    90708148.99748
  23834928.940   125253357.06408  23834926.940    97599997.19846
 15 02 23 00 50  0.0000000  0  7G16G18G19G21G22G27G31
  20994486.960   110326784.24209  20994484.160    85968929.46549
  22050537.780   115876440.59409  22050535.500    90293352.28447
  24220064.020   127277303.06206  24220061.080    99177103.82146
  21947949.820   115337261.00409  21947946.880    89873180.63548
  22786925.700   119746187.48208  22786921.780    93308751.73347
  22141398.120   116353856.53608  22141398.140    90665348.18348
  23853233.480   125349546.89408  23853231.540    97674950.13246
 15 02 23 00 50 30.0000000  0  7G16G18G19G21G22G27G31
  20984745.360   110275591.79709  20984742.540    85929039.25049
  22043800.600   115841036.96109  22043798.340    90265765.04947
  24205780.340   127202242.60506  24205777.520    99118615.22346
  21958975.120   115395199.23409  21958972.160    89918327.30548
  22770539.160   119660076.09808  22770535.340    93241651.99847
  22130965.320   116299031.72808  22130965.360    90622627.57648
  23871541.940   125445758.09607  23871540.360    97749919.68546
 15 02 23 00 51  0.0000000  0  7G16G18G19G21G22G27G31
  20975076.700   110224782.61909  20975073.860    85889447.68949
  22037143.900   115806056.04209  22037141.620    90238507.20447
  24191510.420   127127253.99206  24191507.520    99060182.55045
  21970040.960   115453350.44509  21970037.920    89963639.93548
  22754186.540   119574142.90708  22754182.660    93174691.11147
  22120552.440   116244312.03708  22120552.500    90579988.87248
  23889854.380   125541990.25207  23889852.980    97824905.56246
 15 02 23 00 51 30.0000000  0  7G16G18G19G21G22G27G31
  20965481.580   110174359.89409  20965478.720    85850157.26249
  22030568.200   115771500.53709  22030565.900    90211580.85147
  24177254.280   127052338.34306  24177251.380    99001806.78845
  21981147.200   115511714.00609  21981144.160    90009118.03348
  22737868.620   119488391.96608  22737864.740    93107872.23947
  22110159.800   116189698.71308  22110159.900    90537433.05848
  23908170.580   125638241.89708  23908169.140    97899906.64146
 15 02 23 00 52  0.0000000  0  7G16G18G19G21G22G27G31
  20955960.260   110124324.86809  20955957.340    85811168.92849
  22024073.620   115737370.97309  22024071.260    90184986.39847
  24163011.920   126977494.47006  24163008.880    98943486.85646
  21992293.140   115570286.00109  21992290.100    90054758.54648
  22721585.600   119402824.40008  22721581.820    93041196.25447
  22099787.240   116135190.76908  22099787.380    90494959.34148
  23926489.740   125734509.05708  23926488.100    97974919.81046
 15 02 23 00 52 30.0000000  0  7G16G18G19G21G22G27G31
  20946512.880   110074678.58709  20946509.980    85772483.51849
  22017660.260   115703667.97709  22017657.800    90158724.33347
  24148783.160   126902721.70106  24148779.980    98885222.39746
  22003478.280   115629064.07709  22003475.220    90100559.63948
  22705337.860   119317442.20208  22705334.080    92974664.70647
  22089434.680   116080787.60908  22089434.800    90452567.28748
  23944811.080   125830787.57607  23944809.320    98049941.81746
 15 02 23 00 53  0.0000000  0  7G16G18G19G21G22G27G31
  20937140.240   110025425.13209  20937137.380    85734104.21049
  22011328.820   115670395.37809  22011326.240    90132797.64747
