     2.11           OBSERVATION DATA    G                   RINEX VERSION / TYPE
SPIDER V4,0,0,3554                      2015 03 16 00:41    PGM / RUN BY / DATE 
AKET                                                        MARKER NAME         
AKET                                                        MARKER NUMBER       
                                                            OBSERVER / AGENCY   
496661              LEICA GRX1200+GNSS  8.20/4.007          REC # / TYPE / VERS 
10271023            LEIAR25         NONE                    ANT # / TYPE        
  5151584.4739   350346.6892  3733756.9574                  APPROX POSITION XYZ 
        0.0480        0.0000        0.0000                  ANTENNA: DELTA H/E/N
     1     1                                                WAVELENGTH FACT L1/2
     4    C1    L1    P2    L2                              # / TYPES OF OBSERV 
    30.000                                                  INTERVAL            
  2015    02    23    09    38    0.0000000     GPS         TIME OF FIRST OBS   
  2015    02    23    23    59   30.0000000     GPS         TIME OF LAST OBS    
    16                                                      LEAP SECONDS        
    25                                                      # OF SATELLITES     
   G 2   835   835   832   832                              PRN / # OF OBS      
   G 3   145   145   144   144                              PRN / # OF OBS      
   G 5   596   596   590   590                              PRN / # OF OBS      
   G 6   491   491   491   491                              PRN / # OF OBS      
   G 7   533   533   533   533                              PRN / # OF OBS      
   G 9   443   443   443   443                              PRN / # OF OBS      
   G10   513   513   513   513                              PRN / # OF OBS      
   G12   781   781   781   781                              PRN / # OF OBS      
   G13   754   754   745   745                              PRN / # OF OBS      
   G14   468   468   468   468                              PRN / # OF OBS      
   G15   647   647   645   645                              PRN / # OF OBS      
   G16   152   152   152   152                              PRN / # OF OBS      
   G17   407   407   406   406                              PRN / # OF OBS      
   G18   380   379   379   379                              PRN / # OF OBS      
   G20   443   443   441   441                              PRN / # OF OBS      
   G21   251   251   251   251                              PRN / # OF OBS      
   G22    96    96    96    96                              PRN / # OF OBS      
   G23   258   258   258   258                              PRN / # OF OBS      
   G24   773   773   772   772                              PRN / # OF OBS      
   G25   762   762   759   759                              PRN / # OF OBS      
   G27   100   100   100   100                              PRN / # OF OBS      
   G28   520   520   519   519                              PRN / # OF OBS      
   G29   575   575   575   575                              PRN / # OF OBS      
   G30   624   624   624   624                              PRN / # OF OBS      
   G31   454   454   454   454                              PRN / # OF OBS      
BIT 2 OF LLI FLAGS DATA COLLECTED UNDER A/S CONDITION       COMMENT             
SNR is mapped to RINEX snr flag value [2-9]                 COMMENT             
Lx:     = 25dBHz -> 1; 26-27dBHz -> 2; 28-31dBHz -> 3       COMMENT             
       32-35dBHz -> 4; 36-38dBHz -> 5; 39-41dBHz -> 6       COMMENT             
       42-44dBHz -> 7; 45-48dBHz -> 8; >=49dBHz -> 9        COMMENT             
                                                            END OF HEADER       
 15 02 23 09 38  0.0000000  0  9G02G03G06G07G09G10G17G20G23
  24377904.260   128106752.71008  24377903.120    99823436.74445
  22370423.880   117557370.56909  22370427.800    91603161.86747
  20946484.820   110074520.59009  20946487.720    85772364.53548
  22330784.920   117349067.16908  22330786.840    91440838.73246
  20311086.000   106735476.34709  20311087.740    83170507.86049
  21848172.000   114812916.88409  21848172.140    89464611.56047
  23670634.320   124390020.90509  23670637.560    96927301.66247
  20902733.660   109844607.08109  20902732.440    85593194.56548
  21217258.720   111497445.85309  21217255.760    86881114.23348
 15 02 23 09 38 30.0000000  0  9G02G03G06G07G09G10G17G20G23
  24358802.640   128006373.18808  24358801.040    99745218.90145
  22381946.740   117617924.33408  22381950.760    91650346.43247
  20938202.120   110030994.85409  20938205.080    85738448.30648
  22313784.160   117259727.98708  22313786.160    91371223.84346
  20311793.040   106739191.82309  20311794.700    83173402.96449
  21835484.780   114746245.01609  21835484.720    89412659.42747
  23686063.100   124471099.11309  23686066.340    96990479.20847
  20893609.620   109796660.05809  20893608.340    85555833.19248
  21227035.640   111548823.47809  21227032.580    86921148.63448
 15 02 23 09 39  0.0000000  0  9G02G03G06G07G09G10G17G20G23
  24339726.620   127906127.49308  24339725.060    99667105.35845
  22393504.340   117678660.23208  22393508.520    91697672.91047
  20930015.440   109987974.27509  20930018.480    85704925.70948
  22296833.700   117170652.80808  22296835.600    91301814.64346
  20312574.280   106743296.95109  20312575.900    83176601.69149
  21822827.560   114679731.34408  21822827.400    89360830.55947
  23701519.720   124552323.53708  23701523.040    97053770.67847
  20884525.680   109748923.81009  20884524.360    85518636.08148
  21236859.640   111600448.82609  21236856.460    86961376.07348
 15 02 23 09 39 30.0000000  0  9G02G03G06G07G09G10G17G20G23
  24320677.660   127806024.87408  24320676.200    99589103.31245
  22405098.060   117739585.27109  22405102.260    91745146.78947
  20921926.520   109945467.66509  20921929.620    85671803.62048
  22279935.420   117081851.59208  22279937.100    91232618.92346
  20313430.800   106747797.49509  20313432.380    83180108.55749
  21810201.780   114613383.72008  21810201.700    89309131.09547
  23717004.780   124633697.60908  23717008.180    97117178.75147
  20875483.360   109701406.35009  20875482.040    85481609.46448
  21246731.680   111652326.94109  21246728.480    87001800.49448
 15 02 23 09 40  0.0000000  0  9G02G03G06G07G09G10G17G20G23
  24301656.560   127706068.83108  24301655.540    99511215.48245
  22416728.060   117800700.52409  22416732.300    91792768.88047
  20913936.120   109903477.88709  20913939.240    85639084.26648
  22263089.900   116993327.87608  22263091.520    91163639.42146
  20314362.560   106752693.30209  20314364.020    83183923.41849
  21797607.900   114547204.01308  21797607.980    89257562.47847
  23732517.840   124715219.06408  23732521.360    97180701.66846
  20866482.980   109654109.55209  20866481.820    85444754.79148
  21256651.680   111704457.58109  21256648.640    87042421.68248
 15 02 23 09 40 30.0000000  0  9G02G03G06G07G09G10G17G20G23
  24282662.580   127606255.60708  24282661.840    99433438.95645
  22428393.180   117861999.99509  22428397.400    91840534.52148
  20906043.420   109862000.71009  20906046.460    85606764.35249
  22246296.500   116905078.42908  22246298.180    91094873.64446
  20315368.180   106757977.08709  20315369.400    83188040.60749
  21785044.960   114481186.85309  21785045.260    89206120.53047
  23748057.260   124796878.90408  23748060.820    97244332.43646
  20857523.680   109607028.66709  20857522.760    85408068.36748
  21266618.140   111756832.70409  21266615.360    87083233.38048
 15 02 23 09 41  0.0000000  0  9G02G03G06G07G09G10G17G20G23
  24263696.280   127506587.66408  24263695.580    99355775.58345
  22440093.360   117923483.84709  22440097.480    91888443.84947
  20898248.720   109821038.07109  20898251.580    85574845.37649
  22229555.900   116817106.15808  22229557.680    91026323.84146
  20316447.360   106763647.72509  20316448.440    83192459.24349
  21772513.320   114415333.56009  21772513.720    89154806.27247
  23763622.520   124878674.06008  23763626.020    97308068.65646
  20848605.660   109560164.72309  20848605.080    85371550.99148
  21276630.820   111809450.62209  21276628.280    87124234.29248
 15 02 23 09 41 30.0000000  0  9G02G03G06G07G09G10G17G20G23
  24244758.540   127407069.66208  24244758.140    99278229.13345
  22451829.080   117985154.34509  22451833.040    91936498.63048
  20890552.600   109780594.02209  20890555.360    85543330.49449
  22212869.020   116729415.69109  22212870.840    90957993.64247
  20317600.260   106769706.21609  20317601.180    83197180.10449
  21760013.460   114349646.99609  21760013.980    89103621.93447
  23779213.360   124960603.32308  23779216.700    97371909.38145
  20839729.560   109513520.91009  20839729.240    85335205.15948
  21286689.940   111862312.06709  21286687.580    87165424.96548
 15 02 23 09 42  0.0000000  0  9G02G03G06G07G09G10G17G20G23
  24225849.200   127307700.62508  24225848.800    99200798.73945
  22463599.620   118047008.20909  22463603.520    91984696.29147
  20882954.820   109740666.98309  20882957.540    85512218.48449
  22196235.600   116642006.25108  22196237.400    90889882.42947
  20318826.100   106776148.02809  20318826.920    83202199.65249
  21747544.920   114284125.02709  21747545.720    89052565.83947
  23794828.500   125042660.35808  23794831.660    97435849.66145
  20830895.060   109467095.14109  20830894.720    85299029.22548
  21296794.600   111915412.21209  21296792.280    87206801.63148
 15 02 23 09 42 30.0000000  0  9G02G03G06G07G09G10G17G20G23
  24206969.720   127208488.21708  24206968.960    99123490.34546
  22475405.920   118109050.54308  22475410.000    92033040.79247
  20875456.780   109701263.85709  20875459.460    85481514.71549
  22179657.120   116554885.84008  22179658.900    90821996.43347
  20320125.640   106782976.96209  20320126.440    83207520.84749
  21735108.780   114218773.47209  21735109.760    89001642.52647
  23810468.360   125124847.08207  23810471.360    97499890.98645
  20822103.320   109420893.65009  20822102.880    85263028.05948
  21306945.360   111968754.33209  21306943.040    87248366.86148
 15 02 23 09 43  0.0000000  0  9G02G03G06G07G09G10G17G20G23
  24188119.040   127109426.87808  24188118.200    99046299.74245
  22487246.660   118171273.76009  22487250.860    92081526.26248
  20868057.220   109662378.74709  20868059.860    85451214.59949
  22163132.680   116468049.71509  22163134.400    90754331.98047
  20321497.180   106790184.16509  20321498.020    83213136.81249
  21722703.780   114153585.40609  21722704.780    88950846.62547
  23826130.840   125207152.92607  23826133.820    97564025.14045
  20813353.020   109374909.80609  20813352.360    85227196.49748
  21317140.300   112022329.04009  21317138.000    87290113.32748
 15 02 23 09 43 30.0000000  0  9G02G03G06G07G09G10G17G20G23
  24169298.880   127010526.01008  24169297.920    98969234.15945
  22499123.160   118233684.80509  22499127.400    92130158.09048
  20860757.840   109624020.28309  20860760.460    85421324.86449
  22146664.200   116381507.24309  22146665.740    90686896.31147
  20322941.780   106797775.27609  20322942.680    83219051.90849
  21710331.480   114088568.81209  21710332.380    88900184.30747
  23841816.640   125289581.18207  23841819.660    97628254.65145
  20804645.520   109329151.63709  20804644.700    85191540.76648
  21327380.500   112076141.45209  21327378.140    87332045.00748
 15 02 23 09 44  0.0000000  0  9G02G03G06G07G09G10G17G20G23
  24150508.780   126911783.84608  24150507.860    98892292.24446
  22511034.540   118296279.36409  22511038.900    92178932.91748
  20853558.180   109586185.85609  20853560.780    85391843.48449
  22130251.300   116295256.70309  22130252.740    90619688.14147
  20324458.340   106805744.72409  20324459.280    83225261.82549
  21697991.260   114023720.24709  21697992.060    88849652.95647
  23857524.320   125372124.66207  23857527.460    97692573.96344
  20795980.280   109283615.82509  20795979.360    85156058.31148
  21337664.880   112130185.74009  21337662.380    87374157.38848
 15 02 23 09 44 30.0000000  0  9G02G03G06G07G09G10G17G20G23
  24131750.600   126813210.00108  24131749.980    98815481.47646
  22522982.300   118359064.80409  22522986.680    92227856.49047
  20846460.000   109548884.51909  20846462.480    85362777.49749
  22113895.840   116209308.35909  22113897.240    90552715.43547
  20326047.940   106814098.57009  20326049.000    83231771.26849
  21685684.680   113959047.96809  21685685.420    88799258.95847
  23873254.700   125454787.37906  23873257.940    97756986.17745
  20787358.940   109238310.62409  20787358.000    85120755.54548
  21347994.460   112184467.56309  21347991.820    87416454.84348
 15 02 23 09 45  0.0000000  0  9G02G03G06G07G09G10G17G20G23
  24113023.260   126714798.06708  24113022.680    98738796.86646
  22534964.740   118422032.20009  22534969.160    92276921.84547
  20839461.860   109512108.98209  20839464.260    85334121.22448
  22097596.480   116123655.25909  22097597.960    90485972.80647
  20327708.780   106822826.59009  20327709.940    83238572.27149
  21673410.060   113894543.81409  21673410.780    88748995.97847
  23889005.560   125537557.42506  23889009.020    97821482.04844
  20778780.060   109193228.48409  20778779.200    85085626.58848
  21358367.260   112238976.35909  21358364.540    87458929.16448
 15 02 23 09 45 30.0000000  0  9G02G03G06G07G09G10G17G20G23
  24094328.060   126616554.74208  24094327.580    98662243.65545
  22546982.660   118485186.12809  22546987.020    92326132.55547
  20832564.820   109475865.51709  20832567.260    85305879.54749
  22081354.820   116038305.12009  22081356.340    90419466.25647
  20329441.460   106831932.06609  20329442.700    83245667.40049
  21661168.520   113830213.47709  21661169.140    88698868.43347
  23904777.060   125620435.90606  23904780.600    97886062.41844
  20770244.760   109148375.08309  20770243.900    85050675.87048
  21368783.820   112293715.17109  21368781.060    87501582.71048
 15 02 23 09 46  0.0000000  0  9G02G03G06G07G09G10G17G20G23
  24075664.740   126518478.48408  24075664.340    98585820.63145
  22559035.180   118548522.42708  22559039.620    92375485.37247
  20825768.500   109440151.48709  20825771.160    85278050.41848
  22065170.580   115953256.44809  22065172.100    90353194.61748
  20331245.060   106841409.49609  20331246.200    83253052.35449
  21648959.300   113766053.37009  21648959.800    88648873.54447
  23920567.880   125703415.83205  23920571.760    97950721.78841
  20761752.380   109103747.08809  20761751.340    85015900.79448
  21379243.040   112348678.09909  21379240.160    87544410.90048
 15 02 23 09 46 30.0000000  0  8G02G03G06G07G09G10G20G23
  24057036.220   126420584.69508  24057035.680    98509539.78645
  22571124.820   118612054.11408  22571129.340    92424990.43547
  20819075.760   109404981.60209  20819078.660    85250645.29349
  22049046.640   115868524.64509  22049048.180    90287169.89548
  20333121.680   106851270.59409  20333122.780    83260736.28149
  21636785.000   113702077.33809  21636785.480    88599022.11147
  20753305.620   109059358.87609  20753304.460    84981312.56348
  21389747.000   112403876.50009  21389744.120    87587422.56748
 15 02 23 09 47  0.0000000  0  9G02G03G06G07G09G10G17G20G23
  24038439.260   126322857.02108  24038438.520    98433388.38745
  22583248.060   118675762.43008  22583252.500    92474633.15047
  20812483.300   109370338.67709  20812486.400    85223650.78949
  22032979.840   115784093.34909  22032981.440    90221379.32948
  20335067.480   106861495.33809  20335068.560    83268703.56449
  21624642.380   113638267.98909  21624642.920    88549300.55947
  23952207.340   125869703.82603                                
  20744901.060   109015192.59609  20744899.920    84946897.25548
  21400291.720   112459289.73309  21400289.020    87630601.62848
 15 02 23 09 47 30.0000000  0  8G02G03G06G07G09G10G20G23
  24019876.260   126225307.86408  24019875.280    98357376.09145
  22595406.840   118739657.33208  22595411.380    92524421.25247
  20805993.480   109336234.25109  20805996.640    85197075.90749
  22016972.680   115699975.42109  22016974.280    90155832.95348
  20337084.040   106872092.31109  20337085.040    83276960.90149
  21612533.520   113574635.99909  21612534.200    88499717.21547
  20736540.900   108971259.45909  20736539.800    84912663.62448
  21410878.920   112514926.39309  21410876.400    87673954.79648
 15 02 23 09 48  0.0000000  0  8G02G03G06G07G09G10G20G23
  24001347.960   126127941.48408  24001346.880    98281506.23246
  22607601.500   118803740.84708  22607606.320    92574356.31047
  20799606.860   109302671.93409  20799609.940    85170923.44549
  22001026.040   115616175.26709  22001027.480    90090534.18448
  20339171.560   106883062.22909  20339172.520    83285508.85849
  21600459.080   113511184.31809  21600459.700    88450274.36947
  20728225.720   108927562.47609  20728224.640    84878614.01248
  21421508.780   112570786.89709  21421506.380    87717482.39048
 15 02 23 09 48 30.0000000  0  8G02G03G06G07G09G10G20G23
  23982853.680   126030753.82507  23982852.820    98205775.64046
  22619830.900   118868006.40508  22619835.780    92624433.23847
  20793322.460   109269646.71909  20793325.400    85145189.50549
  21985139.220   115532689.20209  21985140.480    90025480.15648
  20341328.500   106894397.25109  20341329.460    83294341.32149
  21588417.960   113447907.38209  21588418.380    88400967.70047
  20719954.420   108884096.32209  20719953.320    84844744.27448
  21432179.620   112626862.60009  21432177.340    87761177.67548
 15 02 23 09 49  0.0000000  0  8G02G03G06G07G09G10G20G23
  23964394.360   125933748.98207  23964393.640    98130187.46246
  22632095.260   118932455.50508  22632100.140    92674653.17347
  20787140.780   109237161.65309  20787143.640    85119876.45049
  21969312.860   115449521.13709  21969314.100    89960673.92948
  20343554.920   106906097.52709  20343555.880    83303458.39649
  21576410.540   113384807.47009  21576410.720    88351798.96847
  20711727.460   108840863.58209  20711726.380    84811056.41148
  21442891.480   112683153.84709  21442889.300    87805040.90848
 15 02 23 09 49 30.0000000  0  8G02G03G06G07G09G10G20G23
  23945971.440   125836934.66508  23945970.220    98054747.75546
  22644395.620   118997093.39809  22644400.500    92725020.21947
  20781063.080   109205223.49409  20781065.900    85094989.55149
  21953548.520   115366678.90609  21953549.740    89896121.59648
  20345851.660   106918166.93009  20345852.600    83312863.11049
  21564437.840   113321890.77009  21564437.960    88302772.99547
  20703546.080   108797870.61309  20703545.040    84777555.38848
  21453644.980   112739663.89409  21453642.880    87849074.64848
 15 02 23 09 50  0.0000000  0  8G02G03G06G07G09G10G20G23
  23927584.760   125740311.16008  23927583.360    97979456.75446
  22656731.580   119061918.22509  22656736.420    92775532.92447
  20775089.440   109173831.83309  20775092.260    85070528.50249
  21937846.260   115284163.20109  21937847.460    89831823.70448
  20348218.100   106930602.27809  20348219.080    83322552.98349
  21552499.760   113259156.63209  21552500.000    88253889.26547
  20695410.260   108755116.86109  20695409.300    84744240.76648
  21464439.480   112796389.72909  21464437.500    87893276.52648
 15 02 23 09 50 30.0000000  0  8G02G03G06G07G09G10G20G23
  23909234.500   125643879.75408  23909233.320    97904315.46546
  22669102.800   119126928.52409  22669107.500    92826190.16147
  20769219.860   109142986.76709  20769222.720    85046493.36049
  21922206.380   115201975.38409  21922207.560    89767781.30248
  20350653.700   106943400.84309  20350654.660    83332525.87649
  21540596.320   113196604.72509  21540596.760    88205147.54747
  20687319.920   108712601.82109  20687319.080    84711112.15648
  21475274.320   112853327.91309  21475272.560    87937643.88248
 15 02 23 09 51  0.0000000  0  8G02G03G06G07G09G10G20G23
  23890921.660   125547646.62508  23890920.460    97829328.63046
  22681510.080   119192128.02009  22681514.720    92876994.82547
  20763455.340   109112693.49709  20763458.140    85022888.19749
  21906629.980   115120121.26509  21906631.180    89703998.92348
  20353158.840   106956564.95709  20353159.740    83342783.61749
  21528728.600   113134239.68809  21528729.120    88156551.43647
  20679275.840   108670330.28209  20679275.240    84678173.28048
  21486149.980   112910480.74609  21486148.440    87982178.49648
 15 02 23 09 51 30.0000000  0  8G02G03G06G07G09G10G20G23
  23872645.980   125451609.40208  23872644.880    97754494.46946
  22693952.460   119257511.99609  22693957.140    92927943.24547
  20757795.180   109082948.69109  20757797.840    84999710.40149
  21891116.660   115038598.77309  21891117.840    89640474.96047
  20355732.280   106970088.52509  20355733.240    83353321.47349
  21516895.840   113072057.45809  21516896.260    88108097.77147
  20671277.420   108628298.78209  20671277.000    84645421.45548
  21497065.380   112967841.97209  21497063.960    88026875.49648
 15 02 23 09 52  0.0000000  0  8G02G03G06G07G09G10G20G23
  23854408.620   125355773.22008  23854407.940    97679816.96246
  22706430.340   119323083.10908  22706435.040    92979037.46247
  20752240.180   109053756.49009  20752242.720    84976963.20749
  21875667.420   114957413.31709  21875668.640    89577213.61348
  20358374.360   106983972.90709  20358375.320    83364140.46949
  21505098.600   113010061.62109  21505098.720    88059789.35947
  20663325.400   108586511.17109  20663325.060    84612859.65848
  21508020.760   113025412.54609  21508019.300    88071735.61448
 15 02 23 09 52 30.0000000  0  8G02G03G06G07G09G10G20G23
  23836209.760   125260138.11408  23836209.120    97605296.11746
  22718943.300   119388838.95808  22718948.040    93030275.63247
  20746790.100   109025115.91109  20746792.620    84954645.85249
  21860282.300   114876565.03009  21860283.640    89514215.00348
  20361084.440   106998214.33709  20361085.380    83375237.68549
  21493336.640   112948251.01909  21493336.380    88011625.27447
  20655419.660   108544966.10009  20655419.240    84580486.86448
  21519015.300   113083188.13509  21519013.720    88116755.49048
 15 02 23 09 53  0.0000000  0  8G02G03G06G07G09G10G20G23
  23818049.520   125164704.28208  23818048.720    97530932.13646
  22731490.940   119454777.09108  22731495.840    93081655.83847
  20741444.720   108997025.90709  20741447.320    84932757.52149
  21844961.400   114796054.04009  21844962.920    89451479.23248
  20363861.800   107012809.01809  20363862.660    83386610.17949
  21481609.640   112886624.27409  21481609.100    87963604.46747
  20647559.940   108503662.35209  20647559.400    84548302.11248
  21530048.280   113141165.25709  21530046.500    88161932.40548
 15 02 23 09 53 30.0000000  0  8G02G03G06G07G09G10G20G23
  23799928.980   125069478.81408  23799928.200    97456730.49446
  22744074.220   119520902.19308  22744079.240    93133181.73547
  20736205.140   108969492.56909  20736207.940    84911302.93949
  21829706.140   114715887.49909  21829707.700    89389011.85348
  20366707.060   107027760.25909  20366707.780    83398260.49049
  21469918.560   112825186.84609  21469917.960    87915731.16447
  20639747.360   108462605.86909  20639746.600    84516310.02948
  21541120.260   113199346.92609  21541118.280    88207268.70348
 15 02 23 09 54  0.0000000  0  8G02G03G06G07G09G10G20G23
  23781849.220   124974468.33208  23781848.460    97382696.37946
  22756693.760   119587218.13208  22756698.900    93184856.31947
  20731072.600   108942521.13109  20731075.540    84890286.21249
  21814517.660   114636071.60809  21814519.200    89326817.70648
  20369620.620   107043070.60209  20369621.220    83410190.62849
  21458264.380   112763943.93709  21458263.940    87868009.43847
  20631982.720   108421801.70009  20631981.820    84484514.56748
  21552231.560   113257735.26309  21552229.320    88252766.04648
 15 02 23 09 54 30.0000000  0  8G02G03G06G07G09G10G20G23
  23763809.300   124879668.40208  23763808.500    97308826.32346
  22769348.480   119653718.25608  22769353.660    93236674.44247
  20726046.140   108916106.31509  20726049.020    84869703.22149
  21799395.180   114556602.37409  21799396.640    89264893.67648
  20372600.880   107058732.07909  20372601.480    83422394.37649
  21446646.020   112702889.88409  21446645.840    87820434.89247
  20624264.900   108381244.40609  20624263.980    84452911.46248
  21563380.600   113316322.30309  21563378.040    88298418.21848
 15 02 23 09 55  0.0000000  0  8G02G03G06G07G09G10G20G23
  23745809.740   124785081.43108  23745809.060    97235122.18646
  22782038.260   119720402.44708  22782043.480    93288635.99347
  20721125.840   108890249.29909  20721128.680    84849554.88149
  21784339.180   114477482.46009  21784340.620    89203241.85148
  20375647.480   107074743.13709  20375648.220    83434870.50949
  21435063.800   112642025.49809  21435063.760    87773008.11247
  20616594.240   108340935.05709  20616593.280    84421501.56448
  21574567.000   113375106.13609  21574564.140    88344223.73048
 15 02 23 09 55 30.0000000  0  8G02G03G06G07G09G10G20G23
  23727851.680   124690712.91508  23727851.160    97161588.32546
  22794763.600   119787273.68009  22794768.880    93340743.28647
  20716312.400   108864954.40409  20716315.240    84829844.54949
  21769350.680   114398716.95309  21769352.060    89141866.19148
  20378760.820   107091105.44209  20378761.820    83447620.34649
  21423518.400   112581354.87409  21423518.580    87725732.33447
  20608971.600   108300877.55409  20608970.480    84390287.91648
  21585791.000   113434088.41709  21585788.080    88390183.88248
 15 02 23 09 56  0.0000000  0  8G02G03G06G07G09G10G20G23
  23709935.900   124596565.82308  23709935.680    97088226.98546
  22807524.580   119854332.18909  22807529.780    93392996.52247
  20711606.160   108840223.16109  20711609.120    84810573.43049
  21754430.180   114320308.76609  21754431.480    89080768.94948
  20381940.880   107107817.86309  20381942.080    83460642.99449
  21412010.040   112520879.35309  21412010.560    87678608.55548
  20601397.300   108261073.72109  20601396.020    84359271.93548
  21597052.420   113493267.87109  21597049.600    88436297.67048
 15 02 23 09 56 30.0000000  0  8G02G03G06G07G09G10G20G23
  23692062.780   124502642.23508  23692062.620    97015039.78447
  22820321.140   119921577.66409  22820326.280    93445395.44047
  20707007.300   108816056.56109  20707010.360    84791742.28749
  21739578.080   114242260.20409  21739579.300    89019951.92848
  20385187.380   107124878.74809  20385188.680    83473937.16149
  21400538.880   112460599.61809  21400539.680    87631637.34247
  20593871.420   108221524.48209  20593870.040    84328454.33748
  21608350.980   113552642.69809  21608348.240    88482563.70448
 15 02 23 09 57  0.0000000  0  8G02G03G06G07G09G10G20G23
  23674231.640   124408938.83608  23674231.320    96942024.18546
  22833152.080   119989004.14109  22833157.280    93497935.39547
  20702515.140   108792449.90909  20702518.060    84773347.47749
  21724793.700   114164567.76809  21724794.860    88959412.42548
  20388498.880   107142280.77109  20388500.300    83487497.14549
  21389104.120   112400510.75809  21389105.020    87584814.85748
  20586392.960   108182225.00409  20586391.660    84297831.35348
  21619685.180   113612205.25909  21619682.620    88528976.01348
 15 02 23 09 57 30.0000000  0  8G02G03G06G07G09G10G20G23
  23656444.160   124315464.84808  23656443.600    96869187.33446
  22846018.660   120056618.25808  22846024.020    93550621.55747
  20698131.040   108769411.06109  20698133.840    84755395.10749
  21710078.800   114087240.63609  21710079.900    88899157.57448
  20391876.320   107160029.19709  20391877.800    83501327.05049
  21377707.300   112340620.72909  21377708.140    87538147.30447
  20578963.460   108143183.04609  20578962.280    84267409.03248
  21631056.180   113671960.60409  21631053.680    88575538.55048
 15 02 23 09 58  0.0000000  0  8G02G03G06G07G09G10G20G23
  23638700.920   124222223.21608  23638700.200    96796531.59546
  22858921.000   120124420.75608  22858926.620    93603454.49547
  20693855.340   108746942.00909  20693858.120    84737886.73649
  21695433.980   114010281.86809  21695435.020    88839189.75148
  20395319.560   107178123.42709  20395321.060    83515426.41349
  21366348.820   112280931.15909  21366349.460    87491635.95348
  20571583.340   108104400.61909  20571582.180    84237188.94548
  21642463.820   113731907.97009  21642461.240    88622250.70647
 15 02 23 09 58 30.0000000  0  8G02G03G06G07G09G10G20G23
  23621001.800   124129213.79708  23621000.980    96724056.76346
  22871858.680   120192408.78908  22871864.380    93656432.01547
  20689687.680   108725041.09409  20689690.500    84720821.06648
  21680859.180   113933690.90909  21680860.200    88779508.53948
  20398827.800   107196559.25209  20398829.300    83529791.94849
  21355028.240   112221440.34009  21355028.800    87445279.46947
  20564252.300   108065876.26409  20564251.220    84207169.95748
  21653907.260   113792043.63209  21653904.560    88669109.58747
 15 02 23 09 59  0.0000000  0  8G02G03G06G07G09G10G20G23
  23603347.340   124036439.73508  23603346.440    96651765.30946
  22884831.780   120260582.48308  22884837.480    93709554.21647
  20685628.360   108703709.69409  20685631.240    84704199.17148
  21666354.880   113857470.46109  21666355.920    88720116.03748
  20402400.840   107215335.47109  20402402.380    83544422.71649
  21343745.680   112162149.43509  21343746.260    87399078.74548
  20556970.600   108027611.47409  20556969.760    84177353.22148
  21665386.240   113852365.76709  21665383.460    88716113.76447
 15 02 23 09 59 30.0000000  0  8G02G03G06G07G09G10G20G23
  23585738.240   123943904.04108  23585737.140    96579659.59646
  22897840.440   120328942.89808  22897846.260    93762821.89447
  20681677.900   108682950.02609  20681680.720    84688022.78448
  21651921.800   113781624.44209  21651922.820    88661015.30748
  20406038.620   107234451.75209  20406040.200    83559318.48449
  21332501.500   112103060.62109  21332502.100    87353035.50347
  20549738.720   107989608.32909  20549738.160    84147740.36448
  21676900.560   113912873.74309  21676897.900    88763262.76547
 15 02 23 10 00  0.0000000  0  8G02G03G06G07G09G10G20G23
  23568174.500   123851606.53508  23568173.360    96507739.49046
  22910884.140   120397487.24208  22910890.060    93816232.90347
  20677836.060   108662760.43509  20677838.860    84672290.61649
  21637559.840   113706152.04809  21637560.760    88602205.69248
  20409740.340   107253903.98409  20409741.840    83574476.01949
  21321295.440   112044172.43909  21321295.980    87307148.58348
  20542556.460   107951865.22409  20542556.000    84118330.14448
  21688449.400   113973563.24909  21688446.980    88810553.20147
 15 02 23 10 00 30.0000000  0  8G02G03G06G07G09G10G20G23
  23550656.900   123759550.96808  23550655.740    96436007.90246
  22923963.040   120466216.41108  22923969.040    93869787.92447
  20674103.100   108643142.99609  20674105.840    84657004.28448
  21623269.720   113631056.81909  21623270.500    88543689.96448
  20413506.000   107273691.68809  20413507.300    83589894.97149
  21310127.940   111985486.95909  21310128.420    87261419.62247
  20535424.180   107914384.29409  20535423.600    84089124.21848
  21700032.800   114034434.27109  21700030.560    88857985.10547
 15 02 23 10 01  0.0000000  0  8G02G03G06G07G09G10G20G23
  23533186.180   123667741.29108  23533185.060    96364467.93547
  22937077.400   120535131.74508  22937083.400    93923488.03747
  20670479.380   108624100.12409  20670482.180    84642165.67249
  21609052.100   113556342.66409  21609052.840    88485471.19748
  20417335.420   107293814.84009  20417336.560    83605575.32049
  21298999.620   111927006.66209  21298999.920    87215850.56547
  20528342.260   107877168.33509  20528341.580    84060124.78248
  21711650.640   114095486.62709  21711648.560    88905558.30248
 15 02 23 10 01 30.0000000  0  8G02G03G06G07G09G10G20G23
  23515762.860   123576180.20208  23515761.720    96293121.66246
  22950227.180   120604233.52208  22950233.200    93977333.42047
  20666965.100   108605633.27209  20666968.060    84627775.88148
  21594907.400   113482012.20709  21594908.240    88427551.43148
  20421228.420   107314272.44109  20421229.520    83621516.28249
  21287910.700   111868733.02709  21287910.840    87170442.53648
  20521310.880   107840218.86909  20521310.240    84031332.98548
  21723302.700   114156719.05709  21723300.840    88953271.82047
 15 02 23 10 02  0.0000000  0  8G02G03G06G07G09G10G20G23
  23498386.880   123484868.14308  23498385.740    96221969.44646
  22963412.000   120673519.59108  22963418.120    94031322.38847
  20663560.300   108587741.30909  20663563.400    84613834.07049
  21580835.640   113408065.49509  21580836.660    88369930.67548
  20425184.280   107335060.88609  20425185.500    83637715.03749
  21276860.900   111810664.77509  21276860.920    87125194.53748
  20514330.120   107803535.11109  20514329.600    84002748.22848
  21734988.340   114218127.93309  21734986.700    89001122.81048
 15 02 23 10 02 30.0000000  0  8G02G03G06G07G09G10G20G23
  23481059.500   123393811.76108  23481058.260    96151016.44146
  22976632.580   120742993.70108  22976638.740    94085457.90747
  20660265.900   108570429.09909  20660269.060    84600344.01049
  21566838.060   113334508.67209  21566839.240    88312613.72148
  20429203.500   107356182.63609  20429204.960    83654173.50749
  21265851.020   111752806.95809  21265851.080    87080110.52448
  20507401.000   107767121.87009  20507400.520    83974374.25948
  21746708.040   114279715.62409  21746706.640    89049113.15448
 15 02 23 10 03  0.0000000  0  8G02G03G06G07G09G10G20G23
  23463781.300   123303014.70108  23463780.100    96080265.51046
  22989889.140   120812657.21808  22989895.340    94139741.00947
  20657082.380   108553699.02909  20657085.460    84587307.57749
  21552915.460   113261345.58509  21552916.720    88255603.57548
  20433286.140   107377637.69309  20433287.860    83670891.70449
  21254881.620   111695162.40309  21254881.680    87035192.70748
  20500523.940   107730981.91909  20500523.420    83946213.25248
  21758461.800   114341482.08209  21758460.600    89097242.79747
 15 02 23 10 03 30.0000000  0  8G02G03G06G07G09G10G20G23
  23446551.420   123212471.93708  23446550.440    96009712.75047
  23003180.480   120882502.64009  23003186.600    94194165.86247
  20654008.400   108537544.63209  20654011.400    84574719.72649
  21539066.940   113188571.40309  21539068.260    88198896.46748
  20437430.700   107399417.21909  20437432.440    83687862.73149
  21243951.540   111637724.71009  21243951.520    86990436.07648
  20493697.720   107695109.14409  20493697.100    83918260.43548
  21770247.900   114403418.43109  21770246.840    89145504.83748
 15 02 23 10 04  0.0000000  0  8G02G03G06G07G09G10G20G23
  23429371.500   123122191.55508  23429370.700    95939364.42746
  23016507.520   120952535.29708  23016513.400    94248736.61847
  20651045.080   108521972.28309  20651048.060    84562585.41349
  21525293.980   113116193.80209  21525295.240    88142498.37348
  20441637.860   107421525.18709  20441639.420    83705089.70549
  21233061.980   111580500.13309  21233061.940    86945845.51747
  20486923.640   107659510.31509  20486922.900    83890521.08148
  21782067.000   114465528.57809  21782066.140    89193902.29047
 15 02 23 10 04 30.0000000  0  8G02G03G06G07G09G10G20G23
  23412241.540   123032173.47808  23412240.780    95869220.50346
  23029869.580   121022752.39008  23029875.440    94303451.07847
  20648192.180   108506980.12109  20648195.000    84550903.19949
  21511596.420   113044212.41509  21511597.620    88086409.01148
  20445906.720   107443957.45209  20445908.160    83722569.37149
  21222212.660   111523487.07609  21222212.660    86901419.77048
  20480201.400   107624183.77009  20480200.500    83862993.89348
  21793918.460   114527808.39009  21793917.720    89242431.94647
 15 02 23 10 05  0.0000000  0  8G02G03G06G07G09G10G20G23
  23395162.000   122942419.69508  23395161.340    95799282.53046
  23043266.540   121093152.93108  23043272.360    94358308.50347
  20645449.680   108492568.32609  20645452.660    84539673.21049
  21497974.500   112972628.50309  21497975.660    88030629.38748
  20450236.800   107466711.82409  20450238.140    83740300.03049
  21211403.760   111466686.45909  21211403.940    86857159.55348
  20473530.940   107589129.72709  20473529.980    83835679.04848
  21805801.940   114590255.72109  21805801.160    89291092.14048
 15 02 23 10 05 30.0000000  0  8G02G03G06G07G09G10G20G23
  23378133.600   122852934.14208  23378132.880    95729553.54646
  23056698.800   121163738.70409  23056704.580    94413310.24347
  20642818.220   108478739.32409  20642821.220    84528897.34049
  21484429.060   112901446.43009  21484430.140    87975162.85848
  20454628.120   107489788.49709  20454629.460    83758281.82549
  21200635.760   111410100.73409  21200636.220    86813066.79148
  20466912.880   107554351.60309  20466911.900    83808579.18348
  21817717.300   114652870.65309  21817716.420    89339882.91747
 15 02 23 10 06  0.0000000  0  8G02G03G06G07G09G10G20G23
  23361156.400   122763718.25208  23361155.740    95660034.70747
  23070166.040   121234508.45908  23070171.720    94468455.36747
  20640297.700   108465492.94009  20640300.600    84518575.47349
  21470960.160   112830666.74409  21470961.120    87920009.88848
  20459080.240   107513185.00609  20459081.660    83776512.85849
  21189908.800   111353729.92609  21189909.380    86769141.49248
  20460347.300   107519849.44209  20460346.220    83781694.37548
  21829664.100   114715650.85409  21829663.160    89388802.48948
 15 02 23 10 06 30.0000000  0  8G02G03G06G07G09G10G20G23
  23344231.960   122674780.05008  23344231.360    95590732.24146
  23083669.240   121305467.49708  23083675.020    94523747.95447
  20637889.180   108452835.42809  20637892.040    84508712.44749
  21457569.320   112760297.39409  21457570.200    87865176.66348
  20463594.000   107536905.33509  20463595.480    83794996.21149
  21179224.100   111297580.80509  21179224.620    86725388.93448
  20453835.420   107485629.64409  20453834.180    83755029.57348
  21841643.080   114778600.24909  21841642.040    89437853.87747
 15 02 23 10 07  0.0000000  0  8G02G03G06G07G09G10G20G23
  23327360.340   122586120.02708  23327359.700    95521646.52146
  23097208.000   121376613.69608  23097213.820    94579186.37647
  20635592.380   108440765.53409  20635595.180    84499307.30649
  21444256.500   112690338.63409  21444257.360    87810663.39048
  20468168.700   107560945.98209  20468170.220    83813729.16049
  21168581.360   111241652.37409  21168581.740    86681808.34748
  20447377.200   107451691.47909  20447375.860    83728584.23848
  21853653.660   114841715.32709  21853652.440    89487034.38148
 15 02 23 10 07 30.0000000  0  8G02G03G06G07G09G10G20G23
  23310541.100   122497734.99108  23310540.280    95452775.07147
  23110781.240   121447941.25908  23110786.960    94634766.13447
  20633406.380   108429278.34209  20633409.100    84490356.22149
  21431021.140   112620787.11709  21431022.100    87756467.44748
  20472803.060   107585299.85509  20472804.600    83832706.17749
  21157979.720   111185940.07009  21157979.960    86638396.17048
  20440971.820   107418030.68109  20440970.580    83702355.03248
  21865694.440   114904988.78409  21865692.960    89536338.30847
 15 02 23 10 08  0.0000000  0  8G02G03G06G07G09G10G20G23
  23293775.460   122409630.77708  23293774.380    95384122.48346
  23124389.640   121519453.44008  23124395.360    94690489.76447
  20631332.020   108418377.94009  20631334.660    84481862.37749
  21417864.420   112551648.43709  21417865.480    87702593.20548
  20477497.400   107609968.82309  20477498.960    83851928.73349
  21147420.020   111130448.36209  21147420.120    86595155.89648
  20434620.020   107384651.72309  20434618.980    83676345.44448
  21877765.720   114968422.87409  21877764.080    89585767.39248
 15 02 23 10 08 30.0000000  0  8G02G03G06G07G09G10G20G23
  23277063.340   122321807.26108  23277062.000    95315688.62246
  23138032.620   121591147.27408  23138038.360    94746354.94046
  20629369.080   108408062.25809  20629371.620    84473824.16449
  21404786.140   112482921.89009  21404787.240    87649040.10948
  20482250.900   107634948.71309  20482252.460    83871393.56049
  21136902.040   111075175.77309  21136901.960    86552086.36148
  20428321.400   107351553.20509  20428320.620    83650554.38548
  21889866.620   115032013.16209  21889864.960    89635318.17548
 15 02 23 10 09  0.0000000  0  8G02G03G06G07G09G10G20G23
  23260406.080   122234271.77608  23260404.500    95247479.19447
  23151711.040   121663027.66408  23151716.860    94802365.45547
  20627518.500   108398336.97709  20627521.020    84466245.99749
  21391787.640   112414614.48509  21391788.640    87595813.60148
  20487064.300   107660242.99809  20487065.800    83891103.37249
  21126426.820   111020128.25409  21126426.680    86509192.21748
  20422077.240   107318741.21009  20422076.620    83624986.59348
  21901997.980   115095763.49509  21901996.260    89684993.66148
 15 02 23 10 09 30.0000000  0  8G02G03G06G07G09G10G20G23
  23243803.720   122147025.16008  23243802.060    95179494.84247
  23165424.680   121735092.72708  23165430.560    94858519.89047
  20625780.120   108389201.08409  20625782.620    84459127.09749
  21378869.120   112346726.98609  21378869.980    87542914.28248
  20491936.960   107685848.59509  20491938.360    83911055.75949
  21115994.220   110965305.44309  21115994.240    86466473.15048
  20415887.560   107286215.49409  20415887.000    83599641.87148
  21914159.160   115159670.56509  21914157.380    89734791.28647
 15 02 23 10 10  0.0000000  0  8G02G03G06G07G09G10G20G23
  23227257.040   122060072.14808  23227255.720    95111739.27346
  23179173.940   121807344.36708  23179179.960    94914819.68947
  20624154.260   108380657.16609  20624156.800    84452469.46049
  21366031.280   112279263.73609  21366032.080    87490345.55948
  20496868.920   107711765.99609  20496870.340    83931251.11049
  21105604.980   110910710.33309  21105605.240    86423931.51048
  20409753.080   107253978.93409  20409752.500    83574522.46748
  21926350.260   115223734.88609  21926348.440    89784711.44047
 15 02 23 10 10 30.0000000  0  8G02G03G06G07G09G10G20G23
  23210766.540   121973414.93108  23210765.440    95044214.16147
  23192958.620   121879782.18608  23192964.780    94971264.56947
  20622641.080   108372705.64609  20622643.780    84446273.43749
  21353274.360   112212225.95609  21353275.080    87438108.36848
  20501859.880   107737993.53109  20501861.380    83951688.11549
  21095259.280   110856343.95409  21095259.780    86381568.10848
  20403673.940   107222032.45409  20403673.360    83549629.10248
  21938571.020   115287955.15309  21938569.220    89834753.11247
 15 02 23 10 11  0.0000000  0  8G02G03G06G07G09G10G20G23
  23194332.040   121887051.75208  23194330.900    94976918.19846
  23206777.840   121952401.61308  23206784.020    95027850.94347
  20621239.880   108365342.67709  20621242.700    84440536.01749
  21340598.060   112145611.59409  21340598.760    87386201.11448
  20506908.780   107764525.32309  20506910.280    83972362.19549
  21084956.660   110802203.23109  21084957.140    86339380.54048
  20397649.400   107190373.25309  20397648.920    83524959.58548
  21950820.240   115352325.43009  21950818.560    89884911.68447
 15 02 23 10 11 30.0000000  0  8G02G03G06G07G09G10G20G23
  23177954.620   121800988.11608  23177953.420    94909855.64247
  23220632.120   122025205.70508  23220638.200    95084581.21747
  20619951.460   108358572.04409  20619954.280    84435260.16949
  21328003.400   112079426.25909  21328004.160    87334628.18348
  20512015.960   107791363.12509  20512017.400    83993274.72849
  21074697.920   110748292.39809  21074698.220    86297372.10848
  20391680.360   107159005.77109  20391679.960    83500517.37848
  21963098.360   115416847.33709  21963096.840    89935188.40047
 15 02 23 10 12  0.0000000  0  8G02G03G06G07G09G10G20G23
  23161634.700   121715226.64108  23161633.420    94843028.55046
  23234521.460   122098194.38708  23234527.540    95141455.33347
  20618775.920   108352394.38209  20618778.620    84430446.38249
  21315490.720   112013672.02409  21315491.560    87283391.18248
  20517181.100   107818505.57509  20517182.440    84014424.65049
  21064483.180   110694612.80909  21064483.400    86255543.87848
  20385767.160   107127931.23809  20385766.660    83476303.45248
  21975405.180   115481519.97309  21975403.760    89985582.57648
 15 02 23 10 12 30.0000000  0  9G02G03G06G07G09G10G20G23G30
  23145370.540   121629758.37908  23145369.320    94776429.91847
  23248443.680   122171355.88408  23248449.840    95198464.08847
  20617711.180   108346798.59209  20617713.760    84426085.99149
  21303058.280   111948339.17109  21303059.080    87232482.51348
  20522401.700   107845939.58509  20522402.960    84035801.75749
  21054310.420   110641154.19009  21054310.600    86213887.80948
  20379907.740   107097139.04209  20379906.940    83452309.52648
  21987738.160   115546329.99409  21987736.900    90036083.78348
  23103592.260   121410197.74205  23103596.820    94605352.53043
 15 02 23 10 13  0.0000000  0  9G02G03G06G07G09G10G20G23G30
  23129166.480   121544606.36708  23129165.500    94710077.72447
  23262402.620   122244710.57208  23262409.060    95255623.37447
  20616761.160   108341805.67809  20616763.680    84422195.37249
  21290710.320   111883450.54709  21290711.260    87181920.01048
  20527681.440   107873684.23309  20527682.600    84057420.92749
  21044183.820   110587938.21409  21044183.880    86172420.80948
  20374106.220   107066651.34409  20374105.260    83428552.86848
  22000101.060   115611296.91309  22000099.920    90086707.26147
  23083619.820   121305241.95305  23083624.860    94523568.99944
 15 02 23 10 13 30.0000000  0  9G02G03G06G07G09G10G20G23G30
  23113022.060   121459767.34608  23113021.140    94643969.42047
  23276397.260   122318252.47908  23276403.900    95312928.55747
  20615924.820   108337410.35809  20615927.400    84418770.40949
  21278446.140   111819002.35409  21278447.180    87131700.70248
  20533018.880   107901732.32309  20533020.000    84079276.53849
  21034102.440   110534959.97109  21034102.320    86131139.06148
  20368361.760   107036463.47509  20368360.840    83405029.84748
  22012492.420   115676413.40009  22012491.400    90137447.28948
  23063680.220   121200459.33405  23063685.200    94441920.27944
 15 02 23 10 14  0.0000000  0  9G02G03G06G07G09G10G20G23G30
  23096936.740   121375237.87808  23096935.620    94578102.32946
  23290426.480   122391975.77408  23290433.180    95370375.08147
  20615201.100   108333607.38609  20615203.820    84415807.02149
  21266265.080   111754991.05309  21266266.120    87081821.82048
  20538412.620   107930076.72309  20538413.800    84101363.04949
  21024065.360   110482215.19809  21024065.200    86090039.25048
  20362673.520   107006571.00209  20362672.620    83381737.01048
  22024910.820   115741672.27209  22024909.960    90188298.28348
  23043772.840   121095846.87005  23043778.360    94360404.19844
 15 02 23 10 14 30.0000000  0  9G02G03G06G07G09G10G20G23G30
  23080910.880   121291020.47408  23080909.540    94512478.42146
  23304490.160   122465880.14108  23304496.940    95427962.68747
  20614590.080   108330397.04809  20614592.920    84413305.42049
  21254167.480   111691418.36409  21254168.580    87032284.70948
  20543862.440   107958715.78609  20543863.660    84123679.16149
  21014072.860   110429705.08709  21014072.740    86049122.27448
  20357041.500   106976974.95009  20357040.700    83358675.13948
  22037356.040   115807072.10809  22037355.320    90239259.10447
  23023898.380   120991407.22606  23023904.100    94279022.77444
 15 02 23 10 15  0.0000000  0  9G02G03G06G07G09G10G20G23G30
  23064945.100   121207118.92508  23064943.720    94447100.62147
  23318588.440   122539966.26408  23318595.320    95485691.93347
  20614092.080   108327780.61609  20614095.120    84411266.60149
  21242154.000   111628287.20009  21242155.040    86983091.64348
  20549368.280   107987648.99209  20549369.560    84146224.47949
  21004125.480   110377431.74609  21004125.500    86008389.80148
  20351466.240   106947677.75909  20351465.600    83335846.15148
  22049828.020   115872612.77109  22049827.420    90290329.67748
  23004057.520   120887144.05106  23004063.540    94197778.85844
 15 02 23 10 15 30.0000000  0  9G02G03G06G07G09G10G20G23G30
  23049040.940   121123541.55308  23049039.620    94381975.45047
  23332722.400   122614240.46008  23332729.280    95543567.71547
  20613708.540   108325764.96009  20613711.580    84409695.93149
  21230226.080   111565605.79909  21230227.060    86934249.03448
  20554931.020   108016881.31709  20554932.360    84169002.87449
  20994224.720   110325402.75409  20994224.820    85967847.73548
  20345949.340   106918686.87109  20345948.760    83313255.84148
  22062327.720   115938299.16409  22062327.160    90341513.79548
  22984252.020   120783066.51506  22984258.700    94116679.61744
 15 02 23 10 16  0.0000000  0  9G02G03G06G07G09G10G20G23G30
  23033197.380   121040283.75308  23033196.200    94317099.29947
  23346890.720   122688694.97208  23346897.540    95601584.00547
  20613438.060   108324342.84009  20613441.000    84408587.75749
  21218382.800   111503369.15309  21218383.800    86885752.99348
  20560549.040   108046403.78009  20560550.340    84192007.35049
  20984369.260   110273611.73109  20984369.360    85927491.08948
  20340489.640   106889995.84609  20340489.120    83290899.18248
  22074853.540   116004122.58309  22074852.860    90392804.67847
  22964481.040   120679169.89507  22964488.040    94035721.34644
 15 02 23 10 16 30.0000000  0  9G02G03G06G07G09G10G20G23G30
  23017415.640   120957351.07808  23017414.540    94252476.46247
  23361094.000   122763332.85008  23361100.820    95659743.18846
  20613281.120   108323517.86309  20613283.980    84407944.87249
  21206625.160   111441582.45109  21206626.200    86837607.55848
  20566222.580   108076218.19809  20566223.840    84215239.31849
  20974559.900   110222063.06209  20974559.960    85887323.29248
  20335088.000   106861609.49809  20335087.500    83268779.94148
  22087405.860   116070084.99109  22087404.960    90444203.87647
  22944745.660   120575460.14807  22944752.640    93954908.66444
 15 02 23 10 17  0.0000000  0  9G02G03G06G07G09G10G20G23G30
  23001695.660   120874742.50608  23001694.620    94188106.22047
  23375331.560   122838150.30908  23375338.300    95718042.31446
  20613237.200   108323286.73809  20613240.060    84407764.74749
  21194952.720   111380243.54809  21194953.640    86789811.04348
  20571950.620   108106319.51609  20571951.900    84238694.85649
  20964796.200   110170754.65909  20964796.320    85847342.71148
  20329743.920   106833525.39809  20329743.400    83246896.21948
  22099983.640   116136181.34509  22099982.660    90495707.44247
  22925045.780   120471936.46707  22925052.460    93874240.99345
 15 02 23 10 17 30.0000000  0  9G02G03G06G07G09G10G20G23G30
  22986038.100   120792461.49608  22986037.040    94123991.18247
  23389603.440   122913147.97808  23389610.080    95776481.83547
  20613306.380   108323650.57609  20613309.340    84408048.21649
  21183366.120   111319355.42009  21183366.940    86742365.77148
  20577733.180   108136707.16409  20577734.520    84262373.50249
  20955078.540   110119688.69109  20955078.880    85807551.04248
  20324457.720   106805745.68609  20324457.080    83225249.66948
  22112586.840   116202411.13809  22112585.720    90547314.99547
  22905382.040   120368602.45608  22905388.380    93793721.09945
 15 02 23 10 18  0.0000000  0  9G02G03G06G07G09G10G20G23G30
  22970444.320   120710515.44509  22970443.180    94060137.19947
  23403910.540   122988330.60908  23403917.140    95835065.49947
  20613489.820   108324614.60209  20613492.760    84408799.37649
  21171866.640   111258925.13709  21171867.500    86695277.28448
  20583570.920   108167384.60209  20583572.280    84286277.96549
  20945408.060   110068871.16609  20945408.780    85767952.97948
  20319230.680   106778276.66909  20319229.820    83203845.22948
  22125216.240   116268778.24509  22125214.900    90599029.56047
  22885755.880   120265465.80308  22885761.920    93713355.00945
 15 02 23 10 18 30.0000000  0  9G02G03G06G07G09G10G20G23G30
  22954913.800   120628902.17208  22954912.580    93996542.48947
  23418251.840   123063693.34408  23418258.480    95893789.49647
  20613786.560   108326174.36409  20613789.740    84410014.73349
  21160453.660   111198949.68809  21160454.520    86648543.20348
  20589462.700   108198345.75009  20589464.020    84310403.49749
  20935784.240   110018298.88309  20935785.280    85728545.99348
  20314061.980   106751114.67309  20314061.040    83182680.02248
  22137870.540   116335276.47009  22137869.060    90650846.27947
  22866166.940   120162524.62208  22866172.720    93633141.24545
 15 02 23 10 19  0.0000000  0  9G02G03G06G07G09G10G20G23G30
  22939447.820   120547628.70008  22939446.540    93933212.56246
  23432628.220   123139240.76108  23432634.880    95952657.39547
  20614197.620   108328334.87809  20614200.940    84411698.21549
  21149128.560   111139436.02809  21149129.380    86602168.94948
  20595409.100   108229593.97509  20595410.440    84334752.73149
  20926208.260   109967977.86709  20926209.500    85689334.81148
  20308952.760   106724265.72009  20308951.860    83161758.73948
  22150550.500   116401909.70509  22150548.980    90702768.19547
  22846616.540   120059786.44008  22846622.240    93553085.66446
 15 02 23 10 19 30.0000000  0  9G02G03G06G07G09G10G20G23G30
  22924046.180   120466692.90608  22924044.860    93870145.73247
  23447038.760   123214967.70108  23447045.440    96011665.20147
  20614722.100   108331091.38509  20614725.580    84413846.10649
  21137890.780   111080381.19809  21137891.580    86556152.22948
  20601408.900   108261122.87909  20601410.240    84359320.65149
  20916679.460   109917904.44409  20916680.700    85650316.55648
  20303902.420   106697726.21709  20303901.560    83141078.59348
  22163254.880   116468671.31209  22163253.480    90754790.13647
  22827104.240   119957249.05508  22827109.880    93473186.54746
 15 02 23 10 20  0.0000000  0  9G02G03G06G07G09G10G20G23G30
  22908709.340   120386096.70308  22908707.940    93807343.54147
  23461483.260   123290873.48808  23461490.040    96070812.35347
  20615360.040   108334443.54909  20615363.580    84416458.15349
  21126740.480   111021786.25409  21126741.340    86510493.85848
  20607461.680   108292930.53409  20607463.160    84384105.79249
  20907198.040   109868079.26409  20907199.080    85611491.74248
  20298911.140   106671496.93909  20298910.280    83120640.17248
  22175983.380   116535559.83709  22175982.160    90806910.96847
  22807630.520   119854914.75708  22807636.140    93393445.69246
 15 02 23 10 20 30.0000000  0  9G02G03G06G07G09G10G20G23G30
  22893438.500   120305847.03808  22893437.000    93744811.37047
  23475962.460   123366962.05008  23475969.380    96130101.92047
  20616112.220   108338395.70609  20616115.660    84419537.72749
  21115678.900   110963657.49809  21115679.800    86465198.75648
  20613567.980   108325019.76509  20613569.580    84409110.34649
  20897765.020   109818507.91809  20897765.740    85572864.72648
  20293980.000   106645583.72109  20293979.180    83100448.02448
  22188736.620   116602578.24809  22188735.500    90859133.01647
  22788196.760   119752790.62309  22788202.360    93313868.59946
 15 02 23 10 21  0.0000000  0  9G02G03G06G07G09G10G20G23G30
  22878233.300   120225942.22209  22878231.640    93682547.94247
  23490475.720   123443229.21508  23490482.800    96189530.65547
  20616977.820   108342944.00209  20616981.180    84423081.81749
  21104705.680   110905992.54109  21104706.420    86420265.02548
  20619726.820   108357385.12409  20619728.560    84434330.06549
  20888379.800   109769187.49209  20888380.320    85534433.22348
  20289108.400   106619983.45109  20289107.640    83080499.74248
  22201513.660   116669721.20009  22201512.560    90911452.12047
  22768802.740   119650875.18209  22768808.240    93234454.12147
 15 02 23 10 21 30.0000000  0  9G02G03G06G07G09G10G20G23G30
  22863094.720   120146387.68709  22863092.980    93620557.41047
  23505023.500   123519677.81308  23505030.800    96249100.75047
  20617957.460   108348091.60709  20617960.680    84427092.90849
  21093821.620   110848796.41209  21093822.300    86375696.63148
  20625938.600   108390028.31609  20625940.400    84459766.27249
  20879043.160   109720122.69809  20879043.740    85496200.91748
  20284297.240   106594700.49009  20284296.540    83060798.71348
  22214314.800   116736990.66709  22214313.720    90963869.79347
  22749449.580   119549174.41009  22749454.980    93155206.91647
 15 02 23 10 22  0.0000000  0  9G02G03G06G07G09G10G20G23G30
  22848023.620   120067188.09109  22848021.980    93558843.47847
  23519606.200   123596309.77008  23519613.660    96308813.74047
  20619051.520   108353840.70209  20619054.640    84431572.69049
  21083027.580   110792073.04909  21083028.160    86331496.62348
  20632203.500   108422949.96509  20632205.220    84485419.46049
  20869755.760   109671316.78409  20869756.440    85458170.33348
  20279547.140   106569738.56109  20279546.480    83041347.83648
  22227140.220   116804387.48009  22227138.980    91016386.70647
  22730138.240   119447693.14809  22730143.540    93076130.74947
 15 02 23 10 22 30.0000000  0  9G02G03G06G07G09G10G20G23G30
  22833019.680   119988342.07808  22833018.280    93497405.05047
  23534223.120   123673121.15808  23534230.620    96368666.54347
  20620259.320   108360187.63109  20620262.400    84436518.31149
  21072323.140   110735820.82709  21072323.700    86287663.74748
  20638520.480   108456145.05509  20638522.040    84511285.72049
  20860517.220   109622767.25409  20860517.860    85420339.52848
  20274857.640   106545094.88909  20274856.900    83022144.96848
  22239988.940   116871906.83709  22239987.600    91068999.10847
  22710868.500   119346430.49609  22710873.720    92997224.93047
 15 02 23 10 23  0.0000000  0  9G02G03G06G07G09G10G20G23G30
  22818083.380   119909851.89108  22818082.120    93436243.90747
  23548874.040   123750111.23208  23548881.620    96428658.57647
  20621580.920   108367131.90609  20621583.860    84441929.40349
  21061708.620   110680040.96709  21061709.080    86244198.93348
  20644889.120   108489611.59809  20644890.460    84537363.50349
  20851327.640   109574474.91209  20851328.200    85382709.14148
  20270228.800   106520770.16009  20270227.980    83003190.61948
  22252860.560   116939546.82109  22252859.180    91121705.50147
  22691640.760   119245388.66109  22691645.980    92918491.16948
 15 02 23 10 23 30.0000000  0  9G02G03G06G07G09G10G20G23G30
  22803215.540   119831721.72308  22803214.320    93375363.27347
  23563559.260   123827281.14408  23563566.720    96488790.74946
  20623016.460   108374674.92309  20623019.320    84447807.04249
  21051184.460   110624736.36909  21051184.920    86201104.47448
  20651309.320   108523349.63009  20651310.560    84563652.84048
  20842187.440   109526442.55909  20842187.940    85345281.33548
  20265661.160   106496767.15209  20265660.360    82984486.95648
  22265755.160   117007308.27009  22265753.860    91174506.53447
  22672455.860   119144571.85609  22672461.080    92839932.75148
 15 02 23 10 24  0.0000000  0  9G02G03G06G07G09G10G20G23G30
  22788416.600   119753953.87508  22788415.340    93314764.98847
  23578278.780   123904631.09108  23578286.100    96549063.20646
  20624565.900   108382817.14609  20624568.880    84454151.58649
  21040751.240   110569909.55409  21040751.820    86158382.31948
