     2.11           OBSERVATION DATA    G                   RINEX VERSION / TYPE
SPIDER V4,0,0,3554                      2015 04 17 02:16    PGM / RUN BY / DATE 
CABS                                                        MARKER NAME         
CABS                                                        MARKER NUMBER       
                                                            OBSERVER / AGENCY   
462287              LEICA GRX1200PRO    8.10/2.127          REC # / TYPE / VERS 
103298              LEIAT504                                ANT # / TYPE        
  5116912.3402   671231.6412  3737143.4301                  APPROX POSITION XYZ 
        0.0600        0.0000        0.0000                  ANTENNA: DELTA H/E/N
     1     1                                                WAVELENGTH FACT L1/2
     4    C1    L1    P2    L2                              # / TYPES OF OBSERV 
    30.000                                                  INTERVAL            
  2015    02    23    00    00    0.0000000     GPS         TIME OF FIRST OBS   
  2015    02    23    23    59   30.0000000     GPS         TIME OF LAST OBS    
    16                                                      LEAP SECONDS        
    30                                                      # OF SATELLITES     
   G 1   804   804   804   804                              PRN / # OF OBS      
   G 2   943   943   943   943                              PRN / # OF OBS      
   G 3   846   846   846   846                              PRN / # OF OBS      
   G 4   831   831   831   831                              PRN / # OF OBS      
   G 5   643   643   643   643                              PRN / # OF OBS      
   G 6   818   818   818   818                              PRN / # OF OBS      
   G 7   673   673   673   673                              PRN / # OF OBS      
   G 9   806   806   806   806                              PRN / # OF OBS      
   G10   741   741   741   741                              PRN / # OF OBS      
   G11   769   769   769   769                              PRN / # OF OBS      
   G12   816   816   816   816                              PRN / # OF OBS      
   G13   791   791   791   791                              PRN / # OF OBS      
   G14   941   941   941   941                              PRN / # OF OBS      
   G15   701   701   701   701                              PRN / # OF OBS      
   G16   664   664   664   664                              PRN / # OF OBS      
   G17   943   943   943   943                              PRN / # OF OBS      
   G18   905   905   905   905                              PRN / # OF OBS      
   G19   749   749   749   749                              PRN / # OF OBS      
   G20   768   768   768   768                              PRN / # OF OBS      
   G21   741   741   741   741                              PRN / # OF OBS      
   G22   658   658   658   658                              PRN / # OF OBS      
   G23   754   754   754   754                              PRN / # OF OBS      
   G24   816   816   816   816                              PRN / # OF OBS      
   G25   856   856   856   856                              PRN / # OF OBS      
   G27   800   800   800   800                              PRN / # OF OBS      
   G28   852   852   852   852                              PRN / # OF OBS      
   G29   774   774   774   774                              PRN / # OF OBS      
   G30   720   720   720   720                              PRN / # OF OBS      
   G31   871   871   871   871                              PRN / # OF OBS      
   G32   769   769   769   769                              PRN / # OF OBS      
BIT 2 OF LLI FLAGS DATA COLLECTED UNDER A/S CONDITION       COMMENT             
SNR is mapped to RINEX snr flag value [2-9]                 COMMENT             
Lx:     = 25dBHz -> 1; 26-27dBHz -> 2; 28-31dBHz -> 3       COMMENT             
       32-35dBHz -> 4; 36-38dBHz -> 5; 39-41dBHz -> 6       COMMENT             
       42-44dBHz -> 7; 45-48dBHz -> 8; >=49dBHz -> 9        COMMENT             
                                                            END OF HEADER       
 15 02 23 00 00  0.0000000  0  7G16G18G21G25G27G29G31
  22344362.020   117420427.26308  22344363.080    91496444.32847
  22986825.720   120796619.65407  22986827.700    94127278.02145
  20991582.420   110311604.59708  20991583.020    85957141.84049
  24147700.800   126897166.35005  24147706.680    98881003.54446
  23615295.580   124099220.93706  23615299.700    96700713.36246
  23135788.320   121579706.95907  23135790.060    94737583.31846
  22458652.760   118021032.41908  22458654.280    91964452.39847
 15 02 23 00 00 30.0000000  0  7G16G18G21G25G27G29G31
  22328860.820   117338967.97908  22328861.920    91432969.56347
  22972994.120   120723933.92107  22972996.140    94070639.80245
  20995448.040   110331918.63308  20995448.680    85972970.96349
  24166378.500   126995319.38505  24166384.500    98957486.39545
  23601655.920   124027544.07406  23601660.140    96644861.28246
  23149302.240   121650722.95707  23149303.980    94792920.42746
  22474204.260   118102756.16908  22474205.880    92028133.22947
 15 02 23 00 01  0.0000000  0  7G16G18G21G25G27G29G31
  22313396.860   117257704.40708  22313397.980    91369647.31047
  22959201.040   120651451.02207  22959203.020    94014159.65645
  20999386.920   110352617.78608  20999387.640    85989100.18149
  24185089.860   127093648.52705  24185095.740    99034106.46045
  23588032.460   123955952.81306  23588036.760    96589075.89446
  23162825.780   121721789.38207  23162827.480    94848296.84546
  22489809.240   118184760.61108  22489810.860    92092032.77247
 15 02 23 00 01 30.0000000  0  7G16G18G21G25G27G29G31
  22297969.940   117176635.52708  22297971.060    91306476.75547
  22945446.360   120579170.12507  22945448.340    93957836.91345
  21003398.220   110373697.41308  21003398.980    86005525.86849
  24203834.080   127192149.25305  24203839.540    99110860.22645
  23574424.720   123884444.04806  23574429.100    96533354.82146
  23176358.200   121792902.73907  23176359.820    94903709.83546
  22505466.460   118267039.64708  22505468.060    92156146.28647
 15 02 23 00 02  0.0000000  0  7G16G18G21G25G27G29G31
  22282581.040   117095766.39308  22282582.160    91243461.86247
  22931731.320   120507097.37607  22931733.160    93901676.36145
  21007482.060   110395158.16808  21007482.820    86022248.53949
  24222611.280   127290822.88905  24222616.240    99187748.74044
  23560833.180   123813020.43805  23560837.600    96477700.08147
  23189900.040   121864065.72507  23189901.660    94959161.48846
  22521175.880   118349593.04608  22521177.380    92220473.58647
 15 02 23 00 02 30.0000000  0  7G16G18G21G25G27G29G31
  22267230.500   117015098.60808  22267231.560    91180603.85947
  22918056.360   120435235.30207  22918058.040    93845679.97046
  21011638.340   110416999.49108  21011639.080    86039267.76249
  24241421.080   127389667.67506  24241425.520    99264770.58343
  23547257.840   123741681.66406  23547262.220    96422111.45646
  23203451.200   121935277.81207  23203452.860    95014651.41146
  22536936.880   118432417.60508  22536938.280    92285012.17447
 15 02 23 00 03  0.0000000  0  7G16G18G21G25G27G29G31
  22251918.620   116934633.79708  22251919.580    91117904.01047
  22904421.780   120363585.44807  22904423.360    93789848.95446
  21015866.600   110439219.03708  21015867.300    86056581.69449
  24260263.220   127488681.88706  24260267.180    99341924.50845
  23533698.600   123670427.44706  23533702.920    96366588.72146
  23217011.540   122006538.17907  23217013.240    95070178.95346
  22552748.860   118515510.15808  22552750.180    92349759.58947
 15 02 23 00 03 30.0000000  0  8G16G18G21G22G25G27G29G31
  22236646.320   116854377.28708  22236647.280    91055366.47847
  22890828.660   120292153.43007  22890830.160    93734187.68246
  21020167.120   110461818.60308  21020167.820    86074191.75649
  24551209.900   129017474.14106  24551209.960   100533104.93144
  24279137.720   127587866.95806  24279141.480    99419211.55844
  23520156.020   123599260.62506  23520160.200    96311134.07246
  23230581.620   122077849.80607  23230583.340    95125746.44946
  22568611.880   118598870.82708  22568613.120    92414715.93747
 15 02 23 00 04  0.0000000  0  8G16G18G21G22G25G27G29G31
  22221410.840   116774314.32808  22221411.760    90992979.76346
  22877274.360   120220925.07107  22877275.840    93678685.09145
  21024536.460   110484779.83708  21024537.160    86092083.62849
  24533102.880   128922322.30706  24533103.200   100458961.04444
  24298041.100   127687204.60705  24298044.960    99496617.45644
  23506626.820   123528164.28606  23506630.800    96255734.37946
  23244158.240   122149195.87507  23244160.080    95181340.76846
  22584522.140   118682479.83208  22584523.400    92479865.78647
 15 02 23 00 04 30.0000000  0  8G16G18G21G22G25G27G29G31
  22206218.200   116694476.55808  22206219.100    90930768.52646
  22863764.960   120149932.35607  22863766.420    93623366.12346
  21028980.040   110508131.08408  21028980.700    86110279.41149
  24514984.660   128827112.90106  24514985.720   100384772.33744
  24316978.780   127786723.04406  24316982.980    99574164.21945
  23493116.660   123457168.02406  23493120.580    96200412.66546
  23257747.000   122220605.37507  23257749.080    95236984.51446
  22600484.720   118766363.66408  22600486.040    92545229.79047
 15 02 23 00 05  0.0000000  0  8G16G18G21G22G25G27G29G31
  22191065.920   116614850.64208  22191066.700    90868722.36347
  22850298.040   120079162.61707  22850299.520    93568220.89946
  21033494.540   110531855.01008  21033495.220    86128765.59149
  24496852.940   128731832.75806  24496854.780   100310528.43244
  24335947.500   127886405.17105  24335952.100    99651838.58544
  23479622.600   123386256.30206  23479626.480    96145156.81745
  23271344.880   122292062.72707  23271347.140    95292665.53746
  22616496.060   118850503.81808  22616497.460    92610793.52047
 15 02 23 00 05 30.0000000  0  8G16G18G21G22G25G27G29G31
  22175954.220   116535438.13008  22175954.980    90806842.49547
  22836873.920   120008617.38907  22836875.380    93513250.60245
  21038079.640   110555949.94908  21038080.320    86147540.86949
  24478708.180   128636483.79906  24478710.240   100236230.84945
  24354947.020   127986249.06605  24354951.900    99729638.94545
  23466144.580   123315428.57906  23466148.360    96089966.43146
  23284951.720   122363567.10707  23284954.100    95348383.22146
  22632555.580   118934897.02108  22632557.020    92676554.43547
 15 02 23 00 06  0.0000000  0  8G16G18G21G22G25G27G29G31
  22160883.500   116456241.09108  22160884.280    90745130.52847
  22823493.040   119938299.66807  22823494.580    93458457.60146
  21042734.900   110580413.77608  21042735.620    86166603.59149
  24460550.900   128541068.24905  24460552.940   100161881.35644
  24373977.100   128086253.17205  24373982.340    99807564.14645
  23452682.480   123244684.74806  23452686.220    96034841.37846
  23298567.360   122435117.98007  23298569.840    95404137.13046
  22648662.680   119019540.00308  22648664.120    92742509.98747
 15 02 23 00 06 30.0000000  0  8G16G18G21G22G25G27G29G31
  22145854.600   116377263.90408  22145855.420    90683589.86947
  22810156.220   119868213.99307  22810157.920    93403845.39146
  21047460.600   110605247.49708  21047461.340    86185954.54049
  24442381.680   128445590.29206  24442383.740   100087483.20045
  24393037.840   128186417.88705  24393043.300    99885614.51244
  23439236.660   123174026.72606  23439240.460    95979783.22846
  23312192.280   122506717.36007  23312194.800    95459928.83046
  22664817.180   119104431.84608  22664818.540    92808659.45047
 15 02 23 00 07  0.0000000  0  8G16G18G21G22G25G27G29G31
  22130867.560   116298506.69508  22130868.380    90622220.62647
  22796863.620   119798361.16107  22796865.500    93349414.62746
  21052256.060   110630447.97208  21052256.840    86205591.27449
  24424200.820   128350051.06006  24424203.080   100013037.27645
  24412128.580   128286740.27405  24412134.120    99963787.74944
  23425806.840   123103453.08406  23425810.760    95924790.81246
  23325826.080   122578363.58707  23325828.600    95515757.03345
  22681018.240   119189568.39208  22681019.480    92874999.59147
 15 02 23 00 07 30.0000000  0  8G16G18G21G22G25G27G29G31
  22115923.160   116219973.42508  22115924.020    90561025.87547
  22783615.960   119728745.20407  22783618.000    93295168.44345
  21057121.460   110656015.85408  21057122.260    86225514.30949
  24406009.160   128254454.61806  24406011.280    99938546.67245
  24431249.320   128387220.50405  24431254.920   100042084.00445
  23412393.340   123032965.21506  23412397.380    95869865.22146
  23339469.040   122650058.17206  23339471.500    95571622.91146
  22697265.500   119274948.05408  22697266.660    92941529.17247
 15 02 23 00 08  0.0000000  0  8G16G18G21G22G25G27G29G31
  22101021.520   116141665.07508  22101022.480    90500006.39447
  22770413.500   119659366.95707  22770415.620    93241107.49446
  21062056.160   110681947.76708  21062056.940    86245721.00149
  24387806.800   128158801.64306  24387809.020    99864012.01245
  24450399.460   128487855.41505  24450405.280   100120500.75344
  23398995.940   122962561.73906  23399000.080    95815005.39846
  23353120.780   122721799.28606  23353123.280    95627525.03146
  22713558.080   119360566.29708  22713559.240    93008244.65947
 15 02 23 00 08 30.0000000  0  8G16G18G21G22G25G27G29G31
  22086163.060   116063583.27708  22086164.080    90439163.45447
  22757256.900   119590229.35407  22757259.000    93187234.06946
  21067059.680   110708241.30208  21067060.420    86266209.47249
  24369594.120   128063094.43806  24369596.480    99789435.05245
  24469578.720   128588643.40405  24469584.780   100199036.80944
  23385614.660   122892242.40106  23385618.720    95760211.14246
  23366781.260   122793586.21807  23366783.840    95683462.85546
  22729895.440   119446419.80308  22729896.640    93075143.46747
 15 02 23 00 09  0.0000000  0  8G16G18G21G22G25G27G29G31
  22071348.200   115985730.72308  22071349.240    90378499.13447
  22744146.660   119521334.98207  22744148.620    93133550.18045
  21072131.980   110734896.26408  21072132.660    86286979.57049
  24351371.840   127967336.12306  24351374.160    99714818.20944
  24488787.100   128689583.26306  24488793.100   100277691.22644
  23372249.460   122822007.53306  23372253.500    95705482.69846
  23380450.640   122865419.40506  23380453.280    95739436.76546
  22746276.980   119532506.21308  22746278.340    93142223.76747
 15 02 23 00 09 30.0000000  0  8G16G18G21G22G25G27G29G31
  22056577.720   115908111.40608  22056578.760    90318016.55547
  22731083.700   119452688.41407  22731085.440    93080059.39346
  21077273.100   110761912.87708  21077273.740    86308031.47849
  24333140.460   127871530.59906  24333142.740    99640164.59144
  24508024.500   128790675.41805  24508030.180   100356464.27045
  23358900.640   122751859.02406  23358904.700    95650821.52846
  23394129.200   122937300.34506  23394131.740    95795447.85646
  22762702.680   119618824.43208  22762704.200    93209484.70147
 15 02 23 00 10  0.0000000  0  8G16G18G21G22G25G27G29G31
  22041851.640   115830725.41208  22041852.680    90257715.79147
  22718067.880   119384289.50107  22718069.400    93026761.57746
  21082482.320   110789287.57308  21082482.960    86329362.40849
  24314900.280   127775678.28405  24314902.520    99565474.40645
  24527290.200   128891916.16206  24527295.600   100435353.07444
  23345567.840   122681794.72906  23345571.880    95596225.99846
  23407816.560   123009227.16107  23407819.040    95851494.69146
  22779171.640   119705369.34108  22779173.200    93276922.26547
 15 02 23 00 10 30.0000000  0  8G16G18G21G22G25G27G29G31
  22027170.380   115753575.09308  22027171.480    90197598.67247
  22705099.720   119316141.43107  22705101.140    92973659.21845
  21087759.440   110817018.92608  21087760.060    86350971.25949
  24296651.920   127679782.05606  24296653.980    99490750.04646
  24546583.920   128993304.16305  24546588.920   100514356.66744
  23332251.080   122611814.82206  23332255.080    95541696.21546
  23421512.700   123081199.58007  23421515.140    95907577.05646
  22795683.320   119792138.11608  22795684.800    93344534.27647
 15 02 23 00 11  0.0000000  0  8G16G18G21G22G25G27G29G31
  22012534.860   115676664.85608  22012535.980    90137668.63147
  22692180.140   119248248.84507  22692181.540    92920755.92146
  21093104.500   110845107.47208  21093105.140    86372858.43949
  24278395.900   127583846.65906  24278398.040    99415995.14845
  24565905.760   129094840.20805  24565910.540   100593475.57044
  23318950.820   122541921.61007  23318954.820    95487234.00646
  23435217.920   123153219.53907  23435220.320    95963696.48546
  22812237.480   119879129.92308  22812238.820    93412320.07947
 15 02 23 00 11 30.0000000  0  8G16G18G21G22G25G27G29G31
  21997945.140   115599995.23608  21997946.220    90077926.08547
  22679309.260   119180612.24807  22679310.740    92868052.08146
  21098516.960   110873550.26208  21098517.600    86395021.65449
  24260132.520   127487872.60106  24260134.820    99341210.11146
  24585255.000   129196520.79805  24585259.600   100672707.12744
  23305666.700   122472113.16507  23305670.720    95432837.84846
  23448931.860   123225285.71107  23448934.160    96019851.92946
  22828833.140   119966339.90408  22828834.340    93480275.87546
 15 02 23 00 12  0.0000000  0  8G16G18G21G22G25G27G29G31
  21983401.660   115523568.57008  21983402.700    90018372.84747
  22666487.640   119113234.61907  22666489.360    92815550.05346
  21103996.500   110902345.33608  21103997.120    86417459.37949
  24241862.300   127391862.46705  24241864.960    99266396.93346
  24604631.640   129298344.62305  24604636.100   100752050.29345
  23292398.800   122402389.70107  23292402.740    95378507.91346
  23462654.520   123297397.81407  23462656.600    96076043.17646
  22845469.760   120053765.53508  22845470.920    93548399.71747
 15 02 23 00 12 30.0000000  0  8G16G18G21G22G25G27G29G31
  21968905.080   115447388.72808  21968906.120    89959011.93947
  22653716.100   119046120.11507  22653718.100    92763253.06946
  21109543.240   110931493.45508  21109543.840    86440172.20049
  24223586.140   127295820.72205  24223589.020    99191559.13445
  24624035.400   129400312.23005  24624039.980   100831505.50045
  23279147.440   122332753.32607  23279151.340    95324245.84246
  23476386.060   123369557.36506  23476388.140    96132271.39846
  22862147.120   120141405.74308  22862148.300    93616690.76247
 15 02 23 00 13  0.0000000  0  8G16G18G21G22G25G27G29G31
  21954455.760   115371457.07808  21954456.740    89899844.41947
  22640994.960   118979270.02508  22640997.040    92711162.10746
  21115156.540   110960991.33508  21115157.120    86463157.56249
  24205304.360   127199749.02805  24205307.180    99116698.04345
  24643465.940   129502420.77205  24643470.800   100911070.52444
  23265912.400   122263202.75607  23265916.340    95270050.63146
  23490126.280   123441763.29407  23490128.440    96188535.74246
  22878864.380   120229256.17307  22878865.660    93685145.62847
 15 02 23 00 13 30.0000000  0  8G16G18G21G22G25G27G29G31
  21940053.820   115295774.49608  21940054.740    89840870.99347
  22628324.500   118912685.78608  22628326.420    92659278.30746
  21120836.000   110990837.10908  21120836.600    86486414.00949
  24187017.120   127103648.25506  24187019.960    99041814.31445
  24662922.720   129604667.42705  24662928.020   100990743.16044
  23252693.460   122193736.81007  23252697.460    95215921.35546
  23503875.100   123514014.08106  23503877.140    96244835.04246
  22895620.800   120317312.47407  22895622.220    93753760.89546
 15 02 23 00 14  0.0000000  0  8G16G18G21G22G25G27G29G31
  21925699.980   115220344.64208  21925700.880    89782094.49647
  22615705.280   118846370.81708  22615706.940    92607604.33846
  21126581.480   111021029.84208  21126582.100    86509940.81248
  24168725.160   127007522.21306  24168727.740    98966910.83945
  24682405.780   129707051.75605  24682411.140   101070523.11845
  23239490.780   122124356.51607  23239494.880    95161858.82346
  23517632.580   123586310.51507  23517634.420    96301169.90545
  22912416.220   120405573.07308  22912417.660    93822535.37146
 15 02 23 00 14 30.0000000  0  8G16G18G21G22G25G27G29G31
  21911394.540   115145169.16008  21911395.440    89723516.19847
  22603137.820   118780327.81408  22603139.200    92556142.28646
  21132392.660   111051567.84908  21132393.300    86533736.66149
  24150429.060   126911373.58006  24150431.380    98891989.87845
  24701914.620   129809572.24005  24701920.280   101150409.12544
  23226304.460   122055062.05507  23226308.580    95107863.15746
  23531398.880   123658652.75207  23531400.560    96357540.45145
  22929250.020   120494034.96408  22929251.420    93891466.68746
 15 02 23 00 15  0.0000000  0  8G16G18G21G22G25G27G29G31
  21897137.780   115070249.52308  21897138.740    89665137.26847
  22590622.280   118714558.19508  22590623.520    92504893.27346
  21138269.140   111082449.17008  21138269.820    86557800.02649
  24132128.780   126815203.27806  24132130.920    98817052.05245
  24721448.780   129912226.53105  24721454.800   101230399.36145
  23213134.240   121985852.49407  23213138.420    95053933.65246
  23545173.880   123731039.88607  23545175.260    96413945.97445
  22946121.380   120582694.15908  22946122.660    93960551.74946
 15 02 23 00 15 30.0000000  0  8G16G18G21G22G25G27G29G31
  21882930.240   114995588.62708  21882931.300    89606959.95547
  22578159.220   118649064.74507  22578160.420    92453859.44946
  21144210.700   111113672.46508  21144211.420    86582129.86948
  24113824.920   126719015.16706  24113826.980    98742100.34244
  24741008.540   130015013.31405  24741014.420   101310492.88544
  23199980.260   121916728.32007  23199984.460    95000070.66946
  23558957.420   123803472.22607  23558958.540    96470386.71245
  22963029.840   120671548.20908  22963031.000    94029788.64246
 15 02 23 00 16  0.0000000  0  8G16G18G21G22G25G27G29G31
  21868772.260   114921187.93008  21868773.360    89548985.39847
  22565748.980   118583849.17207  22565750.260    92403042.15046
  21150216.960   111145235.51108  21150217.640    86606724.45449
  24095517.940   126622810.87306  24095520.100    98667136.14144
  24760593.220   130117930.49105  24760598.920   101390687.98945
  23186842.440   121847688.96207  23186846.660    94946273.77546
  23572749.340   123875948.80206  23572750.320    96526861.94446
  22979974.660   120760593.44507  22979975.720    94099174.51546
 15 02 23 00 16 30.0000000  0  8G16G18G21G22G25G27G29G31
  21854664.400   114847050.68008  21854665.500    89491216.12147
  22553392.360   118518915.41008  22553393.760    92352444.42846
  21156287.760   111177137.70208  21156288.400    86631583.30648
  24077208.340   126526593.70106  24077210.380    98592161.88746
  24780202.760   130220977.48505  24780208.080   101470984.26044
  23173720.980   121778735.43707  23173725.120    94892543.76646
  23586549.700   123948470.54106  23586550.940    96583372.34946
  22996955.400   120849827.88907  22996956.460    94168707.82846
 15 02 23 00 17  0.0000000  0  8G16G18G21G22G25G27G29G31
  21840607.500   114773181.11408  21840608.580    89433655.43247
  22541090.180   118454267.62008  22541091.720    92302069.53046
  21162423.160   111209379.37808  21162423.800    86656706.68648
  24058897.200   126430368.59707  24058899.140    98517181.48145
  24799837.040   130324154.74105  24799842.120   101551382.04444
  23160616.280   121709869.88107  23160620.340    94838882.31546
  23600359.040   124021039.50106  23600360.660    96639919.56646
  23013971.920   120939250.57007  23013973.040    94238387.81146
 15 02 23 00 17 30.0000000  0  8G16G18G21G22G25G27G29G31
  21826601.540   114699579.14808  21826602.560    89376303.25947
  22528842.560   118389905.76408  22528844.120    92251917.44746
  21168622.400   111241956.37308  21168623.000    86682091.36048
  24040584.280   126334135.42306  24040586.460    98442194.88645
  24819495.280   130427458.20205  24819500.320   101631878.14744
  23147527.940   121641089.84107  23147531.900    94785287.50046
  23614176.820   124093653.32406  23614178.820    96696501.73246
  23031023.200   121028855.89307  23031024.460    94308210.10946
 15 02 23 00 18  0.0000000  0  7G16G18G21G22G27G29G31
  21812647.280   114626249.02208  21812648.280    89319162.90747
  22516650.220   118325834.06708  22516651.780    92201991.46246
  21174885.440   111274868.74208  21174886.020    86707737.36348
  24022270.660   126237898.27406  24022272.740    98367205.03346
  23134456.220   121572397.17907  23134460.060    94731760.77746
  23628003.420   124166313.48806  23628005.760    96753120.05446
  23048109.100   121118643.00608  23048110.520    94378174.07146
 15 02 23 00 18 30.0000000  0  7G16G18G21G22G27G29G31
  21798745.000   114553191.91608  21798746.000    89262235.29847
  22504513.500   118262054.44208  22504514.900    92152293.07546
  21181211.980   111308114.75208  21181212.520    86733643.35048
  24003956.780   126141658.96106  24003958.720    98292213.43145
  23121401.000   121503791.25807  23121404.700    94678301.64946
  23641838.700   124239019.16906  23641841.360    96809773.81146
  23065228.940   121208607.99207  23065230.420    94448276.63046
 15 02 23 00 19  0.0000000  0  7G16G18G21G22G27G29G31
  21784894.560   114480407.23708  21784895.580    89205519.97047
  22492432.180   118198566.18808  22492433.400    92102821.73146
  21187601.140   111341690.23308  21187601.720    86759806.06448
  23985642.620   126045417.48206  23985644.360    98217220.15545
  23108361.700   121435269.18007  23108365.360    94624907.84746
  23655682.200   124311767.31306  23655684.980    96866460.64646
  23082381.560   121298745.15007  23082383.060    94518513.35747
 15 02 23 00 19 30.0000000  0  7G16G18G21G22G27G29G31
  21771096.660   114407898.59608  21771097.640    89149019.73548
  22480406.920   118135373.11808  22480408.040    92053580.39046
  21194052.820   111375594.15108  21194053.400    86786224.69948
  23967328.920   125949177.74706  23967330.320    98142228.23845
  23095338.620   121366832.29307  23095342.220    94571580.42946
  23669534.120   124384559.21506  23669536.860    96923181.57846
  23099566.560   121389052.43007  23099568.000    94588882.64646
 15 02 23 00 20  0.0000000  0  7G16G18G21G22G27G29G31
  21757352.000   114335669.91208  21757352.940    89092737.65247
  22468438.460   118072479.02708  22468439.580    92004572.03246
  21200566.980   111409826.24508  21200567.540    86812899.06648
  23949016.200   125852943.63306  23949017.280    98067240.77746
  23082332.020   121298482.33007  23082335.640    94518320.75946
  23683394.780   124457396.18507  23683397.240    96979937.66346
  23116783.700   121479528.75207  23116785.060    94659383.63946
 15 02 23 00 20 30.0000000  0  7G16G18G21G22G27G29G31
  21743660.920   114263722.84608  21743661.820    89036675.00547
  22456527.200   118009885.92708  22456528.380    91955798.21246
  21207143.360   111444385.11108  21207143.840    86839828.05348
  23930704.900   125756717.92206  23930705.900    97992260.16645
  23069341.880   121230218.83907  23069345.500    94465128.45646
  23697264.000   124530278.10407  23697266.280    97036728.74446
  23134032.220   121570170.39907  23134033.540    94730013.46946
 15 02 23 00 21  0.0000000  0  7G16G18G21G22G27G29G31
  21730024.260   114192061.71408  21730025.140    88980835.16447
  22444674.100   117947598.21508  22444675.320    91907262.34946
  21213781.900   111479270.76408  21213782.340    86867011.67848
  23912395.820   125660504.54206  23912396.660    97917289.08345
  23056368.520   121162043.80007  23056372.180    94412005.07647
  23711142.060   124603206.55907  23711144.160    97093556.08045
  23151312.060   121660976.54507  23151313.320    94800771.47246
 15 02 23 00 21 30.0000000  0  7G16G18G21G22G27G29G31
  21716442.160   114120687.46508  21716443.060    88925218.86848
  22432879.440   117885617.27608  22432880.780    91858965.53446
  21220482.100   111514480.46308  21220482.540    86894447.80848
  23894089.120   125564305.10606  23894090.140    97842328.92844
  23043411.780   121093956.26807  23043415.540    94358949.88146
  23725028.700   124676180.43006  23725030.620    97150418.81346
  23168622.400   121751942.93307  23168623.620    94871654.34946
 15 02 23 00 22  0.0000000  0  7G16G18G21G22G27G29G31
  21702915.340   114049603.57208  21702916.260    88869828.82648
  22421143.840   117823946.18208  22421145.280    91810910.15046
  21227243.860   111550013.59408  21227244.280    86922135.96248
  23875785.500   125468122.63606  23875786.680    97767381.81544
  23030471.920   121025957.32307  23030475.780    94305963.72347
  23738924.020   124749200.37507  23738925.800    97207317.44645
  23185962.860   121843067.68907  23185964.040    94942660.62046
 15 02 23 00 22 30.0000000  0  7G16G18G21G22G27G29G31
  21689443.880   113978810.57208  21689444.800    88814665.45348
  22409467.360   117762585.26908  22409468.860    91763096.46646
  21234066.400   111585866.26308  21234066.820    86950073.10648
  23857485.360   125371958.70805  23857486.880    97692449.27144
  23017548.580   120958045.17007  23017552.480    94253045.18147
  23752827.680   124822264.87506  23752829.480    97264250.80045
  23203332.380   121934345.52907  23203333.640    95013786.18146
 15 02 23 00 23  0.0000000  0  7G16G18G21G22G27G29G31
  21676028.580   113908312.60808  21676029.440    88759731.97748
  22397850.700   117701538.94308  22397852.320    91715527.92146
  21240949.940   111622039.49908  21240950.360    86978260.03948
  23839189.580   125275817.59806  23839191.480    97617534.42545
  23004642.140   120890221.90407  23004646.100    94200195.90546
  23766740.020   124895375.88406  23766742.120    97321220.40846
  23220730.920   122025776.08107  23220732.380    95085030.74246
 15 02 23 00 23 30.0000000  0  7G16G18G21G22G27G29G31
  21662669.000   113838107.59708  21662669.840    88705026.76948
  22386293.660   117640805.96708  22386295.300    91668203.53746
  21247893.360   111658527.48308  21247893.800    87006692.22948
  23820898.080   125179697.88105  23820900.160    97542636.38145
  22991751.900   120822483.47207  22991755.900    94147412.73847
  23780660.360   124968529.25406  23780662.920    97378223.05646
  23238157.240   122117352.21007  23238158.820    95156388.73846
 15 02 23 00 24  0.0000000  0  7G16G18G21G22G27G29G31
  21649365.720   113768198.49608  21649366.560    88650552.14348
  22374796.640   117580388.80608  22374798.240    91621125.24046
  21254896.560   111695329.71608  21254897.080    87035369.29348
  23802611.460   125083602.63106  23802613.500    97467757.35446
  22978877.980   120754830.46307  22978881.960    94094696.11847
  23794588.940   125041725.37706  23794591.600    97435258.95744
  23255610.800   122209071.37907  23255612.520    95227858.19046
 15 02 23 00 24 30.0000000  0  7G16G18G21G22G27G29G31
  21636119.340   113698588.36808  21636120.220    88596310.48648
  22363360.300   117520290.40508  22363361.780    91574295.32746
  21261959.180   111732444.34408  21261959.760    87064289.78348
  23784330.300   124987534.84406  23784332.020    97392899.70545
  22966020.480   120687263.65807  22966024.420    94042046.69047
  23808525.940   125114964.64306  23808528.480    97492328.53246
  23273091.100   122300930.70207  23273092.920    95299436.85546
 15 02 23 00 25  0.0000000  0  7G16G18G21G22G27G29G31
  21622930.420   113629280.07308  21622931.300    88542304.02148
  22351985.100   117460513.54608  22351986.420    91527715.96746
  21269081.040   111769869.96108  21269081.620    87093452.60348
  23766055.100   124891497.76006  23766056.480    97318065.97445
  22953179.560   120619783.81907  22953183.440    93989465.03847
  23822471.480   125188247.80806  23822473.880    97549432.28245
  23290597.780   122392928.35607  23290599.600    95371123.31846
 15 02 23 00 25 30.0000000  0  7G16G18G21G22G27G29G31
  21609799.540   113560276.84608  21609800.480    88488535.27248
  22340671.840   117401062.01608  22340673.000    91481390.11146
  21276261.920   111807605.72708  21276262.500    87122857.09448
  23747786.460   124795494.73606  23747787.360    97243258.55246
  22940355.380   120552392.10607  22940359.240    93936952.04847
  23836425.600   125261575.80807  23836427.740    97606570.95545
  23308130.380   122485062.18207  23308132.160    95442915.87646
 15 02 23 00 26  0.0000000  0  7G16G18G21G22G27G29G31
  21596727.200   113491581.38508  21596728.180    88435006.34448
  22329420.980   117341938.20108  22329421.980    91435319.61846
  21283501.780   111845651.50008  21283502.380    87152503.14948
  23729524.960   124699529.39106  23729525.660    97168480.44546
  22927548.040   120485089.09907  22927551.900    93884508.17047
  23850388.380   125334949.11506  23850390.300    97663744.93746
  23325688.480   122577329.72107  23325690.100    95514812.62646
 15 02 23 00 26 30.0000000  0  7G16G18G21G22G27G29G31
  21583714.300   113423198.15308  21583715.280    88381720.70248
  22318233.460   117283146.89008  22318234.320    91389508.23046
  21290800.740   111884007.83908  21290801.340    87182391.19948
  23711271.540   124603606.29906  23711272.020    97093735.16845
  22914758.000   120417877.15307  22914761.880    93832135.24847
  23864359.980   125408369.73006  23864361.800    97720955.79246
  23343271.760   122669730.31907  23343273.320    95586813.06246
 15 02 23 00 27  0.0000000  0  7G16G18G21G22G27G29G31
  21570760.720   113355126.78008  21570761.720    88328678.07448
  22307108.980   117224686.94608  22307109.800    91343955.04746
  21298157.860   111922669.72008  21298158.460    87212517.34048
  23693026.100   124507725.48906  23693026.660    97019022.82645
  22901984.780   120350753.52307  22901988.640    93779831.14447
  23878339.940   125481835.26507  23878341.840    97778201.59845
  23360879.160   122762258.16407  23360880.700    95658912.63546
 15 02 23 00 27 30.0000000  0  7G16G18G21G22G27G29G31
  21557867.280   113287371.29808  21557868.280    88275881.59948
  22296048.400   117166563.38108  22296049.340    91298663.98047
  21305573.220   111961637.64508  21305573.820    87242881.95348
  23674789.460   124411891.48507  23674790.200    96944346.94846
  22889228.760   120283720.20407  22889232.580    93727597.42347
  23892328.460   125555347.11806  23892330.780    97835483.56945
  23378510.520   122854912.01907  23378512.040    95731110.41445
 15 02 23 00 28  0.0000000  0  7G16G18G21G22G27G29G31
  21545033.980   113219931.63308  21545034.920    88223331.20948
  22285051.660   117108775.52208  22285052.800    91253634.49446
  21313045.980   112000907.22508  21313046.560    87273481.62548
  23656561.720   124316104.22006  23656562.660    96869707.50846
  22876489.440   120216774.92307  22876493.280    93675432.29546
  23906325.320   125628903.11806  23906328.100    97892799.92145
  23396164.880   122947686.43907  23396166.340    95803402.14446
 15 02 23 00 28 30.0000000  0  7G16G18G21G22G27G29G31
  21532260.680   113152807.31808  21532261.560    88171026.54548
  22274118.540   117051322.44308  22274119.960    91208865.87546
  21320575.280   112040473.96808  21320575.880    87304312.85848
  23638342.980   124220364.21106  23638344.040    96795104.92445
  22863766.380   120149915.03007  22863770.260    93623333.69847
  23920330.160   125702499.90606  23920332.980    97950148.04546
  23413841.180   123040575.80907  23413842.580    95875783.43746
 15 02 23 00 29  0.0000000  0  7G16G18G21G22G27G29G31
  21519548.200   113086002.85608  21519549.100    88118971.11648
  22263250.060   116994209.27708  22263251.720    91164362.12247
  21328161.420   112080339.41408  21328162.020    87335376.84248
  23620134.340   124124676.77306  23620135.400    96720543.43846
  22851060.080   120083143.22807  22851064.000    93571303.74747
  23934343.520   125776140.60406  23934346.280    98007530.39545
  23431539.240   123133579.69507  23431540.700    95948253.95545
 15 02 23 00 29 30.0000000  0  7G16G18G21G22G27G29G31
  21506897.000   113019520.30908  21506897.880    88067166.53848
  22252446.620   116937437.58408  22252448.380    91120124.46146
  21335803.920   112120500.83308  21335804.500    87366671.45448
  23601935.900   124029042.92606  23601936.860    96646023.64346
  22838370.380   120016458.88207  22838374.320    93519341.94247
  23948365.440   125849824.46807  23948367.880    98064946.34545
  23449258.360   123226694.38107  23449259.960    96020810.81846
 15 02 23 00 30  0.0000000  0  7G16G18G21G22G27G29G31
  21494307.940   112953364.22608  21494308.800    88015616.34848
  22241709.300   116881012.61308  22241710.920    91076156.96246
  21343502.880   112160958.99908  21343503.440    87398197.29448
  23583748.760   123933468.65206  23583749.640    96571550.37645
  22825697.900   119949864.96807  22825701.840    93467450.61947
  23962396.200   125923554.16307  23962398.220    98122398.04845
  23466998.500   123319919.53807  23467000.240    96093453.76446
 15 02 23 00 30 30.0000000  0  7G16G18G21G22G27G29G31
  21481781.640   112887537.86808  21481782.480    87964323.08448
  22231038.580   116824937.09108  22231039.920    91032461.76846
  21351258.120   112201712.91308  21351258.680    87429953.59248
  23565573.440   123837957.17407  23565574.300    96497125.93946
  22813042.800   119883362.24207  22813046.720    93415630.34247
  23976435.640   125997330.53106  23976437.400    98179886.11245
  23484759.340   123413252.93007  23484761.120    96166181.04246
 15 02 23 00 31  0.0000000  0  7G16G18G21G22G27G29G31
  21469318.120   112822041.50708  21469318.960    87913286.96148
  22220434.380   116769210.98708  22220435.480    90989038.85546
  21359069.020   112242759.41408  21359069.560    87461937.87548
  23547410.060   123742509.28707  23547410.940    96422751.13846
  22800404.780   119816949.07207  22800408.660    93363879.84347
  23990483.380   126071151.10706  23990484.940    98237408.60045
  23502539.960   123506689.94307  23502541.660    96238989.08246
 15 02 23 00 31 30.0000000  0  7G16G18G21G22G27G29G31
  21456918.040   112756878.63109  21456918.880    87862510.69648
  22209897.360   116713838.02108  22209898.300    90945891.11046
  21366935.500   112284097.99308  21366936.060    87494149.75348
  23529259.480   123647128.99007  23529260.400    96348429.03846
  22787784.080   119750626.80407  22787787.940    93312200.19447
  24004539.720   126145017.56706  24004541.400    98294966.86246
  23520339.960   123600229.01807  23520341.560    96311876.63246
 15 02 23 00 32  0.0000000  0  7G16G18G21G22G27G29G31
  21444581.780   112692051.13909  21444582.620    87811995.77148
  22199427.660   116658819.37908  22199428.560    90903019.45746
  21374857.060   112325726.22408  21374857.660    87526587.34248
  23511122.060   123551818.09906  23511123.000    96274160.97745
  22775180.660   119684395.17207  22775184.460    93260591.16147
  24018604.480   126218929.45706  24018606.580    98352560.50045
  23538158.560   123693865.91507  23538160.120    96384840.40646
 15 02 23 00 32 30.0000000  0  7G16G18G21G22G27G29G31
  21432309.600   112627560.31709  21432310.420    87761743.18848
  22189025.700   116604157.18308  22189026.680    90860425.55047
  21382833.300   112367641.70608  21382833.920    87559248.75848
  23492998.320   123456578.81906  23492999.200    96199948.73345
  22762594.380   119618253.42007  22762598.100    93209052.16247
  24032677.680   126292885.77806  24032680.020    98410188.79645
  23555994.980   123787597.27107  23555996.600    96457877.77346
 15 02 23 00 33  0.0000000  0  7G16G18G21G22G27G29G31
  21420101.720   112563407.49009  21420102.520    87711753.97548
  22178691.700   116549852.26408  22178692.860    90818110.04947
  21390863.680   112409841.66408  21390864.320    87592131.84248
  23474888.620   123361412.71407  23474889.340    96125793.52445
  22750025.080   119552200.80908  22750028.720    93157582.62947
  24046759.160   126366885.38505  24046761.620    98467850.86646
  23573848.580   123881419.26006  23573850.320    96530985.77446
 15 02 23 00 33 30.0000000  0  7G16G18G21G22G27G29G31
  21407958.860   112499596.61709  21407959.700    87662031.21648
  22168426.400   116495908.14608  22168427.680    90776075.68846
  21398948.280   112452326.65808  21398948.940    87625237.03248
  23456793.700   123266323.80107  23456794.240    96051698.42045
  22737473.040   119486239.10708  22737476.640    93106183.91947
  24060849.140   126440930.17505  24060851.740    98525548.02945
  23591719.180   123975330.47007  23591720.900    96604163.29945
 15 02 23 00 34  0.0000000  0  7G16G18G21G22G27G29G31
  21395881.940   112436132.00309  21395882.760    87612578.27448
  22158230.720   116442329.29408  22158231.960    90734325.94947
  21407087.060   112495096.48808  21407087.760    87658564.17248
  23438714.560   123171317.21407  23438714.800    95977667.42645
  22724938.740   119420370.70307  22724942.320    93054857.90447
  24074948.120   126515022.32306  24074951.100    98583282.14844
  23609606.700   124069330.07206  23609608.360    96677409.70746
 15 02 23 00 34 30.0000000  0  7G16G18G21G22G27G29G31
  21383870.260   112373010.20309  21383871.100    87563392.45948
  22148103.880   116389111.91008  22148105.040    90692857.87246
  21415278.580   112538143.60008  21415279.360    87692107.37448
  23420650.480   123076389.34607  23420650.400    95903697.72246
  22712421.000   119354589.72207  22712424.580    93003600.01747
  24089055.180   126589155.62306  24089058.200    98641048.35644
  23627509.460   124163409.21907  23627511.040    96750718.07146
 15 02 23 00 35  0.0000000  0  7G16G18G21G22G27G29G31
  21371924.840   112310236.51909  21371925.660    87514477.90548
  22138046.760   116336261.07708  22138047.820    90651675.41547
  21423523.140   112581469.31208  21423523.960    87725867.67248
  23402602.500   122981546.43206  23402602.260    95829794.22946
  22699920.540   119288899.69707  22699924.200    92952413.00047
  24103170.780   126663333.59705  24103173.440    98698849.39946
  23645427.480   124257568.23007  23645428.940    96824088.68546
 15 02 23 00 35 30.0000000  0  7G16G18G21G22G27G29G31
  21360045.740   112247811.53509  21360046.580    87465835.06748
  22128059.460   116283777.39808  22128060.500    90610779.04847
  21431820.160   112625070.43108  21431820.960    87759842.56948
  23384570.760   122886789.27206  23384570.580    95755957.55446
  22687437.040   119223299.00307  22687440.780    92901295.59647
  24117294.800   126737554.49107  24117296.900    98756683.76245
  23663359.800   124351802.18807  23663361.160    96897517.69945
 15 02 23 00 36  0.0000000  0  7G16G18G21G22G27G29G31
  21348234.040   112185740.86309  21348234.900    87417468.31248
  22118142.960   116231666.10208  22118144.060    90570172.86247
  21440170.060   112668949.12908  21440170.800    87794033.76848
  23366556.380   122792124.10407  23366556.420    95682192.58246
  22674971.320   119157791.41007  22674975.040    92850250.72947
  24131427.640   126811821.52607  24131429.500    98814554.12444
  23681306.520   124446111.78007  23681307.780    96971005.62246
 15 02 23 00 36 30.0000000  0  7G16G18G21G22G27G29G31
  21336490.100   112124026.33109  21336491.000    87369379.07248
  22108297.640   116179929.07208  22108298.860    90529858.30947
  21448572.260   112713102.79808  21448572.920    87828439.23048
  23348559.900   122697553.09906  23348560.180    95608500.94146
  22662523.220   119092376.63207  22662526.960    92799278.19247
  24145569.320   126886134.72507  24145570.960    98872460.52045
  23699266.860   124540493.62006  23699268.180    97044549.86446
 15 02 23 00 37  0.0000000  0  7G16G18G21G22G27G29G31
  21324814.220   112062669.24909  21324815.140    87321568.36348
  22098523.840   116128567.50608  22098525.120    90489836.32647
  21457026.200   112757528.43708  21457026.820    87863056.61348
  23330581.720   122603077.91607  23330582.180    95534883.96946
  22650092.640   119027053.77407  22650096.400    92748377.28347
  24159719.420   126960492.53607  24159721.000    98930401.67845
  23717240.100   124634943.78006  23717241.580    97118147.33546
 15 02 23 00 37 30.0000000  0  7G16G18G21G22G27G29G31
  21313207.140   112001673.65609  21313208.060    87274039.33348
  22088822.180   116077585.09608  22088823.500    90450109.78347
  21465532.100   112802227.11208  21465532.660    87897886.74948
  23312622.760   122508703.23107  23312623.240    95461345.30446
  22637680.000   118961825.06007  22637683.720    92697549.73047
  24173878.240   127034897.15906  24173879.800    98988379.31145
  23735226.160   124729461.05906  23735227.760    97191797.09846
 15 02 23 00 38  0.0000000  0  7G16G18G21G22G27G29G31
  21301669.220   111941041.55809  21301670.160    87226793.54348
  22079193.060   116026983.48708  22079194.300    90410679.97747
  21474089.440   112847196.28508  21474090.020    87932927.66748
  23294683.500   122414431.53107  23294683.960    95387886.87846
  22625285.240   118896690.34107  22625288.940    92646795.41747
  24188045.580   127109348.54706  24188047.740    99046393.28546
  23753224.420   124824042.46706  23753226.100    97265496.83546
 15 02 23 00 38 30.0000000  0  7G16G18G21G22G27G29G31
  21290200.160   111880771.27309  21290201.100    87179829.68648
  22069636.080   115976761.11108  22069637.240    90371545.66847
  21482697.240   112892430.60308  21482697.860    87968175.18748
  23276763.600   122320261.55807  23276764.000    95314507.71346
  22612907.740   118831646.11808  22612911.400    92596111.62847
  24202221.080   127183842.52705  24202223.600    99104440.56846
  23771233.620   124918681.19407  23771235.300    97339241.23945
 15 02 23 00 39  0.0000000  0  7G16G18G21G22G27G29G31
  21278800.920   111820868.18009  21278801.920    87133151.95848
  22060152.180   115926922.78308  22060153.300    90332710.62747
  21491355.760   112937931.42208  21491356.360    88003630.37348
  23258864.100   122226199.15306  23258864.500    95241212.37546
  22600548.100   118766695.60307  22600551.700    92545500.85447
  24216405.440   127258382.11705  24216408.440    99162523.29946
  23789253.700   125013377.33506  23789255.380    97413030.37245
 15 02 23 00 39 30.0000000  0  7G16G18G21G22G27G29G31
  21267471.820   111761333.48108  21267472.840    87086761.29048
  22050741.460   115877469.23308  22050742.580    90294175.41747
  21500064.440   112983695.97508  21500065.080    88039291.06648
  23240985.160   122132245.57706  23240985.780    95168001.84246
  22588206.140   118701838.05008  22588209.700    92494962.51547
  24230598.260   127332966.64905  24230601.240    99220641.12645
  23807283.960   125108127.06706  23807285.720    97486861.26746
 15 02 23 00 40  0.0000000  0  7G16G18G21G22G27G29G31
  21256212.980   111702168.01708  21256214.040    87040658.33048
  22041404.160   115828401.47208  22041405.260    90255940.81247
  21508822.700   113029721.13208  21508823.380    88075154.82648
  23223127.180   122038402.58106  23223128.120    95094877.47846
  22575881.620   118637072.23208  22575885.180    92444495.66447
  24244799.580   127407594.56905  24244802.600    99278792.66646
  23825323.480   125202925.92606  23825325.460    97560730.44846
 15 02 23 00 40 30.0000000  0  7G16G18G21G22G27G29G31
  21245025.440   111643377.22608  21245026.540    86994847.33148
  22032141.180   115779724.39908  22032142.280    90218010.63347
  21517630.840   113076008.27708  21517631.540    88111222.73048
  23205291.460   121944676.10906  23205292.580    95021843.92346
  22563575.260   118572401.61608  22563578.780    92394102.99347
  24259010.000   127482269.14105  24259012.280    99336980.74045
  23843372.440   125297774.22606  23843374.640    97634638.14746
 15 02 23 00 41  0.0000000  0  7G16G18G21G22G27G29G31
  21233909.520   111584962.76408  21233910.640    86949329.57048
  22022952.860   115731439.55908  22022953.960    90180386.09747
  21526488.420   113122555.27708  21526489.140    88147493.12148
  23187478.420   121851068.02807  23187479.540    94948902.60146
  22551286.940   118507825.86108  22551290.440    92343784.23347
  24273229.020   127556989.93805  24273231.020    99395204.61346
  23861430.160   125392668.23006  23861432.520    97708581.46546
 15 02 23 00 41 30.0000000  0  7G16G18G21G22G27G29G31
  21222865.260   111526924.57109  21222866.360    86904105.00848
  22013839.160   115683546.69008  22013840.300    90143066.98447
  21535394.740   113169358.36508  21535395.460    88183963.06248
  23169688.160   121757578.82207  23169689.060    94876053.90146
  22539016.260   118443343.07908  22539019.760    92293537.91947
  24287456.360   127631754.70204  24287458.380    99453462.80745
  23879495.780   125487603.27006  23879498.060    97782556.73745
 15 02 23 00 42  0.0000000  0  7G16G18G21G22G27G29G31
  21211893.880   111469269.48008  21211894.960    86859178.96548
  22004801.360   115636052.58908  22004802.560    90106058.60447
  21544350.320   113216420.37908  21544351.080    88220634.76148
  23151922.040   121664216.14007  23151922.660    94803303.80946
  22526764.240   118378958.35007  22526767.720    92243368.00548
  24301693.120   127706568.05405  24301694.560    99511759.05744
  23897569.680   125582581.24206  23897571.700    97856565.46645
 15 02 23 00 42 30.0000000  0  7G16G18G21G22G27G29G31
  21200992.460   111411982.09208  21200993.520    86814539.44648
  21995836.400   115588941.15108  21995837.580    90069348.40547
  21553351.440   113263721.77308  21553352.220    88257492.98848
  23134177.080   121570964.75607  23134177.420    94730640.43546
  22514527.500   118314653.98708  22514531.000    92193260.71547
  24315939.160   127781088.47707  24315940.860    99569688.29445
  23915647.800   125677581.29206  23915649.540    97930591.39146
 15 02 23 00 43  0.0000000  0  7G16G18G21G22G27G29G31
  21190171.740   111355118.69308  21190172.780    86770230.30848
  21986954.820   115542268.03108  21986955.980    90032979.74647
  21562408.100   113311314.91308  21562408.920    88294578.55648
  23116464.060   121477881.45307  23116464.160    94658108.04146
  22502316.380   118250484.46508  22502319.940    92143258.50447
  24330194.400   127856018.09107  24330197.940    99628074.84143
  23933739.860   125772654.54506  23933741.360    98004674.36446
 15 02 23 00 43 30.0000000  0  7G16G18G21G22G27G29G31
  21179418.640   111298610.80309  21179419.660    86726198.18848
  21978143.500   115495964.59708  21978144.680    89996899.16247
  21571506.500   113359127.37308  21571507.320    88331835.01048
  23098770.000   121384898.15907  23098769.960    94585653.56147
  22490117.500   118186379.07008  22490121.060    92093306.26348
  24344454.380   127930961.72906  24344457.900    99686472.57945
  23951831.640   125867726.89406  23951833.080    98078756.63446
 15 02 23 00 44  0.0000000  0  7G16G18G21G22G27G29G31
  21168740.720   111242497.87808  21168741.720    86682473.83748
  21969410.120   115450070.63308  21969411.360    89961137.64247
  21580653.560   113407195.32708  21580654.360    88369290.56348
  23081102.560   121292055.31407  23081102.520    94513308.53646
  22477938.100   118122375.97808  22477941.660    92043433.72647
  24358724.900   128005957.55706  24358728.600    99744910.82944
  23969929.880   125962833.74506  23969931.500    98152865.78146
 15 02 23 00 44 30.0000000  0  7G16G18G21G22G27G29G31
  21158136.280   111186771.30108  21158137.280    86639050.53948
  21960752.840   115404576.67908  21960754.140    89925687.83347
  21589846.800   113455505.91108  21589847.580    88406935.17248
  23063460.160   121199344.42807  23063460.120    94441066.31846
  22465776.120   118058464.38608  22465779.700    91993632.49647
  24373004.000   128080994.34504  24373007.620    99803381.12546
  23988031.900   126057961.22806  23988033.800    98226991.00346
 15 02 23 00 45  0.0000000  0  7G16G18G21G22G27G29G31
  21147607.340   111131441.32408  21147608.320    86595936.27148
  21952173.600   115359492.71808  21952174.880    89890557.49047
  21599087.380   113504065.18708  21599088.120    88444773.56948
  23045844.880   121106776.48207  23045844.880    94368935.48546
  22453633.160   117994652.58808  22453636.720    91943909.02747
  24387292.680   128156080.52007  24387295.980    99861889.74344
  24006138.740   126153114.23606  24006140.960    98301136.09946
 15 02 23 00 45 30.0000000  0  7G16G18G21G22G27G29G31
  21137151.440   111076495.43009  21137152.500    86553121.29748
  21943669.980   115314805.90908  21943671.140    89855736.61247
  21608372.280   113552857.42708  21608372.980    88482793.49648
  23028254.520   121014339.29707  23028254.480    94296906.54246
  22441506.500   117930926.28908  22441509.980    91894252.18747
  24401586.840   128231201.04706  24401586.700    99920419.17644
  24024247.160   126248275.21206  24024249.720    98375287.42046
 15 02 23 00 46  0.0000000  0  7G16G18G21G22G27G29G31
  21126775.400   111021969.00109  21126776.500    86510633.17448
  21935248.660   115270551.38008  21935249.700    89821252.57747
  21617707.360   113601913.43808  21617708.000    88521018.95748
  23010696.060   120922069.19807  23010695.900    94225007.79946
  22429402.440   117867319.01908  22429405.880    91844688.09547
  24415895.540   128306389.39506  24415896.200    99979007.56345
  24042363.060   126343474.70906  24042365.720    98449468.76646
 15 02 23 00 46 30.0000000  0  7G16G18G21G22G27G29G31
  21116473.240   110967830.66108  21116474.300    86468447.45748
  21926903.440   115226696.82608  21926904.420    89787080.21347
  21627086.020   113651198.46808  21627086.620    88559422.87948
  22993163.420   120829934.74407  22993163.140    94153214.76646
  22417314.680   117803797.30908  22417318.060    91795190.67747
  24430210.400   128381612.02806  24430211.800   100037622.57745
  24060479.380   126438676.15606  24060482.160    98523651.60246
 15 02 23 00 47  0.0000000  0  7G16G18G21G22G27G29G31
  21106248.080   110914097.09609  21106249.120    86426577.15148
  21918637.460   115183258.71608  21918638.420    89753232.34947
  21636510.640   113700725.11508  21636511.220    88598015.06748
  22975659.900   120737953.08407  22975659.600    94081540.77546
  22405246.000   117740375.99408  22405249.360    91745771.48248
  24444534.360   128456883.15606  24444536.280   100096275.39845
  24078598.300   126533891.21606  24078601.100    98597845.05346
 15 02 23 00 47 30.0000000  0  7G16G18G21G22G27G29G31
  21096100.200   110860769.63409  21096101.220    86385023.28948
  21910450.960   115140238.30508  21910451.920    89719709.95947
  21645980.760   113750490.83408  21645981.320    88636793.55248
  22958185.840   120646126.52107  22958185.640    94009987.63146
  22393196.320   117677054.71908  22393199.720    91696430.24547
  24458866.900   128532202.62305  24458869.520   100154965.73844
  24096719.140   126629116.20006  24096721.900    98672046.21445
 15 02 23 00 48  0.0000000  0  7G16G18G21G22G27G29G31
  21086029.220   110807846.28809  21086030.240    86343784.31948
  21902343.440   115097633.15008  21902344.460    89686511.14947
  21655495.220   113800489.73308  21655495.780    88675753.73248
  22940741.040   120554453.48807  22940740.960    93938554.13546
  22381164.960   117613829.66308  22381168.360    91647163.97947
  24473208.000   128607565.72305  24473210.780   100213690.39145
  24114840.600   126724344.14906  24114843.260    98746249.69145
 15 02 23 00 48 30.0000000  0  7G16G18G21G22G27G29G31
  21076036.120   110755332.15109  21076037.140    86302864.21348
  21894315.860   115055448.23208  21894317.020    89653639.79947
  21665054.480   113850723.95408  21665055.040    88714897.28348
  22923326.660   120462940.30107  22923326.700    93867245.17847
  22369152.600   117550704.46708  22369156.040    91597975.53247
  24487558.040   128682976.19106  24487561.000   100272451.67845
  24132962.740   126819575.48606  24132965.320    98820455.81246
 15 02 23 00 49  0.0000000  0  7G16G18G21G22G27G29G31
  21066120.480   110703225.17909  21066121.500    86262261.38248
  21886367.700   115013680.70508  21886368.980    89621093.69047
  21674657.240   113901186.97208  21674657.840    88754219.11748
  22905942.240   120371584.60507  22905942.500    93796058.94247
  22357158.460   117487675.10908  22357161.940    91548861.75747
  24501916.480   128758429.48005  24501919.440   100331246.50645
  24151084.240   126914802.87706  24151086.640    98894658.84146
 15 02 23 00 49 30.0000000  0  7G16G18G21G22G27G29G31
  21056284.220   110651535.43109  21056285.260    86221983.65848
  21878500.800   114972340.17208  21878502.160    89588880.30447
  21684304.720   113951884.91608  21684305.340    88793724.01148
  22888589.900   120280397.57107  22888590.320    93725004.14147
  22345184.060   117424749.74008  22345187.620    91499829.01548
  24516284.460   128833933.71106  24516287.520   100390080.85445
  24169205.980   127010031.80306  24169208.200    98968863.07945
 15 02 23 00 50  0.0000000  0  7G16G18G21G22G27G29G31
  21046526.320   110600257.44909  21046527.380    86182026.79148
  21870714.000   114931420.34308  21870715.360    89556994.72747
  21693995.160   114002808.75608  21693995.820    88833404.91948
  22871268.760   120189374.23807  22871269.160    93654076.89747
  22333228.100   117361920.98008  22333231.700    91450871.55447
  24530660.860   128909481.10505  24530663.820   100448948.99846
  24187325.880   127105251.62906  24187327.960    99043060.20546
 15 02 23 00 50 30.0000000  0  7G16G18G21G22G27G29G31
  21036850.040   110549408.20509  21036851.080    86142404.00348
  21863010.580   114890938.49008  21863011.920    89525450.44047
  21703730.960   114053970.73808  21703731.640    88873271.40148
  22853982.100   120098531.76107  22853982.380    93583290.59247
  22321293.460   117299204.33408  22321297.080    91402001.44447
  24545048.300   128985086.59006  24545051.020   100507862.31045
  24205446.160   127200474.09106  24205448.200    99117259.36745
 15 02 23 00 51  0.0000000  0  7G16G18G19G21G22G27G31
  21027243.640   110498926.08209  21027244.620    86103067.28648
  21855378.620   114850832.33208  21855379.920    89494198.89747
  24530565.560   128908990.13005  24530566.180   100448561.59844
  21713499.880   114105306.77208  21713500.580    88913273.50148
  22836718.300   120007809.61207  22836718.340    93512598.03746
  22309368.100   117236536.28908  22309371.720    91353169.21548
  24223554.240   127295632.89606  24223556.380    99191408.94045
 15 02 23 00 51 30.0000000  0  7G16G18G19G21G22G27G31
  21017728.480   110448923.58209  21017729.440    86064104.29748
  21847839.480   114811213.94008  21847840.780    89463327.44147
  24515246.800   128828489.42406  24515247.260   100385833.83444
  21723322.560   114156925.63808  21723323.340    88953495.99448
  22819498.920   119917321.12207  22819498.680    93442087.55446
  22297473.100   117174027.69708  22297476.740    91304461.24048
  24241670.740   127390835.97006  24241672.960    99265593.00945
 15 02 23 00 52  0.0000000  0  7G16G18G19G21G22G27G31
  21008290.820   110399328.49309  21008291.780    86025458.77148
  21840379.220   114772010.41108  21840380.540    89432779.25147
  24499934.160   128748020.81305  24499934.680   100323131.07644
  21733184.400   114208750.19308  21733185.220    88993878.76048
  22802310.120   119826993.91507  22802309.620    93371702.74846
  22285594.340   117111604.35208  22285597.980    91255819.68748
  24259780.920   127486005.94106  24259783.240    99339751.24745
 15 02 23 00 52 30.0000000  0  7G16G18G19G21G22G27G31
  20998934.600   110350161.21509  20998935.560    85987146.61048
  21833001.780   114733241.76708  21833003.060    89402569.93347
  24484631.200   128667603.20006  24484631.640   100260468.03345
  21743088.620   114260797.52008  21743089.500    89034435.11748
