     2.11           OBSERVATION DATA    G                   RINEX VERSION / TYPE
SPIDER V4,0,0,3554                      2015 03 24 00:09    PGM / RUN BY / DATE 
CBEJ                                                        MARKER NAME         
CBEJ                                                        MARKER NUMBER       
                                                            OBSERVER / AGENCY   
496519              LEICA GRX1200+GNSS  8.10/4.007          REC # / TYPE / VERS 
                    LEIAR25         NONE                    ANT # / TYPE        
  5095766.4657   453329.2088  3797108.6657                  APPROX POSITION XYZ 
        0.0730        0.0000        0.0000                  ANTENNA: DELTA H/E/N
     1     1                                                WAVELENGTH FACT L1/2
     4    C1    L1    P2    L2                              # / TYPES OF OBSERV 
    30.000                                                  INTERVAL            
  2015    02    23    00    00    0.0000000     GPS         TIME OF FIRST OBS   
  2015    02    23    23    59   30.0000000     GPS         TIME OF LAST OBS    
    16                                                      LEAP SECONDS        
    30                                                      # OF SATELLITES     
   G 1   811   811   811   811                              PRN / # OF OBS      
   G 2   858   858   858   858                              PRN / # OF OBS      
   G 3   834   834   834   834                              PRN / # OF OBS      
   G 4   832   832   832   832                              PRN / # OF OBS      
   G 5   616   616   616   616                              PRN / # OF OBS      
   G 6   680   678   678   676                              PRN / # OF OBS      
   G 7   649   648   647   647                              PRN / # OF OBS      
   G 9   787   787   786   786                              PRN / # OF OBS      
   G10   743   743   743   743                              PRN / # OF OBS      
   G11   776   776   776   776                              PRN / # OF OBS      
   G12   806   806   805   805                              PRN / # OF OBS      
   G13   788   788   788   788                              PRN / # OF OBS      
   G14   858   858   857   857                              PRN / # OF OBS      
   G15   711   710   710   710                              PRN / # OF OBS      
   G16   671   671   671   671                              PRN / # OF OBS      
   G17   856   856   856   856                              PRN / # OF OBS      
   G18   849   849   847   847                              PRN / # OF OBS      
   G19   759   758   758   758                              PRN / # OF OBS      
   G20   782   782   782   782                              PRN / # OF OBS      
   G21   674   674   661   661                              PRN / # OF OBS      
   G22   696   696   694   694                              PRN / # OF OBS      
   G23   720   720   710   710                              PRN / # OF OBS      
   G24   822   822   821   821                              PRN / # OF OBS      
   G25   850   850   849   849                              PRN / # OF OBS      
   G27   808   808   808   808                              PRN / # OF OBS      
   G28   783   783   782   782                              PRN / # OF OBS      
   G29   748   748   747   747                              PRN / # OF OBS      
   G30   667   666   656   656                              PRN / # OF OBS      
   G31   763   763   753   753                              PRN / # OF OBS      
   G32   738   736   733   733                              PRN / # OF OBS      
BIT 2 OF LLI FLAGS DATA COLLECTED UNDER A/S CONDITION       COMMENT             
SNR is mapped to RINEX snr flag value [2-9]                 COMMENT             
Lx:     = 25dBHz -> 1; 26-27dBHz -> 2; 28-31dBHz -> 3       COMMENT             
       32-35dBHz -> 4; 36-38dBHz -> 5; 39-41dBHz -> 6       COMMENT             
       42-44dBHz -> 7; 45-48dBHz -> 8; >=49dBHz -> 9        COMMENT             
                                                            END OF HEADER       
 15 02 23 00 00  0.0000000  0  7G16G18G21G25G27G29G31
  22194894.700   116634971.12209  22194890.880    90884379.19647
  23145773.960   121631899.53308  23145772.180    94778109.15046
  21032971.340   110529013.49108  21032967.800    86126493.17448
  24338061.940   127897363.44408  24338062.360    99660280.02145
  23410597.980   123023524.99808  23410597.580    95862491.31947
  23299391.240   122439100.90607  23299387.700    95407120.98544
  22403660.180   117732016.28309  22403657.980    91739221.48648
 15 02 23 00 00 30.0000000  0  7G16G18G21G25G27G29G31
  22179882.440   116556082.71109  22179879.020    90822907.69947
  23132020.680   121559625.33009  23132018.860    94721791.61246
  21036950.700   110549926.04408  21036947.420    86142788.67248
  24356692.020   127995266.95107  24356692.500    99736568.44445
  23397101.680   122952603.16008  23397102.060    95807227.56646
  23313447.600   122512964.41006  23313443.800    95464676.94844
  22419501.140   117815261.78109  22419498.780    91804088.09148
 15 02 23 00 01  0.0000000  0  7G16G18G21G25G27G29G31
  22164907.580   116477390.72708  22164904.360    90761589.28747
  23118302.920   121487537.21809  23118300.960    94665619.08046
  21041004.820   110571230.83808  21041001.600    86159389.81248
  24375352.780   128093331.12908  24375353.320    99812982.03045
  23383624.800   122881781.82508  23383625.380    95752042.16146
  23327510.500   122586864.14505  23327507.180    95522261.11645
  22435395.440   117898787.45309  22435393.520    91869173.00448
 15 02 23 00 01 30.0000000  0  7G16G18G21G25G27G29G31
  22149972.500   116398907.01409  22149969.520    90700433.15347
  23104622.980   121415647.24309  23104620.380    94609600.95246
  21045135.340   110592936.17609  21045132.020    86176303.08148
  24394045.920   128191564.44808  24394046.400    99889527.42445
  23370168.920   122811070.88008  23370169.020    95696942.77846
  23341581.060   122660809.47004  23341579.180    95579880.89344
  22451344.400   117982600.17409  22451342.900    91934481.59548
 15 02 23 00 02  0.0000000  0  7G16G18G21G25G27G29G31
  22135076.300   116320626.96309  22135073.420    90639435.72547
  23090979.940   121343952.00609  23090976.740    94553734.56646
  21049340.480   110615033.20908  21049337.000    86193521.56448
  24412769.800   128289958.82308  24412770.440    99966198.34345
  23356732.600   122740463.46407  23356732.100    95641924.07046
  23355658.060   122734793.50404  23355658.440    95637530.82843
  22467346.260   118066690.12209  22467344.560    92000006.20848
 15 02 23 00 02 30.0000000  0  7G16G18G21G25G27G29G31
  22120219.240   116242552.10209  22120216.320    90578598.16547
  23077374.340   121272454.01608  23077370.980    94498021.87046
  21053619.980   110637521.31308  21053616.180    86211044.77548
  24431523.980   128388512.44908  24431524.460   100042993.37445
  23343315.580   122669959.28608  23343315.360    95586985.72146
  23369743.160   122808815.59205  23369744.140    95695210.35545
  22483400.320   118151054.06208  22483397.980    92065744.31448
 15 02 23 00 03  0.0000000  0  7G16G18G21G25G27G29G31
  22105400.960   116164680.28809  22105397.820    90517918.84347
  23063805.760   121201151.15408  23063802.420    94442461.22146
  21057972.660   110660394.49608  21057968.620    86228868.04748
  24450307.720   128487220.12908  24450307.720   100119908.38245
  23329917.640   122599554.14908  23329917.840    95532124.63946
  23383835.180   122882871.16206  23383835.580    95752915.98244
  22499505.120   118235685.21009  22499502.400    92131690.66348
 15 02 23 00 03 30.0000000  0  7G16G18G21G25G27G29G31
  22090621.360   116087011.41809  22090617.860    90457397.64647
  23050274.340   121130043.72708  23050270.720    94387052.86445
  21062397.800   110683649.17108  21062393.780    86246988.57048
  24469120.020   128586077.92508  24469119.660   100196940.36745
  23316538.300   122529245.67908  23316538.560    95477338.84346
  23397933.820   122956957.77407  23397933.240    95810645.80143
  22515659.780   118320578.30109  22515656.920    92197841.11348
 15 02 23 00 04  0.0000000  0  7G16G18G21G25G27G29G31
  22075882.960   116009559.20109  22075879.040    90397045.26747
  23036782.700   121059145.99608  23036779.240    94331807.91446
  21066897.460   110707295.53308  21066893.500    86265414.31148
  24487962.640   128685096.14108  24487962.180   100274097.35946
  23303179.600   122459045.47608  23303179.400    95422637.39645
  23412041.020   123031086.97606  23412039.080    95868408.74044
  22531866.040   118405742.13609  22531863.260    92264202.51448
 15 02 23 00 04 30.0000000  0  7G16G18G21G25G27G29G31
  22061185.160   115932320.71009  22061180.960    90336859.44847
  23023330.360   120988455.56408  23023327.620    94276724.46746
  21071470.460   110731327.48308  21071466.660    86284140.50848
  24506834.340   128784268.58708  24506834.580   100351374.55545
  23289840.920   122388948.70508  23289840.280    95368016.56446
  23426154.940   123105253.26206  23426152.360    95926200.64145
  22548122.420   118491168.82309  22548119.760    92330768.75248
 15 02 23 00 05  0.0000000  0  7G16G18G21G25G27G29G31
  22046527.640   115855295.36909  22046523.800    90276839.69847
  23009917.700   120917972.53209  23009915.280    94221802.64446
  21076116.100   110755740.49309  21076112.400    86303163.64148
  24525734.760   128883591.12208  24525735.000   100428768.66245
  23276521.640   122318952.57808  23276520.240    95313474.17746
  23440274.940   123179453.75307  23440272.540    95984019.21044
  22564427.720   118576852.57309  22564424.860    92397535.29247
 15 02 23 00 05 30.0000000  0  8G16G18G21G22G25G27G29G31
  22031911.860   115778488.90109  22031908.280    90216990.51847
  22996545.780   120847702.73909  22996543.200    94167046.98246
  21080834.820   110780537.15308  21080831.180    86322485.71848
  24560789.000   129067817.72008  24560784.920   100572314.44445
  24544664.180   128983066.05807  24544664.540   100506281.53645
  23263222.140   122249060.82008  23263220.140    95259013.11946
  23454402.280   123253691.88407  23454399.040    96041867.05844
  22580782.000   118662794.44809  22580778.740    92464502.96047
 15 02 23 00 06  0.0000000  0  8G16G18G21G22G25G27G29G31
  22017337.140   115701898.23609  22017333.380    90157309.46647
  22983214.080   120777644.03608  22983211.220    94112455.81746
  21085625.240   110805710.23908  21085621.420    86342101.11848
  24542915.360   128973891.54708  24542911.200   100499125.55645
  24563621.480   129082686.79008  24563622.520   100583908.05645
  23249940.680   122179268.24407  23249939.900    95204629.31347
  23468535.740   123327961.88107  23468531.120    96099739.72045
  22597183.500   118748986.01808  22597180.380    92531665.19848
 15 02 23 00 06 30.0000000  0  8G16G18G21G22G25G27G29G31
  22002807.720   115625546.54809  22002803.840    90097814.65147
  22969926.960   120707819.87208  22969924.000    94058047.39046
  21090491.080   110831279.66808  21090486.900    86362025.35648
  24525030.460   128879907.92508  24525026.320   100425891.88945
  24582610.240   129182472.84308  24582611.480   100661663.37745
  23236681.320   122109595.73107  23236682.640    95150339.03847
  23482678.620   123402284.55906  23482673.740    96157653.45044
  22613635.960   118835445.33809  22613633.320    92599036.08448
 15 02 23 00 07  0.0000000  0  8G16G18G21G22G25G27G29G31
  21988321.220   115549420.59909  21988317.480    90038495.71548
  22956682.120   120638217.83908  22956679.360    94003812.04046
  21095429.140   110857229.05708  21095424.740    86382245.66148
  24507132.140   128785854.58808  24507128.100   100352603.88145
  24601627.400   129282408.05808  24601628.300   100739534.89946
  23223442.420   122040028.43907  23223444.380    95096130.73047
  23496827.840   123476644.93806  23496824.260    96215596.64945
  22630136.280   118922154.97109  22630133.960    92666601.99748
 15 02 23 00 07 30.0000000  0  8G16G18G21G22G25G27G29G31
  21973874.680   115473504.18909  21973871.000    89979340.06947
  22943476.420   120568821.85408  22943473.820    93949737.26046
  21100435.800   110883538.93608  21100431.320    86402746.87448
  24489217.640   128691715.44408  24489213.980   100279248.99244
  24620669.240   129382472.48007  24620669.860   100817507.11544
  23210220.960   121970547.72908  23210222.540    95041989.97346
  23510981.320   123551024.46007  23510978.660    96273554.66144
  22646680.220   119009093.29209  22646677.840    92734346.11547
 15 02 23 00 08  0.0000000  0  8G16G18G21G22G25G27G29G31
  21959472.580   115397820.75309  21959468.740    89920365.98947
  22930314.400   120499655.26609  22930311.680    93895841.24246
  21105514.540   110910228.51708  21105510.240    86423543.95248
  24471291.160   128597513.73808  24471288.520   100205845.33445
  24639739.000   129482685.65507  24639739.540   100895595.24144
  23197020.520   121901174.70208  23197021.640    94987933.12446
  23525142.880   123625443.64507  23525140.640    96331543.58344
  22663271.100   119096278.27709  22663268.620    92802282.45747
 15 02 23 00 08 30.0000000  0  8G16G18G21G22G25G27G29G31
  21945115.980   115322376.91009  21945112.160    89861578.59447
  22917197.640   120430726.13509  22917194.840    93842130.26046
  21110665.900   110937300.41108  21110661.960    86444638.91848
  24453354.140   128503256.91008  24453352.740   100132398.68346
  24658837.600   129583051.04607  24658838.680   100973801.98146
  23183841.440   121831914.23908  23183842.220    94933963.94447
  23539312.540   123699906.64306  23539311.240    96389566.72244
  22679909.280   119183711.68109  22679906.600    92870412.34948
 15 02 23 00 09  0.0000000  0  8G16G18G21G22G25G27G29G31
  21930803.360   115247162.43609  21930799.380    89802969.91947
  22904124.200   120362024.17909  22904121.160    93788596.28146
  21115887.520   110964741.56708  21115883.900    86466021.62548
  24435405.120   128408934.86208  24435404.340   100058901.22046
  24677962.120   129683554.64507  24677963.840   101052116.46744
  23170681.100   121762753.77608  23170681.240    94880072.71346
  23553488.560   123774401.14307  23553487.960    96447614.38445
  22696591.720   119271378.31409  22696588.740    92938723.98447
 15 02 23 00 09 30.0000000  0  8G16G18G21G22G25G27G29G31
  21916534.220   115172175.68409  21916529.960    89744538.69747
  22891093.780   120293548.45509  22891090.220    93735238.59045
  21121178.500   110992546.63308  21121175.040    86487687.91048
  24417443.620   128314546.26908  24417442.260    99985351.90545
  24697112.540   129784191.44608  24697113.600   101130534.64545
  23157538.740   121693689.64308  23157537.760    94826256.56146
  23567670.300   123848923.02507  23567669.600    96505683.31943
  22713317.200   119359271.56709  22713314.040    93007212.20047
 15 02 23 00 10  0.0000000  0  8G16G18G21G22G25G27G29G31
  21902311.040   115097432.39709  21902306.820    89686297.16947
  22878109.340   120225314.49509  22878105.420    93682069.29946
  21126541.140   111020727.77508  21126537.680    86509647.24148
  24399472.640   128220107.05708  24399469.480    99911763.18145
  24716291.040   129884973.49108  24716292.120   101209066.05445
  23144416.820   121624735.39808  23144415.200    94772526.01547
  23581859.720   123923485.96606  23581857.900    96563784.22444
  22730087.740   119447401.96409  22730084.640    93075885.21347
 15 02 23 00 10 30.0000000  0  8G16G18G21G22G25G27G29G31
  21888133.020   115022927.38709  21888129.160    89628241.30147
  22865170.300   120157318.09009  22865165.800    93629085.11045
  21131973.760   111049276.11009  21131970.260    86531892.70148
  24381491.360   128125612.69108  24381486.700    99838131.46945
  24735495.880   129985892.20708  24735496.900   101287703.94045
  23131314.000   121555883.82308  23131313.260    94718875.42146
  23596055.360   123998082.25607  23596052.720    96621911.14844
  22746901.520   119535759.37109  22746898.500    93144735.11847
 15 02 23 00 11  0.0000000  0  8G16G18G21G22G25G27G29G31
  21874001.200   114948663.88309  21873997.260    89570373.67047
  22852277.100   120089562.75809  22852272.040    93576288.81545
  21137476.220   111078191.13608  21137472.640    86554423.88848
  24363500.000   128031066.77308  24363494.900    99764459.56745
  24754726.500   130086947.25408  24754727.560   101366448.07345
  23118231.260   121487136.03308  23118231.060    94665305.73946
  23610257.600   124072712.61705  23610254.760    96680064.58044
  22763758.180   119624341.77809  22763755.000    93213760.34547
 15 02 23 00 11 30.0000000  0  8G16G18G21G22G25G27G29G31
  21859916.360   114874647.94809  21859912.100    89512698.92648
  22839430.740   120022054.65409  22839426.180    93523685.11647
  21143049.000   111107475.45109  21143045.320    86577242.82949
  24345499.560   127936475.36708  24345495.280    99690752.18546
  24773983.280   130188140.83408  24773984.700   101445300.15246
  23105169.580   121418495.70308  23105169.260    94611819.80547
  23624465.620   124147381.03305  23624464.140    96738247.89244
  22780657.800   119713149.95909  22780654.500    93282961.50348
 15 02 23 00 12  0.0000000  0  8G16G18G21G22G25G27G29G31
  21845877.440   114800874.97509  21845873.640    89455213.48047
  22826630.400   119954789.85608  22826626.800    93471270.99046
  21148690.300   111137120.21808  21148686.580    86600342.65148
  24327489.460   127841834.06508  24327486.580    99617005.92046
  24793264.920   130289464.79407  24793266.260   101524253.81145
  23092127.240   121349956.14108  23092127.060    94558412.39746
  23638679.760   124222080.62607  23638678.140    96796455.31843
  22797598.640   119802174.52209  22797595.620    93352331.26947
 15 02 23 00 12 30.0000000  0  8G16G18G21G22G25G27G29G31
  21831885.680   114727348.86309  21831882.400    89397920.39348
  22813876.980   119887772.75208  22813874.160    93419049.85546
  21154400.340   111167126.32909  21154396.580    86623724.03048
  24309470.820   127747147.65108  24309468.700    99543224.47746
  24812571.160   130390919.85607  24812571.960   101603309.62845
  23079104.260   121281519.60408  23079103.840    94505085.25047
  23652901.000   124296812.91608  23652898.360    96854688.22544
  22814580.680   119891414.62209  22814577.940    93421868.99647
 15 02 23 00 13  0.0000000  0  7G16G18G21G22G27G29G31
  21817942.120   114654076.49009  21817939.300    89340825.04048
  22801172.240   119821010.14009  22801169.720    93367027.05946
  21160179.540   111197496.08008  21160175.620    86647388.78648
  24291445.020   127652423.11208  24291442.780    99469413.36745
  23066101.500   121213190.41708  23066101.000    94451841.75047
  23667129.240   124371582.26808  23667126.800    96912950.01444
  22831604.040   119980871.44909  22831601.080    93491575.58547
 15 02 23 00 13 30.0000000  0  7G16G18G21G22G27G29G31
  21804046.720   114581057.15409  21804044.080    89283926.86147
  22788516.100   119754501.99109  22788513.260    93315202.53646
  21166027.240   111228226.10609  21166023.140    86671334.25448
  24273411.760   127557659.85608  24273409.400    99395572.06946
  23053118.660   121144965.79708  23053118.900    94398679.71046
  23681363.720   124446385.50108  23681362.040    96971238.23344
  22848667.440   120070539.11209  22848664.000    93561446.46347
 15 02 23 00 14  0.0000000  0  7G16G18G21G22G27G29G31
  21790200.040   114508292.48309  21790197.400    89227227.12148
  22775909.040   119688249.83009  22775905.460    93263577.53746
  21171942.980   111259313.43708  21171938.700    86695558.15948
  24255371.520   127462859.73808  24255368.840    99321702.04545
  23040155.860   121076844.86908  23040156.060    94345598.48647
  23695604.680   124521221.53908  23695603.240    97029551.98845
  22865770.040   120160414.07909  22865766.580    93631478.89447
 15 02 23 00 14 30.0000000  0  7G16G18G21G22G27G29G31
  21776401.500   114435780.58509  21776399.040    89170724.35548
  22763350.520   119622252.78309  22763346.900    93212151.32246
  21177925.700   111290752.98209  21177921.420    86720056.51048
  24237324.260   127368021.84808  24237320.980    99247802.59045
  23027212.240   121008824.27308  23027211.560    94292595.49047
  23709851.300   124596086.86808  23709850.000    97087888.59446
  22882910.820   120250489.96609  22882907.420    93701667.88547
 15 02 23 00 15  0.0000000  0  7G16G18G21G22G27G29G31
  21762652.740   114363529.99309  21762650.200    89114425.19148
  22750841.660   119556519.63608  22750838.500    93160930.67747
  21183976.480   111322549.93509  21183972.320    86744833.35949
  24219271.480   127273154.44008  24219267.540    99173880.14446
  23014288.580   120940910.35708  23014287.800    94239675.56847
  23724104.680   124670987.72708  23724103.580    97146252.88746
  22900090.520   120340769.97509  22900086.840    93772015.90947
 15 02 23 00 15 30.0000000  0  7G16G18G21G22G27G29G31
  21748954.160   114291542.49209  21748951.020    89058331.05248
  22738383.360   119491051.97609  22738380.220    93109916.92246
  21190094.860   111354701.89309  21190090.800    86769886.82648
  24201213.500   127178260.15808  24201209.280    99099936.70546
  23001384.940   120873102.44308  23001383.960    94186838.26546
  23738364.660   124745923.32408  23738363.400    97204644.22546
  22917308.460   120431250.49309  22917304.240    93842520.16647
 15 02 23 00 16  0.0000000  0  7G16G18G21G22G27G29G31
  21735305.520   114219819.01109  21735302.140    89002442.63047
  22725975.980   119425851.08509  22725972.760    93059111.07446
  21196280.200   111387206.10509  21196276.280    86795214.76948
  24183150.980   127083340.02108  24183146.880    99025973.15246
  22988501.220   120805399.43008  22988499.540    94134082.72446
  23752630.400   124820892.02007  23752629.320    97263061.38646
  22934564.100   120521927.43109  22934559.360    93913177.47747
 15 02 23 00 16 30.0000000  0  7G16G18G21G22G27G29G31
  21721707.480   114148361.98209  21721704.180    88946761.81647
  22713620.080   119360920.23409  22713616.920    93008515.64346
  21202532.160   111420061.25709  21202528.560    86820816.17648
  24165083.900   126988396.73808  24165080.280    98951991.53545
  22975637.640   120737801.61508  22975636.360    94081409.16146
  23766902.300   124895894.00908  23766901.700    97321504.49746
  22951856.760   120612798.20309  22951851.600    93983985.83047
 15 02 23 00 17  0.0000000  0  7G16G18G21G22G27G29G31
  21708160.420   114077170.07509  21708156.820    88891287.62948
  22701315.280   119296258.18209  22701312.440    92958129.62447
  21208849.980   111453262.24009  21208846.580    86846687.07248
  24147012.060   126893429.81508  24147009.220    98877991.46846
  22962793.540   120670305.71108  22962793.060    94028814.96047
  23781180.460   124970925.93908  23781180.160    97379970.92146
  22969184.960   120703856.28809  22969179.820    94054940.15347
 15 02 23 00 17 30.0000000  0  7G16G18G21G22G27G29G31
  21694664.680   114006248.60509  21694660.960    88836024.15247
  22689062.740   119231870.29709  22689060.160    92907957.25947
  21215233.960   111486810.31509  21215230.520    86872828.42748
  24128936.780   126798444.44708  24128934.340    98803977.03345
  22949969.680   120602914.64008  22949969.400    93976302.46046
  23795465.000   125045990.79708  23795464.700    97438463.01446
  22986548.640   120795101.60809  22986543.820    94126040.36847
 15 02 23 00 18  0.0000000  0  7G16G18G21G22G27G29G31
  21681220.540   113935600.45509  21681217.000    88780973.64347
  22676862.980   119167759.54309  22676860.220    92858000.84346
  21221683.820   111520704.22709  21221680.220    86899239.27048
  24110858.560   126703443.76408  24110855.600    98729950.68845
  22937165.720   120535629.02608  22937165.720    93923872.12847
  23809755.660   125121088.62508  23809754.780    97496980.78645
  23003947.260   120886531.99909  23003942.740    94197284.81447
 15 02 23 00 18 30.0000000  0  7G16G18G21G22G27G29G31
  21667828.240   113865225.73409  21667824.860    88726136.19947
  22664716.060   119103926.86809  22664712.860    92808261.12746
  21228198.920   111554941.26209  21228195.140    86925917.48648
  24092777.300   126608428.58408  24092773.780    98655913.03145
  22924381.420   120468447.18908  22924381.420    93871522.65347
  23824052.500   125196217.57108  23824050.540    97555522.79545
  23021379.780   120978142.51009  23021375.800    94268669.62147
 15 02 23 00 19  0.0000000  0  7G16G18G21G22G27G29G31
  21654488.480   113795125.69509  21654485.260    88671512.81047
  22652622.240   119040373.60208  22652618.920    92758739.12246
  21234778.800   111589519.17709  21234774.920    86952861.30448
  24074693.640   126513400.58208  24074690.140    98581865.37744
  22911616.800   120401368.14408  22911616.520    93819253.30147
  23838355.100   125271376.51707  23838352.360    97614088.14245
  23038845.680   121069929.51309  23038842.340    94340191.93347
 15 02 23 00 19 30.0000000  0  7G16G18G21G22G27G29G31
  21641202.900   113725308.90209  21641199.760    88617110.11447
  22640583.060   118977108.55009  22640579.900    92709441.67946
  21241424.380   111624441.89909  21241420.480    86980073.81148
  24056609.420   126418368.60208  24056606.140    98507814.62545
  22898872.880   120334398.26108  22898872.400    93767068.98547
  23852664.320   125346571.59007  23852661.520    97672681.67044
  23056345.720   121161895.93109  23056342.740    94411854.04447
 15 02 23 00 20  0.0000000  0  7G16G18G21G22G27G29G31
  21627971.180   113655774.46409  21627968.080    88562927.41748
  22628598.880   118914130.66609  22628595.580    92660368.04646
  21248134.700   111659704.41409  21248130.760    87007551.10348
  24038524.580   126323331.73208  24038521.440    98433760.06446
  22886149.000   120267534.40608  22886148.460    93714967.32747
  23866979.600   125421799.38307  23866976.800    97731300.67944
  23073878.920   121254035.86608  23073875.960    94483651.35747
 15 02 23 00 20 30.0000000  0  7G16G18G21G22G27G29G31
  21614794.080   113586525.66409  21614790.600    88508967.31548
  22616670.100   118851443.87009  22616666.860    92611521.23647
  21254909.780   111695307.10609  21254905.800    87035293.45948
  24020439.640   126228294.00908  24020436.440    98359704.82046
  22873445.480   120200778.08008  22873445.320    93662949.41247
  23881301.260   125497061.40907  23881298.600    97789946.36945
  23091444.960   121346347.49808  23091442.300    94555582.47647
 15 02 23 00 21  0.0000000  0  7G16G18G21G22G27G29G31
  21601670.300   113517556.96809  21601666.180    88455225.48448
  22604795.360   118789042.76009  22604792.520    92562896.99447
  21261747.720   111731240.10609  21261743.700    87063293.20348
  24002353.360   126133250.21508  24002350.120    98285644.84446
  22860761.200   120134121.24208  22860761.120    93611009.02847
  23895627.920   125572349.37507  23895625.560    97848612.30645
  23109041.940   121438820.16509  23109039.560    94627639.06347
 15 02 23 00 21 30.0000000  0  7G16G18G21G22G27G29G31
  21588599.980   113448872.25409  21588596.000    88401704.93248
  22592975.700   118726931.75108  22592973.220    92514498.81946
  21268648.440   111767503.70009  21268644.420    87091550.54948
  23984266.680   126038204.88008  23984263.340    98211583.65646
  22848096.600   120067565.85509  22848096.180    93559147.74447
  23909960.140   125647665.14007  23909957.800    97907299.92945
  23126669.600   121531452.58809  23126666.840    94699820.14147
 15 02 23 00 22  0.0000000  0  7G16G18G21G22G27G29G31
  21575584.760   113380478.09309  21575581.440    88348410.76648
  22581212.300   118665117.11608  22581210.360    92466331.57946
  21275612.520   111804100.41608  21275608.580    87120067.47748
  23966180.720   125943164.45808  23966177.240    98137526.28945
  22835452.040   120001116.31508  22835451.620    93507368.89247
  23924298.400   125723012.50108  23924296.200    97966012.16445
  23144328.040   121624246.04609  23144324.720    94772126.69147
 15 02 23 00 22 30.0000000  0  7G16G18G21G22G27G29G31
  21562626.440   113312382.07709  21562623.600    88295348.93848
  22569506.860   118603606.34209  22569505.140    92418401.12947
  21282640.640   111841033.50109  21282636.760    87148846.50048
  23948097.340   125848137.15708  23948093.800    98063479.15946
  22822828.440   119934777.90109  22822827.800    93455676.64447
  23938643.580   125798396.91208  23938641.980    98024753.25646
  23162017.500   121717202.49009  23162013.980    94844560.24747
 15 02 23 00 23  0.0000000  0  7G16G18G21G22G27G29G31
  21549724.540   113244581.73609  21549721.680    88242517.52148
  22557858.900   118542397.37108  22557857.200    92370705.84147
  21289731.840   111878297.43609  21289727.740    87177883.34348
  23930016.420   125753121.09008  23930013.020    97989440.77146
  22810225.040   119868546.21408  22810224.280    93404067.58447
  23952994.820   125873813.87308  23952993.780    98083519.72946
  23179736.540   121810314.96309  23179733.080    94917115.40447
 15 02 23 00 23 30.0000000  0  7G16G18G21G22G27G29G31
  21536879.440   113177079.95909  21536876.380    88189918.76148
  22546269.360   118481493.98009  22546267.500    92323248.66946
  21296885.820   111915891.37908  21296881.540    87207177.34547
  23911938.500   125658119.48908  23911934.640    97915413.66645
  22797641.560   119802422.22108  22797641.400    93352542.38947
  23967352.460   125949264.16908  23967351.340    98142312.17245
  23197484.760   121903581.41109  23197481.460    94989790.54447
 15 02 23 00 24  0.0000000  0  7G16G18G21G22G27G29G31
  21524090.960   113109875.62009  21524087.900    88137551.74648
  22534738.040   118420894.64509  22534735.420    92276028.43346
  21304101.580   111953810.83508  21304097.420    87236724.95648
  23893863.220   125563131.57308  23893858.760    97841397.22146
  22785077.960   119736402.36708  22785077.940    93301098.34347
  23981715.940   126024744.05108  23981714.040    98201127.63045
  23215260.880   121996995.37409  23215257.680    95062580.61647
 15 02 23 00 24 30.0000000  0  7G16G18G21G22G27G29G31
  21511358.840   113042968.27709  21511356.080    88085416.15848
  22523264.540   118360599.00609  22523261.420    92229044.84546
  21311378.160   111992050.50608  21311374.300    87266522.09648
  23875790.320   125468157.12208  23875785.700    97767391.25246
  22772534.200   119670484.01109  22772533.680    93249733.43147
  23996084.440   126100250.50607  23996082.080    98259963.82045
  23233063.720   122090550.37309  23233060.200    95135480.57746
 15 02 23 00 25  0.0000000  0  7G16G18G21G22G27G29G31
  21498684.680   112976366.38609  21498682.280    88033518.59948
  22511850.380   118300615.45109  22511847.400    92182304.42347
  21318716.460   112030614.62108  21318712.920    87296572.05247
  23857721.500   125373204.88508  23857716.580    97693402.58546
  22760011.180   119604673.58108  22760010.060    93198452.63447
  24010459.100   126175789.79607  24010456.980    98318825.63945
  23250894.060   122184250.36709  23250889.820    95208493.52146
 15 02 23 00 25 30.0000000  0  7G16G18G21G22G27G29G31
  21486069.620   112910074.42409  21486067.100    87981862.52848
  22500496.380   118240949.20009  22500493.700    92135811.24446
  21326116.680   112069503.65908  21326113.240    87326875.18747
  23839657.960   125278279.92108  23839652.960    97619435.18346
  22747508.400   119538973.61408  22747508.100    93147257.82647
  24024840.700   126251364.25608  24024838.980    98377714.84545
  23268751.720   122278094.53808  23268747.180    95281618.80246
 15 02 23 00 26  0.0000000  0  7G16G18G21G22G27G29G31
  21473512.960   112844089.05309  21473510.580    87930445.37748
  22489201.960   118181596.65209  22489199.460    92089562.51747
  21333577.860   112108711.49508  21333574.180    87357426.76547
  23821599.060   125183379.57208  23821594.780    97545486.95546
  22735025.480   119473378.64008  22735026.080    93096144.84947
  24039227.900   126326968.26708  24039226.020    98436627.02744
  23286635.300   122372074.43108  23286631.000    95354849.86347
 15 02 23 00 26 30.0000000  0  7G16G18G21G22G27G29G31
  21461015.180   112778412.83909  21461012.900    87879269.11248
  22477967.720   118122560.77909  22477965.420    92043560.54147
  21341099.540   112148236.84208  21341095.360    87388225.74147
  23803545.300   125088506.57208  23803541.620    97471560.00846
  22722563.120   119407889.05608  22722563.860    93045114.03547
  24053620.520   126402601.93208  24053618.340    98495562.29744
  23304544.400   122466187.58209  23304540.600    95428184.72547
 15 02 23 00 27  0.0000000  0  7G16G18G21G22G27G29G31
  21448577.000   112713049.90109  21448574.560    87828336.95348
  22466794.540   118063845.12009  22466792.160    91997808.08347
  21348681.580   112188079.20408  21348676.920    87419271.75847
  23785497.540   124993665.45508  23785493.580    97397657.93146
  22710121.240   119342506.78508  22710121.900    92994166.81747
  24068019.180   126478267.40708  24068017.080    98554522.39145
  23322478.620   122560432.87708  23322475.340    95501622.57947
 15 02 23 00 27 30.0000000  0  7G16G18G21G22G27G29G31
  21436199.320   112648004.77509  21436196.740    87777652.43548
  22455683.320   118005455.24308  22455680.540    91952309.50546
  21356324.060   112228239.60708  21356319.100    87450565.59547
  23767456.560   124898861.37608  23767452.060    97323784.73746
  22697700.320   119277234.35909  22697700.860    92943305.17847
  24082424.220   126553966.62108  24082422.600    98613508.77144
  23340437.680   122654809.48908  23340435.020    95575162.77647
 15 02 23 00 28  0.0000000  0  7G16G18G21G22G27G29G31
  21423881.040   112583270.64909  21423878.020    87727210.26148
  22444632.420   117947383.91709  22444629.440    91907059.13946
  21364024.720   112268707.07408  21364019.920    87482098.67847
  23749421.380   124804087.47608  23749416.320    97249935.02946
  22685299.000   119212062.78409  22685298.980    92892522.17147
  24096833.980   126629690.66808  24096832.400    98672514.49344
  23358419.200   122749305.39508  23358417.660    95648795.92447
 15 02 23 00 28 30.0000000  0  7G16G18G21G22G27G29G31
  21411623.800   112518858.06109  21411620.620    87677018.64248
  22433644.220   117889641.30609  22433641.180    91862064.93747
  21371784.860   112309488.12307  21371780.620    87513876.10647
  23731394.480   124709355.33508  23731389.080    97176117.85946
  22672918.560   119147000.46009  22672917.680    92841824.30847
  24111249.940   126705447.25908  24111247.560    98731545.54244
  23376424.460   122843926.09208  23376423.780    95722526.31947
 15 02 23 00 29  0.0000000  0  7G16G18G21G22G27G29G31
  21399427.520   112454767.31509  21399424.320    87627077.78648
  22422718.920   117832228.38809  22422715.940    91817327.62347
  21379604.120   112350580.14308  21379600.460    87545895.81946
  23713375.800   124614665.81809  23713370.160    97102333.91146
  22660558.100   119082045.98608  22660556.780    92791210.44247
  24125671.820   126781235.23108  24125669.400    98790601.03344
  23394452.960   122938666.96108  23394452.260    95796350.35747
 15 02 23 00 29 30.0000000  0  7G16G18G21G22G27G29G31
  21387293.480   112391002.31509  21387290.180    87577390.79248
  22411857.080   117775148.79209  22411854.100    91772850.03747
  21387482.540   112391982.30008  21387479.140    87578157.23247
  23695365.940   124520022.41408  23695360.700    97028585.89646
  22648218.140   119017200.62208  22648217.320    92740681.60747
  24140099.860   126857055.80508  24140097.860    98849681.97145
  23412504.360   123033526.30509  23412502.900    95870266.68246
 15 02 23 00 30  0.0000000  0  7G16G18G21G22G27G29G31
  21375220.800   112327560.61809  21375217.560    87527955.71448
  22401058.440   117718400.86209  22401055.400    91728630.90947
  21395419.060   112433688.44308  21395415.340    87610655.53547
  23677364.360   124425423.86408  23677360.040    96954872.79447
  22635898.460   118952460.36608  22635898.560    92690234.66548
  24154533.420   126932904.60408  24154531.580    98908784.90246
  23430577.140   123128496.88009  23430574.500    95944269.65646
 15 02 23 00 30 30.0000000  0  7G16G18G21G22G27G29G31
  21363209.900   112264443.62509  21363206.620    87478773.64348
  22390322.880   117661985.51808  22390320.200    91684670.91947
  21403413.060   112475695.69308  21403409.040    87643388.48246
  23659371.480   124330871.79508  23659367.540    96881195.92246
  22623598.660   118887824.17408  22623598.860    92639868.81347
  24168972.380   127008780.62408  24168970.460    98967909.04945
  23448670.380   123223574.64709  23448666.460    96018356.18046
 15 02 23 00 31  0.0000000  0  7G16G18G21G22G27G29G31
  21351263.400   112201663.29809  21351259.900    87429853.92248
  22379652.840   117605914.63709  22379650.740    91640979.31547
  21411466.060   112518012.68108  21411461.740    87676362.75846
  23641389.840   124236378.57408  23641386.080    96807564.91346
  22611320.300   118823302.09908  22611320.260    92589591.90147
  24183418.220   127084693.20508  24183416.080    99027061.68945
  23466785.200   123318766.76908  23466780.560    96092531.79646
 15 02 23 00 31 30.0000000  0  7G16G18G21G22G27G29G31
  21339380.240   112139215.69609  21339376.480    87381193.46148
  22369047.960   117550184.48609  22369045.760    91597553.27347
  21419576.320   112560631.54908  21419571.900    87709572.27446
  23623418.820   124141940.78308  23623414.800    96733977.07746
  22599062.600   118758888.18908  22599062.720    92539399.25447
  24197869.680   127160636.57608  24197867.540    99086238.32045
  23484919.800   123414064.32008  23484915.560    96166789.58146
 15 02 23 00 32  0.0000000  0  7G16G18G21G22G27G29G31
  21327560.740   112077103.34209  21327556.900    87332794.22648
  22358508.080   117494797.06708  22358505.700    91554394.27847
  21427743.380   112603550.47007  21427739.040    87743015.59946
  23605458.840   124047561.23708  23605453.920    96660434.65646
  22586825.600   118694582.72008  22586825.980    92489291.12447
  24212326.920   127236610.70508  24212324.600    99145438.91746
  23503073.600   123509463.68008  23503070.340    96241126.73046
 15 02 23 00 32 30.0000000  0  7G16G18G21G22G27G29G31
  21315804.980   112015325.98609  21315801.260    87284656.02348
  22348033.220   117439753.08508  22348030.920    91511502.87747
  21435966.380   112646765.59807  21435962.720    87776689.69947
  23587510.000   123953240.49508  23587504.680    96586938.03946
  22574608.380   118630383.62808  22574609.180    92439265.84247
  24226789.580   127312613.46308  24226787.580    99204661.83746
  23521245.920   123604960.24709  23521243.480    96315539.58647
 15 02 23 00 33  0.0000000  0  7G16G18G21G22G27G29G31
  21304113.400   111953886.26509  21304109.800    87236780.92848
  22337624.120   117385054.82109  22337621.980    91468880.86446
  21444245.660   112690275.56807  21444242.340    87810593.53046
  23569573.040   123858981.59608  23569567.820    96513489.62246
  22562411.940   118566291.30508  22562412.680    92389323.82547
  24241257.720   127388644.84008  24241256.140    99263907.07446
  23539436.360   123700551.44408  23539434.400    96390026.19746
 15 02 23 00 33 30.0000000  0  7G16G18G21G22G27G29G31
  21292487.360   111892790.83409  21292483.800    87189174.10748
  22327282.280   117330708.53909  22327280.280    91426533.15547
  21452582.160   112734083.53807  21452578.660    87844729.63347
  23551649.240   123764791.31308  23551644.360    96440094.66846
  22550236.900   118502310.39908  22550237.700    92339468.61948
  24255732.220   127464709.35307  24255730.960    99323178.13147
  23557645.060   123796238.64308  23557643.360    96464587.61647
 15 02 23 00 34  0.0000000  0  7G16G18G21G22G27G29G31
  21280926.880   111832040.04909  21280923.260    87141835.83748
  22317007.820   117276714.91009  22317006.000    91384460.21847
  21460974.700   112778185.49607  21460970.700    87879094.78346
  23533738.760   123670671.00508  23533734.420    96366754.23247
  22538082.620   118438439.37108  22538084.040    92289698.97148
  24270212.940   127540805.54108  24270211.600    99382473.85846
  23575871.100   123892017.14808  23575869.520    96539220.18047
 15 02 23 00 34 30.0000000  0  7G16G18G21G22G27G29G31
  21269431.880   111771633.79509  21269428.420    87094766.02948
  22306800.500   117223073.60809  22306798.740    91342661.78248
  21469422.360   112822577.23207  21469418.220    87913685.74846
  23515841.400   123576620.42408  23515837.480    96293468.11447
  22525948.820   118374675.67508  22525950.420    92240012.99048
  24284699.200   127616930.38608  24284697.560    99441791.89946
  23594113.460   123987881.53908  23594111.520    96613919.65446
 15 02 23 00 35  0.0000000  0  7G16G18G21G22G27G29G31
  21258003.220   111711576.09909  21257999.880    87047967.83048
  22296661.080   117169788.55409  22296659.060    91301140.96747
  21477925.100   112867258.87207  21477920.940    87948502.58646
  23497958.200   123482644.49108  23497954.160    96220240.18046
  22513835.980   118311021.65908  22513837.020    92190412.49947
  24299191.360   127693086.09008  24299189.460    99501133.97146
  23612371.960   124083830.99508  23612369.300    96688685.41746
 15 02 23 00 35 30.0000000  0  7G16G18G21G22G27G29G31
  21246641.040   111651867.97109  21246637.760    87001442.02448
  22286589.760   117116860.83009  22286586.920    91259898.62847
  21486482.400   112912227.64507  21486478.460    87983543.18146
  23480089.520   123388744.49808  23480085.480    96147071.41547
  22501743.800   118247476.11208  22501744.600    92140896.51348
  24313689.060   127769271.37908  24313687.120    99560499.13146
  23630645.780   124179860.99308  23630642.300    96763513.93646
 15 02 23 00 36  0.0000000  0  7G16G18G21G22G27G29G31
  21235345.220   111592509.21609  21235342.020    86955188.42248
  22276585.940   117064290.03109  22276582.580    91218934.38746
  21495093.520   112957479.95907  21495089.860    88018804.70546
  23462235.740   123294920.96109  23462231.920    96073962.21947
  22489671.900   118184036.99008  22489672.800    92091463.45548
  24328192.000   127845483.82908  24328189.880    99619885.42746
  23648934.000   124275966.54508  23648930.380    96838401.32846
 15 02 23 00 36 30.0000000  0  7G16G18G21G22G27G29G31
  21224117.180   111533505.46809  21224113.800    86909211.49248
  22266650.760   117012082.00009  22266647.340    91178252.80446
  21503758.880   113003017.06407  21503755.160    88054288.19545
  23444397.840   123201179.97509  23444394.020    96000917.36046
  22477620.820   118120707.97208  22477621.520    92042116.19948
  24342700.900   127921727.20208  24342698.520    99679295.79546
  23667236.900   124372148.17008  23667233.720    96913347.99746
 15 02 23 00 37  0.0000000  0  7G16G18G21G22G27G29G31
  21212958.180   111474862.97709  21212954.400    86863516.06548
  22256785.840   116960242.95109  22256782.220    91137858.75246
  21512478.900   113048841.02107  21512475.060    88089995.16445
  23426576.620   123107528.23509  23426572.600    95927942.02446
  22465591.260   118057493.14308  22465591.540    91992857.90948
  24357216.080   127998004.94608  24357213.700    99738732.97946
  23685554.680   124468406.98508  23685551.860    96988354.80946
 15 02 23 00 37 30.0000000  0  7G16G18G21G22G27G29G31
  21201867.440   111416580.24509  21201863.600    86818100.94748
  22246990.940   116908771.12409  22246987.280    91097750.86846
  21521252.840   113094947.24707  21521249.000    88125922.14444
  23408772.000   123013964.88008  23408767.460    95855035.57346
  22453582.880   117994389.09008  22453583.120    91943685.93248
  24371736.980   128074313.65708  24371734.880    99798194.31346
  23703885.860   124564736.30408  23703883.080    97063416.54246
 15 02 23 00 38  0.0000000  0  7G16G18G21G22G27G29G31
  21190845.440   111358660.09609  21190842.020    86772968.34948
  22237266.680   116857669.15409  22237263.140    91057931.19947
  21530080.280   113141334.10407  21530075.980    88162067.80345
  23390984.840   122920493.35708  23390979.720    95782200.67946
  22441595.700   117931396.62008  22441595.940    91894600.90548
  24386263.940   128150654.09608  24386262.120    99857680.36146
  23722229.920   124661133.96308  23722227.240    97138531.55446
 15 02 23 00 38 30.0000000  0  7G16G18G21G22G27G29G31
  21179892.380   111301100.96409  21179889.000    86728117.07048
  22227612.620   116806935.72309  22227609.360    91018398.66547
  21538959.720   113187996.51706  21538955.460    88198428.12545
  23373215.060   122827112.56708  23373209.580    95709436.49446
  22429629.340   117868512.33208  22429629.240    91845600.18448
  24400796.320   128227022.40308  24400794.600    99917188.10946
  23740585.560   124757593.44208  23740583.580    97213694.72747
 15 02 23 00 39  0.0000000  0  7G16G18G21G22G27G29G31
  21169008.800   111243906.48009  21169005.080    86683549.95348
  22218029.120   116756574.03509  22218026.080    90979155.81447
  21547890.700   113234934.07905  21547887.160    88235002.84245
  23355462.920   122733826.70908  23355458.040    95636746.25446
  22417683.900   117805737.76808  22417683.560    91796684.97148
  24415334.180   128303419.89308  24415332.660    99976718.60346
  23758952.500   124854113.14108  23758951.380    97288904.84546
 15 02 23 00 39 30.0000000  0  7G16G18G21G22G27G29G31
  21158195.200   111187082.16008  21158191.360    86639271.26948
  22208517.040   116706589.22008  22208514.360    90940206.62047
  21556874.560   113282148.35505  21556871.620    88271793.12145
  23337729.900   122640641.35908  23337725.820    95564134.31647
  22405759.860   117743076.47208  22405759.420    91747858.02348
  24429878.220   128379850.06108  24429876.740   100036274.55645
  23777330.900   124950693.60308  23777330.020    97364162.30746
 15 02 23 00 40  0.0000000  0  7G16G18G21G22G27G29G31
  21147451.480   111130626.88109  21147448.140    86595280.13248
  22199076.400   116656980.46408  22199074.140    90901550.41547
  21565910.680   113329634.21106  21565907.920    88308795.05445
  23320016.540   122547556.41709  23320012.500    95491600.62346
  22393856.600   117680525.32008  22393856.380    91699116.89047
  24444427.940   128456309.55809  24444426.060   100095853.31545
  23795719.660   125047328.48008  23795718.260    97439462.14346
 15 02 23 00 40 30.0000000  0  7G16G18G21G22G27G29G31
  21136778.760   111074542.16309  21136775.820    86551577.76648
  22189707.540   116607748.91408  22189705.600    90863188.16447
  21574998.600   113377389.17607  21574995.320    88346006.72345
  23302322.940   122454574.02109  23302318.260    95419146.87046
  22381974.400   117618083.96108  22381974.200    91650461.30047
  24458983.240   128532797.79808  24458981.020   100155454.50045
  23814118.280   125144014.28208  23814115.900    97514801.65646
 15 02 23 00 41  0.0000000  0  7G16G18G21G22G27G29G31
  21126178.080   111018833.99109  21126175.080    86508168.82248
  22180411.920   116558900.52909  22180409.860    90825124.50247
  21584138.320   113425415.56007  21584134.680    88383429.90046
  23284649.600   122361700.45308  23284644.500    95346777.92346
  22370113.900   117555756.33709  22370113.740    91601894.35548
  24473544.820   128609318.51609  24473542.720   100215081.03146
  23832526.840   125240751.73908  23832523.560    97590181.43146
 15 02 23 00 41 30.0000000  0  7G16G18G21G22G27G29G31
  21115649.140   110963503.69709  21115645.880    86465054.30348
  22171189.780   116510436.48209  22171187.380    90787360.34347
  21593329.060   113473710.93606  21593324.820    88421062.64846
  23266996.960   122268937.58108  23266991.900    95274495.20947
  22358274.880   117493541.93608  22358274.680    91553415.63348
  24488112.480   128685870.99609  24488110.480   100274732.27546
  23850944.720   125337537.49508  23850940.620    97665598.81246
 15 02 23 00 42  0.0000000  0  7G16G18G21G22G27G29G31
  21105191.940   110908551.90609  21105188.600    86422234.70948
  22162040.960   116462357.51609  22162038.160    90749896.24848
  21602570.160   113522271.94106  21602565.600    88458902.40246
  23249365.820   122176286.97608  23249361.060    95202299.97547
  22346457.020   117431439.65508  22346457.180    91505024.26848
  24502685.780   128762453.81009  24502683.480   100334407.16947
  23869371.140   125434367.34108  23869366.520    97741050.56246
 15 02 23 00 42 30.0000000  0  7G16G18G21G22G27G29G31
  21094807.240   110853979.72909  21094803.880    86379710.93548
  22152965.520   116414664.27009  22152962.440    90712732.70447
  21611861.160   113571095.67907  21611856.200    88496946.86846
  23231756.660   122083749.99008  23231751.980    95130193.28246
  22334660.540   117369448.45309  22334661.460    91456719.45848
  24517264.560   128839065.69009  24517261.960   100394104.71346
  23887805.260   125531237.06808  23887800.900    97816533.37746
 15 02 23 00 43  0.0000000  0  7G16G18G21G22G27G29G31
  21084495.460   110799790.59709  21084492.140    86337485.65248
  22143963.880   116367359.66509  22143960.600    90675871.97747
  21621201.840   113620181.71707  21621196.900    88535195.72746
  23214169.900   121991330.67108  23214165.520    95058178.25147
  22322885.440   117307569.94008  22322886.820    91408502.44948
  24531849.220   128915708.12208  24531846.460   100453826.06446
  23906246.540   125628145.06108  23906242.980    97892046.01746
 15 02 23 00 43 30.0000000  0  8G16G18G19G21G22G27G29G31
  21074258.100   110745993.33809  21074254.900    86295565.67548
  22135037.820   116320452.35709  22135034.520    90639320.82848
  24544567.200                                                  
  21630593.040   113669534.83507  21630588.580    88573652.66746
  23196607.360   121899038.20409  23196603.320    94986262.06047
  22311132.640   117245810.74008  22311133.440    91360378.38947
  24546440.660   128992387.28208  24546437.980   100513576.01845
  23924695.380   125725094.41708  23924692.920    97967590.89446
 15 02 23 00 44  0.0000000  0  7G16G18G19G21G22G27G31
  21064094.720   110692584.30509  21064091.400    86253948.23248
  22126186.840   116273939.23609  22126183.660    90603076.84848
  24529138.380   128901492.52906  24529137.120   100442718.03844
  21640034.000   113719148.18207  21640029.860    88612312.40547
  23179068.480   121806870.10808  23179064.100    94914442.79947
  22299401.760   117184165.91608  22299401.940    91312343.49248
  23943150.280   125822077.72008  23943149.000    98043162.22647
 15 02 23 00 44 30.0000000  0  7G16G18G19G21G22G27G31
  21054005.740   110639565.29909  21054002.320    86212634.74148
  22117411.020   116227821.45509  22117408.040    90567140.92148
  24513722.000   128820479.18406  24513720.640   100379590.76645
  21649524.320   113769019.42208  21649520.040    88651173.12246
  23161553.480   121714828.45609  23161547.780    94842722.09146
  22287693.000   117122635.16809  22287692.660    91264397.46547
  23961610.920   125919091.52908  23961610.620    98118757.33246
 15 02 23 00 45  0.0000000  0  7G16G18G19G21G22G27G31
  21043987.000   110586916.12009  21043983.820    86171609.42048
  22108706.480   116182078.62309  22108703.540    90531497.16248
  24498313.980   128739508.33306  24498310.760   100316496.69545
  21659059.180   113819124.11008  21659054.820    88690215.74846
  23144058.860   121622893.70209  23144052.680    94771084.68747
  22276001.940   117061196.27609  22276000.900    91216523.03848
  23980072.680   126016110.36208  23980073.080    98194356.32246
 15 02 23 00 45 30.0000000  0  7G16G18G19G21G22G27G31
  21034044.120   110534666.21509  21034041.180    86130895.20348
  22100078.780   116136740.00009  22100075.740    90496168.35947
  24482919.400   128658607.25707  24482913.900   100253457.01844
  21668643.460   113869488.50107  21668638.780    88729460.72646
  23126590.400   121531095.82909  23126584.720    94699553.89547
  22264333.360   116999876.95908  22264332.420    91168741.78148
  23998540.180   126113158.62308  23998540.760    98269978.26646
 15 02 23 00 46  0.0000000  0  7G16G18G19G21G22G27G31
  21024176.340   110482809.96109  21024173.160    86090487.73348
  22091526.900   116091799.80409  22091523.520    90461150.05947
  24467536.760   128577768.54407  24467529.360   100190465.92643
  21678275.100   113920102.49608  21678270.180    88768900.21946
  23109147.120   121439430.19809  23109141.980    94628126.16247
  22252686.180   116938669.81109  22252685.480    91121047.92248
  24017011.500   126210226.02008  24017011.720    98345615.13146
 15 02 23 00 46 30.0000000  0  7G16G18G19G21G22G27G31
  21014385.780   110431359.23309  21014382.320    86050396.26648
  22083052.960   116047269.16709  22083049.020    90426450.91247
  24452167.500   128497001.79207  24452158.840   100127530.84644
  21687955.660   113970974.66308  21687950.860    88808540.86346
  23091731.140   121347908.79009  23091726.160    94556810.79947
  22241062.260   116877584.61909  22241061.720    91073449.08448
  24035487.960   126307319.30308  24035487.020    98421272.11446
 15 02 23 00 47  0.0000000  0  7G16G18G19G21G22G27G31
  21004672.100   110380313.71809  21004668.680    86010620.54148
  22074656.860   116003147.60509  22074652.860    90392070.51447
  24436811.120   128416304.86807  24436803.720   100064650.17945
  21697684.380   114022100.42207  21697679.880    88848379.12146
  23074342.660   121256531.60309  23074337.400    94485607.84147
  22229460.800   116816619.24808  22229460.660    91025943.59348
  24053968.420   126404433.20708  24053966.080    98496945.17645
 15 02 23 00 47 30.0000000  0  7G16G18G19G21G22G27G31
  20995037.320   110329682.68109  20995034.080    85971167.78449
  22066340.240   115959444.56308  22066336.720    90358016.17247
  24421469.200   128335685.02207  24421464.800   100001829.53745
  21707462.220   114073485.41507  21707458.140    88888419.36547
  23056983.680   121165309.17209  23056978.240    94414525.47247
  22217883.600   116755781.29509  22217883.280    90978537.41048
  24072453.560   126501572.03608  24072450.160    98572637.64945
 15 02 23 00 48  0.0000000  0  7G16G18G19G21G22G27G31
  20985479.400   110279455.06509  20985476.160    85932029.38248
  22058101.020   115916148.58009  22058097.920    90324279.00647
  24406139.600   128255129.08607  24406136.940    99939058.68944
  21717286.640   114125114.57508  21717283.120    88928649.87946
  23039651.960   121074230.89609  23039646.880    94343555.40646
  22206328.340   116695057.84109  22206327.740    90931220.44648
  24090940.340   126598719.77508  24090936.400    98648337.06245
 15 02 23 00 48 30.0000000  0  7G16G18G19G21G22G27G31
  20975997.960   110229628.96509  20975994.480    85893203.86348
  22049939.220   115873257.72209  22049935.940    90290857.61347
  24390821.500   128174633.68006  24390819.340    99876335.04545
  21727156.820   114176983.08408  21727153.840    88969066.91946
  23022347.480   120983296.13109  23022342.960    94272697.17247
  22194794.140   116634445.62609  22194793.600    90883990.13848
  24109427.520   126695869.97808  24109423.560    98724038.40345
 15 02 23 00 49  0.0000000  0  7G16G18G19G21G22G27G31
  20966594.820   110180214.57709  20966591.180    85854699.15048
  22041856.420   115830781.59309  22041852.940    90257759.37647
  24375516.160   128094206.92005  24375514.320    99813664.83345
  21737073.620   114229096.72607  21737070.840    89009674.94046
  23005072.340   120892514.80709  23005068.160    94201958.51347
  22183282.920   116573952.81609  22183282.020    90836852.90848
  24127916.200   126793027.59108  24127912.720    98799745.51946
 15 02 23 00 49 30.0000000  0  7G16G18G19G21G22G27G31
  20957268.940   110131206.69109  20957265.260    85816511.19648
  22033851.400   115788714.68009  22033847.960    90224979.95147
  24360222.960   128013841.38107  24360220.780    99751042.40345
  21747035.200   114281446.36507  21747032.340    89050466.86446
  22987825.680   120801882.98909  22987820.980    94131336.35047
  22171793.280   116513572.32209  22171791.560    90789803.21548
  24146404.680   126890182.95708  24146401.720    98875450.87046
 15 02 23 00 50  0.0000000  0  7G16G18G19G21G22G27G31
  20948021.240   110082610.11209  20948017.660    85778643.73848
  22025924.840   115747061.02709  22025921.740    90192522.54947
  24344942.140   127933539.96206  24344938.180    99688469.95645
  21757041.920   114334033.32907  21757038.780    89091443.69745
  22970608.240   120711406.02208  22970603.020    94060834.86047
  22160325.380   116453307.12909  22160323.460    90742843.33748
  24164892.880   126987335.73008  24164890.260    98951154.19746
 15 02 23 00 50 30.0000000  0  7G16G18G19G21G22G27G31
  20938852.060   110034426.81609  20938848.600    85741098.31448
  22018077.520   115705823.06409  22018074.520    90160389.07948
  24329673.500   127853303.10607  24329668.300    99625947.78844
  21767093.500   114386854.73308  21767089.980    89132603.24946
  22953420.700   120621086.24009  22953415.940    93990455.81747
  22148879.420   116393157.63509  22148877.480    90695973.61648
  24183380.060   127084482.70708  24183377.700    99026853.01546
 15 02 23 00 51  0.0000000  0  7G16G18G19G21G22G27G31
  20929761.860   109986658.65109  20929758.460    85703876.36549
  22010309.640   115665002.06909  22010306.660    90128580.53748
  24314416.940   127773130.29607  24314412.000    99563475.53445
  21777189.740   114439910.02808  21777186.140    89173945.04646
  22936263.960   120530926.55309  22936259.400    93920201.53047
  22137455.440   116333123.93709  22137453.480    90649194.13148
  24201865.620   127181621.18908  24201863.540    99102545.18746
 15 02 23 00 51 30.0000000  0  7G16G18G19G21G22G27G31
  20920752.640   109939314.79409  20920749.200    85666985.05449
  22002622.640   115624606.96909  22002619.580    90097103.85147
  24299174.000   127693028.97007  24299169.860    99501058.93145
  21787331.660   114493204.72708  21787327.980    89215473.39146
  22919139.840   120440937.04709  22919134.960    93850079.89547
  22126054.560   116273213.51309  22126052.740    90602510.70948
  24220350.260   127278755.80608  24220348.380    99178234.33546
 15 02 23 00 52  0.0000000  0  7G16G18G19G21G22G27G31
  20911823.120   109892388.96109  20911819.680    85630419.47449
  21995015.280   115584630.94509  21995012.340    90065953.71547
  24283943.440   127612990.56307  24283939.420    99438691.37246
  21797517.100   114546727.62608  21797513.180    89257179.53547
  22902046.640   120351111.42309  22902041.740    93780085.92247
  22114675.640   116213418.06709  22114674.320    90555916.87548
  24238831.800   127375875.23808  24238829.780    99253911.64346
 15 02 23 00 52 30.0000000  0  7G16G18G19G21G22G27G31
  20902972.920   109845879.94209  20902969.380    85594178.66648
  21987487.460   115545072.46709  21987484.520    90035128.96647
  24268724.740   127533012.42007  24268720.840    99376370.76845
  21807745.240   114600474.16608  21807740.940    89299059.98546
  22884984.280   120261449.42409  22884979.500    93710219.44247
  22103318.320   116153734.99809  22103317.480    90509410.60048
  24257309.040   127472973.14608  24257306.620    99329572.16646
 15 02 23 00 53  0.0000000  0  7G16G18G19G21G22G27G31
  20894204.120   109799798.95709  20894200.440    85558271.39048
  21980041.240   115505942.75809  21980038.300    90004638.30447
  24253519.480   127453104.06208  24253515.440    99314104.48845
  21818017.340   114654452.80008  21818012.540    89341121.25646
  22867955.400   120171963.35709  22867950.760    93640490.08047
  22091984.260   116094174.01109  22091983.440    90462999.44348
  24275783.280   127570056.25608  24275780.500    99405221.17446
 15 02 23 00 53 30.0000000  0  7G16G18G19G21G22G27G31
  20885516.120   109754143.04009  20885512.400    85522695.37848
  21972675.900   115467238.26309  21972673.160    89974478.94147
