     2.11           OBSERVATION DATA    G                   RINEX VERSION / TYPE
SPIDER V4,0,0,3554                      2015 03 24 00:40    PGM / RUN BY / DATE 
CFKZ                                                        MARKER NAME         
CFKZ                                                        MARKER NUMBER       
                                                            OBSERVER / AGENCY   
496632              LEICA GRX1200+GNSS  8.10/4.007          REC # / TYPE / VERS 
10301036            LEIAR25         NONE                    ANT # / TYPE        
  5212138.8290   540257.5452  3624418.8863                  APPROX POSITION XYZ 
        0.0720        0.0000        0.0000                  ANTENNA: DELTA H/E/N
     1     1                                                WAVELENGTH FACT L1/2
     4    C1    L1    P2    L2                              # / TYPES OF OBSERV 
    30.000                                                  INTERVAL            
  2015    02    23    00    00    0.0000000     GPS         TIME OF FIRST OBS   
  2015    02    23    23    59   30.0000000     GPS         TIME OF LAST OBS    
    16                                                      LEAP SECONDS        
    30                                                      # OF SATELLITES     
   G 1   817   817   817   817                              PRN / # OF OBS      
   G 2   924   924   924   924                              PRN / # OF OBS      
   G 3   854   854   854   854                              PRN / # OF OBS      
   G 4   844   844   844   844                              PRN / # OF OBS      
   G 5   603   603   603   603                              PRN / # OF OBS      
   G 6   785   785   784   784                              PRN / # OF OBS      
   G 7   669   669   669   669                              PRN / # OF OBS      
   G 9   809   809   809   809                              PRN / # OF OBS      
   G10   735   735   735   735                              PRN / # OF OBS      
   G11   783   782   782   782                              PRN / # OF OBS      
   G12   793   793   792   792                              PRN / # OF OBS      
   G13   802   802   802   802                              PRN / # OF OBS      
   G14   937   937   937   937                              PRN / # OF OBS      
   G15   712   711   711   711                              PRN / # OF OBS      
   G16   674   673   673   673                              PRN / # OF OBS      
   G17   938   938   937   937                              PRN / # OF OBS      
   G18   915   915   914   914                              PRN / # OF OBS      
   G19   762   762   761   761                              PRN / # OF OBS      
   G20   773   773   773   773                              PRN / # OF OBS      
   G21   734   734   734   734                              PRN / # OF OBS      
   G22   662   662   662   662                              PRN / # OF OBS      
   G23   752   752   752   752                              PRN / # OF OBS      
   G24   832   832   831   831                              PRN / # OF OBS      
   G25   854   854   854   854                              PRN / # OF OBS      
   G27   815   815   815   815                              PRN / # OF OBS      
   G28   859   858   858   858                              PRN / # OF OBS      
   G29   761   761   760   760                              PRN / # OF OBS      
   G30   715   715   715   715                              PRN / # OF OBS      
   G31   846   846   846   846                              PRN / # OF OBS      
   G32   768   767   767   767                              PRN / # OF OBS      
BIT 2 OF LLI FLAGS DATA COLLECTED UNDER A/S CONDITION       COMMENT             
SNR is mapped to RINEX snr flag value [2-9]                 COMMENT             
Lx:     = 25dBHz -> 1; 26-27dBHz -> 2; 28-31dBHz -> 3       COMMENT             
       32-35dBHz -> 4; 36-38dBHz -> 5; 39-41dBHz -> 6       COMMENT             
       42-44dBHz -> 7; 45-48dBHz -> 8; >=49dBHz -> 9        COMMENT             
                                                            END OF HEADER       
 15 02 23 00 00  0.0000000  0  8G16G18G21G22G25G27G29G31
  22362424.700   117515343.21009  22362421.180    91570387.90447
  22958037.920   120645368.27908  22958035.120    94009400.69046
  21037743.340   110554354.81408  21037739.020    86146322.49848
  24538330.300   128949811.43708  24538331.180   100480346.24344
  24150667.740   126912801.74408  24150668.680    98893175.15846
  23510480.240   123548423.46208  23510480.020    96271498.84647
  23310742.200   122499168.59408  23310739.300    95453992.55146
  22289989.500   117134700.95609  22289986.280    91273785.69948
 15 02 23 00 00 30.0000000  0  8G16G18G21G22G25G27G29G31
  22347024.960   117434417.51809  22347021.620    91507328.92847
  22944781.180   120575704.07909  22944778.480    93955116.95346
  21042392.660   110578787.13009  21042388.360    86165360.67848
  24520670.400   128857009.58108  24520670.960   100408033.61845
  24168879.480   127008504.71308  24168880.600    98967748.84145
  23497479.380   123480103.76808  23497479.780    96218262.75047
  23324187.880   122569825.62808  23324184.940    95509049.94946
  22305157.220   117214407.29509  22305153.880    91335894.52248
 15 02 23 00 01  0.0000000  0  8G16G18G21G22G25G27G29G31
  22331660.120   117353675.10209  22331656.820    91444412.77047
  22931565.040   120506253.08109  22931562.340    93900999.32746
  21047115.780   110603607.20309  21047111.540    86184701.00148
  24502996.000   128764131.15708  24502996.260   100335661.27545
  24187127.200   127104396.91408  24187128.100    99042469.98745
  23484497.260   123411881.84408  23484496.800    96165102.78546
  23337640.760   122640520.54309  23337638.040    95564136.89146
  22320382.660   117294417.43809  22320379.320    91398240.05948
 15 02 23 00 01 30.0000000  0  8G16G18G21G22G25G27G29G31
  22316329.640   117273113.09309  22316326.340    91381637.21647
  22918389.020   120437012.78109  22918386.360    93847045.89446
  21051911.480   110628808.67509  21051907.280    86204338.51148
  24485306.520   128671173.59408  24485306.340   100263227.27345
  24205409.640   127200472.26508  24205410.860    99117333.83546
  23471532.600   123343752.70509  23471533.060    96112015.27146
  23351099.840   122711248.32308  23351097.180    95619249.44946
  22335664.360   117374723.64209  22335661.140    91460816.29848
 15 02 23 00 02  0.0000000  0  8G16G18G21G22G25G27G29G31
  22301033.520   117192731.68409  22301030.280    91319002.33347
  22905253.300   120367984.42509  22905250.600    93793257.60346
  21056778.940   110654387.20508  21056774.740    86224269.83648
  24467601.920   128578137.23807  24467601.500   100190731.88646
  24223726.340   127296727.36207  24223727.620    99192337.75846
  23458585.120   123275714.20008  23458585.360    96058998.24047
  23364564.760   122782006.76308  23364561.900    95674385.88446
  22351001.460   117455320.87009  22350998.320    91523619.31048
 15 02 23 00 02 30.0000000  0  8G16G18G21G22G25G27G29G31
  22285771.560   117112529.30709  22285768.320    91256506.97447
  22892157.860   120299167.47009  22892155.160    93739634.03546
  21061717.440   110680339.01609  21061713.240    86244492.03948
  24449882.040   128485021.22008  24449881.520   100118174.39846
  24242076.400   127393157.41308  24242077.780    99267478.01246
  23445654.640   123207762.85308  23445654.220    96006049.10146
  23378034.840   122852792.36108  23378031.840    95729543.46246
  22366392.780   117536202.86009  22366389.720    91586644.21348
 15 02 23 00 03  0.0000000  0  8G16G18G21G22G25G27G29G31
  22270545.600   117032516.14509  22270542.260    91194159.07047
  22879104.620   120230571.97609  22879101.800    93686183.03546
  21066728.100   110706670.31508  21066723.960    86265009.92648
  24432149.160   128391836.09108  24432148.160   100045562.99445
  24260461.040   127489769.39608  24260462.200    99342760.01745
  23432742.240   123139906.72608  23432742.200    95953174.23247
  23391511.660   122923612.84308  23391508.580    95784728.24146
  22381839.400   117617375.05409  22381836.300    91649895.24548
 15 02 23 00 03 30.0000000  0  8G16G18G21G22G25G27G29G31
  22255354.980   116952688.50409  22255351.540    91131955.70147
  22866092.920   120162194.69209  22866090.080    93632902.05746
  21071809.540   110733373.74609  21071805.460    86285817.79848
  24414402.280   128298577.98508  24414401.180    99972894.79744
  24278879.020   127586555.90608  24278880.220    99418177.97745
  23419846.540   123072139.59109  23419845.740    95900368.68747
  23404994.120   122994462.28509  23404990.780    95839935.55946
  22397339.620   117698828.65909  22397336.380    91713365.55548
 15 02 23 00 04  0.0000000  0  8G16G18G21G22G25G27G29G31
  22240199.720   116873046.72309  22240196.220    91069897.18747
  22853122.900   120094036.48009  22853120.000    93579791.80746
  21076961.200   110760446.11008  21076957.200    86306913.15548
  24396641.900   128205247.85108  24396640.500    99900170.41844
  24297329.760   127683513.84608  24297330.420    99493729.60045
  23406967.400   123004459.66108  23406966.980    95847631.14046
  23418481.700   123065339.12408  23418478.260    95895164.27347
  22412892.500   117780559.08709  22412889.160    91777051.58948
 15 02 23 00 04 30.0000000  0  8G16G18G21G22G25G27G29G31
  22225080.580   116793594.82209  22225077.000    91007986.63747
  22840195.320   120026101.78109  22840192.320    93526855.74146
  21082183.220   110787888.05708  21082179.260    86328296.50548
  24378868.900   128111850.21308  24378867.180    99827393.40344
  24315813.280   127780643.90108  24315813.740    99569415.29845
  23394105.340   122936868.95408  23394104.800    95794963.04847
  23431974.780   123136244.72909  23431971.480    95950415.39446
  22428497.840   117862565.29309  22428494.440    91840952.51448
 15 02 23 00 05  0.0000000  0  8G16G18G21G22G25G27G29G31
  22209999.020   116714340.64709  22209995.400    90946230.11947
  22827311.860   119958399.16208  22827308.880    93474100.47846
  21087476.260   110815703.32308  21087472.340    86349970.74048
  24361084.280   128018392.96708  24361082.220    99754569.95645
  24334330.320   127877950.36308  24334330.540    99645238.47045
  23381261.240   122869372.90208  23381260.440    95742368.72946
  23445474.360   123207184.85908  23445471.080    96005693.40346
  22444156.160   117944850.03609  22444152.800    91905070.46348
 15 02 23 00 05 30.0000000  0  8G16G18G21G22G25G27G29G31
  22194954.220   116635279.58709  22194950.560    90884624.10647
  22814471.660   119890924.05708  22814468.680    93421522.51446
  21092838.860   110843884.13608  21092834.940    86371929.82348
  24343287.680   127924872.25208  24343285.460    99681697.03345
  24352879.220   127975425.34308  24352879.400    99721192.92245
  23368433.880   122801964.85408  23368433.300    95689843.02647
  23458979.080   123278152.66509  23458975.900    96060992.94646
  22459865.680   118027404.01009  22459862.380    91969398.21748
 15 02 23 00 06  0.0000000  0  8G16G18G21G22G25G27G29G31
  22179947.160   116556417.05709  22179943.500    90823172.81747
  22801675.920   119823682.79609  22801672.980    93369126.76546
  21098271.220   110872431.58608  21098267.300    86394174.58948
  24325480.120   127831293.55908  24325477.860    99608778.90645
  24371460.360   128073070.67108  24371460.660    99797280.12745
  23355623.980   122734647.94708  23355623.180    95637388.28347
  23472489.520   123349151.01409  23472486.540    96116316.31346
  22475626.420   118110227.29209  22475623.180    92033935.81448
 15 02 23 00 06 30.0000000  0  8G16G18G21G22G25G27G29G31
  22164978.300   116477755.31109  22164974.660    90761877.95047
  22788925.200   119756677.80909  22788922.220    93316915.11646
  21103773.120   110901344.53308  21103769.240    86416704.15948
  24307661.780   127737659.11408  24307659.660    99535817.36745
  24390073.600   128170884.83207  24390074.200    99873498.88245
  23342831.440   122667421.97908  23342830.860    95585004.42647
  23486005.580   123420179.84708  23486002.980    96171663.43847
  22491437.840   118193316.96009  22491434.640    92098680.98948
 15 02 23 00 07  0.0000000  0  8G16G18G21G22G25G27G29G31
  22150047.640   116399294.22909  22150044.020    90700739.46747
  22776219.640   119689909.77809  22776216.640    93264888.11346
  21109343.940   110930619.55008  21109340.080    86439515.86848
  24289833.040   127643969.87208  24289830.880    99462813.04945
  24408718.420   128268864.77907  24408719.320    99949846.83245
  23330055.800   122600285.13808  23330054.720    95532689.99447
  23499527.160   123491237.36708  23499524.920    96227032.91146
  22507299.080   118276668.65609  22507295.920    92163630.34548
 15 02 23 00 07 30.0000000  0  8G16G18G21G22G25G27G29G31
  22135156.020   116321038.24309  22135152.420    90639760.77947
  22763560.060   119623383.13909  22763556.960    93213049.21646
  21114983.840   110960257.66408  21114980.060    86462610.50648
  24271994.600   127550230.26608  24271992.560    99389769.52546
  24427394.960   128367011.15108  24427396.020   100026324.45845
  23317297.320   122533239.32509  23317296.580    95480446.56346
  23513054.700   123562325.66608  23513052.680    96282426.36246
  22523209.980   118360281.38109  22523206.820    92228783.09348
 15 02 23 00 08  0.0000000  0  8G16G18G21G22G25G27G29G31
  22120303.220   116242986.22909  22120299.620    90578941.04847
  22750946.120   119557096.68608  22750942.980    93161397.47046
  21120691.820   110990253.42708  21120688.060    86485983.82648
  24254146.420   127456439.13608  24254144.100    99316685.83845
  24446102.360   128465319.03807  24446103.360   100102927.92345
  23304555.420   122466280.96609  23304554.820    95428271.22547
  23526587.420   123633440.97608  23526585.780    96337840.84546
  22539169.300   118444148.58409  22539166.160    92294134.14348
 15 02 23 00 08 30.0000000  0  8G16G18G21G22G25G27G29G31
  22105490.180   116165143.18909  22105486.600    90518284.14848
  22738379.100   119491056.80008  22738376.140    93109937.85946
  21126468.040   111020607.68408  21126464.200    86509636.50048
  24236289.560   127362602.21708  24236287.060    99243566.44945
  24464840.940   128563790.13707  24464841.900   100179658.58445
  23291830.700   122399413.06008  23291830.160    95376166.41447
  23540125.900   123704585.91108  23540124.080    96393278.44847
  22555177.140   118528270.31409  22555173.960    92359683.50947
 15 02 23 00 09  0.0000000  0  8G16G18G21G22G25G27G29G31
  22090716.900   116087508.89709  22090713.320    90457789.91347
  22725858.940   119425263.17809  22725856.040    93058670.13446
  21132311.880   111051317.30208  21132307.980    86533566.06448
  24218423.920   127268719.55508  24218421.560    99170411.47045
  24483609.860   128662420.62808  24483610.700   100256513.43645
  23279122.920   122332633.12508  23279122.560    95324130.10347
  23553669.600   123775758.18308  23553667.680    96448737.35346
  22571232.500   118612641.44009  22571229.260    92425427.22948
 15 02 23 00 09 30.0000000  0  8G16G18G21G22G25G27G29G31
  22075984.060   116010087.10009  22075980.460    90397461.24448
  22713386.520   119359720.13109  22713383.680    93007597.65346
  21138223.360   111082382.18708  21138219.440    86557772.46648
  24200550.560   127174795.27108  24200548.280    99097223.95845
  24502409.080   128761210.64408  24502410.000   100333492.58445
  23266432.220   122265942.59508  23266431.560    95272163.45247
  23567218.780   123846959.06308  23567217.000    96504218.53846
  22587335.080   118697260.67309  22587331.780    92491364.26147
 15 02 23 00 10  0.0000000  0  8G16G18G21G22G25G27G29G31
  22061293.200   115932885.62909  22061289.500    90337304.28047
  22700963.320   119294435.32009  22700960.560    92956726.41746
  21144203.280   111113806.48408  21144199.260    86582258.93848
  24182670.820   127080837.23108  24182668.380    99024010.17546
  24521239.200   128860164.47307  24521240.400   100410599.37344
  23253759.460   122199347.01708  23253759.120    95220270.84747
  23580774.640   123918194.55008  23580772.480    96559726.68546
  22603485.360   118782130.62309  22603482.060    92557496.67548
 15 02 23 00 10 30.0000000  0  8G16G18G21G22G25G27G29G31
  22046642.760   115855896.69809  22046638.960    90277312.90747
  22688587.920   119229401.84209  22688585.140    92906051.00446
  21150249.340   111145578.59408  21150245.280    86607016.43248
  24164783.420   126986838.44408  24164780.720    98950764.58446
  24540098.580   128959270.73708  24540099.760   100487824.96845
  23241102.760   122132836.41909  23241102.560    95168444.46147
  23594335.100   123989454.37909  23594332.600    96615253.78346
  22619680.920   118867238.55509  22619677.660    92623814.53047
 15 02 23 00 11  0.0000000  0  8G16G18G21G22G25G27G29G31
  22032033.580   115779124.51809  22032029.660    90217490.45447
  22676261.220   119164624.06509  22676258.300    92855574.85146
  21156361.580   111177698.73708  21156357.520    86632045.11748
  24146889.000   126892803.30708  24146886.100    98877490.74445
  24558987.120   129058530.08607  24558988.400   100565169.84345
  23228462.680   122066412.84708  23228462.460    95116685.86847
  23607900.480   124060740.23808  23607897.700    96670801.17846
  22635921.520   118952583.35509  22635918.320    92690316.93947
 15 02 23 00 11 30.0000000  0  8G16G18G21G22G25G27G29G31
  22017466.740   115702575.16809  22017462.760    90157841.62447
  22663984.280   119100108.16809  22663981.180    92805302.75446
  21162540.560   111210169.55908  21162536.440    86657347.05748
  24128988.980   126798738.18508  24128985.900    98804193.44946
  24577905.260   129157944.85508  24577906.480   100642635.78645
  23215840.020   122000079.98208  23215839.820    95064997.91747
  23621471.640   124132056.60008  23621469.000    96726372.39347
  22652207.380   119038165.87509  22652204.240    92757004.58447
 15 02 23 00 12  0.0000000  0  8G16G18G21G22G25G27G29G31
  22002942.880   115626251.65109  22002938.780    90098368.75647
  22651757.820   119035857.81909  22651754.580    92755237.58146
  21168786.040   111242989.63908  21168781.900    86682921.14948
  24111083.800   126704646.18708  24111080.720    98730875.24046
  24596852.820   129257514.47408  24596853.760   100720222.41445
  23203234.760   121933838.51808  23203234.240    95013381.20647
  23635048.500   124203403.93308  23635045.700    96781967.66046
  22668538.120   119123984.28309  22668535.020    92823876.04848
 15 02 23 00 12 30.0000000  0  8G16G18G21G22G25G27G29G31
  21988461.740   115550152.78809  21988457.620    90039070.96547
  22639581.660   118971872.13909  22639578.320    92705378.64946
  21175097.220   111276154.67508  21175092.980    86708764.03848
  24093173.380   126610526.95708  24093170.220    98657535.80145
  24615828.920   129357234.43407  24615829.820   100797926.19245
  23190646.260   121867685.40908  23190645.800    94961833.36247
  23648630.520   124274778.73108  23648627.700    96837584.37846
  22684912.560   119210032.57709  22684909.520    92890926.64248
 15 02 23 00 13  0.0000000  0  8G16G18G21G22G25G27G29G31
  21974023.820   115474281.34609  21974019.740    89979950.36747
  22627456.380   118908153.86709  22627453.020    92655728.06246
  21181473.620   111309662.68908  21181469.340    86734874.18348
  24075258.300   126516383.44008  24075255.180    98584177.41645
  24634833.580   129457103.47207  24634834.280   100875746.12144
  23178074.540   121801620.73809  23178073.940    94910354.42647
  23662217.840   124346181.43408  23662215.460    96893222.82146
  22701330.100   119296307.77109  22701327.180    92958154.02347
 15 02 23 00 13 30.0000000  0  8G16G18G21G22G25G27G29G31
  21959629.880   115398641.03209  21959625.880    89921009.86748
  22615382.840   118844707.19609  22615379.520    92606289.12646
  21187915.420   111343514.61308  21187911.100    86761252.30548
  24057339.140   126422219.40608  24057336.000    98510803.06046
  24653866.520   129557121.80008  24653867.200   100953682.38844
  23165519.960   121735646.08509  23165519.460    94858945.64447
  23675810.760   124417613.41208  23675808.440    96948884.06046
  22717790.520   119382808.39809  22717787.700    93025557.07647
 15 02 23 00 14  0.0000000  0  8G16G18G21G22G25G27G29G31
  21945279.960   115323232.03309  21945276.060    89862249.64248
  22603361.060   118781532.25309  22603357.700    92557061.92646
  21194421.820   111377705.98608  21194417.460    86787894.93848
  24039416.080   126328035.33108  24039413.040    98437413.09146
  24672927.260   129657285.53207  24672928.120   101031731.95545
  23152982.000   121669758.94408  23152981.280    94807605.02747
  23689409.000   124489072.06808  23689406.400    97004566.13746
  22734292.960   119469529.52309  22734290.160    93093131.95947
 15 02 23 00 14 30.0000000  0  8G16G18G21G22G25G27G29G31
  21930974.520   115248056.76109  21930970.740    89803671.51748
  22591391.620   118718632.35509  22591388.160    92508049.04046
  21200992.640   111412235.80008  21200988.340    86814801.28848
  24021489.840   126233834.62407  24021487.020    98364010.14246
  24692015.520   129757594.05708  24692016.220   101109894.36044
  23140460.860   121603960.21708  23140460.200    94756333.32047
  23703012.640   124560558.44308  23703009.780    97060269.78446
  22750837.020   119556468.92009  22750834.200    93160876.93047
 15 02 23 00 15  0.0000000  0  8G16G18G21G22G25G27G29G31
  21916714.840   115173121.73709  21916711.080    89745280.61248
  22579475.740   118656014.09909  22579472.240    92459255.62446
  21207628.460   111447107.15109  21207624.200    86841973.77248
  24003561.540   126139623.50408  24003559.060    98290599.09045
  24711131.820   129858050.16308  24711132.720   101188171.73145
  23127957.400   121538254.01208  23127956.840    94705133.69147
  23716622.300   124632076.79608  23716619.440    97115998.35246
  22767422.860   119643627.76609  22767419.980    93228792.88647
 15 02 23 00 15 30.0000000  0  8G16G18G21G22G25G27G29G31
  21902499.820   115098421.57109  21902496.140    89687072.70248
  22567612.380   118593671.90809  22567608.960    92410677.32446
  21214327.380   111482310.30808  21214323.140    86869404.80148
  23985630.600   126045397.41808  23985628.240    98217176.37546
  24730274.460   129958644.45607  24730275.320   101266556.76645
  23115469.980   121472632.32708  23115469.220    94653999.93047
  23730236.480   124703619.13508  23730233.900    97171745.58046
  22784048.400   119730995.29009  22784045.520    93296871.44147
 15 02 23 00 16  0.0000000  0  8G16G18G21G22G25G27G29G31
  21888331.580   115023967.39509  21888327.960    89629056.47048
  22555803.720   118531617.22009  22555800.300    92362323.06146
  21221090.800   111517852.63208  21221086.660    86897100.11748
  23967699.120   125951167.68508  23967696.620    98143750.79546
  24749444.780   130059384.54507  24749445.600   101345055.42845
  23103000.300   121407104.25209  23102999.760    94602939.13647
  23743856.760   124775194.28408  23743854.100    97227518.41846
  22800714.760   119818577.56909  22800711.920    93365117.34447
 15 02 23 00 16 30.0000000  0  8G16G18G21G22G25G27G29G31
  21874209.200   114949754.15809  21874205.620    89571227.98348
  22544048.980   118469845.71309  22544045.580    92314189.44547
  21227917.080   111553725.22308  21227913.000    86925052.78348
  23949766.120   125856929.50208  23949763.600    98070318.62346
  24768641.120   130160261.65608  24768642.120   101423660.82645
  23090547.020   121341662.44708  23090546.640    94551945.54647
  23757481.840   124846795.03108  23757479.340    97283311.22546
  22817419.960   119906364.45709  22817417.220    93433522.67547
 15 02 23 00 17  0.0000000  0  8G16G18G21G22G25G27G29G31
  21860133.840   114875787.81309  21860130.280    89513591.88448
  22532349.220   118408363.26109  22532345.940    92266281.07847
  21234806.600   111589930.05809  21234802.520    86953264.35348
  23931832.860   125762689.55008  23931830.140    97996885.06846
  24787863.820   130261278.12907  24787865.000   101502374.85145
  23078110.920   121276310.71308  23078110.420    94501022.14147
  23771112.480   124918425.22408  23771110.420    97339126.88046
  22834164.300   119994356.61609  22834161.560    93502087.96347
 15 02 23 00 17 30.0000000  0  8G16G18G21G22G25G27G29G31
  21846105.640   114802069.10309  21846102.080    89456148.74448
  22520704.600   118347170.69309  22520701.320    92218598.57247
  21241758.780   111626463.76809  21241754.700    86981732.17948
  23913899.400   125668448.61308  23913896.600    97923450.72046
  24807112.480   130362430.73507  24807113.920   101581194.92145
  23065691.660   121211047.34008  23065691.660    94450167.58147
  23784748.520   124990083.39208  23784746.600    97394964.39546
  22850946.840   120082549.41909  22850944.080    93570809.59547
 15 02 23 00 18  0.0000000  0  7G16G18G21G22G27G29G31
  21832125.540   114728602.85309  21832121.900    89398902.32648
  22509116.020   118286272.75409  22509112.740    92171145.65546
  21248773.560   111663326.87009  21248769.560    87010456.66648
  23895966.700   125574211.59708  23895963.800    97850019.47546
  23053289.720   121145874.67608  23053289.660    94399383.69847
  23798390.260   125061771.69208  23798388.520    97450825.38646
  22867767.580   120170942.57909  22867764.700    93639687.34747
 15 02 23 00 18 30.0000000  0  7G16G18G21G22G27G29G31
  21818192.700   114655385.02509  21818189.020    89341849.49548
  22497582.920   118225666.22809  22497579.620    92123919.81947
  21255849.700   111700512.41809  21255845.720    87039432.42848
  23878034.140   125479975.23708  23878030.900    97776588.69746
  23040903.900   121080786.76908  23040903.580    94348665.87247
  23812036.640   125133484.19208  23812035.020    97506705.22846
  22884624.740   120259527.02509  22884621.740    93708714.16347
 15 02 23 00 19  0.0000000  0  7G16G18G21G22G27G29G31
  21804308.740   114582424.16009  21804305.000    89284996.86948
  22486106.940   118165359.50909  22486103.600    92076927.58347
  21262988.120   111738025.23909  21262984.160    87068663.18948
  23860103.440   125385748.46508  23860100.080    97703165.39645
  23028535.420   121015789.78609  23028535.260    94298018.92847
  23825688.800   125205226.94808  23825687.380    97562608.64746
  22901518.980   120348306.24009  22901515.880    93777892.73847
 15 02 23 00 19 30.0000000  0  7G16G18G21G22G27G29G31
  21790473.220   114509717.97209  21790469.460    89228342.70148
  22474687.720   118105350.52709  22474684.220    92030167.36247
  21270187.520   111775858.41008  21270183.540    87098143.58448
  23842174.200   125291529.35208  23842170.640    97629748.04446
  23016183.360   120950879.12008  23016182.900    94247439.20947
  23839346.100   125276995.53508  23839344.340    97618532.21546
  22918448.700   120437272.29109  22918445.600    93847216.90447
 15 02 23 00 20  0.0000000  0  7G16G18G21G22G27G29G31
  21776687.280   114437272.25009  21776683.460    89171891.49348
  22463326.200   118045644.99009  22463322.680    91983643.58747
  21277448.160   111814013.45409  21277444.140    87127874.78748
  23824247.440   125197323.61108  23824243.740    97556341.13546
  23003848.420   120886058.31608  23003847.820    94196929.50847
  23853008.880   125348793.24308  23853006.560    97674478.48146
  22935414.100   120526426.01409  22935411.060    93916687.29347
 15 02 23 00 20 30.0000000  0  7G16G18G21G22G27G29G31
  21762951.140   114365088.01609  21762947.280    89115644.04848
  22452022.620   117986244.25309  22452019.100    91937357.33147
  21284769.740   111852488.30409  21284765.660    87157855.20048
  23806323.400   125103132.96008  23806319.740    97482946.00046
  22991530.360   120821326.21908  22991529.960    94146488.94147
  23866676.960   125420619.33008  23866674.500    97730446.85946
  22952414.380   120615763.13609  22952411.440    93986300.60247
 15 02 23 00 21  0.0000000  0  7G16G18G21G22G27G29G31
  21749264.820   114293165.83809  21749260.900    89059600.80148
  22440777.180   117927148.94309  22440773.700    91891309.05047
  21292151.440   111891279.11009  21292147.280    87188081.81048
  23788402.420   125008958.32808  23788398.700    97409563.30646
  22979228.800   120756680.91908  22979228.160    94096115.98547
  23880350.100   125492471.73507  23880347.100    97786435.76046
  22969448.640   120705279.01509  22969445.780    94056053.19947
 15 02 23 00 21 30.0000000  0  7G16G18G21G22G27G29G31
  21735630.100   114221514.88509  21735626.160    89003768.89748
  22429591.700   117868368.70709  22429588.260    91845506.29347
  21299594.260   111930391.30409  21299590.060    87218558.84048
  23770486.400   124914809.54408  23770482.640    97336200.75646
  22966945.020   120692129.58708  22966944.200    94045816.27847
  23894029.300   125564357.71408  23894026.720    97842450.75145
  22986517.720   120794977.75209  22986514.820    94125948.28547
 15 02 23 00 22  0.0000000  0  7G16G18G21G22G27G29G31
  21722045.900   114150129.74209  21722041.980    88948144.12148
  22418465.060   117809897.70409  22418461.640    91799944.49547
  21307096.360   111969815.32108  21307092.140    87249278.85048
  23752574.180   124820680.99108  23752570.500    97262853.96146
  22954677.640   120627664.40408  22954677.020    93995583.68847
  23907713.580   125636269.04108  23907710.900    97898485.52746
  23003619.560   120884848.52209  23003616.620    94195977.41047
 15 02 23 00 22 30.0000000  0  7G16G18G21G22G27G29G31
  21708513.400   114079016.36109  21708509.560    88892731.10748
  22407398.320   117751741.72609  22407394.940    91754628.17647
  21314658.120   112009552.63509  21314653.860    87280242.99148
  23734667.060   124726579.24708  23734663.400    97189528.07846
  22942427.340   120563288.84508  22942426.720    93945420.94247
  23921403.260   125708209.70408  23921400.880    97954543.19346
  23020754.220   120974891.57409  23020751.260    94266140.79647
 15 02 23 00 23  0.0000000  0  7G16G18G21G22G27G29G31
  21695032.280   114008172.79409  21695028.460    88837528.33448
  22396391.200   117693899.07509  22396387.840    91709555.98047
  21322278.600   112049598.10809  21322274.260    87311447.24748
  23716764.800   124632502.96908  23716761.160    97116222.00046
  22930193.260   120498998.86708  22930192.620    93895324.91547
  23935098.040   125780175.63608  23935095.780    98010620.50746
  23037920.480   121065100.35409  23037917.420    94336433.30447
 15 02 23 00 23 30.0000000  0  7G16G18G21G22G27G29G31
  21681604.000   113937606.66409  21681600.180    88782541.75148
  22385445.400   117636378.17209  22385441.940    91664734.53047
  21329958.480   112089955.54509  21329954.060    87342894.60948
  23698868.840   124538460.05208  23698865.140    97042941.93446
  22917976.640   120434800.12208  22917976.260    93845299.93347
  23948798.660   125852172.59108  23948796.340    98066722.00446
  23055118.820   121155477.55509  23055115.680    94406857.07347
 15 02 23 00 24  0.0000000  0  7G16G18G21G22G27G29G31
  21668228.040   113867315.60209  21668224.240    88727769.50548
  22374560.240   117579176.14109  22374556.760    91620161.53947
  21337696.580   112130619.05409  21337692.040    87374580.46248
  23680978.920   124444448.54508  23680975.060    96969686.31446
  22905776.460   120370687.61508  22905776.040    93795342.15547
  23962504.320   125924195.52708  23962501.900    98122843.76646
  23072347.700   121246015.26309  23072344.460    94477405.89547
 15 02 23 00 24 30.0000000  0  7G16G18G21G22G27G29G31
  21654905.380   113797304.59809  21654901.520    88673215.47448
  22363736.680   117522297.92809  22363733.160    91575840.87947
  21345492.840   112171588.66409  21345488.320    87406504.82548
  23663096.000   124350473.49708  23663091.980    96896459.11947
  22893593.260   120306664.09608  22893592.680    93745453.71648
  23976215.460   125996246.97108  23976213.320    98178987.74946
  23089606.900   121336712.61109  23089603.700    94548079.12548
 15 02 23 00 25  0.0000000  0  7G16G18G21G22G27G29G31
  21641636.480   113727575.96809  21641632.560    88618881.47948
  22352975.100   117465745.67209  22352971.580    91531774.19447
  21353346.980   112212862.30109  21353342.400    87438666.09748
  23645220.540   124256537.60508  23645216.580    96823262.45946
  22881427.060   120242729.61408  22881426.300    93695634.66347
  23989931.880   126068327.10308  23989929.780    98235154.09846
  23106896.020   121427567.17409  23106892.860    94618874.84147
 15 02 23 00 25 30.0000000  0  7G16G18G21G22G27G29G31
  21628422.740   113658137.34309  21628418.800    88564773.45848
  22342277.080   117409527.60009  22342273.600    91487967.91247
  21361259.620   112254443.51809  21361255.020    87471067.03548
  23627354.040   124162648.99208  23627350.000    96750102.58946
  22869278.760   120178889.64008  22869278.040    93645889.26247
  24003654.540   126140441.40808  24003652.660    98291347.03246
  23124215.540   121518581.28009  23124212.360    94689794.89147
 15 02 23 00 26  0.0000000  0  7G16G18G21G22G27G29G31
  21615262.640   113588980.56209  21615258.720    88510885.05848
  22331641.020   117353635.24809  22331637.640    91444415.45247
  21369228.680   112296321.26109  21369224.060    87503699.04648
  23609495.120   124068800.20408  23609491.000    96676973.77646
  22857146.440   120115133.86609  22857145.700    93596209.48347
  24017381.700   126212579.59208  24017379.860    98347558.60646
  23141562.900   121609741.60709  23141559.700    94760828.87247
 15 02 23 00 26 30.0000000  0  7G16G18G21G22G27G29G31
  21602157.980   113520115.29509  21602154.160    88457223.82248
  22321068.880   117298078.54509  22321065.520    91401124.54147
  21377255.200   112338501.16309  21377250.660    87536566.49448
  23591645.640   123975001.00308  23591641.540    96603883.61246
  22845031.500   120051469.69409  22845030.840    93546601.05847
  24031114.880   126284748.93908  24031113.040    98403794.44046
  23158938.880   121701052.67009  23158935.720    94831980.30847
 15 02 23 00 27  0.0000000  0  7G16G18G21G22G27G29G31
  21589108.000   113451537.24509  21589104.240    88403786.38748
  22310559.660   117242852.47309  22310556.280    91358091.25147
  21385337.480   112380974.24409  21385333.020    87569662.40148
  23573804.900   123881247.62008  23573800.680    96530829.12646
  22832932.660   119987890.35809  22832931.980    93497058.75747
  24044853.020   126356943.19908  24044850.920    98460049.67346
  23176341.680   121792504.80409  23176338.560    94903241.66047
 15 02 23 00 27 30.0000000  0  7G16G18G21G22G27G29G31
  21576114.140   113383253.96309  21576110.380    88350578.63048
  22300114.960   117187965.50109  22300111.580    91315322.19447
  21393476.340   112423744.41009  21393471.900    87602989.79548
  23555974.380   123787547.99908  23555970.120    96457816.50846
  22820851.020   119924401.29208  22820850.260    93447586.77447
  24058596.900   126429167.34008  24058595.000    98516328.19446
  23193771.720   121884100.28009  23193768.720    94974614.70347
 15 02 23 00 28  0.0000000  0  7G16G18G21G22G27G29G31
  21563176.200   113315264.60609  21563172.420    88297599.90848
  22289734.540   117133416.24909  22289731.200    91272816.30047
  21401670.780   112466806.48309  21401666.360    87636544.65548
  23538153.940   123693901.29708  23538149.560    96384845.14246
  22808785.960   119860999.39908  22808785.300    93398182.73647
  24072346.240   126501418.50208  24072344.420    98572627.81346
  23211227.860   121975832.88608  23211224.880    95046094.60647
 15 02 23 00 28 30.0000000  0  7G16G18G21G22G27G29G31
  21550295.580   113247576.52309  21550291.760    88244855.95348
  22279419.720   117079211.49909  22279416.380    91230578.85547
  21409921.420   112510163.70709  21409917.080    87670329.49548
  23520345.120   123600315.86508  23520340.660    96311921.54046
  22796738.420   119797689.69908  22796737.860    93348850.52647
  24086101.380   126573701.32108  24086099.520    98628952.00946
  23228710.480   122067704.84509  23228707.560    95117683.09147
 15 02 23 00 29  0.0000000  0  7G16G18G21G22G27G29G31
  21537472.020   113180188.15509  21537468.180    88192345.53948
  22269170.280   117025350.33609  22269166.880    91188609.13447
  21418227.340   112553811.48509  21418223.080    87704340.74948
  23502547.720   123506790.76108  23502543.400    96239044.96246
  22784707.800   119734468.71809  22784707.160    93299587.45247
  24099861.820   126646012.74008  24099859.500    98685298.59245
  23246218.400   122159709.67209  23246215.480    95189375.12147
 15 02 23 00 29 30.0000000  0  7G16G18G21G22G27G29G31
  21524706.600   113113105.45209  21524702.780    88140073.29948
  22258987.280   116971838.18109  22258983.780    91146911.37847
  21426588.760   112597750.86009  21426584.420    87738579.21448
  23484762.880   123413331.33808  23484758.480    96166219.48246
  22772694.720   119671339.64109  22772694.000    93250395.98347
  24113628.140   126718356.10408  24113626.180    98741669.97946
  23263751.680   122251847.46809  23263748.680    95261170.75447
 15 02 23 00 30  0.0000000  0  7G16G18G21G22G27G29G31
  21511998.960   113046326.19009  21511995.100    88088037.50848
  22248870.380   116918673.52609  22248866.820    91105484.38247
  21435004.560   112641975.80709  21435000.220    87773040.21648
  23466990.320   123319936.48008  23466985.980    96093444.38746
  22760698.380   119608298.55409  22760697.740    93201273.07547
  24127399.780   126790727.30408  24127397.880    98798063.08946
  23281308.860   122344111.20508  23281305.840    95333064.53747
 15 02 23 00 30 30.0000000  0  7G16G18G21G22G27G29G31
  21499349.080   112979850.38509  21499345.160    88036238.18848
  22238819.520   116865855.78209  22238815.800    91064327.71447
  21443473.840   112686482.00809  21443469.540    87807720.36848
  23449230.140   123226606.63708  23449225.820    96020719.92146
  22748718.280   119545342.87208  22748717.700    93152216.73848
  24141176.500   126863124.00208  24141174.540    98854476.09046
  23298889.000   122436495.37509  23298885.920    95405052.15347
 15 02 23 00 31  0.0000000  0  7G16G18G21G22G27G29G31
  21486758.420   112913686.11009  21486754.500    87984681.61848
  22228836.180   116813392.77109  22228832.380    91023447.46947
  21451997.440   112731274.00709  21451993.200    87842623.22348
  23431483.920   123133350.10508  23431479.680    95948052.56946
  22736755.600   119482478.66409  22736754.920    93103231.67647
  24154959.260   126935551.77308  24154957.820    98910913.26146
  23316492.700   122529003.22508  23316489.640    95477136.13847
 15 02 23 00 31 30.0000000  0  7G16G18G21G22G27G29G31
  21474226.860   112847832.30409  21474222.880    87933366.96848
  22218920.120   116761283.55909  22218916.320    90982842.91047
  21460574.500   112776346.69309  21460570.280    87877744.79848
  23413751.520   123040166.29808  23413747.360    95875441.91446
  22724809.700   119419702.64308  22724808.980    93054315.30047
  24168747.340   127008007.66308  24168745.860    98967372.38245
  23334118.840   122621628.58009  23334115.700    95549311.67247
 15 02 23 00 32  0.0000000  0  7G16G18G21G22G27G29G31
  21461755.360   112782294.09009  21461751.400    87882298.23848
  22209072.200   116709532.57109  22209068.480    90942517.49847
  21469205.080   112821700.76309  21469200.860    87913085.64048
  23396034.000   122947060.65308  23396029.820    95802892.14946
  22712881.080   119357017.60109  22712880.500    93005469.85147
  24182541.140   127080494.44808  24182539.060    99023855.63246
  23351767.120   122714370.40509  23351763.980    95621577.98847
 15 02 23 00 32 30.0000000  0  7G16G18G21G22G27G29G31
  21449343.640   112717069.95909  21449339.700    87831474.25648
  22199292.320   116658139.07809  22199288.680    90902470.62447
  21477888.180   112867330.94809  21477884.020    87948641.62048
  23378331.240   122854032.35808  23378327.040    95730402.64046
  22700969.160   119294419.93909  22700968.620    92956692.47147
  24196340.340   127153008.61108  24196337.980    99080360.13646
  23369436.380   122807222.57009  23369433.180    95693930.25946
 15 02 23 00 33  0.0000000  0  7G16G18G21G22G27G29G31
  21436993.420   112652169.00909  21436989.500    87780902.09448
  22189582.060   116607111.67209  22189578.520    90862709.03047
  21486624.740   112913242.17209  21486620.600    87984416.60048
  23360645.080   122761090.91008  23360640.940    95657980.79246
  22689075.160   119231916.52109  22689074.580    92907988.53148
  24210145.740   127225556.72208  24210142.480    99136891.11945
  23387127.300   122900189.02108  23387124.140    95766371.60147
 15 02 23 00 33 30.0000000  0  7G16G18G21G22G27G29G31
  21424703.740   112587586.18409  21424699.820    87730577.82348
  22179940.340   116556444.81109  22179936.980    90823228.36547
  21495413.100   112959425.87309  21495409.100    88020403.89948
  23342974.480   122668231.24108  23342970.280    95585622.70346
  22677197.740   119169500.06309  22677197.100    92859352.32847
  24223956.220   127298131.61308  24223952.920    99193442.95146
  23404837.900   122993259.34408  23404834.800    95838893.86246
 15 02 23 00 34  0.0000000  0  7G16G18G21G22G27G29G31
  21412476.040   112523329.30009  21412472.180    87680507.54248
  22170368.840   116506146.46009  22170365.500    90784034.88047
  21504253.900   113005885.35709  21504250.040    88056606.09948
  23325321.080   122575462.19208  23325316.820    95513335.21647
  22665337.920   119107176.23609  22665337.160    92810788.34647
  24237772.700   127370739.33708  24237770.260    99250020.33146
  23422568.800   123086436.13908  23422565.720    95911499.10246
 15 02 23 00 34 30.0000000  0  7G16G18G21G22G27G29G31
  21400310.060   112459397.09009  21400306.320    87630690.24648
  22160867.160   116456214.97909  22160863.820    90745127.25447
  21513146.140   113052615.09009  21513142.440    88093018.87648
  23307684.660   122482782.33508  23307680.400    95441117.22747
  22653495.000   119044941.34408  22653494.220    92762293.64048
  24251594.840   127443375.72708  24251592.600    99306620.14545
  23440318.740   123179712.76308  23440315.720    95984182.11247
 15 02 23 00 35  0.0000000  0  7G16G18G21G22G27G29G31
  21388206.460   112395792.55309  21388202.720    87581128.27348
  22151435.820   116406653.11509  22151432.460    90706507.63547
  21522089.680   113099614.05409  21522086.020    88129641.44048
  23290065.980   122390195.46208  23290061.700    95368971.68847
  22641669.180   118982796.45108  22641668.440    92713869.06848
  24265422.580   127516042.05608  24265420.840    99363243.23345
  23458087.360   123273087.21108  23458084.360    96056941.35646
 15 02 23 00 35 30.0000000  0  7G16G18G21G22G27G29G31
  21376165.540   112332517.17309  21376161.780    87531822.79648
  22142075.100   116357462.27109  22142071.700    90668177.12747
  21531084.080   113146879.88008  21531080.400    88166471.95548
  23272465.280   122297703.33508  23272461.020    95296899.99147
  22629860.340   118920740.74909  22629859.640    92665514.00448
  24279256.060   127588737.58108  24279254.800    99419889.07646
  23475873.900   123366555.43709  23475870.800    96129773.67947
 15 02 23 00 36  0.0000000  0  7G16G18G21G22G27G29G31
  21364188.100   112269575.23209  21364184.340    87482777.13048
  22132785.760   116308646.32609  22132782.260    90630138.75147
  21540129.400   113194413.28409  21540125.660    88203510.97548
  23254883.540   122205310.91508  23254879.200    95224905.94447
  22618068.900   118858776.55009  22618068.200    92617230.23347
  24293095.480   127661464.26308  24293094.120    99476559.22745
  23493678.220   123460116.76909  23493675.040    96202678.54746
 15 02 23 00 36 30.0000000  0  7G16G18G21G22G27G29G31
  21352274.400   112206968.26109  21352270.620    87433992.48648
  22123568.000   116260206.86709  22123564.460    90592393.72647
  21549225.060   113242211.32109  21549221.360    88240756.19448
  23237321.080   122113020.04008  23237316.760    95152991.04746
  22606294.740   118796903.11609  22606294.060    92569017.18447
  24306940.760   127734221.98208  24306939.320    99533253.51246
  23511499.520   123553767.54408  23511496.300    96275653.11847
 15 02 23 00 37  0.0000000  0  7G16G18G21G22G27G29G31
  21340424.320   112144695.52109  21340420.480    87385468.27248
  22114421.700   116212142.93009  22114418.240    90554941.32247
  21558370.100   113290268.81208  21558366.340    88278203.58248
  23219777.800   122020830.34608  23219773.560    95081154.99747
  22594537.320   118735117.42509  22594536.640    92520872.50647
  24320791.520   127807007.02408  24320790.080    99589969.08446
  23529336.660   123647501.73009  23529333.440    96348692.65747
 15 02 23 00 37 30.0000000  0  7G16G18G21G22G27G29G31
  21328638.940   112082763.11709  21328635.160    87337209.26948
  22105347.940   116164460.30509  22105344.640    90517786.04647
  21567565.060   113338588.87108  21567561.320    88315855.58848
  23202255.020   121928748.65408  23202250.860    95009403.09247
  22582797.400   118673423.67909  22582796.680    92472799.46048
  24334648.280   127879823.87008  24334646.540    99646709.48145
  23547189.780   123741320.18509  23547186.640    96421797.89647
 15 02 23 00 38  0.0000000  0  7G16G18G21G22G27G29G31
  21316918.520   112021172.17309  21316914.780    87289216.33848
  22096346.880   116117159.73809  22096343.640    90480928.45847
  21576809.340   113387167.95809  21576805.620    88353709.41348
  23184753.140   121836776.52608  23184749.020    94937736.55647
  22571074.740   118611820.65109  22571074.020    92424797.12547
  24348511.000   127952671.43108  24348509.160    99703473.79246
  23565058.180   123835219.04609  23565055.200    96494965.74347
 15 02 23 00 38 30.0000000  0  7G16G18G21G22G27G29G31
  21305263.640   111959925.63909  21305259.880    87241491.76948
  22087419.160   116070244.20309  22087415.800    90444370.91047
  21586102.820   113436005.26309  21586099.040    88391764.45348
  23167272.820   121744917.40008  23167268.660    94866158.08446
  22559369.540   118550309.42809  22559368.860    92376866.30648
  24362379.640   128025550.41208  24362377.680    99760262.61545
  23582941.420   123929196.07709  23582938.600    96568194.52347
 15 02 23 00 39  0.0000000  0  7G16G18G21G22G27G29G31
  21293674.900   111899027.00309  21293671.180    87194038.29648
  22078565.300   116023716.54209  22078561.820    90408115.61047
  21595445.320   113485100.16909  21595441.500    88430020.23048
  23149814.780   121653175.13808  23149810.680    94794670.67147
  22547681.980   118488891.10109  22547681.400    92329007.90648
  24376254.260   128098461.99808  24376252.060    99817076.82646
  23600839.160   124023249.40708  23600836.580    96641482.75647
 15 02 23 00 39 30.0000000  0  7G16G18G21G22G27G29G31
  21282152.560   111838477.14209  21282148.860    87146856.59448
  22069785.360   115977577.11509  22069781.720    90372162.83547
  21604836.200   113534449.48709  21604832.340    88468474.23848
  23132379.260   121561550.73508  23132375.020    94723275.10647
  22536011.920   118427564.55109  22536011.420    92281221.01048
  24390134.760   128171405.18608  24390132.600    99873915.66746
  23618750.580   124117374.88008  23618748.280    96714827.18447
 15 02 23 00 40  0.0000000  0  7G16G18G21G22G27G29G31
  21270697.620   111778281.31509  21270693.880    87099950.75448
  22061080.260   115931831.33009  22061076.540    90336516.77847
  21614275.780   113584054.43909  21614271.840    88507127.44548
  23114967.320   121470050.42308  23114963.100    94651976.20747
  22524359.920   118366332.88009  22524359.340    92233508.01048
  24404021.480   128244382.96907  24404020.180    99930781.43545
  23636675.700   124211572.47108  23636673.620    96788227.81847
 15 02 23 00 40 30.0000000  0  7G16G18G21G22G27G29G31
  21259308.980   111718433.81809  21259305.240    87053316.34948
  22052448.800   115886472.90409  22052445.100    90301172.56347
  21623762.220   113633905.14309  21623758.080    88545972.15448
  23097577.960   121378668.96108  23097573.840    94580769.94247
  22512724.500   118305188.19409  22512723.860    92185862.81648
  24417913.660   128317387.55408  24417912.700    99987668.09046
  23654612.480   124305831.27508  23654610.560    96861676.13547
 15 02 23 00 41  0.0000000  0  7G16G18G21G22G27G29G31
  21247987.300   111658937.95609  21247983.540    87006955.93448
  22043891.580   115841504.92909  22043887.960    90266132.59947
  21633295.360   113684001.05909  21633291.020    88585007.93548
  23080211.880   121287409.86308  23080207.880    94509659.02047
  22501105.880   118244131.68909  22501105.140    92138286.34548
  24431811.520   128390419.98208  24431810.320   100044576.47346
  23672560.620   124400149.21108  23672558.740    96935170.52446
 15 02 23 00 41 30.0000000  0  7G16G18G21G22G27G29G31
  21236733.760   111599800.17309  21236730.040    86960874.55648
  22035409.840   115796933.63709  22035406.340    90231401.73247
  21642875.580   113734344.83009  21642871.140    88624236.83548
  23062870.400   121196280.13808  23062866.460    94438648.88647
  22489504.880   118183167.91509  22489504.040    92090782.14148
  24445715.580   128463484.76008  24445714.380   100101510.04846
  23690520.420   124494528.01608  23690518.460    97008712.35046
 15 02 23 00 42  0.0000000  0  7G16G18G21G22G27G29G31
  21225548.800   111541022.83809  21225545.160    86915074.03748
  22027004.080   115752761.25109  22027000.620    90196981.70747
  21652502.600   113784934.71009  21652498.120    88663657.52248
  23045554.140   121105282.93508  23045550.140    94367742.05447
  22477921.600   118122297.27809  22477920.660    92043350.49048
  24459625.940   128536582.23308  24459624.340   100158469.07745
  23708491.380   124588965.11608  23708489.260    97082299.60247
 15 02 23 00 42 30.0000000  0  7G16G18G21G22G27G29G31
  21214432.980   111482608.85209  21214429.360    86869556.65248
  22018674.640   115708989.92709  22018671.160    90162874.19947
  21662176.120   113835769.39209  21662171.640    88703268.95548
  23028263.720   121014421.39309  23028259.660    94296940.89047
  22466356.160   118061520.35009  22466355.100    91995991.82448
  24473542.380   128609712.85608  24473540.000   100215453.99946
  23726472.940   124683457.85808  23726470.640    97155930.20046
 15 02 23 00 43  0.0000000  0  7G16G18G21G22G27G29G31
  21203386.860   111424561.04909  21203383.220    86824324.59648
  22010421.940   115665621.83209  22010418.480    90129080.89447
  21671895.960   113886847.69109  21671891.540    88743070.22148
  23010999.880   120923698.78209  23010995.600    94226247.99747
  22454808.600   118000837.91408  22454807.620    91948706.82848
  24487465.060   128682877.55708  24487462.480   100272465.44146
  23744464.700   124778003.97808  23744462.220    97229602.39947
 15 02 23 00 43 30.0000000  0  7G16G18G21G22G27G29G31
  21192410.040   111366877.28709  21192406.380    86779376.21448
  22002245.520   115622654.58409  22002242.160    90095599.94847
  21681660.980   113938163.43009  21681656.640    88783056.51148
  22993762.220   120833113.40009  22993757.580    94155662.04447
  22443278.160   117940245.48209  22443277.220    91901492.02148
  24501393.340   128756071.66108  24501390.840   100329499.79045
  23762465.120   124872595.56808  23762462.520    97303310.02046
 15 02 23 00 44  0.0000000  0  7G16G18G21G22G27G29G31
  21181503.820   111309564.70109  21181500.180    86734717.06048
  21994146.800   115580095.61509  21994143.560    90062437.12047
  21691471.860   113989720.37809  21691467.540    88823230.75248
  22976552.220   120742673.33509  22976547.300    94085189.29247
  22431766.000   117879748.86209  22431765.100    91854351.78547
  24515328.160   128829300.91408  24515325.780   100386561.50545
  23780474.680   124967235.72508  23780472.040    97377055.48046
 15 02 23 00 44 30.0000000  0  7G16G18G21G22G27G29G31
  21170667.780   111252620.77109  21170664.160    86690345.16548
  21986125.120   115537941.43409  21986121.920    90029589.72047
  21701327.360   114041511.63509  21701323.100    88863587.58248
  22959369.320   120652376.19809  22959364.280    94014827.93547
  22420271.120   117819343.11708  22420270.240    91807282.37048
  24529268.980   128902560.31808  24529266.520   100443646.75645
  23798491.940   125061916.61308  23798489.360    97450832.65746
 15 02 23 00 45  0.0000000  0  7G16G18G21G22G27G29G31
  21159902.880   111196050.78209  21159899.300    86646264.66248
  21978181.420   115496197.07209  21978178.260    89997061.65647
  21711227.660   114093538.25409  21711223.420    88904127.80748
  22942214.680   120562228.01609  22942209.580    93944582.65847
  22408794.140   117759031.42209  22408793.260    91760286.31348
  24543216.200   128975853.22008  24543214.060   100500758.10446
  23816516.840   125156638.08308  23816514.400    97524641.49046
 15 02 23 00 45 30.0000000  0  7G16G18G21G22G27G29G31
  21149209.460   111139856.32809  21149205.900    86602476.77448
  21970315.940   115454863.66109  21970312.720    89964853.82647
  21721172.440   114145798.46309  21721168.220    88944850.04148
  22925088.680   120472230.73908  22925083.580    93874454.96247
  22397335.000   117698813.55309  22397334.120    91713363.29248
  24557169.600   129049178.84708  24557167.620   100557894.94146
  23834548.800   125251396.69408  23834546.480    97598479.21746
 15 02 23 00 46  0.0000000  0  6G16G18G21G22G27G31
  21138593.560   111084069.26609  21138589.980    86559006.34048
  21962534.680   115413972.78809  21962531.420    89932990.81647
  21731166.860   114198319.51009  21731162.660    88985775.53248
  22907997.640   120382417.14009  22907992.460    93804470.37747
  22385899.380   117638719.25609  22385898.560    91666536.58448
  23852592.940   125346219.37908  23852590.660    97672366.89746
 15 02 23 00 46 30.0000000  0  6G16G18G21G22G27G31
  21128044.340   111028632.53809  21128040.700    86515808.89248
  21954826.560   115373466.37009  21954823.280    89901427.39047
  21741199.440   114251040.84509  21741195.260    89026857.08848
  22890930.660   120292730.11509  22890925.500    93734584.44747
  22374476.000   117578689.33609  22374475.300    91619760.07048
  23870637.400   125441043.88008  23870635.220    97746255.96646
 15 02 23 00 47  0.0000000  0  7G16G18G19G21G22G27G31
  21117567.540   110973576.27509  21117563.800    86472907.91148
  21947197.240   115333374.25709  21947194.020    89870186.80047
  24544836.360   128983983.85808                                
  21751275.080   114303988.37009  21751270.880    89068114.90848
  22873893.580   120203200.17008  22873888.460    93664820.87847
  22363070.260   117518751.89409  22363069.560    91573055.56948
  23888687.040   125535895.21208  23888684.980    97820165.94846
 15 02 23 00 47 30.0000000  0  7G16G18G19G21G22G27G31
  21107169.020   110918931.56609  21107165.240    86430327.62248
  21939652.680   115293727.37909  21939649.360    89839293.12547
  24530018.140   128906126.16406  24530016.660   100446310.54746
  21761398.900   114357189.22509  21761394.680    89109570.11548
  22856892.500   120113859.40709  22856887.460    93595204.75047
  22351687.700   117458936.21609  22351686.980    91526445.97148
  23906746.820   125630799.39808  23906744.820    97894117.13346
 15 02 23 00 48  0.0000000  0  7G16G18G19G21G22G27G31
  21096836.260   110864632.40109  21096832.480    86388016.59548
  21932180.240   115254459.15209  21932176.800    89808694.52447
  24515204.960   128828281.89708  24515203.200   100385652.76145
  21771557.640   114410573.42509  21771553.300    89151168.18948
  22839914.900   120024642.19708  22839910.020    93525684.88947
  22340315.340   117399174.25009  22340314.660    91479878.20748
  23924803.180   125725685.31408  23924801.140    97968054.04046
 15 02 23 00 48 30.0000000  0  7G16G18G19G21G22G27G31
  21086576.180   110810715.03809  21086572.400    86346003.06848
  21924786.700   115215605.71409  21924783.220    89778419.12947
  24500401.180   128750485.33507  24500397.700   100325031.95944
  21781757.520   114464174.13809  21781753.240    89192934.97848
  22822967.980   119935586.02009  22822963.260    93456290.51547
  22328959.800   117339500.67409  22328959.180    91433379.35148
  23942862.100   125820584.63108  23942860.000    98042001.40246
 15 02 23 00 49  0.0000000  0  7G16G18G19G21G22G27G31
  21076394.860   110757211.63809  21076391.040    86304312.11348
  21917478.080   115177198.34709  21917474.600    89748491.31547
  24485611.580   128672766.27408  24485608.580   100264471.80346
  21792003.760   114518018.95509  21791999.600    89234891.97448
  22806057.840   119846722.72409  22806053.200    93387046.43147
  22317626.800   117279945.52709  22317626.160    91386972.77748
  23960928.600   125915524.08808  23960926.440    98115980.02046
 15 02 23 00 49 30.0000000  0  7G16G18G19G21G22G27G31
  21066287.000   110704094.20209  21066283.140    86262921.91148
  21910248.900   115139208.43409  21910245.400    89718888.81647
  24470831.400   128595094.70107  24470828.420   100203948.52045
  21802290.360   114572075.84709  21802286.340    89277014.22448
  22789179.320   119758025.36609  22789174.700    93317931.64147
  22306310.660   117220478.78709  22306309.960    91340635.05048
  23978996.540   126010471.02808  23978994.300    98189964.47146
 15 02 23 00 50  0.0000000  0  7G16G18G19G21G22G27G31
  21056255.600   110651378.56809  21056251.660    86221844.80448
  21903101.980   115101650.99209  21903098.460    89689623.29047
  24456062.440   128517483.91208  24456058.700   100143472.62645
  21812619.640   114626356.99509  21812615.700    89319311.23448
  22772335.560   119669510.30009  22772330.760    93248958.91247
  22295013.940   117161114.18009  22295013.260    91294376.95448
  23997067.940   126105436.06208  23997065.660    98263963.03846
 15 02 23 00 50 30.0000000  0  7G16G18G19G21G22G27G31
  21046298.320   110599052.37309  21046294.300    86181071.13748
  21896034.980   115064513.80409  21896031.440    89660685.22547
  24441302.860   128439920.05908  24441299.080   100083033.25146
  21822988.320   114680845.18009  21822984.480    89361769.54548
  22755524.100   119581165.30009  22755519.140    93180118.67547
  22283734.020   117101837.74509  22283733.360    91248187.51948
  24015139.420   126200401.52908  24015137.180    98337961.89546
 15 02 23 00 51  0.0000000  0  7G16G18G19G21G22G27G31
  21036419.120   110547136.44009  21036415.000    86140617.17048
  21889051.760   115027816.95109  21889048.200    89632090.29447
  24426555.220   128362421.12908  24426551.860   100022644.64945
  21833399.980   114735558.61309  21833396.140    89404403.39848
  22738749.160   119493012.26209  22738744.000    93111428.03447
  22272474.420   117042668.23509  22272473.800    91202081.43548
  24033214.160   126295383.47509  24033211.800    98411973.62346
 15 02 23 00 51 30.0000000  0  7G16G18G19G21G22G27G31
  21026613.840   110495609.31209  21026609.680    86100466.16948
  21882148.220   114991538.48209  21882144.580    89603821.37447
  24411816.000   128284964.00308  24411811.660    99962288.32645
  21843849.640   114790472.11009  21843845.820    89447193.13448
  22722006.840   119405030.52709  22722001.500    93042870.87147
  22261230.720   116983582.41009  22261230.160    91156040.54948
  24051287.120   126390355.86108  24051284.760    98485977.91746
 15 02 23 00 52  0.0000000  0  7G16G18G19G21G22G27G31
  21016886.820   110444493.62909  21016882.680    86060635.76448
  21875328.400   114955700.25409  21875324.720    89575895.48747
  24397088.280   128207568.58507  24397084.280    99901980.32846
  21854340.660   114845603.17309  21854336.900    89490152.39648
  22705301.380   119317242.53209  22705295.900    92974464.67647
  22250006.880   116924600.72009  22250006.340    91110080.80148
  24069361.500   126485336.11308  24069359.260    98559988.26446
