     2.11           OBSERVATION DATA    G                   RINEX VERSION / TYPE
SPIDER V4,0,0,3554                      2015 03 15 00:42    PGM / RUN BY / DATE 
CKHR                                                        MARKER NAME         
CKHR                                                        MARKER NUMBER       
                                                            OBSERVER / AGENCY   
496547              LEICA GRX1200+GNSS  8.10/4.007          REC # / TYPE / VERS 
10301042            LEIAR25         NONE                    ANT # / TYPE        
  5141838.0877   498328.5776  3730203.3049                  APPROX POSITION XYZ 
        0.0720        0.0000        0.0000                  ANTENNA: DELTA H/E/N
     1     1                                                WAVELENGTH FACT L1/2
     4    C1    L1    P2    L2                              # / TYPES OF OBSERV 
    30.000                                                  INTERVAL            
  2015    02    23    00    00    0.0000000     GPS         TIME OF FIRST OBS   
  2015    02    23    00    45   30.0000000     GPS         TIME OF LAST OBS    
    16                                                      LEAP SECONDS        
     9                                                      # OF SATELLITES     
   G16    92    92    92    92                              PRN / # OF OBS      
   G18    92    92    92    92                              PRN / # OF OBS      
   G19     1     1     1     1                              PRN / # OF OBS      
   G21    92    92    92    92                              PRN / # OF OBS      
   G22    85    85    85    85                              PRN / # OF OBS      
   G25    30    30    30    30                              PRN / # OF OBS      
   G27    92    92    92    92                              PRN / # OF OBS      
   G29    90    90    90    90                              PRN / # OF OBS      
   G31    92    92    92    92                              PRN / # OF OBS      
BIT 2 OF LLI FLAGS DATA COLLECTED UNDER A/S CONDITION       COMMENT             
SNR is mapped to RINEX snr flag value [2-9]                 COMMENT             
Lx:     = 25dBHz -> 1; 26-27dBHz -> 2; 28-31dBHz -> 3       COMMENT             
       32-35dBHz -> 4; 36-38dBHz -> 5; 39-41dBHz -> 6       COMMENT             
       42-44dBHz -> 7; 45-48dBHz -> 8; >=49dBHz -> 9        COMMENT             
                                                            END OF HEADER       
 15 02 23 00 00  0.0000000  0  7G16G18G21G25G27G29G31
  22265494.600   117005975.62209  22265490.840    91173478.60847
  23064910.340   121206965.62008  23064907.480    94447002.62846
  21030507.120   110516286.42808  21030502.920    86116638.99148
  24255939.060   127465981.10108  24255939.580    99324210.79945
  23458883.840   123277275.41109  23458883.520    96060216.28546
  23293792.200   122410034.15408  23293790.280    95384569.14647
  22362285.620   117514623.67209  22362282.580    91569835.48948
 15 02 23 00 00 30.0000000  0  7G16G18G21G25G27G29G31
  22250303.100   116926143.62709  22250299.320    91111271.85947
  23051335.940   121135631.70609  23051333.160    94391417.79046
  21034736.360   110538511.17408  21034732.140    86133956.97748
  24274419.720   127563097.17508  24274420.020    99399885.62445
  23445564.600   123207281.75408  23445564.180    96005675.78746
  23307591.460   122482549.40508  23307589.260    95441074.53247
  22377861.840   117596476.45109  22377858.760    91633616.85748
 15 02 23 00 01  0.0000000  0  7G16G18G21G25G27G29G31
  22235147.740   116846501.33909  22235143.940    91049212.94147
  23037798.740   121064493.41509  23037796.100    94335985.40846
  21039039.620   110561124.60309  21039035.320    86151577.82948
  24292932.980   127660383.89908  24292933.560    99475693.40946
  23432263.800   123137385.12608  23432263.240    95951210.92447
  23321397.620   122555100.71908  23321395.100    95497607.99146
  22393492.840   117678616.80209  22393489.660    91697622.30048
 15 02 23 00 01 30.0000000  0  7G16G18G21G25G27G29G31
  22220029.560   116767054.46209  22220025.740    90987306.29047
  23024299.940   120993556.74009  23024297.140    94280710.10146
  21043417.340   110584128.82109  21043412.860    86169503.20148
  24311478.820   127757843.73408  24311479.300    99551636.09745
  23418982.060   123067589.06708  23418981.540    95896824.44347
  23335211.320   122627691.31409  23335208.500    95554172.07147
  22409178.640   117761045.45109  22409175.400    91761852.39748
 15 02 23 00 02  0.0000000  0  7G16G18G21G25G27G29G31
  22204947.980   116687800.31409  22204944.160    90925549.80447
  23010839.240   120922820.10809  23010836.320    94225590.68046
  21047868.020   110607516.78708  21047863.420    86187727.59548
  24330056.500   127855470.32508  24330056.960    99627708.73445
  23405718.500   122997888.72508  23405718.040    95842512.50146
  23349031.620   122700316.16209  23349028.520    95610762.86146
  22424917.780   117843754.50409  22424914.440    91826300.97348
 15 02 23 00 02 30.0000000  0  7G16G18G21G25G27G29G31
  22189903.820   116608743.18509  22189900.020    90863946.84947
  22997417.600   120852288.84009  22997414.580    94170631.26546
  21052392.080   110631290.68009  21052387.440    86206252.70748
  24348666.120   127953264.81908  24348667.180    99703912.10746
  23392473.480   122928286.38808  23392473.080    95788276.92346
  23362858.660   122772977.53208  23362855.420    95667382.10046
  22440710.220   117926743.54609  22440706.760    91890967.72948
 15 02 23 00 03  0.0000000  0  7G16G18G21G25G27G29G31
  22174897.000   116529882.17309  22174893.280    90802496.72047
  22984034.820   120781961.92008  22984031.600    94115831.12046
  21056988.580   110655445.62408  21056984.000    86225074.74948
  24367307.100   128051222.96907  24367307.460    99780243.20045
  23379246.640   122858779.28908  23379246.280    95734115.53447
  23376691.920   122845671.98808  23376688.780    95724027.12347
  22456554.840   118010006.94209  22456551.300    91955848.29248
 15 02 23 00 03 30.0000000  0  8G16G18G21G22G25G27G29G31
  22159928.640   116451223.07109  22159924.940    90741203.91147
  22970692.140   120711845.62609  22970688.880    94061195.09246
  21061657.920   110679983.89708  21061653.460    86244195.48148
  24544698.460   128983258.74208  24544696.240   100506431.29545
  24385979.700   128149346.96708  24385980.340    99856703.32345
  23366038.640   122789370.65508  23366038.280    95680030.93047
  23390532.120   122918403.08508  23390529.380    95780700.68447
  22472451.760   118093545.34509  22472448.240    92020943.11948
 15 02 23 00 04  0.0000000  0  8G16G18G21G22G25G27G29G31
  22144998.780   116372766.33709  22144995.100    90680068.79647
  22957389.760   120641940.97709  22957386.340    94006723.95746
  21066399.640   110704902.44508  21066395.340    86263612.53148
  24526884.680   128889648.10208  24526882.780   100433488.32445
  24404682.980   128247633.86008  24404683.500    99933290.47945
  23352849.100   122720058.91508  23352848.720    95626021.86147
  23404379.000   122991169.34308  23404376.440    95837401.61947
  22488400.140   118177354.33209  22488396.640    92086248.80648
 15 02 23 00 04 30.0000000  0  8G16G18G21G22G25G27G29G31
  22130107.740   116294513.61709  22130104.100    90619092.66147
  22944127.960   120572250.02908  22944124.440    93952419.33946
  21071213.460   110730199.57608  21071209.240    86283324.59048
  24509056.220   128795960.02608  24509054.280   100360484.99545
  24423417.140   128346081.83707  24423417.640   100010003.14745
  23339677.880   122650843.72908  23339677.520    95572087.95547
  23418232.440   123063969.61408  23418229.860    95894129.09547
  22504399.240   118261430.45409  22504395.800    92151762.63748
 15 02 23 00 05  0.0000000  0  8G16G18G21G22G25G27G29G31
  22115256.000   116216467.49409  22115252.420    90558277.50647
  22930907.400   120502776.13209  22930904.060    93898283.86146
  21076099.040   110755873.96308  21076094.920    86303330.60848
  24491213.420   128702197.32407  24491211.520   100287423.50345
  24442181.900   128444689.97608  24442182.160   100086840.64345
  23326525.120   122581725.44308  23326524.700    95518229.54946
  23432092.440   123136804.36908  23432090.080    95950883.40247
  22520448.640   118345771.20609  22520445.280    92217482.67548
 15 02 23 00 05 30.0000000  0  8G16G18G21G22G25G27G29G31
  22100444.920   116138635.19209  22100441.460    90497628.96747
  22917729.540   120433526.49608  22917726.280    93844323.14146
  21081057.200   110781929.59108  21081053.180    86323633.69648
  24473358.000   128608367.68608  24473356.120   100214309.83945
  24460977.600   128543462.24108  24460978.300   100163805.96046
  23313391.780   122512709.22308  23313391.280    95464450.69646
  23445959.940   123209678.45208  23445957.700    96007668.36447
  22536548.920   118430379.04009  22536545.480    92283410.84148
 15 02 23 00 06  0.0000000  0  8G16G18G21G22G25G27G29G31
  22085673.540   116061011.25009  22085670.100    90437142.77747
  22904593.540   120364496.69709  22904590.440    93790533.72246
  21086086.060   110808356.87208  21086082.120    86344226.37948
  24455488.820   128514465.84308  24455486.960   100141139.90045
  24479802.980   128642389.48908  24479803.460   100240892.07745
  23300276.400   122443787.40708  23300275.980    95410745.37947
  23459833.340   123282583.87708  23459831.200    96064477.76147
  22552698.000   118515243.25709  22552694.500    92349538.78248
 15 02 23 00 06 30.0000000  0  8G16G18G21G22G25G27G29G31
  22070943.260   115983602.66509  22070939.740    90376824.39447
  22891500.860   120295693.89209  22891497.860    93736921.15546
  21091186.360   110835159.39808  21091182.480    86365111.46448
  24437607.340   128420498.77808  24437605.500   100067919.11145
  24498658.440   128741475.05408  24498658.760   100318101.52245
  23287179.800   122374964.61208  23287179.320    95357117.26047
  23473713.540   123355525.26908  23473711.540    96121315.19347
  22568896.200   118600365.61209  22568892.680    92415867.86948
 15 02 23 00 07  0.0000000  0  8G16G18G21G22G25G27G29G31
  22056253.940   115906409.27109  22056250.380    90316673.70047
  22878451.540   120227118.68709  22878448.360    93683485.94946
  21096357.480   110862333.80409  21096353.580    86386286.32348
  24419713.620   128326467.26408  24419711.600    99994648.07845
  24517543.340   128840715.80207  24517543.200   100395431.91044
  23274101.780   122306239.04708  23274101.180    95303564.91147
  23487600.320   123428500.69608  23487598.320    96178179.14847
  22585142.600   118685741.75809  22585139.060    92482394.70747
 15 02 23 00 07 30.0000000  0  8G16G18G21G22G25G27G29G31
  22041605.740   115829431.91109  22041602.060    90256691.33147
  22865445.700   120158772.06908  22865442.420    93630228.85246
  21101598.980   110889877.58309  21101594.940    86407749.00748
  24401807.760   128232372.25507  24401805.800    99921327.57045
  24536457.220   128940108.72108  24536456.740   100472880.90645
  23261041.960   122237609.11208  23261041.260    95250087.08847
  23501493.320   123501508.62808  23501491.140    96235068.41346
  22601436.400   118771367.05909  22601432.920    92549115.68847
 15 02 23 00 08  0.0000000  0  8G16G18G21G22G25G27G29G31
  22026999.900   115752677.08609  22026996.020    90196882.37947
  22852484.500   120090660.41409  22852481.240    93577154.86246
  21106911.180   110917793.01209  21106907.020    86429501.29148
  24383890.760   128138220.05207  24383889.120    99847962.53846
  24555400.360   129039656.65007  24555400.300   100550450.61945
  23248001.120   122169078.94809  23248000.340    95196687.02647
  23515393.140   123574552.83308  23515390.660    96291985.95446
  22617777.820   118857242.62109  22617774.520    92616031.68847
 15 02 23 00 08 30.0000000  0  8G16G18G21G22G25G27G29G31
  22012436.220   115676143.98509  22012432.140    90137246.19448
  22839568.040   120022784.35009  22839564.940    93524264.45346
  21112293.160   110946075.17708  21112288.900    86451539.34848
  24365962.880   128044010.69508  24365961.300    99774552.94946
  24574372.400   129139355.32208  24574372.140   100628137.87945
  23234978.760   122100645.84009  23234977.980    95143362.50847
  23529299.260   123647630.07408  23529296.540    96348929.26546
  22634165.800   118943362.63309  22634162.600    92683138.17348
 15 02 23 00 09  0.0000000  0  8G16G18G21G22G25G27G29G31
  21997914.880   115599833.84109  21997910.780    90077783.75547
  22826696.660   119955145.04709  22826693.540    93471558.50446
  21117744.520   110974722.50608  21117740.320    86473861.94648
  24348024.600   127949745.71108  24348023.060    99701099.94846
  24593372.640   129239202.54608  24593373.080   100705940.76045
  23221974.620   122032308.67108  23221973.900    95090112.81747
  23543211.540   123720739.43308  23543209.220    96405897.56647
  22650599.620   119029723.51609  22650596.500    92750432.34447
 15 02 23 00 09 30.0000000  0  8G16G18G21G22G25G27G29G31
  21983436.380   115523749.41409  21983432.500    90018497.20148
  22813870.940   119887745.86409  22813867.900    93419039.69846
  21123265.140   111003733.96508  21123261.040    86496468.27148
  24330076.360   127855428.02508  24330074.780    99627605.91545
  24612401.220   129339197.29708  24612401.360   100783858.78045
  23208988.840   121964068.18108  23208988.160    95036938.42947
  23557130.020   123793881.19708  23557128.120    96462891.08747
  22667078.880   119116322.92209  22667075.760    92817912.37647
 15 02 23 00 10  0.0000000  0  8G16G18G21G22G25G27G29G31
  21969002.020   115447896.77709  21968998.320    89959391.26648
  22801092.100   119820592.66709  22801088.940    93366712.58746
  21128855.660   111033111.99909  21128851.460    86519360.25448
  24312119.240   127761063.91508  24312117.180    99554075.67645
  24631458.220   129439342.25908  24631459.000   100861893.69445
  23196022.120   121895928.10409  23196021.480    94983842.30247
  23571055.440   123867059.49008  23571053.540    96519913.11346
  22683603.780   119203161.77109  22683600.520    92885578.99947
 15 02 23 00 10 30.0000000  0  8G16G18G21G22G25G27G29G31
  21954610.920   115372271.21209  21954607.280    89900462.25448
  22788359.320   119753681.75909  22788356.140    93314574.21446
  21134514.340   111062848.13509  21134510.040    86542531.26348
  24294152.680   127666649.31508  24294150.220    99480506.07045
  24650542.420   129539629.06408  24650543.240   100940039.15744
  23183073.300   121827881.71609  23183072.600    94930819.15147
  23584986.440   123940267.06808  23584984.300    96576957.96946
  22700172.380   119290230.34109  22700169.080    92953424.61247
 15 02 23 00 11  0.0000000  0  8G16G18G21G22G25G27G29G31
  21940264.980   115296882.71709  21940261.300    89841717.97948
  22775674.580   119687023.29208  22775671.420    93262632.58947
  21140242.320   111092948.53909  21140237.900    86565986.13648
  24276178.480   127572194.51708  24276175.560    99406905.15045
  24669654.700   129640064.17908  24669655.520   101018300.26145
  23170143.820   121759936.74808  23170143.020    94877875.05347
  23598924.340   124013511.42908  23598922.200    96634031.44646
  22716785.640   119377533.34309  22716782.360    93021452.91347
 15 02 23 00 11 30.0000000  0  8G16G18G21G22G25G27G29G31
  21925963.180   115221726.35909  21925959.540    89783154.58648
  22763036.940   119620612.50809  22763033.860    93210883.93846
  21146037.980   111123404.84608  21146033.540    86589718.32748
  24258195.700   127477694.74808  24258192.720    99333269.21045
  24688793.460   129740638.87907  24688794.680   101096670.01644
  23157232.300   121692086.04208  23157231.440    94825004.40447
  23612868.040   124086785.87308  23612865.980    96691128.39347
  22733441.540   119465060.62309  22733438.360    93089655.95747
 15 02 23 00 12  0.0000000  0  8G16G18G21G22G25G27G29G31
  21911706.620   115146807.91209  21911703.040    89724776.58848
  22750447.700   119554455.80209  22750444.860    93159333.28546
  21151901.600   111154218.50308  21151897.140    86613728.98148
  24240205.460   127383155.98708  24240202.480    99259602.85045
  24707959.240   129841355.35208  24707960.100   101175150.38845
  23144339.280   121624333.08008  23144338.420    94772209.95847
  23626818.260   124160093.58109  23626816.080    96748251.27847
  22750140.320   119552813.13109  22750137.280    93158034.52147
 15 02 23 00 12 30.0000000  0  8G16G18G21G22G25G27G29G31
  21897495.600   115072128.53709  21897492.080    89666584.86948
  22737907.140   119488554.70909  22737904.340    93107981.80946
  21157832.820   111185387.56608  21157828.400    86638016.56748
  24222207.980   127288580.10308  24222204.960    99185907.57545
  24727151.560   129942211.56108  24727152.640   101253739.47245
  23131464.820   121556677.33109  23131463.920    94719491.19447
  23640774.540   124233433.34208  23640772.260    96805399.12746
  22766881.320   119640787.18509  22766878.320    93226585.70447
 15 02 23 00 13  0.0000000  0  8G16G18G21G22G25G27G29G31
  21883331.120   114997693.51309  21883327.600    89608583.55948
  22725416.280   119422914.45009  22725413.400    93056833.58746
  21163831.740   111216912.72408  21163827.420    86662581.62148
  24204204.560   127193972.60908  24204201.460    99112187.64845
  24746370.660   130043208.66607  24746371.480   101332438.45745
  23118609.260   121489121.38308  23118608.480    94666850.22047
  23654737.160   124306808.15408  23654734.860    96862574.28746
  22783664.340   119728982.37209  22783661.400    93295309.19947
 15 02 23 00 13 30.0000000  0  8G16G18G21G22G25G27G29G31
  21869212.860   114923501.33809  21869209.260    89550771.48048
  22712974.900   119357534.19209  22712971.860    93005887.94046
  21169897.640   111248789.74308  21169893.420    86687420.85648
  24186194.900   127099332.12308  24186191.600    99038442.01245
  24765615.600   130144341.72407  24765616.420   101411243.36045
  23105772.040   121421661.78809  23105771.380    94614284.34147
  23668705.540   124380214.04708  23668703.440    96919773.63346
  22800488.140   119817392.04009  22800485.260    93364199.82147
 15 02 23 00 14  0.0000000  0  8G16G18G21G22G25G27G29G31
  21855141.700   114849556.63109  21855137.960    89493152.23448
  22700583.780   119292418.39309  22700580.460    92955148.37946
  21176030.480   111281018.61208  21176026.460    86712534.26748
  24168179.960   127004663.44308  24168176.640    98964674.42646
  24784886.540   130245611.29908  24784887.580   101490154.58245
  23092953.460   121354300.47108  23092952.960    94561794.99747
  23682680.380   124453652.80808  23682678.140    96976998.64846
  22817352.720   119906015.64709  22817349.820    93433257.13747
 15 02 23 00 14 30.0000000  0  8G16G18G21G22G25G27G29G31
  21841117.360   114775857.97409  21841113.460    89435724.71348
  22688242.900   119227566.71009  22688239.460    92904614.61246
  21182229.400   111313594.65108  21182225.560    86737918.18348
  24150159.600   126909966.12208  24150156.200    98890884.50646
  24804182.840   130347012.93907  24804183.420   101569168.77144
  23080153.040   121287034.56908  23080152.680    94509380.03347
  23696661.140   124527121.59608  23696658.480    97034247.08246
  22834256.960   119994847.20209  22834253.940    93502476.50547
 15 02 23 00 15  0.0000000  0  7G16G18G21G22G27G29G31
  21827141.300   114702413.38809  21827137.360    89378495.18848
  22675953.780   119162987.16609  22675950.320    92854292.92547
  21188495.260   111346522.46108  21188491.560    86763576.22848
  24132135.300   126815247.97508  24132131.760    98817078.32646
  23067371.940   121219869.75108  23067371.540    94457043.85247
  23710648.740   124600626.11008  23710645.900    97091523.34646
  22851201.360   120083889.34309  22851198.140    93571859.98147
 15 02 23 00 15 30.0000000  0  7G16G18G21G22G27G29G31
  21813213.040   114629220.28709  21813209.160    89321461.61548
  22663715.940   119098677.12009  22663712.540    92804181.22246
  21194826.880   111379795.21508  21194823.180    86789503.04748
  24114106.520   126720507.13208  24114102.940    98743254.46445
  23054609.160   121152800.98909  23054608.760    94404782.52247
  23724641.800   124674161.20108  23724639.300    97148823.35746
  22868184.300   120173134.13409  22868180.900    93641401.34847
 15 02 23 00 16  0.0000000  0  7G16G18G21G22G27G29G31
  21799333.440   114556282.70709  21799329.620    89264627.14648
  22651530.240   119034640.91009  22651526.960    92754282.90647
  21201224.260   111413413.24808  21201220.480    86815698.92348
  24096074.080   126625747.87008  24096070.720    98669416.27745
  23041865.140   121085830.32008  23041864.700    94352597.60048
  23738641.000   124747728.43208  23738639.060    97206148.41947
  22885205.600   120262580.59409  22885202.100    93711099.87047
 15 02 23 00 16 30.0000000  0  7G16G18G21G22G27G29G31
  21785502.420   114483600.33809  21785498.660    89207991.54548
  22639396.760   118970878.98209  22639393.520    92704598.30347
  21207686.620   111447372.47508  21207682.640    86842160.65848
  24078038.180   126530970.11008  24078034.960    98595563.61446
  23029139.320   121018955.12308  23029138.780    94300487.09947
  23752646.140   124821325.21108  23752644.440    97263496.53047
  22902264.140   120352223.28309  22902260.660    93780951.28547
 15 02 23 00 17  0.0000000  0  7G16G18G21G22G27G29G31
  21771720.400   114411175.53409  21771716.760    89151556.65448
  22627315.860   118907393.67309  22627312.700    92655129.26247
  21214213.620   111481671.32709  21214209.520    86868887.03448
  24059999.440   126436176.88508  24059996.460    98521698.93846
  23016431.680   120952175.73708  23016431.060    94248451.22947
  23766657.040   124894951.78408  23766655.320    97320867.86747
  22919359.380   120442059.36309  22919355.960    93850953.38847
 15 02 23 00 17 30.0000000  0  7G16G18G21G22G27G29G31
  21757988.560   114339014.39809  21757985.020    89095327.21648
  22615288.740   118844191.27309  22615285.660    92605880.64646
  21220805.580   111516311.87709  21220801.380    86895879.67248
  24041959.020   126341374.40008  24041956.120    98447827.06046
  23003742.960   120885495.90608  23003742.300    94196492.94347
  23780674.240   124968612.17308  23780672.220    97378265.56546
  22936491.420   120532089.58709  22936488.080    93921106.78347
 15 02 23 00 18  0.0000000  0  7G16G18G21G22G27G29G31
  21744307.000   114267117.24409  21744303.420    89039303.46648
  22603315.520   118781272.00509  22603312.500    92556852.67447
  21227461.840   111551290.20809  21227457.520    86923135.51448
  24023917.000   126246563.10808  24023914.020    98373948.25446
  22991072.760   120818913.54008  22991072.000    94144610.61547
  23794697.360   125042303.79108  23794694.940    97435687.61946
  22953659.540   120622309.08709  22953656.260    93991407.67847
 15 02 23 00 18 30.0000000  0  7G16G18G21G22G27G29G31
  21730676.120   114195486.41309  21730672.420    88983487.24148
  22591396.840   118718639.11609  22591393.800    92508047.82247
  21234182.200   111586605.80109  21234177.800    86950654.15148
  24005873.800   126151746.02008  24005870.720    98300064.95846
  22978421.140   120752429.15608  22978420.400    94092804.61047
  23808726.440   125116027.07208  23808723.940    97493134.30146
  22970863.240   120712715.25309  22970860.060    94061854.00647
 15 02 23 00 19  0.0000000  0  7G16G18G21G22G27G29G31
  21717096.800   114124126.59709  21717093.000    88927882.20448
  22579533.580   118656297.17509  22579530.560    92459469.74147
  21240966.920   111622259.77709  21240962.520    86978436.47548
  23987830.540   126056928.26908  23987827.180    98226181.13446
  22965788.600   120686045.20508  22965787.980    94041076.87848
  23822761.900   125189784.29108  23822759.660    97550607.41946
  22988102.360   120803307.76909  22988099.260    94132445.55047
 15 02 23 00 19 30.0000000  0  7G16G18G21G22G27G29G31
  21703568.520   114053035.51509  21703564.720    88872486.56048
  22567725.360   118594244.21309  22567722.200    92411116.78347
  21247814.740   111658245.20909  21247810.320    87006477.06848
  23969786.720   125962107.87308  23969783.460    98152295.27046
  22953174.340   120619757.07809  22953173.780    93989423.84047
  23836802.880   125263570.84308  23836801.120    97608103.38746
  23005375.400   120894078.69309  23005372.380    94203176.09347
 15 02 23 00 20  0.0000000  0  7G16G18G21G22G27G29G31
  21690092.040   113982216.55009  21690088.240    88817302.97048
  22555972.700   118532483.51209  22555969.480    92362991.58147
  21254725.440   111694561.32709  21254721.040    87034775.33748
  23951742.880   125867288.16207  23951739.860    98078409.93746
  22940578.600   120553566.06309  22940578.000    93937846.39247
  23850849.820   125337387.57708  23850847.980    97665622.93046
  23022682.060   120985026.48009  23022679.160    94274044.46247
 15 02 23 00 20 30.0000000  0  7G16G18G21G22G27G29G31
  21676667.720   113911671.22509  21676663.900    88762332.60548
  22544275.980   118471017.03609  22544272.700    92315095.64447
  21261698.700   111731206.59208  21261694.340    87063330.09948
  23933699.840   125772471.48908  23933696.840    98004526.94445
  22928001.180   120487471.44809  22928000.660    93886344.15047
  23864902.580   125411234.25708  23864900.320    97723165.79846
  23040021.660   121076147.36009  23040018.880    94345047.73347
 15 02 23 00 21  0.0000000  0  7G16G18G21G22G27G29G31
  21663296.720   113841405.61509  21663292.800    88707580.18148
  22532636.320   118409850.95109  22532633.120    92267433.78846
  21268734.820   111768182.78708  21268730.660    87092142.71148
  23915658.440   125677664.02508  23915654.980    97930651.15345
  22915442.840   120421477.06508  22915442.360    93834919.95348
  23878961.560   125485114.24908  23878959.040    97780734.59445
  23057394.340   121167442.26709  23057391.800    94416186.58647
 15 02 23 00 21 30.0000000  0  7G16G18G21G22G27G29G31
  21649979.100   113771420.35809  21649975.100    88653046.22448
  22521054.180   118348986.47309  22521050.940    92220006.91647
  21275833.320   111805486.87308  21275829.400    87121210.82848
  23897619.340   125582867.32908  23897615.660    97856783.65746
  22902903.360   120355581.58209  22902902.840    93783572.86147
  23893026.480   125559026.23408  23893024.000    97838328.28546
  23074799.400   121258906.77909  23074796.920    94487457.60247
 15 02 23 00 22  0.0000000  0  7G16G18G21G22G27G29G31
  21636714.580   113701714.56509  21636710.600    88598730.03148
  22509529.220   118288422.30509  22509526.040    92172814.09947
  21282993.400   111843113.85708  21282989.580    87150530.56248
  23879582.040   125488080.22308  23879578.400    97782923.71846
  22890382.060   120289781.71708  22890381.540    93732300.26548
  23907096.920   125632966.48208  23907094.440    97895944.04046
  23092235.640   121350534.63909  23092233.120    94558855.91047
 15 02 23 00 22 30.0000000  0  7G16G18G21G22G27G29G31
  21623504.280   113632294.26409  21623500.400    88544636.30948
  22498062.640   118228164.40809  22498059.400    92125859.88947
  21290215.380   111881065.38709  21290211.520    87180103.18248
  23861547.700   125393309.28708  23861543.820    97709076.36246
  22877879.700   120224081.22709  22877879.160    93681105.11747
  23921173.480   125706938.97108  23921171.100    97953584.93046
  23109703.180   121442326.23009  23109700.400    94630381.78447
 15 02 23 00 23  0.0000000  0  7G16G18G21G22G27G29G31
  21610348.340   113563159.60109  21610344.540    88490765.15548
  22486654.380   118168213.16409  22486651.200    92079144.66947
  21297498.700   111919338.47509  21297494.680    87209926.36848
  23843516.580   125298555.33508  23843512.660    97635242.24146
  22865395.880   120158478.25208  22865395.240    93629985.88948
  23935255.880   125780941.78308  23935253.480    98011249.47846
  23127201.040   121534277.11208  23127198.060    94702031.79147
 15 02 23 00 23 30.0000000  0  7G16G18G21G22G27G29G31
  21597247.580   113494314.66309  21597243.760    88437119.76148
  22475305.320   118108573.61109  22475302.300    92032672.32147
  21304843.240   111957933.45709  21304839.120    87240000.38448
  23825489.420   125203822.75808  23825485.360    97561424.76646
  22852930.940   120092974.77409  22852930.260    93578944.29047
  23949344.400   125854976.95108  23949341.980    98068939.20946
  23144729.000   121626386.42009  23144725.860    94773805.24747
 15 02 23 00 24  0.0000000  0  7G16G18G21G22G27G29G31
  21584202.480   113425762.49409  21584198.640    88383702.49148
  22464016.000   118049248.30509  22464013.020    91986444.80747
  21312248.920   111996849.93809  21312244.720    87270324.90248
  23807467.020   125109115.02208  23807462.940    97487626.59746
  22840485.120   120027571.56109  22840484.340    93527980.73147
  23963438.880   125929044.94508  23963436.740    98126654.50646
  23162286.600   121718651.74709  23162283.360    94845700.26547
 15 02 23 00 24 30.0000000  0  7G16G18G21G22G27G29G31
  21571213.200   113357503.61709  21571209.360    88330513.76948
  22452786.640   117990237.79809  22452783.420    91940462.60747
  21319714.920   112036083.55209  21319710.700    87300896.56448
  23789449.400   125014432.69608  23789445.640    97413848.32546
  22828058.060   119962266.85208  22828057.200    93477093.96548
  23977539.060   126003143.76108  23977537.160    98184393.83146
  23179872.880   121811067.70709  23179869.560    94917712.67247
 15 02 23 00 25  0.0000000  0  7G16G18G21G22G27G29G31
  21558280.180   113289540.34009  21558276.340    88277555.37248
  22441617.600   117931544.26009  22441614.200    91894727.41347
  21327240.860   112075632.31009  21327236.620    87331713.76648
  23771437.240   124919778.52408  23771433.380    97340091.88346
  22815649.700   119897060.73008  22815648.860    93426284.05747
  23991645.160   126077273.52808  23991643.540    98242157.25346
  23197487.360   121903631.99608  23197484.040    94989840.66347
 15 02 23 00 25 30.0000000  0  7G16G18G21G22G27G29G31
  21545403.240   113221871.79209  21545399.480    88224826.64648
  22430508.860   117873167.51109  22430505.420    91849239.06347
  21334825.780   112115491.27309  21334821.560    87362772.70248
  23753430.200   124825152.06708  23753426.240    97266357.12146
  22803259.540   119831950.34409  22803258.720    93375548.72047
  24005756.880   126151431.09608  24005755.260    98299942.33846
  23215128.860   121996338.43608  23215125.540    95062079.40747
 15 02 23 00 26  0.0000000  0  7G16G18G21G22G27G29G31
  21532583.220   113154502.02209  21532579.420    88172330.71548
  22419461.100   117815111.34809  22419457.740    91804000.50547
  21342469.900   112155661.69509  21342465.720    87394074.32748
  23735429.360   124730558.16008  23735425.500    97192647.64846
  22790888.080   119766937.63609  22790887.220    93324889.43247
  24019874.360   126225618.37308  24019872.600    98357750.59846
  23232797.180   122089185.94309  23232793.840    95134428.05647
 15 02 23 00 26 30.0000000  0  7G16G18G21G22G27G29G31
  21519821.380   113087438.26309  21519817.620    88120073.24448
  22408475.740   117757383.35109  22408472.620    91759017.66147
  21350173.840   112196146.86409  21350169.760    87425621.20448
  23717436.160   124636004.12008  23717432.500    97118969.28646
  22778536.080   119702027.57409  22778535.300    93274310.23947
  24033998.300   126299840.25808  24033996.620    98415585.80646
  23250492.820   122182176.65109  23250489.400    95206888.30347
 15 02 23 00 27  0.0000000  0  7G16G18G21G22G27G29G31
  21507116.900   113020676.13309  21507113.240    88068050.81748
  22397551.840   117699978.50009  22397549.000    91714286.62047
  21357935.940   112236937.76308  21357932.020    87457406.31648
  23699449.900   124541486.00708  23699446.220    97045318.90846
  22766202.300   119637213.56909  22766201.580    93223805.82847
  24048127.640   126374090.25408  24048125.800    98473442.91345
  23268213.920   122275300.81409  23268210.260    95279452.55947
 15 02 23 00 27 30.0000000  0  7G16G18G21G22G27G29G31
  21494470.840   112954220.97009  21494467.300    88016267.57848
  22386690.700   117642903.07309  22386687.920    91669812.27847
  21365756.600   112278036.19409  21365752.780    87489431.05848
  23681471.580   124447009.72808  23681467.600    96971701.08546
  22753887.400   119572498.81708  22753886.800    93173378.75048
  24062263.020   126448371.14508  24062260.900    98531324.13946
  23285960.300   122368558.55308  23285956.600    95352120.89647
 15 02 23 00 28  0.0000000  0  7G16G18G21G22G27G29G31
  21481883.580   112888074.50709  21481880.100    87964724.88548
  22375892.520   117586158.35709  22375889.580    91625595.62247
  21373635.440   112319439.57009  21373631.540    87521693.43148
  23663501.620   124352576.87209  23663497.480    96898117.15646
  22741591.380   119507882.89508  22741590.860    93123028.70248
  24076404.340   126522682.62208  24076402.040    98589229.20146
  23303731.260   122461946.27108  23303727.840    95424890.51447
 15 02 23 00 28 30.0000000  0  7G16G18G21G22G27G29G31
  21469355.500   112822238.67309  21469351.960    87913424.23848
  22365157.600   117529745.79609  22365154.460    91581637.83147
  21381571.960   112361145.80509  21381567.960    87554191.79548
  23645540.640   124258190.55808  23645536.620    96824569.46846
  22729314.140   119443365.48209  22729313.540    93072755.42848
  24090551.280   126597023.77808  24090548.940    98647157.38046
  23321526.240   122555460.86508  23321523.260    95497758.97847
 15 02 23 00 29  0.0000000  0  7G16G18G21G22G27G29G31
  21456887.500   112756718.46009  21456883.820    87862369.52648
  22354487.000   117473671.12009  22354483.620    91537943.27247
  21389566.560   112403156.93609  21389562.400    87586927.73648
  23627589.540   124163856.26008  23627585.540    96751062.31946
  22717056.280   119378949.77808  22717055.640    93022561.38748
  24104704.380   126671398.21308  24104702.100    98705111.45946
  23339345.500   122649102.34409  23339342.920    95570726.30947
 15 02 23 00 29 30.0000000  0  7G16G18G21G22G27G29G31
  21444480.780   112691520.69609  21444477.020    87811566.08448
  22343881.980   117417940.69409  22343878.440    91494516.99747
  21397619.520   112445474.96709  21397615.280    87619902.83548
  23609649.480   124069580.30308  23609645.120    96677600.60746
  22704818.500   119314639.88608  22704817.840    92972449.82148
  24118864.040   126745810.12207  24118862.480    98763094.68946
  23357189.320   122742871.83109  23357186.900    95643793.39847
 15 02 23 00 30  0.0000000  0  7G16G18G21G22G27G29G31
  21432133.620   112626635.97709  21432129.820    87761006.56148
  22333340.880   117362545.89309  22333337.260    91451352.22047
  21405728.280   112488086.75409  21405724.080    87653106.81048
  23591718.920   123975354.46208  23591714.360    96604177.95146
  22692598.800   119250424.85509  22692598.100    92922412.15647
  24133028.520   126820248.07007  24133027.800    98821098.18746
  23375054.920   122836755.04709  23375052.420    95716949.10247
 15 02 23 00 30 30.0000000  0  7G16G18G21G22G27G29G31
  21419847.340   112562071.00109  21419843.540    87710696.18748
  22322864.780   117307492.89909  22322861.140    91408453.79947
  21413893.360   112530994.70709  21413889.260    87686541.57748
  23573799.080   123881185.71108  23573794.800    96530799.80146
  22680398.020   119186308.85308  22680397.260    92872451.64348
  24147199.220   126894716.39808  24147198.640    98879125.42246
  23392942.360   122930753.29308  23392939.700    95790194.45847
 15 02 23 00 31  0.0000000  0  7G16G18G21G22G27G29G31
  21407621.880   112497825.80409  21407618.240    87660635.00148
  22312453.500   117252781.52609  22312450.000    91365821.61247
  21422114.140   112574195.42108  21422110.120    87720204.48348
  23555890.160   123787074.48408  23555885.760    96457466.42746
  22668215.700   119122289.94309  22668214.860    92822566.83148
  24161375.580   126969212.53708  24161374.640    98937174.32545
  23410850.580   123024861.81608  23410847.860    95863525.73646
 15 02 23 00 31 30.0000000  0  7G16G18G21G22G27G29G31
  21395457.920   112433904.16409  21395454.380    87610825.92748
  22302107.880   117198415.87009  22302104.540    91323458.73647
  21430390.580   112617688.72009  21430386.660    87754095.35148
  23537992.980   123693025.04308  23537988.460    96384181.22846
  22656052.120   119058369.83608  22656051.260    92772758.94748
  24175557.620   127043738.48608  24175555.820    98995246.52145
  23428779.460   123119079.28908  23428776.840    95936941.89547
 15 02 23 00 32  0.0000000  0  7G16G18G21G22G27G29G31
  21383356.540   112370311.46909  21383353.000    87561273.17648
  22291828.840   117144400.59009  22291825.800    91281368.95847
  21438722.860   112661475.60908  21438719.040    87788214.99948
  23520108.620   123599043.04808  23520104.080    96310948.59346
  22643907.780   118994551.65009  22643907.100    92723030.52548
  24189745.920   127118297.08708  24189743.240    99053344.19444
  23446728.940   123213405.03708  23446726.540    96010442.41247
 15 02 23 00 32 30.0000000  0  7G16G18G21G22G27G29G31
  21371317.900   112307048.14909  21371314.280    87511977.08248
  22281616.800   117090737.03509  22281613.880    91239553.21347
  21447110.360   112705552.82308  21447106.600    87822560.87248
  23502237.360   123505129.65008  23502232.720    96237769.41046
  22631782.520   118930833.81209  22631781.980    92673380.30148
  24203939.980   127192886.93908  24203937.180    99111466.13846
  23464698.400   123307834.89808  23464696.120    96084024.06947
 15 02 23 00 33  0.0000000  0  7G16G18G21G22G27G29G31
  21359342.900   112244118.96809  21359339.280    87462941.35348
  22271472.640   117037429.54509  22271469.780    91198014.91247
  21455553.240   112749921.04009  21455549.540    87857133.50448
  23484380.240   123411290.09008  23484375.460    96164647.71547
  22619676.920   118867218.95409  22619676.400    92623810.29848
  24218140.200   127267510.09808  24218137.620    99169613.99746
  23482687.740   123402368.49808  23482685.380    96157686.56547
 15 02 23 00 33 30.0000000  0  7G16G18G21G22G27G29G31
  21347430.940   112181521.07509  21347427.380    87414163.78448
  22261395.760   116984474.85209  22261392.800    91156751.55447
  21464050.360   112794574.01709  21464046.700    87891928.03248
  23466536.660   123317521.52008  23466531.720    96091581.38246
  22607590.040   118803702.07609  22607589.540    92574316.65148
  24232345.980   127342161.60808  24232343.680    99227783.96646
  23500695.280   123496997.70308  23500692.780    96231423.56147
 15 02 23 00 34  0.0000000  0  7G16G18G21G22G27G29G31
  21335582.780   112119258.42409  21335579.280    87365647.43348
  22251386.860   116931877.16009  22251383.780    91115766.34147
  21472601.660   112839511.16009  21472597.900    87926943.98448
  23448707.460   123223828.90708  23448702.500    96018574.21046
  22595522.180   118740285.12708  22595521.600    92524900.85848
  24246557.740   127416843.60508  24246555.260    99285977.75046
  23518720.660   123591721.28608  23518718.080    96305234.10446
 15 02 23 00 34 30.0000000  0  7G16G18G21G22G27G29G31
  21323799.580   112057337.02209  21323796.060    87317396.99248
  22241446.980   116879642.16009  22241443.800    91075063.78947
  21481207.480   112884734.35609  21481203.560    87962182.84648
  23430893.800   123130218.09608  23430889.040    95945630.82346
  22583474.080   118676971.65909  22583473.400    92475565.72848
  24260775.760   127491559.23208  24260773.260    99344197.66646
  23536763.980   123686539.96708  23536761.460    96379118.75047
 15 02 23 00 35  0.0000000  0  7G16G18G21G22G27G29G31
  21312080.960   111995754.94609  21312077.360    87269410.95648
  22231575.620   116827767.80509  22231572.360    91034642.23847
  21489866.600   112930237.72409  21489862.600    87997640.01548
  23413095.540   123036688.08208  23413090.760    95872750.35446
  22571444.960   118613758.04109  22571444.140    92426308.38448
  24274999.420   127566304.69108  24274996.900    99402440.90445
  23554824.000   123781446.87208  23554821.760    96453072.11647
 15 02 23 00 35 30.0000000  0  7G16G18G21G22G27G29G31
  21300427.760   111934516.71709  21300424.080    87221692.85148
  22221773.740   116776258.62809  22221770.440    90994505.21747
  21498579.140   112976022.00509  21498575.140    88033316.07848
  23395313.580   122943243.58708  23395308.760    95799936.52647
  22559435.300   118550646.46509  22559434.340    92377130.56448
  24289229.220   127641082.37408  24289226.740    99460709.19646
  23572900.760   123876441.02108  23572898.620    96527093.47447
 15 02 23 00 36  0.0000000  0  7G16G18G21G22G27G29G31
  21288839.940   111873621.96009  21288836.120    87174242.39348
  22212041.280   116725113.95109  22212037.900    90954652.24447
  21507344.320   113022083.31809  21507340.400    88069208.01548
  23377548.080   122849885.00008  23377543.320    95727189.62447
  22547444.620   118487634.75909  22547443.640    92328030.55748
  24303464.540   127715889.62808  24303462.040    99519000.53545
  23590993.320   123971517.13809  23590991.020    96601178.71147
 15 02 23 00 36 30.0000000  0  7G16G18G21G22G27G29G31
  21277318.080   111813074.17409  21277314.220    87127062.29748
  22202378.880   116674337.36809  22202375.460    90915086.09247
  21516162.000   113068420.78109  21516158.160    88105315.11948
  23359799.600   122756616.18408  23359795.060    95654512.67846
  22535473.080   118424724.21509  22535472.200    92279009.39148
  24317705.800   127790727.90208  24317703.400    99577316.07746
  23609101.240   124066673.59108  23609098.640    96675326.53746
 15 02 23 00 37  0.0000000  0  7G16G18G21G22G27G29G31
  21265864.020   111752883.04309  21265860.240    87080160.12448
  22192788.360   116623938.49509  22192784.840    90875814.25447
  21525033.260   113115039.71409  21525029.400    88141641.56248
  23342070.080   122663447.20608  23342065.740    95581913.55046
  22523522.180   118361922.39509  22523521.420    92230072.93048
  24331954.000   127865604.38208  24331952.000    99635661.31145
  23627225.180   124161914.85308  23627222.420    96749540.43446
 15 02 23 00 37 30.0000000  0  7G16G18G21G22G27G29G31
  21254476.100   111693039.27709  21254472.340    87033528.61448
  22183267.740   116573907.73809  22183264.360    90836829.26047
  21533955.760   113161927.86809  21533951.860    88178177.77648
  23324357.900   122570369.46108  23324353.560    95509385.48847
  22511589.800   118299218.02409  22511589.180    92181212.42748
  24346207.340   127940507.75307  24346205.540    99694027.57245
  23645362.440   124257226.39808  23645359.620    96823809.10746
 15 02 23 00 38  0.0000000  0  7G16G18G21G22G27G29G31
  21243154.940   111633546.16409  21243151.200    86987170.35148
  22173817.700   116524248.15209  22173814.480    90798133.49647
  21542929.300   113209083.94009  21542925.300    88214922.77548
  23306663.800   122477386.79308  23306659.580    95436931.51447
  22499676.260   118236612.30609  22499675.720    92132428.75348
  24360466.380   128015439.20608  24360464.460    99752415.71645
  23663512.720   124352606.56908  23663509.940    96898131.25847
 15 02 23 00 38 30.0000000  0  7G16G18G21G22G27G29G31
  21231901.860   111574410.44609  21231898.060    86941090.56448
  22164439.560   116474966.58009  22164436.420    90759732.28047
  21551954.420   113256510.98709  21551950.340    88251878.91348
  23288989.180   122384506.38708  23288985.000    95364557.21247
  22487782.420   118174110.08109  22487781.900    92083725.74048
  24374731.740   128090403.22308  24374729.640    99810829.23145
  23681676.380   124448056.99108  23681673.720    96972508.14947
 15 02 23 00 39  0.0000000  0  7G16G18G21G22G27G29G31
  21220716.660   111515631.81209  21220712.840    86895289.03048
  22155133.180   116426062.20009  22155130.080    90721625.01047
  21561030.300   113304204.71109  21561026.160    88289042.85048
  23271334.080   122291728.43608  23271329.880    95292262.76947
  22475907.860   118111708.87309  22475907.320    92035101.45848
  24389002.860   128165397.11408  24389000.580    99869265.99645
  23699852.320   124543572.11708  23699849.860    97046935.45047
 15 02 23 00 39 30.0000000  0  7G16G18G21G22G27G29G31
  21209600.940   111457219.05309  21209597.220    86849772.60448
  22145900.280   116377543.44809  22145897.120    90683818.19947
  21570157.820   113352169.86909  21570153.640    88326418.30248
  23253700.200   122199061.86108  23253695.860    95220055.08747
  22464053.780   118049415.48109  22464053.200    91986561.17248
  24403280.720   128240427.85908  24403278.420    99927731.53245
  23718041.340   124639155.76208  23718039.040    97121416.14646
 15 02 23 00 40  0.0000000  0  7G16G18G21G22G27G29G31
  21198553.840   111399166.45309  21198550.200    86804536.81048
  22136739.780   116329404.72209  22136736.680    90646307.51147
  21579335.160   113400396.79309  21579330.880    88363997.72548
  23236086.600   122106501.87809  23236082.020    95147930.49546
  22452218.740   117987222.11209  22452218.160    91938098.82348
  24417564.080   128315487.32008  24417562.100    99986219.40146
  23736241.300   124734796.93808  23736239.060    97195941.66146
 15 02 23 00 40 30.0000000  0  7G16G18G21G22G27G29G31
  21187576.720   111341481.30109  21187573.100    86759587.34648
  22127653.000   116281652.92409  22127649.980    90609098.33347
  21588562.900   113448888.66309  21588558.620    88401783.60248
  23218494.820   122014056.37409  23218489.960    95075895.08647
  22440403.800   117925134.04909  22440403.180    91889718.53748
  24431853.800   128390580.84107  24431852.260   100044733.78946
  23754452.580   124830497.80208  23754450.200    97270513.69146
 15 02 23 00 41  0.0000000  0  7G16G18G21G22G27G29G31
  21176669.680   111284164.16109  21176665.980    86714924.63848
  22118640.000   116234288.46709  22118636.980    90572190.97247
  21597840.360   113497642.26209  21597836.200    88439773.41148
  23200924.980   121921726.09009  23200919.860    95003949.45747
  22428608.700   117863149.80809  22428607.880    91841419.13848
  24446149.560   128465706.57607  24446148.560   100103273.30847
  23772674.420   124926253.57408  23772671.820    97345128.50147
 15 02 23 00 41 30.0000000  0  7G16G18G21G22G27G29G31
  21165833.020   111227216.95509  21165829.240    86670550.19448
  22109701.080   116187313.20309  22109697.780    90535586.86647
  21607167.300   113546655.79409  21607163.140    88477965.77648
  23183377.500   121829513.56809  23183372.220    94932095.60347
  22416833.320   117801269.44809  22416832.320    91793200.69448
  24460451.340   128540864.65608  24460450.620   100161837.91646
  23790906.240   125022061.57508  23790903.280    97419784.01346
 15 02 23 00 42  0.0000000  0  7G16G18G21G22G27G29G31
  21155066.100   111170636.07509  21155062.280    86626461.20148
  22100835.460   116140723.43809  22100831.860    90499283.17347
  21616542.260   113595921.60409  21616538.040    88516354.71948
  23165851.780   121737416.09909  23165846.580    94860331.39546
  22405076.600   117739487.52509  22405075.620    91745058.96148
  24474758.640   128616049.20508  24474757.620   100220423.33446
  23809146.340   125117913.27308  23809143.200    97494473.57346
 15 02 23 00 42 30.0000000  0  7G16G18G21G22G27G29G31
  21144370.700   111114430.96109  21144366.820    86582665.01648
  22092044.800   116094528.03209  22092041.120    90463286.76347
  21625966.220   113645444.99309  21625962.000    88554944.37748
  23148349.840   121645443.29109  23148344.820    94788664.30847
  22393339.980   117677811.25209  22393339.040    91696999.56048
  24489072.420   128691267.36308  24489071.080   100279034.82446
  23827395.400   125213812.67008  23827392.320    97569200.28646
 15 02 23 00 43  0.0000000  0  7G16G18G21G22G27G29G31
  21133747.000   111058602.67609  21133743.080    86539162.45648
  22083329.220   116048727.45009  22083325.600    90427598.02847
  21635438.640   113695223.08809  21635434.400    88593732.50048
  23130871.960   121553596.76908  23130867.040    94717095.62147
  22381623.240   117616239.82508  22381622.380    91649021.80648
  24503392.440   128766518.13008  24503390.580   100337671.75845
  23845652.720   125309755.78608  23845649.780    97643961.05146
 15 02 23 00 43 30.0000000  0  7G16G18G21G22G27G29G31
  21123195.560   111003154.41809  21123191.620    86495956.03248
  22074689.300   116003324.76109  22074685.820    90392219.31047
  21644959.420   113745255.13209  21644955.220    88632718.50748
  23113418.800   121461880.16709  23113414.100    94645628.20647
  22369926.580   117554774.09209  22369925.840    91601126.46948
  24517718.600   128841802.30708  24517716.700   100396334.76145
  23863917.860   125405740.09708  23863915.140    97718753.93546
 15 02 23 00 44  0.0000000  0  7G16G18G21G22G27G29G31
  21112716.220   110948085.32509  21112712.320    86453045.05148
  22066124.980   115958319.49909  22066121.720    90357150.29747
  21654527.720   113795536.92809  21654523.540    88671899.11648
  23095990.520   121370293.63309  23095985.820    94574262.11747
  22358249.580   117493411.93408  22358249.060    91553311.81348
  24532050.600   128917117.50408  24532048.780   100455021.87646
  23882189.940   125501760.77208  23882187.440    97793575.15246
 15 02 23 00 44 30.0000000  0  7G16G18G21G22G27G29G31
  21102309.880   110893399.81009  21102306.020    86410432.96348
  22057636.920   115913715.28109  22057633.880    90322393.77247
  21664143.580   113846068.63109  21664139.460    88711274.47248
  23078587.900   121278841.79309  23078583.120    94503000.97647
  22346592.740   117432155.53309  22346592.400    91505579.57548
  24546388.840   128992465.79807  24546387.000   100513734.77145
  23900468.820   125597816.98208  23900466.600    97868424.06346
 15 02 23 00 45  0.0000000  0  6G16G18G21G22G27G31
  21091983.900   110839136.85809  21091980.160    86368150.15348
  22049232.560   115869550.91409  22049229.540    90287979.97347
  21673813.620   113896885.04809  21673809.500    88750871.67848
  23061218.520   121187564.38109  23061213.580    94431875.75647
  22334963.220   117371041.90109  22334962.800    91457958.57748
  23918760.800   125693942.42208  23918758.920    97943326.88946
 15 02 23 00 45 30.0000000  0  7G16G18G19G21G22G27G31
  21081722.180   110785211.78909  21081718.580    86326130.62948
  22040895.820   115825741.37109  22040892.760    90253842.69947
  24534716.400   128930813.73508  24534716.220   100465550.24446
  21683521.140   113947898.22009  21683517.000    88790622.20048
  23043866.220   121096377.15308  23043861.140    94360820.80047
  22323344.480   117309984.46109  22323343.880    91410381.37048
  23937048.840   125790047.33008  23937047.300    98018213.71446
