     2.11           OBSERVATION DATA    G                   RINEX VERSION / TYPE
SPIDER V4,0,0,3554                      2015 03 18 02:09    PGM / RUN BY / DATE 
CKTS                                                        MARKER NAME         
CKTS                                                        MARKER NUMBER       
                                                            OBSERVER / AGENCY   
496659              LEICA GRX1200+GNSS  8.10/4.007          REC # / TYPE / VERS 
10321004            LEIAR25         NONE                    ANT # / TYPE        
  5190783.6897   517202.7561  3658836.0979                  APPROX POSITION XYZ 
        0.0720        0.0000        0.0000                  ANTENNA: DELTA H/E/N
     1     1                                                WAVELENGTH FACT L1/2
     4    C1    L1    P2    L2                              # / TYPES OF OBSERV 
    30.000                                                  INTERVAL            
  2015    02    23    00    00    0.0000000     GPS         TIME OF FIRST OBS   
  2015    02    23    23    59   30.0000000     GPS         TIME OF LAST OBS    
    16                                                      LEAP SECONDS        
    30                                                      # OF SATELLITES     
   G 1   816   816   816   816                              PRN / # OF OBS      
   G 2   767   767   767   767                              PRN / # OF OBS      
   G 3   852   852   852   852                              PRN / # OF OBS      
   G 4   841   841   841   841                              PRN / # OF OBS      
   G 5   481   481   481   481                              PRN / # OF OBS      
   G 6   636   636   635   635                              PRN / # OF OBS      
   G 7   667   667   667   667                              PRN / # OF OBS      
   G 9   805   805   805   805                              PRN / # OF OBS      
   G10   649   649   649   649                              PRN / # OF OBS      
   G11   779   779   778   778                              PRN / # OF OBS      
   G12   796   796   796   796                              PRN / # OF OBS      
   G13   790   790   790   790                              PRN / # OF OBS      
   G14   774   774   774   774                              PRN / # OF OBS      
   G15   594   594   594   594                              PRN / # OF OBS      
   G16   554   554   554   554                              PRN / # OF OBS      
   G17   774   774   774   774                              PRN / # OF OBS      
   G18   721   721   720   720                              PRN / # OF OBS      
   G19   664   664   664   664                              PRN / # OF OBS      
   G20   773   773   773   773                              PRN / # OF OBS      
   G21   732   732   732   732                              PRN / # OF OBS      
   G22   656   656   656   656                              PRN / # OF OBS      
   G23   750   750   750   750                              PRN / # OF OBS      
   G24   830   830   830   830                              PRN / # OF OBS      
   G25   857   857   857   857                              PRN / # OF OBS      
   G27   814   814   814   814                              PRN / # OF OBS      
   G28   598   598   598   598                              PRN / # OF OBS      
   G29   760   760   760   760                              PRN / # OF OBS      
   G30   710   710   710   710                              PRN / # OF OBS      
   G31   691   691   691   691                              PRN / # OF OBS      
   G32   765   765   765   765                              PRN / # OF OBS      
BIT 2 OF LLI FLAGS DATA COLLECTED UNDER A/S CONDITION       COMMENT             
SNR is mapped to RINEX snr flag value [2-9]                 COMMENT             
Lx:     = 25dBHz -> 1; 26-27dBHz -> 2; 28-31dBHz -> 3       COMMENT             
       32-35dBHz -> 4; 36-38dBHz -> 5; 39-41dBHz -> 6       COMMENT             
       42-44dBHz -> 7; 45-48dBHz -> 8; >=49dBHz -> 9        COMMENT             
                                                            END OF HEADER       
 15 02 23 00 00  0.0000000  0  7G16G18G21G25G27G29G31
  22325582.060   117321743.83509  22325578.040    91419517.34947
  22997828.680   120854465.97309  22997825.660    94172329.54146
  21036986.920   110550116.25509  21036983.060    86142932.80448
  24191568.760   127127534.10708  24191569.300    99060411.92945
  23484766.320   123413282.18208  23484765.760    96166203.94446
  23313173.200   122511545.06208  23313171.380    95463527.32446
  22308894.500   117234022.26109  22308891.120    91351168.01548
 15 02 23 00 00 30.0000000  0  7G16G18G21G25G27G29G31
  22310268.820   117241272.04509  22310264.840    91356812.04847
  22984479.380   120784314.51808  22984476.280    94117666.11346
  21041516.220   110573918.29508  21041512.380    86161479.87248
  24209862.940   127223670.87108  24209863.480    99135323.64645
  23471676.520   123344495.45508  23471675.780    96112603.92646
  23326754.840   122582915.71609  23326752.580    95519140.74946
  22324202.920   117314469.21609  22324199.640    91413853.92148
 15 02 23 00 01  0.0000000  0  8G16G18G21G22G25G27G29G31
  22294989.560   117160980.00108  22294985.880    91294246.82747
  22971168.420   120714364.70908  22971165.060    94063159.81246
  21046118.460   110598103.29708  21046114.640    86180325.34548
  24546299.600   128991672.30608  24546298.140   100512983.19945
  24228190.920   127319985.07208  24228191.340    99210373.63445
  23458604.240   123275801.54408  23458603.660    96059076.22647
  23340342.520   122654317.53608  23340339.500    95574778.55146
  22339567.320   117395209.57509  22339564.000    91476768.47848
 15 02 23 00 01 30.0000000  0  8G16G18G21G22G25G27G29G31
  22279743.620   117080862.94409  22279740.120    91231817.99847
  22957894.940   120644612.06108  22957891.520    94008807.13045
  21050792.040   110622662.97608  21050788.220    86199462.74548
  24528608.440   128898706.14308  24528606.700   100440542.46844
  24246551.100   127416468.61108  24246551.480    99285555.56545
  23445548.460   123207193.61108  23445548.280    96005615.52247
  23353934.740   122725743.43708  23353931.280    95630435.11046
  22354985.800   117476233.66709  22354982.400    91539904.11648
 15 02 23 00 02  0.0000000  0  8G16G18G21G22G25G27G29G31
  22264534.500   117000937.99009  22264530.920    91169538.79747
  22944662.380   120575074.68408  22944659.020    93954622.20546
  21055539.340   110647609.85708  21055535.360    86218901.88748
  24510902.760   128805664.61308  24510901.220   100368043.03944
  24264946.140   127513134.92808  24264946.340    99360879.93145
  23432512.060   123138686.28908  23432511.880    95952233.21346
  23367534.120   122797208.33309  23367530.880    95686121.95547
  22370460.560   117557553.32809  22370457.020    91603270.07948
 15 02 23 00 02 30.0000000  0  8G16G18G21G22G25G27G29G31
  22249360.660   116921198.18409  22249356.960    91107403.90047
  22931469.580   120505746.74808  22931466.400    93900600.47846
  21060358.580   110672934.98908  21060354.520    86238635.76948
  24493181.660   128712541.57008  24493180.220   100295480.06644
  24283373.980   127609974.03308  24283374.340    99436338.92145
  23419493.040   123070270.72708  23419492.260    95898922.40046
  23381139.440   122868703.01908  23381135.820    95741832.15646
  22385989.220   117639156.97909  22385985.720    91666857.30548
 15 02 23 00 03  0.0000000  0  8G16G18G21G22G25G27G29G31
  22234223.760   116841651.98209  22234219.720    91045419.83247
  22918318.220   120436636.53608  22918315.120    93846748.40446
  21065250.620   110698642.67508  21065246.580    86258667.72048
  24475446.720   128619345.77808  24475445.280   100222860.39345
  24301835.640   127706991.14207  24301836.120    99511936.60745
  23406492.460   123001953.35308  23406491.540    95845688.09546
  23394750.860   122940233.74208  23394747.500    95797570.37247
  22401572.440   117721048.32509  22401569.220    91730668.70748
 15 02 23 00 03 30.0000000  0  8G16G18G21G22G25G27G29G31
  22219122.560   116762295.25309  22219118.560    90983583.43847
  22905207.800   120367740.51709  22905204.500    93793063.22546
  21070214.060   110724725.38208  21070210.000    86278991.91548
  24457697.200   128526073.10808  24457695.700   100150180.80345
  24320329.680   127804178.40407  24320330.440    99587666.86545
  23393509.420   122933727.74008  23393508.940    95792525.32546
  23408368.060   123011794.16908  23408365.620    95853331.67247
  22417208.660   117803218.18009  22417205.660    91794697.15548
 15 02 23 00 04  0.0000000  0  8G16G18G21G22G25G27G29G31
  22204058.160   116683131.24409  22204054.300    90921897.19947
  22892138.920   120299062.29309  22892135.440    93739547.74446
  21075248.740   110751182.55908  21075244.640    86299607.90748
  24439933.800   128432727.15308  24439932.180   100077444.07145
  24338856.160   127901535.54008  24338857.080    99663529.53145
  23380544.240   122865594.75208  23380543.860    95739434.72046
  23421991.540   123083385.26208  23421989.060    95909116.92947
  22432897.740   117885664.75009  22432894.720    91858941.20048
 15 02 23 00 04 30.0000000  0  8G16G18G21G22G25G27G29G31
  22189030.720   116604161.11909  22189026.780    90860362.05247
  22879111.700   120230603.54308  22879108.260    93686203.30746
  21080354.320   110778012.23008  21080350.120    86320514.14248
  24422156.780   128339309.62308  24422155.160   100004651.60345
  24357414.700   127999060.51208  24357415.500    99739522.94445
  23367596.820   122797553.67308  23367595.880    95686415.68046
  23435620.340   123155005.90408  23435617.480    95964925.20346
  22448638.900   117968384.23409  22448635.680    91923397.91948
 15 02 23 00 05  0.0000000  0  8G16G18G21G22G25G27G29G31
  22174040.940   116525388.78209  22174036.980    90798980.98947
  22866127.020   120162368.85708  22866123.660    93633033.46346
  21085530.660   110805214.18308  21085526.440    86341710.45848
  24404366.960   128245824.70908  24404365.060    99931806.55445
  24376005.340   128096753.60508  24376005.600    99815647.38745
  23354667.000   122729605.96908  23354665.620    95633469.43046
  23449255.160   123226657.66408  23449252.160    96020757.72847
  22464431.760   118051375.35709  22464428.360    91988066.30148
 15 02 23 00 05 30.0000000  0  8G16G18G21G22G25G27G29G31
  22159089.180   116446817.12609  22159085.060    90737756.34047
  22853185.580   120094361.21208  22853182.140    93580040.53246
  21090777.780   110832788.11808  21090773.560    86363196.65448
  24386564.920   128152275.76608  24386562.920    99858911.63245
  24394627.680   128194614.43907  24394627.980    99891902.52745
  23341754.740   122661752.57008  23341753.280    95580596.68646
  23462896.140   123298341.26408  23462893.740    96076615.03447
  22480275.940   118134636.42809  22480272.440    92052945.04048
 15 02 23 00 06  0.0000000  0  8G16G18G21G22G25G27G29G31
  22144176.000   116368448.66609  22144172.180    90676690.02948
  22840288.020   120026584.12509  22840284.520    93527227.24346
  21096095.380   110860732.31608  21096091.140    86384971.36448
  24368751.180   128058665.57307  24368749.080    99785968.95845
  24413281.540   128292642.01207  24413282.020    99968287.58045
  23328860.520   122593993.74908  23328859.000    95527797.60146
  23476543.220   123370056.61708  23476541.180    96132497.12547
  22496170.840   118218164.62009  22496167.380    92118031.91648
 15 02 23 00 06 30.0000000  0  8G16G18G21G22G25G27G29G31
  22129300.900   116290279.37009  22129297.180    90615778.88647
  22827433.480   119959033.60008  22827430.040    93474590.50146
  21101481.960   110889039.28408  21101477.780    86407028.74848
  24350925.040   127964989.93308  24350922.900    99712975.29345
  24431965.680   128390828.41907  24431966.460   100044796.40345
  23315983.100   122526322.92308  23315982.000    95475067.09747
  23490195.300   123441797.38408  23490192.520    96188399.00746
  22512114.680   118301950.59809  22512111.360    92183319.68948
 15 02 23 00 07  0.0000000  0  8G16G18G21G22G25G27G29G31
  22114465.200   116212317.88909  22114461.700    90555029.73047
  22814623.760   119891719.20408  22814620.540    93422137.76846
  21106938.540   110917714.53908  21106934.500    86429373.09048
  24333088.320   127871258.64808  24333086.280    99639938.26645
  24450681.220   128489179.55007  24450681.900   100121433.58645
  23303123.920   122458747.28708  23303123.060    95422410.76747
  23503853.200   123513570.57208  23503850.320    96244326.16846
  22528108.440   118385998.95709  22528105.260    92248811.90148
 15 02 23 00 07 30.0000000  0  8G16G18G21G22G25G27G29G31
  22099669.520   116134565.30609  22099665.720    90494443.23447
  22801859.260   119824642.01409  22801856.120    93369869.85646
  21112464.860   110946755.62808  21112460.800    86452002.52948
  24315241.300   127777472.82408  24315239.100    99566858.69145
  24469427.700   128587692.50508  24469428.320   100198196.86045
  23290282.520   122391265.19608  23290281.960    95369827.38147
  23517517.120   123585374.77208  23517514.480    96300277.43447
  22544151.340   118470305.19709  22544148.280    92314505.04648
 15 02 23 00 08  0.0000000  0  8G16G18G21G22G25G27G29G31
  22084914.220   116057025.83409  22084910.480    90434022.90947
  22789140.860   119757806.20509  22789137.760    93317790.02446
  21118060.840   110976162.54608  21118056.720    86474917.01048
  24297384.660   127683636.61108  24297382.280    99493739.88445
  24488205.140   128686367.87008  24488205.880   100275086.68945
  23277458.980   122323878.60108  23277458.680    95317318.39247
  23531187.180   123657211.61608  23531184.700    96356254.18646
  22560243.140   118554868.23509  22560240.120    92380398.28148
 15 02 23 00 08 30.0000000  0  8G16G18G21G22G25G27G29G31
  22070199.380   115979698.91509  22070195.600    90373768.17747
  22776468.540   119691212.54009  22776465.400    93265898.89846
  21123725.500   111005930.56409  21123721.340    86498112.85948
  24279518.420   127589750.13708  24279515.840    99420581.87345
  24507012.740   128785201.72907  24507013.540   100352100.01645
  23264653.460   122256584.91909  23264652.880    95264881.75447
  23544862.400   123729078.14108  23544860.460    96412254.02646
  22576382.760   118639682.41309  22576379.720    92446487.24748
 15 02 23 00 09  0.0000000  0  8G16G18G21G22G25G27G29G31
  22055524.320   115902581.61309  22055520.740    90313676.77348
  22763841.720   119624858.07709  22763838.620    93214194.15646
  21129457.780   111036053.96008  21129453.640    86521585.62848
  24261642.120   127495810.82908  24261639.280    99347382.68845
  24525849.300   128884187.58408  24525850.240   100429231.77045
  23251864.720   122189378.96108  23251864.120    95212513.50047
  23558542.880   123800969.35708  23558541.140    96468273.13146
  22592568.660   118724740.06009  22592565.700    92512765.89848
 15 02 23 00 09 30.0000000  0  8G16G18G21G22G25G27G29G31
  22040890.940   115825683.43609  22040887.540    90253756.13347
  22751262.300   119558752.90209  22751259.120    93162683.64846
  21135258.780   111066538.36808  21135254.640    86545339.70848
  24243757.700   127401828.45308  24243754.620    99274149.94045
  24544715.800   128983331.33208  24544717.000   100506486.56345
  23239093.760   122122267.93108  23239093.580    95160219.22347
  23572229.620   123872892.21409  23572226.900    96524316.94246
  22608801.720   118810045.57109  22608798.880    92579237.70747
 15 02 23 00 10  0.0000000  0  8G16G18G21G22G25G27G29G31
  22026299.820   115749006.83809  22026296.460    90194008.17347
  22738730.680   119492899.25708  22738727.420    93111369.15746
  21141128.300   111097382.48809  21141124.060    86569374.09848
  24225865.660   127307805.58708  24225862.540    99200885.61945
  24563612.220   129082631.80408  24563613.360   100583863.48045
  23226341.000   122055252.05808  23226341.140    95107999.11847
  23585922.100   123944847.41208  23585919.280    96580385.89546
  22625081.480   118895596.20309  22625078.760    92645900.51648
 15 02 23 00 10 30.0000000  0  8G16G18G21G22G25G27G29G31
  22011750.280   115672548.40009  22011746.740    90134430.14747
  22726246.420   119427294.63009  22726243.060    93060248.69646
  21147064.880   111128579.20908  21147060.620    86593683.24948
  24207965.340   127213739.47207  24207962.280    99127587.56346
  24582537.140   129182082.15008  24582538.000   100661357.18445
  23213605.460   121988325.80008  23213605.520    95055848.78347
  23599619.820   124016828.89108  23599617.280    96636475.32246
  22641406.360   118981383.52409  22641403.560    92712747.75948
 15 02 23 00 11  0.0000000  0  8G16G18G21G22G25G27G29G31
  21997243.340   115596313.87609  21997239.900    90075026.63247
  22713810.740   119361944.99509  22713807.480    93009326.95446
  21153068.880   111160130.31308  21153064.660    86618268.55248
  24190057.840   127119636.20608  24190054.720    99054260.61545
  24601490.960   129281684.45208  24601491.900   100738969.26144
  23200887.780   121921492.69809  23200887.140    95003771.05947
  23613323.080   124088839.99008  23613320.500    96692587.81846
  22657776.400   119067408.05009  22657773.460    92779779.82947
 15 02 23 00 11 30.0000000  0  8G16G18G21G22G25G27G29G31
  21982779.380   115520305.72109  21982775.920    90015799.51947
  22701424.240   119296852.94109  22701421.020    92958605.90646
  21159140.140   111192034.83408  21159135.840    86643129.19948
  24172143.760   127025498.41308  24172140.540    98980906.70545
  24620473.560   129381437.53508  24620474.080   100816698.87545
  23188187.620   121854752.78808  23188186.740    94951765.97047
  23627032.120   124160881.47108  23627029.160    96748724.06146
  22674190.980   119153667.01909  22674187.980    92846994.58347
 15 02 23 00 12  0.0000000  0  8G16G18G21G22G25G27G29G31
  21968359.540   115444528.59309  21968356.060    89956752.40247
  22689087.800   119232023.72909  22689084.420    92908089.65946
  21165278.680   111224292.99509  21165274.300    86668265.44148
  24154224.000   126931330.91008  24154220.920    98907529.66845
  24639484.860   129481342.33107  24639485.080   100894546.67145
  23175505.540   121788108.49109  23175504.620    94899835.39247
  23640747.000   124232955.39708  23640744.500    96804885.55946
  22690650.000   119240160.17109  22690647.060    92914391.80947
 15 02 23 00 12 30.0000000  0  8G16G18G21G22G25G27G29G31
  21953983.020   115368978.96609  21953979.320    89897882.56547
  22676800.740   119167454.12809  22676797.040    92857775.71146
  21171483.180   111256898.21008  21171478.820    86693672.08148
  24136298.000   126837130.89908  24136295.100    98834127.30845
  24658523.760   129581392.07107  24658523.540   100972507.45345
  23162840.840   121721554.50509  23162839.920    94847975.14347
  23654467.040   124305055.97808  23654465.320    96861067.74746
  22707152.020   119326879.21009  22707149.100    92981965.06247
 15 02 23 00 13  0.0000000  0  8G16G18G21G22G25G27G29G31
  21939649.780   115293657.06609  21939645.960    89839190.20247
  22664563.080   119103144.42809  22664559.220    92807664.27746
  21177752.880   111289846.00308  21177748.600    86719345.70648
  24118366.140   126742898.94308  24118363.080    98760699.99645
  24677589.660   129681583.03508  24677589.700   101050578.22145
  23150192.780   121655088.39308  23150191.760    94796183.38647
  23668192.400   124377181.10409  23668189.960    96917269.15646
  22723696.100   119413818.67209  22723693.060    93049710.07147
 15 02 23 00 13 30.0000000  0  8G16G18G21G22G25G27G29G31
  21925362.000   115218574.38109  21925358.080    89780684.24147
  22652377.020   119039106.64409  22652373.300    92757764.73446
  21184089.480   111323145.12309  21184085.180    86745293.06748
  24100430.380   126648646.64008  24100427.200    98687256.85846
  24696683.800   129781923.17108  24696683.720   101128765.24645
  23137562.840   121588719.47608  23137562.020    94744467.37147
  23681924.100   124449339.87708  23681921.100    96973496.74746
  22740283.380   119500984.87809  22740280.160    93117631.77147
 15 02 23 00 14  0.0000000  0  8G16G18G21G22G25G27G29G31
  21911119.520   115143729.23309  21911115.280    89722363.33147
  22640242.200   118975338.94909  22640238.920    92708075.66447
  21190491.760   111356789.20308  21190487.440    86771509.26048
  24082490.340   126554372.38908  24082487.160    98613796.60745
  24715805.200   129882406.71708  24715805.660   101207063.97744
  23124950.940   121522443.46008  23124950.360    94692823.74347
  23695660.860   124521527.88108  23695658.300    97029747.11146
  22756912.520   119588370.95209  22756909.120    93185724.80047
 15 02 23 00 14 30.0000000  0  8G16G18G21G22G25G27G29G31
  21896921.960   115069120.94109  21896917.920    89664227.03247
  22628158.900   118911841.71409  22628155.860    92658597.32446
  21196958.960   111390774.21109  21196954.560    86797991.08648
  24064546.280   126460076.64708  24064543.080    98540319.60245
  24734953.060   129983030.11007  24734953.620   101285471.72845
  23112356.460   121456258.14409  23112355.900    94641250.81447
  23709402.960   124593743.01208  23709400.340    97086018.60946
  22773582.540   119675971.70309  22773579.080    93253985.10247
 15 02 23 00 15  0.0000000  0  8G16G18G21G22G25G27G29G31
  21882770.300   114994753.72009  21882766.420    89606278.58147
  22616127.920   118848619.16509  22616124.840    92609333.01846
  21203491.160   111425101.01708  21203486.700    86824739.22248
  24046598.880   126365763.27508  24046595.740    98466828.87045
  24754127.480   130083793.63807  24754128.480   101363988.62045
  23099779.440   121390165.30208  23099778.840    94589749.93747
  23723150.960   124665987.13808  23723147.980    97142312.74146
  22790293.140   119763785.92809  22790289.720    93322411.72247
 15 02 23 00 15 30.0000000  0  8G16G18G21G22G25G27G29G31
  21868665.140   114920630.96709  21868661.620    89548520.64547
  22604149.840   118785674.54009  22604146.700    92560285.27646
  21210088.160   111459768.55708  21210083.820    86851752.88848
  24028648.980   126271436.49708  24028645.840    98393327.68945
  24773328.680   130184696.81707  24773329.500   101442614.38245
  23087220.040   121324165.86208  23087219.120    94538321.82247
  23736904.400   124738261.13008  23736901.840    97198630.06847
  22807043.920   119851811.60809  22807040.580    93391003.11847
 15 02 23 00 16  0.0000000  0  8G16G18G21G22G25G27G29G31
  21854607.180   114846755.28209  21854603.460    89490955.14947
  22592225.360   118723010.74109  22592222.180    92511456.37146
  21216749.800   111494775.74108  21216745.540    86879031.22748
  24010697.120   126177099.10408  24010693.800    98319818.21245
  24792556.260   130285738.67907  24792557.500   101521348.18545
  23074678.660   121258260.36209  23074677.500    94486966.88847
  23750663.120   124810565.18708  23750660.880    97254970.84646
  22823834.460   119940046.30509  22823831.180    93459757.41347
 15 02 23 00 16 30.0000000  0  8G16G18G21G22G25G27G29G31
  21840596.140   114773126.31509  21840592.380    89433581.93248
  22580354.500   118660628.20409  22580351.280    92462846.61846
  21223475.260   111530118.50008  21223471.080    86906571.03348
  23992743.320   126082751.06108  23992739.880    98246300.43346
  24811809.480   130386915.22807  24811810.880   101600186.96244
  23062154.820   121192446.21108  23062153.700    94435683.14447
  23764427.240   124882896.87208  23764424.360    97311333.21146
  22840663.700   120028484.65309  22840660.520    93528670.37147
 15 02 23 00 17  0.0000000  0  7G16G18G21G22G27G29G31
  21826631.980   114699743.79109  21826628.020    89376400.74748
  22568536.940   118598526.56009  22568533.800    92414455.76346
  21230263.800   111565792.43208  21230259.620    86934368.91848
  23974787.540   125988392.68508  23974783.840    98172774.60045
  23049647.520   121126720.90008  23049646.740    94384468.67347
  23778196.440   124955253.63408  23778193.660    97367715.11346
  22857530.660   120117121.07109  22857527.500    93597737.68547
 15 02 23 00 17 30.0000000  0  7G16G18G21G22G27G29G31
  21812716.380   114626615.96009  21812712.300    89319418.01347
  22556774.280   118536714.18109  22556771.220    92366290.29246
  21237116.140   111601801.79509  21237111.920    86962428.14448
  23956831.340   125894032.32208  23956827.420    98099247.20445
  23037158.360   121061090.29908  23037157.160    94333327.94547
  23791971.520   125027641.63708  23791969.140    97424121.33547
  22874435.900   120205958.43609  22874432.640    93666961.57147
 15 02 23 00 18  0.0000000  0  7G16G18G21G22G27G29G31
  21798849.600   114553745.18209  21798845.280    89262635.59548
  22545067.140   118475193.43109  22545064.120    92318352.07447
  21244032.000   111638144.74008  21244027.680    86990747.31648
  23938875.180   125799672.60108  23938871.280    98025720.30445
  23024687.260   120995554.42308  23024686.020    94282261.02147
  23805752.160   125100060.63508  23805750.480    97480551.63746
  22891378.880   120294994.04509  22891375.520    93736339.95347
 15 02 23 00 18 30.0000000  0  7G16G18G21G22G27G29G31
  21785031.200   114481129.22909  21785026.980    89206051.77848
  22533415.320   118413962.79309  22533412.200    92270639.90346
  21251010.340   111674815.99108  21251005.960    87019322.33348
  23920918.720   125705311.86208  23920914.760    97952192.62146
  23012233.520   120930109.05209  23012232.440    94231264.66347
  23819538.080   125172506.24408  23819536.740    97537002.74447
  22908358.160   120384220.56608  22908354.700    93805867.08647
 15 02 23 00 19  0.0000000  0  7G16G18G21G22G27G29G31
  21771261.600   114408770.02309  21771257.580    89149667.99848
  22521819.040   118353024.16909  22521815.860    92223155.27746
  21258050.740   111711813.90008  21258046.400    87048151.87348
  23902962.500   125610952.45608  23902958.480    97878665.97745
  22999796.980   120864753.84208  22999796.240    94180338.57047
  23833329.060   125244978.07808  23833327.640    97593474.32246
  22925373.160   120473634.99509  22925369.600    93875540.61747
 15 02 23 00 19 30.0000000  0  7G16G18G21G22G27G29G31
  21757542.080   114336674.29209  21757538.260    89093489.53747
  22510279.660   118292384.53109  22510276.460    92175903.63846
  21265153.640   111749140.60308  21265149.420    87077237.59748
  23885007.920   125516601.48608  23885003.980    97805145.89345
  22987378.420   120799493.25908  22987377.440    94129486.14147
  23847125.760   125317480.71708  23847123.740    97649969.85646
  22942424.140   120563238.35009  22942420.440    93945361.37447
 15 02 23 00 20  0.0000000  0  7G16G18G21G22G27G29G31
  21743872.800   114264842.73609  21743869.200    89037516.91948
  22498797.380   118232044.45309  22498794.200    92128885.42246
  21272318.460   111786792.50708  21272314.360    87106576.74348
  23867055.060   125422259.65008  23867051.240    97731632.91946
  22974977.320   120734325.63508  22974975.900    94078706.18046
  23860927.960   125390012.21708  23860926.200    97706487.89846
  22959510.280   120653026.39309  22959506.540    94015326.04447
 15 02 23 00 20 30.0000000  0  7G16G18G21G22G27G29G31
  21730254.880   114193280.11809  21730251.460    88981753.83748
  22487373.140   118172009.03109  22487369.840    92082104.59246
  21279545.520   111824771.21808  21279541.440    87136170.56448
  23849104.900   125327932.26008  23849101.320    97658131.21446
  22962594.240   120669253.51108  22962592.740    94028000.66047
  23874736.300   125462575.68808  23874734.840    97763030.79946
  22976631.400   120742998.48009  22976627.720    94085434.13647
 15 02 23 00 21  0.0000000  0  7G16G18G21G22G27G29G31
  21716687.080   114121980.57409  21716683.320    88926195.72748
  22476005.760   118112272.53409  22476002.300    92035556.68246
  21286832.940   111863066.55609  21286828.820    87166011.08548
  23831156.520   125233613.93808  23831152.960    97584636.55345
  22950228.100   120604268.79909  22950226.760    93977363.22847
  23888549.140   125535162.46108  23888547.620    97819591.90446
  22993785.460   120833143.76109  22993781.880    94155677.17347
 15 02 23 00 21 30.0000000  0  7G16G18G21G22G27G29G31
  21703170.120   114050948.70709  21703166.360    88870846.23047
  22464696.120   118052840.04509  22464692.680    91989245.67346
  21294180.860   111901679.51909  21294176.680    87196099.06548
  23813210.960   125139309.84808  23813207.200    97511152.97446
  22937879.120   120539374.11708  22937878.280    93926795.97247
  23902367.220   125607775.29508  23902365.200    97876173.33446
  23010972.440   120923461.68209  23010968.880    94226054.74747
 15 02 23 00 22  0.0000000  0  7G16G18G21G22G27G29G31
  21689705.960   113980194.50409  21689702.260    88815713.10048
  22453446.100   117993721.21909  22453442.820    91943179.08046
  21301590.320   111940615.80308  21301586.040    87226439.08448
  23795270.100   125045029.98008  23795265.980    97437688.26446
  22925548.480   120474576.92808  22925547.940    93876304.69547
  23916191.420   125680421.48107  23916189.040    97932780.74146
  23028193.180   121013956.86909  23028189.640    94296570.43947
 15 02 23 00 22 30.0000000  0  7G16G18G21G22G27G29G31
  21676294.940   113909719.02109  21676291.080    88760797.11848
  22442255.960   117934916.85009  22442252.660    91897357.50946
  21309060.640   111979872.03709  21309056.300    87257028.35148
  23777334.180   124950775.80509  23777329.820    97364243.58046
  22913235.980   120409875.92308  22913235.420    93825888.34147
  23930021.360   125753099.91208  23930019.300    97989413.22946
  23045446.740   121104624.63209  23045443.300    94367220.59847
 15 02 23 00 23  0.0000000  0  7G16G18G21G22G27G29G31
  21662935.060   113839512.62809  21662931.440    88706090.87048
  22431123.960   117876417.68709  22431120.520    91851773.76746
  21316589.260   112019435.52808  21316585.080    87287857.02348
  23759401.380   124856538.38408  23759396.980    97290811.95245
  22900939.620   120345259.40708  22900939.340    93775537.85547
  23943855.760   125825798.97108  23943853.660    98046061.85346
  23062730.440   121195450.82309  23062727.100    94437994.22547
 15 02 23 00 23 30.0000000  0  7G16G18G21G22G27G29G31
  21649628.600   113769587.26309  21649625.220    88651603.65148
  22420052.460   117818236.48309  22420049.000    91806437.77246
  21324177.940   112059314.34008  21324173.800    87318931.44048
  23741474.020   124762330.00208  23741469.580    97217402.94246
  22888661.320   120280737.34408  22888661.220    93725260.96547
  23957696.100   125898528.62509  23957693.780    98102734.29646
  23080045.620   121286442.40809  23080042.360    94508896.72447
 15 02 23 00 24  0.0000000  0  7G16G18G21G22G27G29G31
  21636375.860   113699943.15809  21636372.320    88597335.45448
  22409041.340   117760372.83609  22409038.000    91761349.24847
  21331826.020   112099505.15609  21331821.900    87350248.91048
  23723552.260   124668151.06408  23723547.860    97144016.88346
  22876400.780   120216307.30108  22876400.400    93675055.76747
  23971541.600   125971286.35408  23971539.380    98159428.61846
  23097391.200   121377594.01709  23097387.940    94579923.92347
 15 02 23 00 24 30.0000000  0  7G16G18G21G22G27G29G31
  21623178.400   113630588.78209  21623174.420    88543293.06248
  22398092.300   117702835.37909  22398089.000    91716514.87647
  21339534.200   112140011.52409  21339529.980    87381812.35048
  23705637.780   124574010.37808  23705633.360    97070660.61146
  22864158.980   120151975.66408  22864158.220    93624927.24847
  23985393.080   126044078.34108  23985390.740    98216149.60646
  23114767.760   121468908.35709  23114764.420    94651077.90547
 15 02 23 00 25  0.0000000  0  7G16G18G21G22G27G29G31
  21610033.380   113561511.01709  21610029.500    88489466.27448
  22387202.840   117645610.83809  22387199.500    91671924.32946
  21347299.020   112180816.17808  21347294.840    87413608.19748
  23687728.140   124479895.18108  23687723.800    96997324.19846
  22851933.020   120087727.10108  22851932.180    93574863.43447
  23999248.820   126116889.30408  23999245.520    98272885.40746
  23132171.900   121560367.66709  23132168.580    94722344.86747
 15 02 23 00 25 30.0000000  0  7G16G18G21G22G27G29G31
  21596943.560   113492722.99209  21596939.640    88435865.21948
  22376375.340   117588712.83509  22376372.160    91627588.25447
  21355122.260   112221927.94409  21355118.080    87445643.29948
  23669825.920   124385819.00808  23669821.740    96924018.20046
  22839724.820   120023572.48508  22839724.060    93524872.85747
  24013110.280   126189730.03108  24013106.440    98329644.46646
  23149605.100   121651979.63009  23149601.900    94793730.78047
 15 02 23 00 26  0.0000000  0  7G16G18G21G22G27G29G31
  21583909.520   113424228.74109  21583905.560    88382493.06748
  22365610.700   117532145.23209  22365607.720    91583509.61847
  21363004.180   112263348.08608  21363000.080    87477918.73248
  23651932.040   124291786.64808  23651927.940    96850746.34446
  22827534.880   119959513.78609  22827534.200    93474957.02547
  24026977.580   126262602.53308  24026973.980    98386428.19946
  23167067.160   121743743.18809  23167064.060    94865234.80647
 15 02 23 00 26 30.0000000  0  7G16G18G21G22G27G29G31
  21570932.460   113356034.03009  21570928.660    88329354.35848
  22354910.300   117475914.00809  22354907.260    91539693.10347
  21370945.140   112305078.26508  21370941.080    87510435.74448
  23634047.600   124197803.98608  23634043.580    96777513.20546
  22815363.920   119895554.52409  22815362.740    93425118.64347
  24040850.960   126335510.21107  24040848.540    98443239.35747
  23184558.180   121835659.06109  23184555.200    94936857.51347
 15 02 23 00 27  0.0000000  0  7G16G18G21G22G27G29G31
  21558011.340   113288133.68809  21558007.500    88276444.98848
  22344272.980   117420013.37709  22344269.660    91496134.17547
  21378943.340   112347108.79309  21378939.260    87543186.78748
  23616171.800   124103866.28808  23616167.700    96704315.08546
  22803210.360   119831687.08009  22803209.380    93375351.82647
  24054729.680   126408445.81008  24054727.900    98500072.24446
  23202076.140   121927716.60909  23202073.240    95008590.62447
 15 02 23 00 27 30.0000000  0  7G16G18G21G22G27G29G31
  21545145.380   113220522.83009  21545141.420    88223761.19748
  22333697.700   117364439.29609  22333694.180    91452829.70947
  21386996.980   112389431.03008  21386992.880    87576165.18048
  23598303.780   124009969.14409  23598299.520    96631148.57946
  22791072.920   119767904.43909  22791072.220    93325651.09347
  24068612.860   126481401.86508  24068610.700    98556921.09545
  23219619.140   122019905.70409  23219616.240    95080426.23647
 15 02 23 00 28  0.0000000  0  7G16G18G21G22G27G29G31
  21532337.060   113153215.39509  21532333.180    88171313.85548
  22323187.040   117309205.23909  22323183.480    91409790.21147
  21395107.940   112432054.69409  21395103.900    87609378.36948
  23580446.140   123916126.46008  23580441.660    96558024.50646
  22778953.880   119704218.39309  22778953.220    93276025.64648
  24082502.180   126554390.42608  24082499.360    98613795.30545
  23237188.840   122112234.97009  23237185.980    95152371.06447
 15 02 23 00 28 30.0000000  0  7G16G18G21G22G27G29G31
  21519586.380   113086210.38209  21519582.580    88119102.16548
  22312740.920   117254309.72509  22312737.300    91367014.49247
  21403275.340   112474974.54509  21403271.300    87642822.46448
  23562598.760   123822338.28408  23562594.180    96484942.90146
  22766852.460   119640625.53309  22766851.560    93226472.81548
  24096396.920   126627407.62008  24096394.180    98670691.84046
  23254784.080   122204698.29608  23254781.160    95224420.34847
 15 02 23 00 29  0.0000000  0  7G16G18G21G22G27G29G31
  21506893.720   113019509.29409  21506889.840    88067127.27748
  22302359.580   117199754.87109  22302355.800    91324504.23047
  21411498.880   112518189.31609  21411494.780    87676496.29948
  23544762.060   123728606.73908  23544757.520    96411905.43146
  22754768.860   119577125.61509  22754768.040    93176992.36848
  24110297.200   126700453.53808  24110295.320    98727610.70046
  23272404.180   122297292.19508  23272401.140    95296571.40147
 15 02 23 00 29 30.0000000  0  7G16G18G21G22G27G29G31
  21494259.500   112953116.03109  21494255.500    88015392.27748
  22292043.520   117145544.13009  22292039.720    91282262.10147
  21419778.380   112561697.97509  21419774.160    87710399.12848
  23526936.780   123634935.16908  23526932.320    96338914.69046
  22742703.120   119513719.78108  22742702.660    93127585.28048
  24124203.040   126773529.52008  24124201.280    98784552.96445
  23290048.760   122390014.84708  23290045.640    95368822.76347
 15 02 23 00 30  0.0000000  0  7G16G18G21G22G27G29G31
  21481684.700   112887034.66909  21481680.720    87963900.27648
  22281793.800   117091682.21909  22281790.020    91240291.81947
  21428113.860   112605500.59209  21428109.420    87744531.05848
  23509123.960   123541328.74408  23509119.500    96265974.71446
  22730655.560   119450410.29108  22730655.100    93078253.26147
  24138114.880   126846637.53408  24138112.700    98841520.24445
  23307717.660   122482865.34809  23307714.520    95441173.77947
 15 02 23 00 30 30.0000000  0  7G16G18G21G22G27G29G31
  21469167.940   112821258.70109  21469163.960    87912646.30148
  22271609.220   117038162.21009  22271605.540    91198587.92047
  21436503.180   112649586.60908  21436498.680    87778883.81248
  23491322.440   123447781.34008  23491317.940    96193080.70746
  22718624.580   119387188.28908  22718623.780    93028989.38147
  24152031.400   126919768.95908  24152029.120    98898505.78946
  23325408.600   122575831.98409  23325405.700    95513615.25347
 15 02 23 00 31  0.0000000  0  7G16G18G21G22G27G29G31
  21456711.100   112755797.97509  21456707.360    87861637.96448
  22261491.500   116984993.55809  22261487.960    91157157.83747
  21444947.540   112693962.24909  21444943.180    87813462.19848
  23473534.100   123354303.10108  23473529.500    96120240.59946
  22706611.840   119324061.49409  22706611.100    92979799.70247
  24165953.620   126992930.94808  24165951.700    98955515.08545
  23343122.580   122668919.60109  23343119.740    95586151.01847
 15 02 23 00 31 30.0000000  0  7G16G18G21G22G27G29G31
  21444314.360   112690653.07709  21444310.600    87810875.70148
  22251440.740   116932177.13109  22251437.320    91116002.20347
  21453446.420   112738624.10109  21453442.040    87848263.64048
  23455759.080   123260895.14708  23455754.520    96047455.25446
  22694617.060   119261028.33208  22694616.560    92930682.98148
  24179881.540   127066122.30908  24179879.660    99012547.27845
  23360858.660   122762123.67408  23360855.880    95658777.54447
 15 02 23 00 32  0.0000000  0  7G16G18G21G22G27G29G31
  21431978.320   112625826.82509  21431974.600    87760361.72948
  22241457.460   116879714.99009  22241454.000    91075122.62747
  21461999.420   112783570.52509  21461995.160    87883286.82348
  23437997.960   123167560.45208  23437993.500    95974726.99046
  22682640.040   119198089.25308  22682639.500    92881639.58247
  24193815.060   127139343.34908  24193813.360    99069602.62346
  23378616.300   122855440.97608  23378613.480    95731492.26147
 15 02 23 00 32 30.0000000  0  7G16G18G21G22G27G29G31
  21419702.680   112561317.74109  21419698.940    87710094.90848
  22231541.540   116827606.49909  22231538.060    91034518.62747
  21470605.580   112828796.27509  21470601.400    87918527.70048
  23420250.640   123074298.30508  23420246.220    95902055.27146
  22670680.480   119135240.80509  22670679.220    92832666.75547
  24207753.860   127212590.62908  24207751.940    99126678.44045
  23396394.300   122948865.29008  23396391.540    95804290.36147
 15 02 23 00 33  0.0000000  0  7G16G18G21G22G27G29G31
  21407489.160   112497134.78009  21407485.320    87660082.21748
  22221694.620   116775860.14409  22221691.000    90994196.81147
  21479265.880   112874306.27408  21479261.520    87953990.04748
  23402519.020   122981118.13408  23402514.540    95829447.42946
  22658739.540   119072489.72808  22658738.360    92783769.83248
  24221698.660   127285870.57208  24221696.480    99183779.64145
  23414193.480   123042400.58108  23414190.920    95877174.92947
 15 02 23 00 33 30.0000000  0  7G16G18G21G22G27G29G31
  21395336.960   112433274.87409  21395333.180    87610321.25348
  22211915.940   116724472.44509  22211912.160    90954154.46447
  21487978.900   112920094.03209  21487974.600    87989668.77648
  23384802.500   122888016.91208  23384797.820    95756901.10246
  22646816.060   119009830.68709  22646815.240    92734944.68148
  24235648.760   127359178.17508  24235646.100    99240902.45545
  23432012.100   123136038.30608  23432009.760    95950139.34947
 15 02 23 00 34  0.0000000  0  7G16G18G21G22G27G29G31
  21383247.460   112369743.86509  21383243.480    87560816.56348
  22202206.560   116673449.39809  22202202.680    90914396.25847
  21496745.080   112966160.72308  21496740.840    88025564.91248
  23367102.320   122795001.45908  23367097.400    95684421.61346
  22634910.860   118947267.52708  22634909.600    92686194.18147
  24249604.700   127432517.32608  24249601.980    99298049.84246
  23449850.360   123229779.19908  23449848.200    96023184.13246
 15 02 23 00 34 30.0000000  0  7G16G18G21G22G27G29G31
  21371220.700   112306542.77309  21371216.740    87511568.97148
  22192566.640   116622791.64409  22192562.860    90874922.69847
  21505563.700   113012503.18708  21505559.500    88061675.91248
  23349418.560   122702072.60508  23349413.520    95612009.57846
  22623023.140   118884798.77108  22623021.780    92637517.22448
  24263566.240   127505886.06408  24263563.800    99355220.27046
  23467707.380   123323618.86408  23467705.360    96096305.89147
 15 02 23 00 35  0.0000000  0  7G16G18G21G22G27G29G31
  21359257.300   112243674.67109  21359253.500    87462580.86848
  22182996.780   116572502.07209  22182993.180    90835736.04947
  21514434.640   113059120.48309  21514430.440    88098001.07648
  23331751.920   122609234.27908  23331746.880    95539668.11646
  22611153.800   118822425.65409  22611152.960    92588914.80448
  24277533.700   127579285.89008  24277531.740    99412414.89946
  23485582.860   123417555.51908  23485580.940    96169503.22947
 15 02 23 00 35 30.0000000  0  7G16G18G21G22G27G29G31
  21347356.800   112181137.55209  21347353.000    87413850.66448
  22173496.560   116522578.62209  22173493.060    90796834.67447
  21523356.680   113106006.78108  21523352.760    88134535.87348
  23314102.120   122516484.74508  23314097.180    95467395.82746
  22599302.020   118760143.82509  22599301.520    92540383.53548
  24291506.300   127652712.53008  24291504.260    99469630.43045
  23503475.440   123511581.51708  23503473.400    96242770.17746
 15 02 23 00 36  0.0000000  0  7G16G18G21G22G27G29G31
  21335520.380   112118937.08209  21335516.460    87365382.75748
  22164066.960   116473026.59409  22164063.580    90758222.72447
  21532330.340   113153164.27708  21532326.500    88171281.97748
  23296470.520   122423830.29008  23296465.660    95395197.61246
  22587468.240   118697957.00709  22587467.520    92491926.30947
  24305484.580   127726169.32308  24305482.920    99526869.43245
  23521385.280   123605697.68408  23521383.160    96316107.38647
 15 02 23 00 36 30.0000000  0  7G16G18G21G22G27G29G31
  21323748.720   112057076.76709  21323744.740    87317179.90648
  22154708.780   116423849.52809  22154705.480    90719902.94747
  21541355.500   113200591.94708  21541351.640    88208238.57448
  23278857.860   122331274.85109  23278852.940    95323076.55646
  22575652.880   118635866.57409  22575652.120    92443544.16048
  24319468.780   127799657.96208  24319467.180    99584133.24345
  23539312.000   123699902.18508  23539309.740    96389513.44047
 15 02 23 00 37  0.0000000  0  7G16G18G21G22G27G29G31
  21312041.260   111995554.09309  21312037.440    87269240.16948
  22145421.500   116375044.83409  22145418.260    90681873.32747
  21550430.820   113248282.94108  21550426.960    88245400.38048
  23261263.620   122238816.28009  23261258.620    95251030.97646
  22563855.140   118573867.70809  22563854.120    92395233.35948
  24333458.400   127873173.11508  24333456.760    99641417.81546
  23557254.100   123794187.42108  23557251.820    96462982.37146
 15 02 23 00 37 30.0000000  0  7G16G18G21G22G27G29G31
  21300399.480   111934375.46409  21300395.600    87221568.50848
  22136206.340   116326618.48409  22136203.140    90644138.53047
  21559556.820   113296240.50809  21559553.040    88282769.90448
  23243689.100   122146461.58608  23243684.060    95179066.35546
  22552075.500   118511964.74009  22552074.060    92346997.32147
  24347454.020   127946719.38608  24347451.640    99698726.63045
  23575211.680   123888554.46908  23575209.500    96536515.06647
 15 02 23 00 38  0.0000000  0  7G16G18G21G22G27G29G31
  21288823.420   111873542.43009  21288819.400    87174166.13748
  22127063.520   116278571.78609  22127060.180    90606699.55947
  21568733.080   113344461.73009  21568729.260    88320344.88748
  23226134.720   122054212.93008  23226129.640    95107184.34046
  22540313.900   118450157.27809  22540312.360    92298835.63848
  24361455.400   128020296.36208  24361452.940    99756059.30045
  23593184.060   123982999.87608  23593181.840    96610108.85346
 15 02 23 00 38 30.0000000  0  7G16G18G21G22G27G29G31
  21277314.780   111813063.80109  21277310.780    87127039.97448
  22117994.600   116230913.63609  22117991.180    90569563.34647
  21577960.460   113392951.70609  21577956.560    88358129.28948
  23208602.260   121962079.56508  23208597.060    95035392.16946
  22528571.720   118388451.99709  22528570.440    92250753.64048
  24375463.420   128093910.65708  24375461.300    99813420.96745
  23611172.000   124077527.45208  23611169.740    96683766.59146
 15 02 23 00 39  0.0000000  0  7G16G18G21G22G27G29G31
  21265871.180   111752926.83609  21265867.000    87080180.00148
  22108996.920   116183630.61609  22108993.560    90532719.45547
  21587235.760   113441693.41808  21587231.820    88396109.86948
  23191089.380   121870049.14509  23191084.100    94963680.20546
  22516846.120   118326833.93509  22516844.920    92202739.60047
  24389476.120   128167546.82608  24389473.940    99870799.82245
  23629172.160   124172118.93108  23629169.940    96757474.17846
 15 02 23 00 39 30.0000000  0  7G16G18G21G22G27G29G31
  21254494.580   111693142.76409  21254490.580    87033595.01648
  22100072.720   116136733.51809  22100069.280    90496176.28847
  21596560.320   113490694.27008  21596556.380    88434292.34948
  23173598.260   121778133.02308  23173592.940    94892057.31646
  22505139.000   118265312.30209  22505137.400    92154800.64247
  24403494.920   128241214.44308  24403492.720    99928203.15745
  23647185.760   124266780.65108  23647183.600    96831236.46246
 15 02 23 00 40  0.0000000  0  7G16G18G21G22G27G29G31
  21243185.880   111633716.46109  21243182.160    86987288.81048
  22091222.940   116090227.37909  22091219.380    90459937.74747
  21605934.300   113539954.99808  21605930.360    88472677.32648
  23156129.940   121686337.03408  23156124.680    94820528.02747
  22493450.540   118203889.78609  22493449.080    92106938.97348
  24417519.700   128314916.17607  24417517.260    99985633.02345
  23665212.780   124361512.17508  23665210.620    96905053.14146
 15 02 23 00 40 30.0000000  0  7G16G18G21G22G27G29G31
  21231944.380   111574643.17309  21231941.040    86941257.71948
  22082446.500   116044106.97809  22082442.940    90423999.77847
  21615356.120   113589466.78608  21615352.200    88511257.94048
  23138683.680   121594657.04108  23138678.600    94749089.12946
  22481779.680   118142559.64709  22481778.940    92059149.30348
  24431549.880   128388645.05408  24431547.820   100043084.08145
  23683251.200   124456303.60808  23683248.980    96978916.53246
 15 02 23 00 41  0.0000000  0  7G16G18G21G22G27G29G31
  21220771.420   111515928.83709  21220767.880    86895506.29348
  22073744.460   115998377.95709  22073741.080    90388366.79747
  21624826.180   113639231.64409  21624822.160    88550035.74548
  23121260.620   121503099.01509  23121255.660    94677745.26647
  22470127.260   118081325.65109  22470126.660    92011434.48948
  24445586.180   128462404.77908  24445583.780   100100559.24945
  23701301.040   124551155.51108  23701298.700    97052826.99146
 15 02 23 00 41 30.0000000  0  7G16G18G21G22G27G29G31
  21209667.700   111457578.00909  21209664.020    86850038.09048
  22065117.720   115953044.70709  22065114.480    90353042.20747
  21634344.500   113689250.32708  21634340.300    88589011.35548
  23103861.820   121411668.13808  23103856.860    94606500.48647
  22458493.520   118020190.38909  22458492.780    91963796.62448
  24459628.600   128536197.95607  24459626.080   100158060.42146
  23719362.280   124646067.61308  23719359.860    97126784.40246
 15 02 23 00 42  0.0000000  0  7G16G18G21G22G27G29G31
  21198633.660   111399593.18809  21198630.000    86804855.11948
  22056566.740   115908109.62909  22056563.480    90318027.87347
  21643910.800   113739521.34209  21643906.560    88628183.53748
  23086487.900   121320367.77908  23086482.900    94535357.39747
  22446878.660   117959154.46809  22446877.700    91916236.20648
  24473677.180   128610025.08708  24473674.980   100215587.99246
  23737434.560   124741037.64908  23737431.920    97200786.93746
 15 02 23 00 42 30.0000000  0  7G16G18G21G22G27G29G31
  21187668.580   111341970.69909  21187664.580    86759954.47548
  22048090.740   115863568.45909  22048087.480    90283320.47547
  21653523.560   113790036.80809  21653519.260    88667546.23147
  23069138.140   121229194.44909  23069133.120    94464313.30246
  22435281.740   117898212.09009  22435280.740    91868748.63648
  24487731.140   128683880.02608  24487729.480   100273137.27646
  23755516.160   124836056.43708  23755513.560    97274827.43446
 15 02 23 00 43  0.0000000  0  7G16G18G21G22G27G29G31
  21176773.380   111284715.83509  21176769.540    86715340.32348
  22039690.640   115819425.80109  22039687.320    90248923.61847
  21663183.080   113840798.00708  21663178.800    88707100.46248
  23051813.660   121138153.99109  23051808.660    94393372.73546
  22423703.280   117837366.40209  22423702.240    91821336.42848
  24501791.060   128757766.18908  24501789.540   100330710.87645
  23773607.120   124931124.13509  23773604.420    97348906.06846
 15 02 23 00 43 30.0000000  0  7G16G18G21G22G27G29G31
  21165948.560   111227830.66209  21165944.620    86671014.19648
  22031366.800   115775683.43709  22031363.380    90214838.66747
  21672888.960   113891803.01308  21672884.760    88746844.58648
  23034515.000   121047248.80909  23034510.000    94322537.57947
  22412143.060   117776617.08009  22412141.900    91773999.31948
  24515856.920   128831683.05908  24515854.720   100388308.41645
  23791706.680   125026237.10608  23791703.860    97423019.95846
 15 02 23 00 44  0.0000000  0  7G16G18G21G22G27G29G31
  21155195.020   111171319.99109  21155191.120    86626979.93848
  22023120.180   115732346.57909  22023116.660    90181069.70547
  21682641.580   113943053.22709  21682637.300    88786779.80147
  23017243.240   120956484.76409  23017238.220    94251812.38647
  22400601.840   117715967.68909  22400600.960    91726740.06348
  24529929.280   128905634.11407  24529926.780   100445932.60345
  23809814.940   125121396.05808  23809812.020    97497169.69546
 15 02 23 00 44 30.0000000  0  7G16G18G21G22G27G29G31
  21144512.500   111115183.26209  21144508.560    86583237.04448
  22014950.420   115689413.79009  22014946.760    90147615.59647
  21692439.960   113994543.83809  21692435.600    88826902.35747
  22999998.180   120865861.48508  22999993.260    94181196.89047
  22389078.840   117655415.34708  22389078.740    91679556.44548
  24544007.620   128979616.29608  24544005.000   100503581.08645
  23827930.860   125216595.29508  23827927.720    97571350.80046
 15 02 23 00 45  0.0000000  0  7G16G18G21G22G27G29G31
  21133901.600   111059422.79209  21133897.660    86539787.31548
  22006857.860   115646887.06909  22006854.100    90114477.89547
  21702283.700   114046272.86309  21702279.300    88867210.69848
  22982780.380   120775381.94308  22982775.480    94110693.40147
  22377574.540   117594960.30009  22377574.100    91632448.64647
  24558091.880   129053629.95708  24558089.880   100561254.01446
  23846053.820   125311831.59108  23846050.620    97645560.78246
 15 02 23 00 45 30.0000000  0  6G16G18G21G22G27G31
  21123366.420   111004060.38109  21123362.620    86496647.78148
  21998846.640   115604787.84409  21998842.960    90081673.31747
  21712176.340   114098258.75809  21712171.900    88907719.20948
  22965594.160   120685068.31709  22965589.280    94040319.18847
  22366092.820   117534622.45509  22366091.320    91585432.10748
  23864187.000   125407121.66908  23864183.900    97719812.67246
 15 02 23 00 46  0.0000000  0  6G16G18G21G22G27G31
  21112899.820   110949058.21409  21112895.920    86453788.94048
  21990909.540   115563078.05809  21990905.860    90049172.20147
  21722109.680   114150459.20408  21722105.380    88948394.87448
  22948432.600   120594883.76609  22948427.620    93970045.55547
  22354625.720   117474361.99409  22354624.500    91538475.93448
  23882322.340   125502422.97508  23882319.260    97794073.29946
 15 02 23 00 46 30.0000000  0  6G16G18G21G22G27G31
  21102505.680   110894436.66009  21102501.780    86411226.69748
  21983050.220   115521777.11309  21983046.500    90016989.66147
  21732087.140   114202890.99209  21732082.760    88989250.79247
  22931299.500   120504848.63909  22931294.420    93899888.35447
  22343176.900   117414197.11109  22343175.780    91491594.27348
  23900462.660   125597750.58508  23900459.740    97868354.43546
 15 02 23 00 47  0.0000000  0  6G16G18G21G22G27G31
  21092186.580   110840209.67909  21092182.740    86368971.89648
  21975271.240   115480898.68909  21975267.720    89985136.35847
  21742110.520   114255563.96209  21742106.120    89030294.68448
  22914197.460   120414977.25308  22914192.440    93829858.75047
  22331748.240   117354139.82308  22331747.080    91444796.36448
  23918609.720   125693113.44308  23918606.900    97942662.98546
 15 02 23 00 47 30.0000000  0  6G16G18G21G22G27G31
  21081940.660   110786367.60209  21081936.940    86327017.05048
  21967570.760   115440433.08909  21967567.600    89953604.73247
  21752177.180   114308464.51008  21752172.780    89071515.91848
  22897124.820   120325261.03108  22897120.020    93759950.07147
  22320337.680   117294178.67508  22320336.900    91398073.44948
  23936760.720   125788496.86108  23936757.960    98016987.60046
 15 02 23 00 48  0.0000000  0  6G16G18G21G22G27G31
  21071768.300   110732911.33509  21071764.520    86285362.81948
  21959948.900   115400380.65709  21959946.040    89922395.05147
  21762286.540   114361589.56309  21762282.140    89112912.03748
  22880082.000   120235701.27209  22880077.360    93690163.28247
  22308945.480   117234312.59409  22308945.060    91351424.55248
  23954914.860   125883896.58608  23954912.140    98091324.91346
 15 02 23 00 48 30.0000000  0  6G16G18G21G22G27G31
  21061670.960   110679849.28709  21061667.180    86244015.77548
  21952407.280   115360749.72309  21952404.440    89891513.82647
  21772439.500   114414944.51608  21772435.180    89154487.33048
  22863070.940   120146307.61909  22863066.320    93620505.92447
  22297572.800   117174548.46809  22297571.940    91304855.11848
  23973072.780   125979316.51908  23973070.040    98165677.95446
 15 02 23 00 49  0.0000000  0  6G16G18G21G22G27G31
  21051649.060   110627184.12009  21051645.320    86202978.00948
  21944946.320   115321541.98709  21944943.220    89860962.35047
  21782635.820   114468527.33008  21782631.700    89196240.16148
  22846092.000   120057082.33209  22846087.280    93550979.76347
  22286219.420   117114886.73408  22286218.160    91258365.45348
  23991233.860   126074753.77808  23991231.240    98240044.45646
 15 02 23 00 49 30.0000000  0  6G16G18G21G22G27G31
  21041702.380   110574913.87409  21041698.560    86162247.95648
  21937565.540   115282755.08309  21937562.120    89830738.80447
  21792874.460   114522332.16208  21792870.480    89238166.01248
  22829144.960   119968024.64709  22829140.080    93481584.19547
  22274884.720   117055323.45108  22274883.860    91211952.56848
  24009396.940   126170201.94908  24009394.640    98314419.51146
 15 02 23 00 50  0.0000000  0  6G16G18G21G22G27G31
  21031831.340   110523040.74909  21031827.440    86121827.31948
  21930265.060   115244390.32109  21930261.460    89800844.20147
  21803155.220   114576357.60209  21803151.280    89280263.73848
  22812230.280   119879137.24609  22812225.340    93412321.32647
  22263568.900   116995858.84909  22263568.460    91165616.51748
  24027561.640   126265658.01008  24027559.480    98388800.68346
 15 02 23 00 50 30.0000000  0  6G16G18G21G22G27G31
  21022036.880   110471570.40409  21022032.960    86081720.56948
  21923046.060   115206453.65509  21923042.360    89771283.18147
  21813478.020   114630604.38508  21813474.300    89322533.98548
  22795349.120   119790426.06209  22795344.200    93343195.75947
  22252272.700   116936496.97709  22252272.200    91119360.51348
  24045727.980   126361122.30308  24045725.820    98463188.28946
 15 02 23 00 51  0.0000000  0  6G16G18G21G22G27G31
  21012317.540   110420495.15109  21012313.740    86041921.67848
  21915906.900   115168936.72109  21915903.180    89742049.20547
  21823841.060   114685062.38608  21823837.200    89364968.79048
  22778500.220   119701884.34809  22778495.240    93274202.26047
  22240994.440   116877228.15209  22240993.540    91073177.01548
  24063893.540   126456582.47408  24063891.320    98537572.62345
 15 02 23 00 51 30.0000000  0  6G16G18G21G22G27G31
  21002675.580   110369826.59609  21002671.800    86002439.69548
  21908849.720   115131850.51509  21908845.940    89713150.88547
  21834245.760   114739739.38008  21834241.820    89407574.21248
  22761685.920   119613524.61809  22761680.800    93205350.55647
  22229735.720   116818062.14608  22229735.000    91027073.66248
  24082059.660   126552045.39308  24082057.380    98611959.15146
 15 02 23 00 52  0.0000000  0  6G16G18G21G22G27G31
  20993112.020   110319569.93809  20993108.220    85963278.63948
  21901875.360   115095199.58209  21901871.500    89684591.73547
  21844692.160   114794635.38808  21844688.200    89450350.35948
  22744907.200   119525351.92309  22744901.960    93136644.58447
  22218496.920   116759002.03009  22218496.240    90981052.80748
  24100226.220   126647511.20508  24100223.940    98686347.85646
 15 02 23 00 52 30.0000000  0  6G16G18G21G22G27G31
  20983626.060   110269721.16309  20983622.200    85924435.46648
  21894982.960   115058979.54209  21894979.100    89656368.34347
  21855178.840   114849743.24509  21855174.840    89493291.52148
  22728163.580   119437363.19409  22728158.140    93068081.97247
  22207277.320   116700042.36009  22207276.600    90935110.23248
  24118391.600   126742970.67208  24118389.540    98760731.69646
 15 02 23 00 53  0.0000000  0  6G16G18G21G22G27G31
  20974219.300   110220288.20509  20974215.400    85885916.28248
  21888173.940   115023198.01109  21888170.080    89628486.63947
  21865706.700   114905067.68509  21865702.660    89536401.47747
  22711456.640   119349567.25309  22711451.080    92999669.57847
  22196077.860   116641189.25809  22196077.260    90889250.68648
  24136556.460   126838427.07508  24136554.580    98835113.07145
 15 02 23 00 53 30.0000000  0  6G16G18G21G22G27G31
  20964890.200   110171262.94209  20964886.240    85847714.75448
  21881446.560   114987846.09709  21881442.780    89600939.70547
