     2.11           OBSERVATION DATA    G                   RINEX VERSION / TYPE
SPIDER V4,0,0,3554                      2015 03 24 07:40    PGM / RUN BY / DATE 
CNAJ                                                        MARKER NAME         
CNAJ                                                        MARKER NUMBER       
                                                            OBSERVER / AGENCY   
496642              LEICA GRX1200+GNSS  8.10/4.007          REC # / TYPE / VERS 
10321018            LEIAR25         NONE                    ANT # / TYPE        
  5206098.7325   612081.0247  3621806.3029                  APPROX POSITION XYZ 
        0.0720        0.0000        0.0000                  ANTENNA: DELTA H/E/N
     1     1                                                WAVELENGTH FACT L1/2
     4    C1    L1    P2    L2                              # / TYPES OF OBSERV 
    30.000                                                  INTERVAL            
  2015    02    23    00    00    0.0000000     GPS         TIME OF FIRST OBS   
  2015    02    23    23    59   30.0000000     GPS         TIME OF LAST OBS    
    16                                                      LEAP SECONDS        
    30                                                      # OF SATELLITES     
   G 1   330   330   330   330                              PRN / # OF OBS      
   G 2   825   825   823   823                              PRN / # OF OBS      
   G 3   380   380   380   380                              PRN / # OF OBS      
   G 4   199   199   199   199                              PRN / # OF OBS      
   G 5   599   599   599   599                              PRN / # OF OBS      
   G 6   677   676   672   671                              PRN / # OF OBS      
   G 7   562   562   561   561                              PRN / # OF OBS      
   G 9   664   664   662   662                              PRN / # OF OBS      
   G10   630   630   630   630                              PRN / # OF OBS      
   G11   234   234   234   234                              PRN / # OF OBS      
   G12   798   797   795   794                              PRN / # OF OBS      
   G13   791   790   790   790                              PRN / # OF OBS      
   G14   480   480   477   477                              PRN / # OF OBS      
   G15   701   700   700   700                              PRN / # OF OBS      
   G16   140   140   140   140                              PRN / # OF OBS      
   G17   777   777   777   777                              PRN / # OF OBS      
   G18   428   427   426   426                              PRN / # OF OBS      
   G19    12    12    12    12                              PRN / # OF OBS      
   G20   672   672   672   672                              PRN / # OF OBS      
   G21   384   384   380   380                              PRN / # OF OBS      
   G22    12    12    12    12                              PRN / # OF OBS      
   G23   470   470   470   470                              PRN / # OF OBS      
   G24   828   827   827   827                              PRN / # OF OBS      
   G25   804   804   804   804                              PRN / # OF OBS      
   G27    87    87    87    87                              PRN / # OF OBS      
   G28   583   583   578   578                              PRN / # OF OBS      
   G29   672   672   671   671                              PRN / # OF OBS      
   G30   610   610   603   603                              PRN / # OF OBS      
   G31   635   635   635   635                              PRN / # OF OBS      
   G32   221   221   220   220                              PRN / # OF OBS      
BIT 2 OF LLI FLAGS DATA COLLECTED UNDER A/S CONDITION       COMMENT             
SNR is mapped to RINEX snr flag value [2-9]                 COMMENT             
Lx:     = 25dBHz -> 1; 26-27dBHz -> 2; 28-31dBHz -> 3       COMMENT             
       32-35dBHz -> 4; 36-38dBHz -> 5; 39-41dBHz -> 6       COMMENT             
       42-44dBHz -> 7; 45-48dBHz -> 8; >=49dBHz -> 9        COMMENT             
                                                            END OF HEADER       
 15 02 23 00 00  0.0000000  0  8G16G18G21G22G25G27G29G31
  22403812.700   117732835.35408  22403808.580    91739870.94345
  22914895.260   120418663.60608  22914891.380    93832710.15046
  21022833.760   110475858.32908  21022829.000    86085113.94447
  24526650.940   128888425.60707  24526653.560   100432502.38042
  24095981.920   126625307.39807  24095980.880    98669087.51344
  23577251.860   123899313.45508  23577250.240    96544934.68345
  23250795.480   122184128.71108  23250792.460    95208454.12643
  22319276.160   117288568.20809  22319273.360    91393699.39746
 15 02 23 00 00 30.0000000  0  8G16G18G21G22G25G27G29G31
  22388272.240   117651171.28608  22388268.180    91676236.60245
  22901578.000   120348681.65508  22901574.860    93778178.79946
  21027394.360   110499825.48407  21027389.820    86103789.65647
  24508882.360   128795053.95807  24508889.620   100359745.85741
  24114246.500   126721287.10007  24114244.980    98743876.85444
  23564164.940   123830540.10108  23564163.160    96491345.04745
  23264094.940   122254017.15408  23264093.320    95262912.64143
  22334394.480   117368015.63609  22334391.580    91455606.45246
 15 02 23 00 01  0.0000000  0  8G16G18G21G22G25G27G29G31
  22372762.780   117569669.96608  22372758.540    91612729.07844
  22888297.900   120278895.66908  22888295.560    93723800.17046
  21032024.320   110524156.88208  21032019.980    86122749.18047
  24491095.800   128701587.63007  24491105.160   100286915.42942
  24132543.640   126817438.22408  24132541.980    98818799.76544
  23551091.580   123761838.01708  23551089.700    96437810.98845
  23277398.580   122323927.19208  23277397.120    95317387.98343
  22349566.180   117447743.86009  22349563.080    91517732.32046
 15 02 23 07 03  0.0000000  0 10G01G03G04G09G11G17G19G23G31G32
  20420412.780   107309991.68708  20420414.420    83618182.15048
  20583178.160   108165329.98909  20583177.760    84284672.06148
  21566467.580   113332551.29009  21566466.100    88311073.50547
  23849179.120   125328282.73208  23849181.520    97658412.91845
  20890779.220   109781786.07209  20890777.300    85544239.39747
  22825531.620   119948977.04909  22825527.720    93466719.29245
  24925319.060   130983435.51305  24925321.520   102065025.06845
  21659323.560   113820511.85108  21659319.800    88691293.13746
  23915276.780   125675628.52408  23915276.200    97929054.64845
  21940577.420   115298511.56809  21940575.460    89842988.35647
 15 02 23 07 03 30.0000000  0 10G01G03G04G09G11G17G19G23G31G32
  20422006.540   107318365.75408  20422008.080    83624707.39948
  20582505.360   108161793.51509  20582504.820    84281916.36048
  21578509.840   113395833.76709  21578508.340    88360384.49847
  23828606.820   125220175.31408  23828609.360    97574173.41745
  20902439.380   109843060.54809  20902437.420    85591985.69347
  22813530.960   119885912.83408  22813527.120    93417578.33846
  24946274.640   131093555.63006  24946276.540   102150832.67745
  21645391.340   113747295.72609  21645387.140    88634241.62146
  23912204.580   125659485.10208  23912204.160    97916475.31545
  21953672.140   115367324.04009  21953670.120    89896608.41647
 15 02 23 07 04  0.0000000  0 10G01G03G04G09G11G17G19G23G31G32
  20423672.660   107327119.82008  20423674.020    83631528.74648
  20581879.480   108158502.68309  20581878.600    84279352.06748
  21590612.880   113459435.74709  21590611.440    88409944.45647
  23808064.340   125112224.64908  23808066.900    97490056.05944
  20914181.720   109904766.42209  20914179.720    85640068.15247
  22801617.760   119823308.64309  22801614.300    93368795.83946
  24967230.680   131203676.12307  24967231.880   102236640.65646
  21631530.520   113674454.00809  21631525.880    88577481.83946
  23909226.640   125643836.99408  23909226.480    97904281.95145
  21966787.060   115436242.70809  21966785.000    89950311.22446
 15 02 23 07 04 30.0000000  0 10G01G03G04G09G11G17G19G23G31G32
  20425411.180   107336254.43308  20425412.300    83638646.62848
  20581300.140   108155456.50509  20581298.980    84276978.41748
  21602776.600   113523356.55109  21602775.160    88459752.85248
  23787552.140   125004432.58708  23787554.740    97406062.27945
  20926005.780   109966901.27309  20926003.720    85688484.88647
  22789792.300   119761165.98809  22789789.380    93320372.99746
  24988186.240   131313794.37407  24988186.920   102322446.86946
  21617741.180   113601988.07009  21617736.380    88521014.89746
  23906343.000   125628685.24207  23906343.440    97892475.41445
  21979921.860   115505266.04609  21979919.740    90004095.60446
 15 02 23 07 05  0.0000000  0 10G01G03G04G09G11G17G19G23G31G32
  20427221.440   107345766.19208  20427222.260    83646058.36348
  20580766.240   108152649.88209  20580764.940    84274791.43248
  21615000.080   113587591.32209  21614998.540    88509805.88848
  23767069.820   124896797.03208  23767072.420    97322190.45344
  20937910.640   110029460.38109  20937908.540    85737232.19847
  22778054.340   119699483.33608  22778052.060    93272308.57047
  25009140.020   131423904.00707  25009140.400   102408246.32745
  21604022.840   113529895.69909  21604018.040    88464839.02446
  23903553.140   125614027.19508  23903554.160    97881053.56645
  21993075.380   115574388.43609  21993073.180    90057957.15946
 15 02 23 07 05 30.0000000  0 10G01G03G04G09G11G17G19G23G31G32
  20429102.480   107355650.82708  20429103.220    83653760.65448
  20580276.620   108150077.08509  20580275.420    84272786.63948
  21627282.300   113652134.56409  21627280.640    88560099.28648
  23746616.820   124789315.08508  23746619.400    97238438.30545
  20949895.100   110092437.90609  20949892.900    85786305.55747
  22766403.240   119638257.17008  22766401.520    93224599.85747
  25030090.660   131533997.66708  25030090.860   102494033.38045
  21590374.800   113458173.10409  21590370.000    88408951.28746
  23900856.640   125599858.92908  23900858.020    97870013.42145
  22006246.540   115643603.51809  22006244.100    90111890.95845
 15 02 23 07 06  0.0000000  0 10G01G03G04G09G11G17G19G23G31G32
  20431054.800   107365911.52508  20431055.760    83661755.98948
  20579831.760   108147739.72409  20579830.760    84270965.30448
  21639623.600   113716988.28109  21639621.820    88610634.61747
  23726193.920   124681991.33508  23726196.440    97154809.46245
  20961959.400   110155834.60209  20961957.000    85835705.55147
  22754839.760   119577491.83108  22754838.480    93177250.25147
  25051038.140   131644075.25808  25051038.040   102579807.91345
  21576797.740   113386824.22109  21576792.860    88353354.76747
  23898254.160   125586184.23608  23898255.720    97859357.86045
  22019435.520   115712912.44808  22019432.480    90165897.90545
 15 02 23 07 06 30.0000000  0 10G01G03G04G09G11G17G19G23G31G32
  20433079.240   107376552.15208  20433080.600    83670047.37048
  20579432.180   108145640.07009  20579431.340    84269329.18948
  21652024.460   113782154.72209  21652022.560    88661413.61748
  23705802.020   124574830.96708  23705804.600    97071307.93045
  20974103.820   110219652.10209  20974100.960    85885433.46147
  22743364.840   119517192.43508  22743363.980    93130263.70446
  25071982.480   131754137.20707  25071982.220   102665570.24844
  21563292.460   113315853.76109  21563287.540    88298053.12046
  23895746.580   125573007.66008  23895748.180    97849090.45744
  22032642.600   115782317.04408  22032638.880    90219979.40045
 15 02 23 07 07  0.0000000  0 10G01G03G04G09G11G17G19G23G31G32
  20435175.720   107387571.32308  20435177.520    83678633.70848
  20579077.320   108143775.21809  20579076.540    84267876.04248
  21664484.360   113847631.42109  21664482.380    88712434.38548
  23685441.120   124467833.98108  23685443.740    96987933.70045
  20986327.700   110283887.18509  20986324.180    85935486.76047
  22731978.460   119457358.54608  22731978.100    93083639.87647
  25092922.880   131864179.26307  25092922.460   102751317.06945
  21549858.920   113245260.96009  21549854.000    88243045.75546
  23893333.800   125560328.16308  23893335.240    97839210.39244
  22045867.040   115851813.90308  22045863.220    90274132.76844
 15 02 23 07 07 30.0000000  0 10G01G03G04G09G11G17G19G23G31G32
  20437345.140   107398972.62708  20437347.100    83687517.82348
  20578767.500   108142147.24209  20578766.660    84266607.47748
  21677003.640   113913420.67609  21677001.780    88763698.68847
  23665112.220   124361005.36108  23665114.660    96904690.65645
  20998631.260   110348541.42409  20998626.920    85985866.68446
  22720681.720   119397995.54808  22720681.800    93037383.00546
  25113859.520   131974201.59407  25113858.840   102837048.54744
  21536498.060   113175050.22508  21536493.100    88188336.09446
  23891016.460   125548150.15508  23891017.660    97829721.10644
  22059109.200   115921404.67708  22059105.440    90328359.29845
 15 02 23 07 08  0.0000000  0 10G01G03G04G09G11G17G19G23G31G32
  20439586.860   107410752.29908  20439588.660    83696696.76148
  20578501.680   108140750.86409  20578500.720    84265519.37347
  21689581.400   113979517.20409  21689579.680    88815202.43347
  23644814.840   124254342.72608  23644817.080    96821576.96845
  21011013.380   110413609.11009  21011008.380    86036568.76746
  22709474.060   119339100.21008  22709474.520    92991490.52446
  25134791.160   132084197.62107  25134790.060   102922759.56044
  21523209.200   113105218.58908  21523204.500    88133921.84446
  23888793.820   125536470.20308  23888794.620    97820619.89344
  22072368.180   115991083.35508  22072365.040    90382654.32545
 15 02 23 07 08 30.0000000  0 10G01G03G04G09G11G17G19G23G31G32
  20441901.520   107422914.09109  20441902.940    83706173.46248
  20578280.320   108139588.33109  20578279.180    84264613.48247
  21702218.140   114045923.53909  21702216.520    88866947.59147
  23624549.900   124147851.23207  23624552.020    96738596.61845
  21023474.420   110479091.94709  21023469.120    86087594.33447
  22698356.420   119280677.57408  22698356.880    92945966.39046
  25155717.800   132194167.86706  25155716.620   103008450.40945
  21509993.160   113035770.35508  21509989.080    88079806.34946
  23886666.700   125525292.32208  23886667.120    97811909.92444
  22085644.540   116060851.89708  22085641.980    90437019.38145
 15 02 23 07 09  0.0000000  0  9G01G03G04G09G11G17G23G31G32
  20444290.460   107435466.11609  20444291.500    83715954.24448
  20578104.740   108138666.26709  20578103.360    84263894.98047
  21714915.100   114112646.62009  21714913.620    88918939.56247
  23604319.180   124041540.34307  23604321.340    96655757.01844
  21036015.500   110544995.49409  21036010.220    86138947.73947
  22687330.640   119222737.53708  22687330.900    92900818.31145
  21496851.700   112966714.54108  21496848.480    88025996.65946
  23884636.720   125514625.03108  23884637.160    97803597.82744
  22098939.400   116130716.37408  22098937.220    90491459.19946
 15 02 23 07 09 30.0000000  0  9G01G03G04G09G11G17G23G31G32
  20446750.960   107448394.82709  20446751.740    83726028.54448
  20577972.140   108137969.55509  20577970.540    84263352.07747
  21727669.380   114179671.19409  21727668.160    88971166.45747
  23584120.320   123935397.89907  23584122.720    96573048.68144
  21048633.760   110611304.73009  21048628.780    86190617.24947
  22676394.360   119165267.39208  22676394.100    92856036.35546
  21483782.680   112898038.44508  21483780.160    87972482.84546
  23882701.460   125504455.47308  23882702.180    97795673.57244
  22112249.780   116200661.25908  22112247.900    90545961.67146
 15 02 23 07 10  0.0000000  0  9G01G03G04G09G11G17G23G31G32
  20449284.200   107461706.27109  20449284.900    83736401.07148
  20577883.380   108137502.87609  20577881.720    84262988.42147
  21740482.000   114247002.31409  21740480.920    89023632.21347
  23563955.080   123829431.37607  23563957.620    96490477.43644
  21061329.940   110678023.85009  21061325.440    86242606.14747
  22665548.940   119108274.19108  22665548.200    92811626.03645
  21470787.560   112829748.88609  21470785.240    87919270.20546
  23880862.140   125494790.16508  23880862.920    97788142.22644
  22125576.360   116270690.79709  22125574.500    90600530.09546
 15 02 23 07 10 30.0000000  0  9G01G03G04G09G11G17G23G31G32
  20451890.240   107475400.49109  20451890.940    83747071.85348
  20577838.180   108137264.75409  20577836.600    84262802.84947
  21753352.760   114314638.73809  21753351.660    89076335.86047
  23543823.960   123723642.25107  23543826.620    96408044.42145
  21074103.560   110745150.30709  21074099.680    86294912.43447
  22654794.500   119051758.96708  22654793.640    92767588.16846
  21457866.360   112761846.32909  21457863.780    87866359.10146
  23879118.820   125485629.63408  23879119.740    97781004.17143
  22138918.700   116340802.94609  22138916.700    90655162.87847
 15 02 23 07 11  0.0000000  0  9G01G03G04G09G11G17G23G31G32
  20454569.160   107489477.64109  20454569.860    83758041.03248
  20577836.260   108137253.91109  20577834.780    84262794.38948
  21766281.380   114382578.95009  21766280.220    89129276.24447
  23523727.220   123618032.12908  23523729.740    96325750.90045
  21086954.320   110812682.69709  21086951.060    86347535.03148
  22644131.340   118995723.54108  22644130.700    92723924.21046
  21445019.040   112694331.67009  21445015.960    87813750.29046
  23877471.740   125476974.16508  23877472.940    97774259.68343
  22152276.340   116410996.00009  22152274.140    90709858.71947
 15 02 23 07 11 30.0000000  0  9G01G03G04G09G11G17G23G31G32
  20457321.520   107503940.33409  20457322.160    83769310.63748
  20577877.700   108137471.53509  20577876.440    84262963.95048
  21779268.160   114450824.73209  21779266.920    89182454.72947
  23503665.560   123512605.03208  23503667.880    96243599.98145
  21099882.160   110880621.08009  21099879.680    86400473.97348
  22633560.220   118940171.20608  22633559.800    92680636.66046
  21432246.260   112627208.49009  21432242.480    87761446.49946
  23875921.420   125468826.85508  23875922.640    97767911.17743
  22165649.500   116481270.81209  22165647.120    90764618.27447
 15 02 23 07 12  0.0000000  0  9G01G03G04G09G11G17G23G31G32
  20460147.540   107518789.86609  20460148.080    83780881.67648
  20577962.480   108137917.44309  20577961.520    84263311.38648
  21792313.060   114519375.78109  21792311.660    89235871.08447
  23483639.340   123407363.63308  23483641.400    96161593.77744
  21112887.220   110948965.13409  21112885.420    86453729.03548
  22623081.760   118885104.69509  22623081.320    92637727.69146
  21419548.320   112560478.64909  21419543.860    87709449.20246
  23874468.220   125461189.31608  23874469.000    97761959.80243
  22179037.940   116551626.71909  22179035.480    90819441.00947
 15 02 23 07 12 30.0000000  0  9G01G03G04G09G11G17G23G31G32
  20463047.180   107534026.43709  20463047.640    83792754.30248
  20578090.460   108138590.43409  20578089.780    84263835.78948
  21805415.900   114588231.10309  21805414.380    89289524.54647
  23463648.720   123302309.55108  23463650.340    96079733.53844
  21125969.220   111017712.99208  21125968.000    86507298.74248
  22612696.200   118830525.36909  22612695.600    92595198.33946
  21406925.500   112494143.31409  21406920.520    87657759.33146
  23873112.160   125454062.12408  23873112.340    97756406.13643
  22192441.360   116622062.09608  22192438.920    90874325.66947
 15 02 23 07 13  0.0000000  0  9G01G03G04G09G11G17G23G31G32
  20466020.560   107549651.14209  20466021.020    83804929.37248
  20578261.680   108139490.22009  20578261.220    84264536.91447
  21818576.580   114657390.19909  21818574.880    89343414.69847
  23443694.100   123197445.37608  23443695.080    95998021.25143
  21139127.900   111086863.51809  21139127.080    86561182.20348
  22602403.760   118776435.13409  22602402.900    92553050.10047
  21394378.060   112428204.05109  21394372.620    87606378.06546
  23871853.600   125447446.77508  23871852.200    97751251.26541
  22205859.720   116692576.21908  22205857.300    90929271.68046
 15 02 23 07 13 30.0000000  0  9G01G03G04G09G11G17G23G31G32
  20469067.900   107565665.24809  20469068.400    83817407.86348
  20578476.020   108140616.64709  20578475.740    84265414.64048
  21831795.040   114726853.20809  21831793.120    89397541.66447
  23423775.940   123092773.74808  23423775.700    95916458.96043
  21152363.140   111156415.95108  21152362.620    86615378.83648
  22592204.800   118722836.48609  22592203.700    92511284.91647
  21381906.280   112362662.73909  21381900.460    87555306.88446
  23870692.900   125441345.05908  23870689.980    97746496.60141
  22219292.860   116763168.59208  22219290.380    90984278.66346
 15 02 23 07 14  0.0000000  0  9G01G03G04G09G11G17G23G31G32
  20472189.800   107582071.70209  20472190.400    83830192.08748
  20578733.720   108141971.34009  20578733.800    84266470.24148
  21845071.640   114796621.89909  21845069.540    89451906.83146
  23403895.040   122988299.11908  23403893.740    95835050.13143
  21165675.080   111226371.13909  21165674.740    86669889.31348
  22582100.120   118669733.89609  22582098.740    92469906.26647
  21369510.740   112297523.00109  21369504.920    87504548.63446
  23869630.540   125435760.29308  23869626.140    97742144.74041
  22232740.820   116833840.36107  22232738.440    91039347.49046
 15 02 23 07 14 30.0000000  0  9G01G03G04G09G11G17G23G31G32
  20475385.620   107598866.09909  20475386.200    83843278.60448
  20579033.620   108143548.47609  20579034.180    84267699.17248
  21858405.140   114866690.39809  21858403.000    89506505.61247
  23384050.820   122884018.49408  23384050.780    95753792.52843
  21179062.580   111296722.72909  21179062.280    86724708.68048
  22572088.960   118617123.61209  22572087.240    92428911.24647
  21357190.760   112232781.43709  21357185.240    87454100.66046
  23868665.640   125430688.20408  23868660.860    97738192.42841
  22246202.480   116904585.31207  22246200.400    91094473.35845
 15 02 23 07 15  0.0000000  0  9G01G03G04G09G11G17G23G31G32
  20478657.180   107616058.28709  20478657.720    83856675.08148
  20579377.460   108145356.57109  20579378.480    84269108.05848
  21871797.260   114937067.35909  21871795.060    89561344.74046
  23364245.500   122779943.17408  23364246.960    95672694.91144
  21192527.120   111367478.60209  21192526.700    86779843.07248
  22562173.380   118565016.69309  22562171.340    92388308.41547
  21344948.320   112168448.34408  21344943.220    87403970.97546
  23867800.180   125426139.19308  23867795.380    97734647.69943
  22259679.640   116975411.62407  22259677.480    91149662.62244
 15 02 23 07 15 30.0000000  0  9G01G03G04G09G11G17G23G31G32
  20482004.040   107633646.08909  20482004.480    83870379.84148
  20579764.680   108147392.08309  20579766.020    84270694.15748
  21885247.360   115007749.23109  21885245.220    89616421.47246
  23344479.000   122676072.45308  23344481.860    95591756.76445
  21206067.700   111438634.18409  21206067.180    86835288.93348
  22552353.200   118513411.88009  22552351.060    92348096.87647
  21332783.240   112104522.34308  21332778.600    87354158.52346
  23867033.760   125422111.13508  23867030.500    97731508.90742
  22273171.720   117046315.35507  22273169.000    91204912.20744
 15 02 23 07 16  0.0000000  0  9G01G03G04G09G11G17G23G31G32
  20485424.940   107651623.07709  20485425.260    83884387.86148
  20580193.820   108149647.27309  20580195.320    84272451.43048
  21898754.000   115078728.23609  21898752.020    89671729.72646
  23324750.640   122572401.41008  23324754.340    95510974.19745
  21219682.780   111510181.29209  21219682.120    86891039.88148
  22542627.620   118462304.17209  22542625.460    92308272.68047
  21320694.460   112040997.74608  21320690.440    87304658.84546
  23866365.180   125418597.88408  23866363.460    97728771.28243
  22286677.320   117117288.43208  22286673.960    91260215.87544
 15 02 23 07 16 30.0000000  0  9G01G03G04G09G11G17G23G31G32
  20488920.060   107669990.42209  20488920.380    83898700.05748
  20580664.820   108152122.15909  20580666.320    84274379.89348
  21912317.140   115150004.27109  21912315.420    89727269.43646
  23305061.060   122468932.69108  23305065.200    95430349.26845
  21233372.120   111582118.75809  21233371.320    86947094.98748
  22532997.080   118411695.68109  22532994.900    92268837.49347
  21308682.400   111977876.40608  21308679.160    87255473.41447
  23865794.820   125415600.88208  23865794.380    97726435.89643
  22300196.360   117188330.15608  22300192.240    91315573.05644
 15 02 23 07 17  0.0000000  0  9G01G03G04G09G11G17G23G31G32
  20492490.240   107688752.12009  20492490.540    83913319.53448
  20581178.100   108154819.16909  20581179.500    84276481.43348
  21925937.420   115221580.02209  21925936.040    89783042.68346
  23285411.260   122365671.78008  23285415.400    95349886.25045
  21247136.040   111654448.43009  21247135.100    87003455.71048
  22523462.540   118361591.48509  22523460.200    92229795.26046
  21296748.020   111915163.16808  21296745.580    87206605.97447
  23865323.480   125413124.58808  23865323.700    97724506.32742
  22313729.140   117259442.91208  22313724.740    91370985.57544
 15 02 23 07 17 30.0000000  0  9G01G03G04G09G11G17G23G31G32
  20496135.740   107707909.74309  20496136.120    83928247.52148
  20581733.740   108157738.71409  20581735.000    84278756.37948
  21939614.880   115293455.74909  21939613.720    89839049.67546
  23265801.640   122262621.71408  23265805.520    95269587.51545
  21260974.640   111727170.29909  21260973.460    87060122.05247
  22514024.420   118311994.20309  22514021.900    92191148.00047
  21284891.740   111852859.66408  21284890.020    87158057.82747
  23864951.540   125411170.46608  23864951.720    97722983.61541
  22327275.500   117330626.81808  22327271.440    91426453.52545
 15 02 23 07 18  0.0000000  0  9G01G03G04G09G11G17G23G31G32
  20499856.640   107727463.85609  20499857.260    83943484.46048
  20582331.600   108160880.05109  20582332.660    84281204.16248
  21953349.480   115365630.97009  21953348.420    89895290.03446
  23246232.480   122159784.54308  23246236.000    95189454.66545
  21274887.520   111800282.42209  21274885.880    87117092.49047
  22504683.040   118262905.52909  22504680.460    92152897.07346
  21273114.080   111790967.49109  21273112.720    87109830.19047
  23864679.220   125409739.71508  23864679.240    97721868.70843
  22340835.040   117401880.61408  22340831.680    91481975.93945
 15 02 23 07 18 30.0000000  0  9G01G03G04G09G11G17G23G31G32
  20503652.320   107747411.16409  20503653.280    83959027.79448
  20582970.800   108164238.65709  20582971.640    84283821.22348
  21967140.200   115438100.79409  21967139.220    89951759.95946
  23226703.340   122057158.45108  23226706.740    95109486.28645
  21288873.680   111873779.38809  21288871.500    87174362.80647
  22495437.900   118214323.01009  22495435.580    92115040.53446
  21261414.640   111729483.99909  21261413.120    87061920.98147
  23864505.940   125408828.96208  23864505.760    97721159.03142
  22354406.840   117473199.37808  22354404.140    91537548.95046
 15 02 23 07 19  0.0000000  0  9G01G03G04G09G11G17G23G31G32
  20507523.740   107767756.80909  20507525.080    83974881.51948
  20583652.020   108167818.46609  20583652.620    84286610.64748
  21980987.840   115510869.30409  21980986.920    90008462.62247
  23207215.560   121954750.14308  23207219.000    95029687.60445
  21302933.660   111947664.46109  21302930.920    87231935.55047
  22486290.160   118166252.91809  22486288.300    92077583.31547
  21249794.420   111668415.32109  21249792.380    87014335.00547
  23864432.780   125408443.68108  23864432.140    97720858.79843
  22367991.620   117544586.88508  22367989.440    91593175.54546
 15 02 23 07 19 30.0000000  0  9G01G03G04G09G11G17G23G31G32
  20511470.680   107788499.18309  20511472.160    83991044.38348
  20584374.760   108171616.55609  20584375.300    84289570.16148
  21994891.720   115583933.34109  21994890.760    90065395.56946
  23187769.080   121852559.44408  23187772.520    94950058.52144
  21317066.660   112021934.09809  21317063.460    87289807.94147
  22477239.820   118118695.00208  22477238.440    92040525.16247
  21238252.880   111607760.10409  21238250.140    86967071.20147
  23864459.480   125408582.42508  23864458.460    97720966.91143
  22381588.780   117616039.66108  22381586.860    91648853.00746
 15 02 23 07 20  0.0000000  0  9G01G03G04G09G11G17G23G31G32
  20515493.720   107809640.89009  20515495.160    84007518.40948
  20585139.360   108175634.37809  20585139.960    84292700.90248
  22008852.100   115657294.42709  22008851.080    90122559.97146
  23168364.800   121750590.62008  23168368.380    94870602.30244
  21331272.960   112096588.68009  21331269.320    87347980.29946
  22468287.580   118071652.42108  22468286.500    92003868.59146
  21226790.480   111547521.74009  21226787.080    86920132.21947
  23864586.460   125409247.88808  23864585.320    97721485.43043
  22395198.460   117687558.85408  22395196.860    91704582.19646
 15 02 23 07 20 30.0000000  0  9G01G03G04G09G11G17G23G31G32
  20519592.240   107831178.93109  20519593.600    84024301.24348
  20585945.020   108179867.71909  20585945.720    84295999.57948
  22022868.140   115730948.02209  22022867.000    90179952.30146
  23149002.600   121648842.06608  23149005.940    94791317.71544
  21345551.640   112171623.07409  21345547.480    87406448.61747
  22459433.080   118025123.40908  22459432.260    91967612.19046
  21215406.720   111487697.92009  21215402.720    86873516.25147
  23864813.080   125410437.15008  23864812.040    97722412.08944
  22408819.900   117759140.04108  22408818.700    91760359.67647
 15 02 23 07 21  0.0000000  0  9G01G03G04G09G11G17G23G31G32
  20523767.020   107853117.38009  20523768.260    84041396.09448
  20586792.260   108184319.47709  20586793.140    84299468.46348
  22036940.440   115804897.11209  22036939.100    90237574.90346
  23129683.520   121547319.51108  23129686.340    94712209.25544
  21359903.060   112247039.16009  21359898.700    87465214.34547
  22450677.420   117979113.10908  22450676.780    91931759.97146
  21204102.500   111428293.18109  21204097.940    86827226.83747
  23865140.080   125412154.64308  23865138.900    97723750.35244
  22422453.540   117830785.66508  22422452.680    91816187.38246
 15 02 23 07 21 30.0000000  0  9G01G03G04G09G11G17G23G31G32
  20528017.800   107875455.19609  20528019.020    84058802.13748
  20587680.540   108188987.40209  20587681.600    84303105.77648
  22051068.480   115879139.37609  22051067.040    90295425.94446
  23110407.640   121446023.31308  23110409.600    94633277.13644
  21374326.660   112322834.05809  21374322.240    87524275.26447
  22442020.640   117933621.57508  22442020.020    91896312.01247
  21192877.820   111369307.28409  21192872.780    86781263.79747
  23865567.200   125414399.23408  23865566.120    97725499.34944
  22436098.800   117902493.27607  22436098.280    91872063.38147
 15 02 23 07 22  0.0000000  0  9G01G03G04G09G11G17G23G31G32
  20532344.100   107898189.95309  20532345.340    84076517.49148
  20588609.140   108193867.95009  20588610.460    84306908.77748
  22065251.640   115953671.14409  22065250.200    90353502.57546
  23091174.760   121344952.69008  23091175.440    94554520.78443
  21388821.420   112399003.29609  21388817.220    87583627.86947
  22433462.440   117888647.08209  22433461.380    91861266.93846
  21181732.500   111310738.72009  21181727.060    86735625.94346
  23866094.060   125417169.01308  23866093.020    97727657.58844
  22449754.860   117974258.94307  22449754.880    91927984.60346
 15 02 23 07 22 30.0000000  0  9G01G03G04G09G11G17G23G31G32
  20536746.580   107921325.41209  20536747.840    84094545.06848
  20589578.500   108198963.73409  20589580.260    84310879.47948
  22079490.320   116028494.78809  22079488.820    90411806.62746
  23071985.840   121244112.91608  23071985.280    94475944.28844
  21403387.660   112475548.46009  21403383.820    87643273.39547
  22425003.760   117844194.77109  22425001.820    91826628.75046
  21170667.400   111252591.55809  21170661.440    86690316.43346
  23866721.420   125420467.67307  23866720.700    97730227.89243
  22463422.160   118046085.05507  22463423.040    91983952.90346
 15 02 23 07 23  0.0000000  0  9G01G03G04G09G11G17G23G31G32
  20541225.660   107944863.00809  20541226.820    84112886.01148
  20590588.880   108204275.05109  20590591.020    84315018.15348
  22093784.580   116103610.53609  22093783.040    90470338.31546
  23052841.420   121143506.97508  23052840.960    94397550.03444
  21418025.300   112552469.15509  21418021.800    87703211.55147
  22416644.900   117800266.95009  22416642.140    91792399.25246
  21159682.900   111194867.86309  21159676.280    86645336.91046
  23867449.720   125424296.70208  23867449.480    97733211.51044
  22477101.280   118117971.45907  22477102.600    92039968.21146
 15 02 23 07 23 30.0000000  0  9G01G03G04G09G11G17G23G31G32
  20545781.260   107968802.21409  20545782.260    84131539.89348
  20591640.140   108209800.26709  20591642.440    84319323.50548
  22108133.960   116179016.52409  22108132.360    90529096.15446
  23033741.600   121043135.87708  23033741.800    94319338.82345
  21432733.780   112629762.62909  21432730.600    87763440.17547
  22408385.800   117756864.05609  22408382.540    91758578.79546
  21148778.940   111137567.72409  21148771.820    86600687.41846
  23868278.880   125428655.70608  23868279.320    97736608.08244
  22490791.860   118189916.22707  22490793.220    92096028.99945
 15 02 23 07 24  0.0000000  0  9G01G03G04G09G11G17G23G31G32
  20550414.080   107993146.86809  20550414.900    84150509.71048
  20592732.740   108215542.09209  20592735.060    84323797.64648
  22122539.000   116254715.51209  22122537.400    90588082.31646
  23014687.380   120943005.00708  23014688.380    94241314.81345
  21447513.420   112707430.67909  21447510.500    87823960.67847
  22400227.360   117713990.73109  22400223.980    91725170.98246
  21137956.380   111080695.73509  21137949.020    86556371.55245
  23869209.700   125433548.77007  23869210.920    97740420.81145
  22504494.400   118261921.82908  22504495.200    92152137.21445
 15 02 23 07 24 30.0000000  0  9G01G03G04G09G11G17G23G31G32
  20555122.300   108017888.04009  20555123.040    84169788.50848
  20593864.720   108221490.57109  20593867.120    84328432.81748
  22136997.740   116330697.19309  22136996.080    90647288.75245
  22995677.420   120843107.04508  22995679.040    94163472.28145
  21462362.300   112785462.25409  21462359.420    87884764.46647
  22392168.180   117671639.23109  22392164.880    91692169.77946
  21127213.600   111024243.54109  21127206.340    86512382.81045
  23870240.680   125438966.69308  23870242.440    97744642.52445
  22518206.780   118333978.01608  22518206.640    92208284.86544
 15 02 23 07 25  0.0000000  0  9G01G03G04G09G11G17G23G31G32
  20559907.400   108043034.18309  20559908.240    84189382.86748
  20595037.480   108227653.03609  20595039.920    84333234.72748
  22151511.540   116406968.64409  22151509.700    90706720.98446
  22976713.660   120743451.97408  22976715.740    94085819.05045
  21477281.400   112863863.73109  21477278.700    87945856.45847
  22384209.980   117629818.51609  22384206.980    91659582.18647
  21116552.320   110968220.03609  21116545.240    86468728.11745
  23871373.320   125444918.01308  23871375.680    97749279.90245
  22531930.160   118406091.84008  22531928.500    92264477.45044
 15 02 23 07 25 30.0000000  0  9G01G03G04G09G11G17G23G31G32
  20564768.860   108068582.35009  20564769.860    84209290.48048
  20596250.260   108234025.49709  20596252.660    84338200.27748
  22166079.760   116483525.66909  22166077.540    90766375.73345
  22957795.820   120644038.43008  22957798.140    94008354.00845
  21492269.840   112942629.71009  21492267.360    88007232.50746
  22376352.400   117588526.60709  22376349.860    91627406.63347
  21105971.960   110912623.04008  21105965.240    86425405.77745
  23872607.180   125451399.91508  23872609.720    97754330.69645
  22545663.720   118478259.07208  22545660.580    92320711.66644
 15 02 23 07 26  0.0000000  0 10G01G03G04G09G11G17G20G23G31G32
  20569706.680   108094532.53209  20569707.900    84229511.35448
  20597502.820   108240606.89009  20597505.060    84343328.62148
  22180702.060   116560367.10709  22180699.560    90826252.10746
  22938924.180   120544867.97808  22938926.620    93931078.37645
  21507327.180   113021758.35208  21507325.240    88068891.11046
  22368595.740   117547764.96809  22368593.700    91595644.28947
  24535994.600   128937517.56807  24535991.420   100470782.88255
  21095472.500   110857453.24708  21095466.680    86382416.34445
  23873942.200   125458412.41608  23873944.600    97759794.95044
  22559407.080   118550478.32808  22559403.080    92376986.37444
 15 02 23 07 26 30.0000000  0 10G01G03G04G09G11G17G20G23G31G32
  20574721.460   108120887.28409  20574722.760    84250047.46548
  20598795.500   108247398.78409  20598797.300    84348620.97348
  22195378.820   116637494.15609  22195375.900    90886351.04145
  22920099.500   120445944.71208  22920102.040    93853995.34545
  21522453.620   113101250.09408  21522452.120    88130832.68047
  22360940.640   117507536.92309  22360939.000    91564297.72147
  24520766.280   128857494.59708  24520764.860   100408427.28746
  21085054.740   110802713.82608  21085050.180    86339762.27445
  23875378.700   125465958.12408  23875380.820    97765674.73745
  22573160.440   118622750.82308  22573156.460    92433302.57345
 15 02 23 07 27  0.0000000  0 10G01G03G04G09G11G17G20G23G31G32
  20579813.940   108147650.26309  20579815.300    84270901.68548
  20600128.880   108254403.82009  20600129.980    84354079.42948
  22210110.360   116714909.49409  22210107.080    90946674.61745
  22901322.760   120347273.95708  22901325.400    93777109.08145
  21537649.560   113181106.93508  21537648.800    88193058.70746
  22353387.900   117467846.69309  22353386.620    91533370.24347
  24505551.340   128777541.15607  24505550.840   100346125.89446
  21074720.140   110748408.84908  21074716.740    86297446.70445
  23876917.160   125474040.74608  23876918.960    97771972.90145
  22586924.260   118695079.14708  22586920.600    92489662.25645
 15 02 23 07 27 30.0000000  0 10G01G03G04G09G11G17G20G23G31G32
  20584984.540   108174823.08909  20584985.920    84292075.26348
  20601502.980   108261622.58609  20601503.280    84359704.43148
  22224896.720   116792613.24709  22224893.300    91007222.91245
  22882594.540   120248858.84508  22882597.480    93700422.02245
  21552914.940   113261328.19408  21552914.680    88255568.71047
  22345938.000   117428696.66109  22345936.980    91502863.68747
  24490350.120   128697658.87807  24490349.880   100283879.92145
  21064469.320   110694540.25809  21064466.680    86255471.17846
  23878557.920   125482661.70608  23878559.400    97778690.51545
  22600698.680   118767463.47208  22600695.460    92546065.53945
 15 02 23 07 28  0.0000000  0 10G01G03G04G09G11G17G20G23G31G32
  20590232.400   108202400.94309  20590233.760    84313564.44048
  20602916.540   108269049.33809  20602916.400    84365491.50348
  22239736.860   116870599.51109  22239733.380    91067991.37045
  22863914.440   120150696.26208  22863917.640    93623931.70244
  21568248.580   113341906.69509  21568248.640    88318357.08547
  22338590.340   117390083.51909  22338589.340    91472775.49848
  24475161.340   128617842.19907  24475161.340   100221685.12445
  21054301.540   110641104.76409  21054299.240    86213833.12546
  23880300.020   125491816.21708  23880301.160    97785823.89445
  22614482.580   118839897.83508  22614479.860    92602507.81646
 15 02 23 07 28 30.0000000  0 10G01G03G04G09G11G17G20G23G31G32
  20595558.000   108230386.18009  20595559.200    84335371.07148
  20604369.880   108276685.48009  20604369.580    84371441.73148
  22254631.000   116948869.39608  22254627.600    91128980.82345
  22845283.440   120052790.11108  22845286.580    93547641.21344
  21583650.420   113422842.90709  21583650.400    88381424.19547
  22331345.540   117352010.67209  22331344.400    91443108.32448
  24459985.440   128538093.27307  24459985.320   100159543.09445
  21044216.940   110588104.74609  21044214.540    86172534.41247
  23882143.900   125501506.67308  23882144.980    97793374.89044
  22628276.200   118912383.38708  22628273.860    92658989.98746
 15 02 23 07 29  0.0000000  0 10G01G03G04G09G11G17G20G23G31G32
  20600960.560   108258774.83209  20600961.540    84357492.04848
  20605862.100   108284526.07209  20605861.800    84377551.26448
  22269578.100   117027417.46208  22269575.020    91190187.03345
  22826701.100   119955138.06008  22826703.580    93471548.67344
  21599119.360   113504131.34009  21599119.360    88444765.76247
  22324202.880   117314474.63709  22324201.560    91413859.42648
  24444821.640   128458407.77805  24444821.420   100097450.44545
  21034214.640   110535536.73009  21034211.800    86131572.32547
  23884088.780   125511728.97307  23884089.840    97801340.28045
  22642078.540   118984914.95308  22642076.480    92715508.00846
 15 02 23 07 29 30.0000000  0 10G01G03G04G09G11G17G20G23G31G32
  20606440.460   108287569.87809  20606441.320    84379929.69748
  20607393.580   108292573.16309  20607393.280    84383821.71048
  22284578.580   117106245.52708  22284575.920    91251611.43845
  22808168.180   119857744.70908  22808170.000    93395657.70744
  21614655.420   113585772.39708  21614655.280    88508382.11247
  22317163.020   117277478.95609  22317161.440    91385031.59748
  24429670.520   128378788.48907  24429670.120   100035409.37945
  21024295.100   110483404.42609  21024291.620    86090949.75947
  23886135.220   125522485.97507  23886136.100    97809722.32144
  22655890.000   119057494.35508  22655888.100    92772063.30746
 15 02 23 07 30  0.0000000  0 10G01G03G04G09G11G17G20G23G31G32
  20611998.280   108316774.41209  20611999.040    84402686.42548
  20608964.560   108300829.00009  20608964.420    84390254.81848
  22299632.720   117185355.71708  22299630.560    91313255.66745
  22789685.360   119760614.74308  22789686.320    93319972.01944
  21630258.640   113667767.11409  21630258.560    88572274.03147
  22310226.800   117241028.20309  22310224.900    91356628.38848
  24414532.360   128299238.04107  24414532.140    99973422.00045
  21014458.920   110431711.36509  21014454.780    86050669.46648
  23888283.860   125533780.83607  23888284.580    97818523.46844
  22669710.900   119130123.51508  22669709.000    92828657.39246
 15 02 23 07 30 30.0000000  0 10G01G03G04G09G11G17G20G23G31G32
  20617633.160   108346384.21109  20617633.920    84425758.94148
  20610574.060   108309288.37509  20610574.200    84396846.51847
  22314739.500   117264742.30008  22314737.680    91375115.25945
  22771252.020   119663745.59508  22771252.440    93244489.53544
  21645927.800   113750109.39008  21645927.940    88636436.76547
  22303393.520   117205118.73309  22303391.240    91328646.95448
  24399406.540   128219752.51606  24399406.260    99911485.16246
  21004705.420   110380454.11109  21004700.720    86010728.75348
  23890534.180   125545609.27707  23890534.260    97827740.41944
  22683540.240   119202797.04008  22683538.200    92885286.03345
 15 02 23 07 31  0.0000000  0 10G01G03G04G09G11G17G20G23G31G32
  20623345.340   108376400.53809  20623346.120    84449148.22948
  20612222.400   108317951.75509  20612222.720    84403597.18848
  22329898.960   117344405.52408  22329897.240    91437190.42445
  22752868.500   119567140.12307  22752869.220    93169212.55844
  21661662.740   113832798.39208  21661663.140    88700869.66647
  22296663.600   117169752.47809  22296661.100    91301088.78548
  24384293.140   128140332.52106  24384293.100    99849599.42345
  20995034.940   110329634.39009  20995029.840    85971128.96747
  23892886.400   125557972.26807  23892885.700    97837373.88442
  22697378.140   119275515.21708  22697375.860    92941949.46345
 15 02 23 07 31 30.0000000  0 10G01G03G04G09G11G17G20G23G31G32
  20629135.220   108406825.74009  20629136.040    84472856.13648
  20613910.000   108326820.56309  20613910.400    84410507.94348
  22345111.320   117424346.35308  22345109.760    91499481.89445
  22734535.500   119470802.34007  22734536.820    93094144.16245
  21677463.600   113915834.49008  21677464.400    88765573.02647
  22290037.660   117134932.75309  22290035.240    91273956.51048
  24369192.700   128060980.29206  24369193.100    99787766.39545
  20985448.080   110279255.29209  20985442.880    85931872.54647
  23895340.960   125570871.97407  23895339.580    97847425.55644
  22711224.760   119348279.23108  22711221.920    92998648.65445
 15 02 23 07 32  0.0000000  0 10G01G03G04G09G11G17G20G23G31G32
  20635002.800   108437660.04209  20635003.740    84496882.80748
  20615636.760   108335894.20409  20615637.220    84417578.30048
  22360376.380   117504563.71008  22360374.740    91561988.85145
  22716253.800   119374734.05907  22716255.880    93019285.79745
  21693330.200   113999215.77308  21693331.240    88830545.37447
  22283515.940   117100660.44909  22283513.620    91247250.80348
  24354105.260   127981695.54407  24354106.100    99725986.04745
  20975945.020   110229317.41009  20975939.960    85892959.91747
  23897897.860   125584308.73007  23897896.220    97857895.67944
  22725079.840   119421088.15508  22725076.560    93055382.82345
 15 02 23 07 32 30.0000000  0 10G01G03G04G09G11G17G20G23G31G32
  20640947.420   108468899.56709  20640948.400    84521225.24948
  20617401.600   108345168.00709  20617402.200    84424804.63048
  22375693.240   117585052.77609  22375691.580    91624707.53145
  22698023.360   119278933.19908  22698025.760    92944635.78645
  21709261.680   114082936.43108  21709262.820    88895782.16547
  22277097.860   117066932.81209  22277095.600    91220969.49848
  24339030.120   127902474.48907  24339031.380    99664255.31844
  20966525.180   110179817.40909  20966520.440    85854388.50247
  23900556.260   125598278.61107  23900554.600    97868781.21244
  22738942.540   119493937.26908  22738938.440    93112148.31744
 15 02 23 07 33  0.0000000  0 10G01G03G04G09G11G17G20G23G31G32
  20646968.760   108500542.87309  20646969.820    84545882.32848
  20619204.040   108354639.70909  20619204.800    84432185.15348
  22391061.300   117665810.82409  22391059.880    91687635.80046
  22679844.160   119183399.90808  22679846.420    92870194.25645
  21725257.340   114166992.65708  21725257.980    88961280.46347
  22270783.300   117033749.04709  22270781.080    91195112.00348
  24323966.940   127823315.45107  24323968.460    99602572.89244
  20957188.340   110130754.49809  20957184.140    85816157.67547
  23903315.780   125612779.61607  23903314.060    97880080.60943
  22752812.340   119566823.97008  22752807.240    93168943.12544
 15 02 23 07 33 30.0000000  0 10G01G03G04G09G11G17G20G23G31G32
  20653068.600   108532599.03909  20653069.740    84570861.11348
  20621045.640   108364317.57709  20621046.540    84439726.30948
  22406482.080   117746845.82809  22406480.880    91750779.89146
  22661718.060   119088144.89908  22661719.940    92795969.56946
  21741318.520   114251392.10209  21741318.940    89027046.18747
  22264574.140   117001119.27609  22264571.900    91169686.20548
  24308917.340   127744227.11208  24308918.460    99540945.56145
  20947936.340   110082138.30509  20947932.900    85778274.94747
  23906178.180   125627821.14307  23906176.460    97891801.22442
  22766690.680   119639756.36008  22766684.640    93225773.53443
 15 02 23 07 34  0.0000000  0 10G01G03G04G09G11G17G20G23G31G32
  20659246.100   108565062.81709  20659247.220    84596157.51948
  20622925.300   108374195.61409  20622926.280    84447423.44448
  22421954.180   117828151.11909  22421953.420    91814134.59046
  22643644.360   118993164.58909  22643645.920    92721958.92846
  21757443.460   114336127.07409  21757443.420    89093073.35446
  22258469.480   116969038.95009  22258467.240    91144688.53048
  24293880.160   127665204.03607  24293880.740    99479369.08745
  20938768.300   110033964.08309  20938765.660    85740736.60746
  23909142.480   125643397.66207  23909140.340    97903938.72643
  22780576.380   119712728.13507  22780570.180    93282634.62143
 15 02 23 07 34 30.0000000  0 10G01G03G04G09G11G17G20G23G31G32
  20665502.000   108597937.39409  20665502.900    84621774.04148
  20624843.480   108384276.24409  20624844.440    84455278.44848
  22437477.880   117909728.70008  22437477.640    91877701.45646
  22625623.860   118898463.84409  22625625.280    92648166.14446
  21773632.600   114421198.85709  21773632.300    89159362.99247
  22252470.040   116937511.89809  22252467.900    91120122.00248
  24278855.820   127586249.44507  24278855.780    99417845.97646
  20929685.040   109986235.68109  20929683.140    85703545.67146
  23912209.280   125659512.44707  23912205.600    97916495.70143
  22794469.960   119785741.73407  22794464.980    93339528.27144
 15 02 23 07 35  0.0000000  0 10G01G03G04G09G11G17G20G23G31G32
  20671836.640   108631224.75909  20671837.260    84647712.20748
  20626800.500   108394560.67109  20626801.380    84463292.25648
  22453053.540   117991579.69308  22453053.800    91941481.36446
  22607657.180   118804046.28308  22607658.540    92574594.02546
  21789885.540   114506607.41709  21789884.980    89225915.03446
  22246576.340   116906541.00809  22246574.500    91095988.82548
  24263844.760   127507365.31407  24263844.320    99356377.80445
  20920687.300   109938955.38609  20920685.640    85666703.89146
  23915378.640   125676166.72607  23915374.240    97929473.02144
  22808371.660   119858798.00507  22808368.280    93396455.12844
 15 02 23 07 35 30.0000000  0 10G01G03G04G09G11G17G20G23G31G32
  20678250.020   108664925.35709  20678250.280    84673972.38648
  20628796.280   108405048.69209  20628797.020    84471464.70747
  22468681.060   118073703.22508  22468681.620    92005473.62446
  22589744.620   118709914.09408  22589746.100    92501244.27746
  21806202.040   114592350.93208  21806201.400    89292728.08146
  22240788.580   116876127.22709  22240787.120    91072289.76748
  24248846.680   127428551.93207  24248845.920    99294964.75845
  20911775.500   109892124.45209  20911773.240    85630212.24745
  23918650.500   125693360.74206  23918646.780    97942870.96243
  22822281.780   119931896.52507  22822279.520    93453414.91444
 15 02 23 07 36  0.0000000  0 10G01G03G04G09G11G17G20G23G31G32
  20684741.760   108699037.65509  20684741.760    84700553.35748
  20630830.360   108415737.99909  20630830.900    84479794.00547
  22484359.740   118156096.40808  22484360.680    92069676.00246
  22571886.080   118616067.31108  22571887.920    92428116.94746
  21822581.600   114678426.08309  21822580.680    89359799.56246
  22235106.600   116846269.80509  22235105.520    91049024.22548
  24233861.640   127349807.20107  24233860.880    99233605.23245
  20902949.300   109845741.82209  20902946.020    85594069.92245
  23922024.540   125711093.08406  23922021.720    97956688.25943
  22836199.780   120005034.86107  22836198.100    93510405.73945
 15 02 23 07 36 30.0000000  0 10G01G03G04G09G11G17G20G23G31G32
  20691312.200   108733563.57709  20691311.960    84727456.63848
  20632902.900   108426629.88009  20632903.380    84488281.16647
  22500089.980   118238760.21008  22500091.260    92134089.26346
  22554082.040   118522509.62607  22554084.560    92355214.88546
  21839024.140   114764833.01509  21839023.200    89427129.53246
  22229531.060   116816971.69508  22229530.160    91026194.51048
  24218890.040   127271133.16707  24218889.300    99172300.82045
  20894209.060   109799809.86109  20894204.320    85558278.74945
  23925501.140   125729365.22906  23925499.620    97970926.25944
  22850125.720   120078214.12308  22850124.100    93567428.46745
 15 02 23 07 37  0.0000000  0 10G01G03G04G09G11G17G20G23G31G32
  20697960.580   108768499.43609  20697960.120    84754679.35348
  20635013.180   108437720.02009  20635013.700    84496922.78947
  22515870.940   118321689.74408  22515872.300    92198709.57646
  22536332.140   118429239.08707  22536335.760    92282536.60046
  21855528.900   114851565.69409  21855527.280    89494713.39146
  22224061.340   116788229.89308  22224060.540    91003798.27047
  24203931.220   127192526.13907  24203930.780    99111048.58245
  20885554.140   109754325.68209  20885547.760    85522836.48845
  23929079.940   125748173.42906  23929079.600    97985581.97644
  22864058.460   120151429.74408  22864056.980    93624479.49645
 15 02 23 07 37 30.0000000  0 10G01G03G04G09G11G17G20G23G31G32
  20704686.200   108803841.67509  20704685.580    84782218.72748
  20637160.360   108449004.11609  20637161.080    84505715.57647
  22531701.700   118404880.14008  22531702.880    92263533.17946
  22518636.880   118336253.74608  22518641.120    92210080.53846
  21872094.600   114938618.81109  21872092.380    89562546.91346
  22218696.940   116760041.18908  22218696.100    90981833.02247
  24188984.620   127113982.41607  24188984.280    99049845.73945
  20876983.860   109709286.08109  20876976.180    85487740.65145
  23932760.300   125767513.70706  23932760.600    98000652.31745
  22877997.240   120224677.29308  22877995.780    93681555.42645
 15 02 23 07 38  0.0000000  0 10G01G03G04G09G11G17G20G23G31G32
  20711489.360   108839591.68209  20711488.700    84810075.84848
  20639344.600   108460483.00008  20639345.620    84514660.13547
  22547582.300   118488331.80008  22547583.160    92328560.36146
  22500997.080   118243556.77808  22501001.360    92137849.15246
  21888721.340   115025991.60109  21888718.500    89630629.55746
  22213438.400   116732408.08208  22213437.360    90960300.71647
  24174050.600   127035503.43507  24174050.720    98988693.23545
  20868498.480   109664692.85909  20868490.260    85452992.65145
  23936542.420   125787387.35506  23936542.800    98016138.26244
  22891942.080   120297957.37708  22891940.600    93738656.68045
 15 02 23 07 38 30.0000000  0 10G01G03G04G09G11G17G20G23G31G32
  20718370.700   108875753.04409  20718370.180    84838253.50548
  20641566.520   108472159.58108  20641567.840    84523758.73747
  22563513.180   118572047.11409  22563513.680    92393792.99946
  22483413.560   118151153.39308  22483417.500    92065846.52747
  21905409.200   115113685.89909  21905405.780    89698962.70845
  22208286.540   116705334.75709  22208285.120    90939204.60447
  24159129.700   126957092.54907  24159130.320    98927593.86845
  20860098.760   109620550.21509  20860090.660    85418595.77045
  23940426.740   125807797.54006  23940427.000    98032042.22444
  22905893.500   120371272.80008  22905892.240    93795785.49945
 15 02 23 07 39  0.0000000  0 10G01G03G04G09G11G17G20G23G31G32
  20725329.920   108912324.05309  20725329.560    84866750.35848
  20643825.720   108484031.59409  20643827.260    84533009.61747
  22579493.620   118656023.17709  22579493.720    92459228.80946
  22465886.080   118059043.66508  22465889.600    91994072.73547
  21922157.500   115201697.71909  21922153.720    89767543.29246
  22203241.120   116678820.17309  22203239.380    90918543.86547
  24144221.560   126878747.79507  24144222.580    98866546.01346
  20851784.500   109576857.04909  20851776.920    85384549.13146
  23944412.860   125828742.38206  23944412.840    98048362.85644
  22919851.080   120444621.03508  22919849.720    93852939.90245
 15 02 23 07 39 30.0000000  0 10G01G03G04G09G11G17G20G23G31G32
  20732367.640   108949307.81809  20732367.500    84895568.83748
  20646122.740   108496101.52809  20646124.240    84542414.73647
  22595524.160   118740262.00509  22595523.780    92524869.37446
  22448415.360   117967232.34308  22448418.600    91922531.45047
  21938966.420   115290028.54009  21938962.840    89836372.42445
  22198302.740   116652867.96009  22198300.880    90898321.34747
  24129326.840   126800472.70408  24129327.880    98805552.44746
  20843556.400   109533617.08809  20843549.620    85350855.64346
  23948501.080   125850224.67006  23948500.900    98065102.22344
  22933815.220   120518004.48608  22933814.160    93910121.72844
 15 02 23 07 40  0.0000000  0 10G01G03G04G09G11G17G20G23G31G32
  20739484.080   108986705.45109  20739484.220    84924709.80548
  20648457.580   108508369.94109  20648458.920    84551974.51647
  22611604.560   118824763.70608  22611603.880    92590714.77046
  22431001.860   117875722.30708  22431004.780    91851224.99047
  21955835.760   115378677.32309  21955832.280    89905449.32245
  22193471.780   116627479.91409  22193470.020    90878538.43147
  24114445.440   126722268.10508  24114446.500    98744613.79146
  20835414.700   109490831.60009  20835408.700    85317516.30246
  23952691.420   125872245.06606  23952691.560    98082260.93044
  22947785.940   120591423.62507  22947785.420    93967331.37745
 15 02 23 07 40 30.0000000  0 10G01G03G04G09G11G17G20G23G31G32
  20746679.580   109024518.48709  20746679.940    84954174.46948
  20650830.400   108520837.84109  20650831.420    84561689.76147
  22627734.940   118909528.44008  22627733.840    92656765.11946
  22413646.300   117784516.75508  22413648.760    91780155.75147
  21972765.440   115467643.53908  21972762.760    89974773.56446
  22188748.640   116602658.49509  22188747.040    90859197.05547
  24099577.660   126644135.76708  24099578.620    98683731.43246
  20827359.820   109448502.61309  20827354.300    85284532.68647
  23956983.940   125894805.05405  23956985.100    98099840.09544
  22961763.640   120664879.16707  22961763.680    94024569.38244
 15 02 23 07 41  0.0000000  0 10G01G03G04G09G11G17G20G23G31G32
  20753953.980   109062745.74909  20753954.360    84983961.91148
  20653240.800   108533503.55708  20653241.440    84571559.12947
  22643914.900   118994553.92808  22643913.300    92723018.66346
  22396348.740   117693616.30708  22396350.700    91709324.27046
  21989754.880   115556924.08009  21989752.940    90044342.73946
  22184133.120   116578402.74909  22184131.660    90840296.45647
  24084723.320   126566074.35708  24084724.140    98622904.38545
  20819391.660   109406629.68609  20819386.460    85251904.43147
  23961378.240   125917903.13404  23961381.340    98117838.47044
  22975747.880   120738369.32207  22975748.520    94081834.35444
 15 02 23 07 41 30.0000000  0 10G01G03G04G09G11G17G20G23G31G32
  20761306.020   109101381.09509  20761306.440    85014067.33948
  20655687.440   108546360.40008  20655687.940    84581577.41447
  22660142.980   119079833.07708  22660141.100    92789469.84745
  22379108.340   117603016.51908  22379109.700    91638727.05146
  22006802.480   115646511.15508  22006801.240    90114150.74346
  22179624.180   116554707.66209  22179622.840    90821832.71747
  24069881.300   126488077.79908  24069882.060    98562127.86145
  20811509.200   109365207.14009  20811504.160    85219627.11847
  23965873.680   125941532.74604  23965878.280    98136251.06644
  22989737.340   120811887.23406  22989738.560    94139120.93944
 15 02 23 07 42  0.0000000  0 10G01G03G04G09G11G17G20G23G31G32
  20768736.540   109140428.95209  20768737.160    85044494.21248
  20658171.060   108559412.30608  20658171.780    84591747.70747
  22676419.840   119165369.20308  22676417.920    92856121.26545
  22361926.120   117512723.57708  22361927.080    91568368.94146
  22023908.780   115736406.97108  22023908.300    90184199.34146
  22175222.840   116531578.28109  22175221.440    90803809.79247
  24055052.520   126410150.78308  24055053.180    98501405.54445
  20803713.400   109324239.90509  20803708.420    85187704.60647
  23970471.020   125965697.63704  23970476.600    98155080.79844
  23003732.960   120885436.79206  23003734.940    94196432.16444
