     2.11           OBSERVATION DATA    G                   RINEX VERSION / TYPE
SPIDER V4,0,0,3554                      2015 03 21 00:50    PGM / RUN BY / DATE 
CNGR                                                        MARKER NAME         
CNGR                                                        MARKER NUMBER       
                                                            OBSERVER / AGENCY   
496521              LEICA GRX1200+GNSS  8.10/4.007          REC # / TYPE / VERS 
10321004            LEIAR25         NONE                    ANT # / TYPE        
  5218738.7445   688113.1521  3590185.5476                  APPROX POSITION XYZ 
        0.0720        0.0000        0.0000                  ANTENNA: DELTA H/E/N
     1     1                                                WAVELENGTH FACT L1/2
     4    C1    L1    P2    L2                              # / TYPES OF OBSERV 
    30.000                                                  INTERVAL            
  2015    02    23    00    00    0.0000000     GPS         TIME OF FIRST OBS   
  2015    02    23    23    59   30.0000000     GPS         TIME OF LAST OBS    
    16                                                      LEAP SECONDS        
    30                                                      # OF SATELLITES     
   G 1   815   814   814   813                              PRN / # OF OBS      
   G 2   942   941   941   941                              PRN / # OF OBS      
   G 3   861   861   861   861                              PRN / # OF OBS      
   G 4   844   844   844   844                              PRN / # OF OBS      
   G 5   619   619   618   618                              PRN / # OF OBS      
   G 6   794   794   793   793                              PRN / # OF OBS      
   G 7   677   677   677   677                              PRN / # OF OBS      
   G 9   817   817   817   817                              PRN / # OF OBS      
   G10   736   735   735   735                              PRN / # OF OBS      
   G11   777   776   776   776                              PRN / # OF OBS      
   G12   815   815   815   815                              PRN / # OF OBS      
   G13   772   772   772   772                              PRN / # OF OBS      
   G14   943   943   943   943                              PRN / # OF OBS      
   G15   690   690   690   690                              PRN / # OF OBS      
   G16   667   667   667   667                              PRN / # OF OBS      
   G17   935   935   934   934                              PRN / # OF OBS      
   G18   898   898   898   898                              PRN / # OF OBS      
   G19   753   753   753   753                              PRN / # OF OBS      
   G20   762   762   762   762                              PRN / # OF OBS      
   G21   745   745   745   745                              PRN / # OF OBS      
   G22   670   670   669   669                              PRN / # OF OBS      
   G23   761   761   761   761                              PRN / # OF OBS      
   G24   828   828   828   828                              PRN / # OF OBS      
   G25   859   859   859   859                              PRN / # OF OBS      
   G27   810   810   810   810                              PRN / # OF OBS      
   G28   833   833   832   832                              PRN / # OF OBS      
   G29   761   761   761   761                              PRN / # OF OBS      
   G30   724   724   724   724                              PRN / # OF OBS      
   G31   862   862   862   862                              PRN / # OF OBS      
   G32   777   777   777   777                              PRN / # OF OBS      
BIT 2 OF LLI FLAGS DATA COLLECTED UNDER A/S CONDITION       COMMENT             
SNR is mapped to RINEX snr flag value [2-9]                 COMMENT             
Lx:     = 25dBHz -> 1; 26-27dBHz -> 2; 28-31dBHz -> 3       COMMENT             
       32-35dBHz -> 4; 36-38dBHz -> 5; 39-41dBHz -> 6       COMMENT             
       42-44dBHz -> 7; 45-48dBHz -> 8; >=49dBHz -> 9        COMMENT             
                                                            END OF HEADER       
 15 02 23 00 00  0.0000000  0  8G16G18G21G22G25G27G29G31
  22468180.520   118071096.22509  22468177.020    92003446.47147
  22847744.140   120065790.74908  22847742.060    93557790.86846
  21012861.340   110423612.87208  21012857.040    86044477.36248
  24481203.700   128649599.50808  24481203.640   100246438.09045
  24018570.500   126218629.53108  24018571.400    98352271.69746
  23651970.220   124291949.38908  23651970.240    96850886.23047
  23202015.500   121927816.21608  23202012.940    95008850.25747
  22327205.660   117330271.38409  22327202.480    91426176.32748
 15 02 23 00 00 30.0000000  0  8G16G18G21G22G25G27G29G31
  22452455.260   117988458.98709  22452451.660    91939053.82647
  22834454.980   119995956.05909  22834452.820    93503374.25646
  21017447.860   110447715.86208  21017443.680    86063258.92148
  24463344.260   128555750.03808  24463344.520   100173309.17545
  24036798.740   126314419.73108  24036799.620    98426913.35845
  23638886.860   124223195.92608  23638886.940    96797312.12747
  23215076.680   121996452.51009  23215073.980    95062333.10847
  22342158.480   117408849.16209  22342155.360    91487405.74648
 15 02 23 00 01  0.0000000  0  8G16G18G21G22G25G27G29G31
  22436762.640   117905993.46809  22436758.960    91874794.99547
  22821206.720   119926335.76309  22821204.660    93449124.71746
  21022105.100   110472190.68508  21022101.100    86082330.22448
  24445470.240   128461823.54108  24445470.540   100100120.17245
  24055063.120   126410399.51408  24055064.080    98501702.74746
  23625818.120   124154519.34408  23625818.220    96743797.93247
  23228144.700   122065125.48409  23228142.340    95115844.46847
  22357167.180   117487720.56509  22357164.100    91548863.95848
 15 02 23 00 01 30.0000000  0  8G16G18G21G22G25G27G29G31
  22421103.460   117823703.84309  22421099.680    91810673.22747
  22808000.220   119856934.20409  22807997.780    93395045.61146
  21026833.200   110497037.85408  21026829.320    86101691.66248
  24427582.360   128367824.27508  24427582.780   100026874.52345
  24073363.760   126506569.58308  24073364.720    98576640.41545
  23612764.360   124085921.63508  23612764.440    96690345.19647
  23241219.860   122133836.87808  23241217.580    95169385.82247
  22372231.560   117566884.73409  22372228.560    91610550.30148
 15 02 23 00 02  0.0000000  0  8G16G18G21G22G25G27G29G31
  22405477.760   117741590.33009  22405473.960    91746688.68847
  22794835.640   119787752.70209  22794832.840    93341137.96846
  21031631.360   110522253.04308  21031627.600    86121339.86448
  24409680.840   128273752.68708  24409681.080    99953572.49545
  24091699.980   126602926.51508  24091701.000    98651723.68245
  23599725.140   124017400.56808  23599725.220    96636952.17447
  23254302.120   122202584.67408  23254300.020    95222955.50047
  22387350.720   117646336.64309  22387347.820    91672460.84748
 15 02 23 00 02 30.0000000  0  8G16G18G21G22G25G27G29G31
  22389886.220   117659656.41609  22389882.360    91682844.09047
  22781713.680   119718795.63009  22781710.940    93287405.23046
  21036499.840   110547837.52208  21036496.160    86141275.81948
  24391766.260   128179612.84208  24391766.320    99880217.25045
  24110071.760   126699470.52108  24110073.000    98726952.70446
  23586700.800   123948957.53308  23586700.880    96583619.95947
  23267391.680   122271370.35008  23267388.980    95276554.74647
  22402524.380   117726074.97409  22402521.560    91734594.59348
 15 02 23 00 03  0.0000000  0  8G16G18G21G22G25G27G29G31
  22374329.440   117577905.29809  22374325.560    91619141.94047
  22768635.040   119650066.13309  22768632.260    93233849.79046
  21041438.500   110573790.36108  21041434.860    86161498.81748
  24373839.340   128085408.26208  24373839.360    99806811.58345
  24128479.080   126796201.47508  24128480.240    98802327.41145
  23573691.600   123880593.79408  23573691.660    96530349.53747
  23280488.540   122340194.74009  23280486.040    95330184.07647
  22417752.280   117806098.22409  22417749.480    91796950.35548
 15 02 23 00 03 30.0000000  0  8G16G18G21G22G25G27G29G31
  22358807.100   117496334.99709  22358803.380    91555580.68847
  22755599.220   119581562.48109  22755596.460    93180470.37646
  21046446.280   110600105.94208  21046442.600    86182004.46248
  24355899.740   127991136.91108  24355899.500    99733353.83945
  24146920.940   126893113.52208  24146922.000    98877843.25846
  23560696.620   123812304.76008  23560696.680    96477137.31647
  23293592.020   122409053.60908  23293589.240    95383840.33547
  22433033.020   117886399.16509  22433030.260    91859522.49148
 15 02 23 00 04  0.0000000  0  8G16G18G21G22G25G27G29G31
  22343319.860   117414948.95709  22343316.100    91492163.01547
  22742607.060   119513288.69809  22742604.300    93127270.06046
  21051523.100   110626784.07208  21051519.300    86202792.62248
  24337948.280   127896802.66308  24337947.700    99659847.06745
  24165397.240   126990206.62508  24165398.280    98953500.14545
  23547716.080   123744091.64108  23547716.220    96423984.25447
  23306702.320   122477948.42409  23306699.620    95437524.56447
  22448366.360   117966976.30809  22448363.600    91922309.85048
 15 02 23 00 04 30.0000000  0  8G16G18G21G22G25G27G29G31
  22327869.080   117333754.56809  22327865.360    91428894.67847
  22729660.080   119445252.48909  22729657.220    93074254.85146
  21056669.700   110653828.70809  21056665.720    86223866.35848
  24319986.300   127802413.32408  24319985.400    99586297.35445
  24183908.780   127087484.78008  24183909.780    99029301.24845
  23534750.980   123675959.70208  23534751.180    96370894.44647
  23319820.260   122546884.08508  23319817.700    95491240.63847
  22463752.720   118047831.89909  22463749.880    91985314.19148
 15 02 23 00 05  0.0000000  0  8G16G18G21G22G25G27G29G31
  22312454.360   117252749.37609  22312450.600    91365773.76447
  22716757.780   119377452.05808  22716755.040    93021423.38547
  21061884.760   110681233.28208  21061880.640    86245220.57548
  24302013.460   127707966.72908  24302012.380    99512703.04545
  24202454.340   127184941.82708  24202455.080    99105241.75545
  23521800.400   123607904.12808  23521800.620    96317864.15747
  23332945.200   122615855.94709  23332942.660    95544984.95347
  22479190.620   118128958.35609  22479187.700    92048529.57548
 15 02 23 00 05 30.0000000  0  8G16G18G21G22G25G27G29G31
  22297076.000   117171935.54409  22297072.340    91302801.97147
  22703900.840   119309889.58609  22703898.300    92968777.33646
  21067168.040   110708996.67209  21067163.780    86266854.38648
  24284030.360   127613465.50808  24284028.920    99439066.12745
  24221033.760   127282576.52408  24221034.320    99181320.69246
  23508864.380   123539924.95508  23508864.560    96264893.40247
  23346076.900   122684863.95108  23346074.420    95598757.38947
  22494679.540   118210353.03909  22494676.580    92111953.98047
 15 02 23 00 06  0.0000000  0  8G16G18G21G22G25G27G29G31
  22281734.740   117091316.56009  22281731.040    91239981.98947
  22691090.040   119242569.36809  22691087.540    92916320.07246
  21072519.440   110737118.04309  21072515.080    86288767.13048
  24266037.460   127518913.23108  24266035.860    99365389.42345
  24239646.840   127380388.72508  24239647.620    99257537.90245
  23495943.160   123472023.35208  23495943.180    96211983.07647
  23359215.740   122753909.01309  23359213.620    95652558.70547
  22510219.160   118292014.12509  22510216.080    92175585.97348
 15 02 23 00 06 30.0000000  0  8G16G18G21G22G25G27G29G31
  22266430.940   117010894.53809  22266427.220    91177315.49747
  22678325.980   119175493.70409  22678323.480    92864053.35246
  21077938.600   110765596.05008  21077934.240    86310957.78748
  24248035.160   127424312.04308  24248033.380    99291674.57245
  24258293.380   127478376.69408  24258294.200    99333892.11445
  23483036.640   123404198.92408  23483036.460    96159132.90347
  23372361.780   122822991.05009  23372359.460    95706388.85647
  22525808.860   118373938.43609  22525805.680    92239423.06147
 15 02 23 00 07  0.0000000  0  8G16G18G21G22G25G27G29G31
  22251164.680   116930670.01009  22251160.940    91114802.89747
  22665608.800   119108663.81309  22665606.180    92811978.14046
  21083425.040   110794427.89108  21083420.720    86333424.16148
  24230023.880   127329663.41808  24230022.040    99217922.75345
  24276972.900   127576537.93508  24276973.980    99410381.31145
  23470144.600   123336450.47308  23470144.320    96106341.93147
  23385514.620   122892108.89708  23385512.380    95760246.87747
  22541447.940   118456122.22909  22541444.700    92303462.36148
 15 02 23 00 07 30.0000000  0  8G16G18G21G22G25G27G29G31
  22235936.620   116850646.24909  22235932.940    91052446.73747
  22652939.080   119042082.97309  22652936.160    92760096.99346
  21088978.680   110823613.34408  21088974.540    86356166.08248
  24212004.200   127234970.70308  24212002.260    99144136.57445
  24295685.360   127674871.78008  24295686.440    99487005.05545
  23457267.100   123268778.72808  23457266.840    96053610.73447
  23398674.520   122961263.42509  23398672.120    95814133.51647
  22557135.980   118538563.27809  22557132.740    92367702.10747
 15 02 23 00 08  0.0000000  0  8G16G18G21G22G25G27G29G31
  22220747.340   116770826.42209  22220743.720    90990249.48447
  22640317.260   118975754.15409  22640314.160    92708412.23446
  21094599.360   110853151.16808  21094595.400    86379182.57148
  24193976.680   127140236.90708  24193974.520    99070318.38445
  24314430.460   127773377.54808  24314431.820    99563762.68245
  23444404.240   123201184.31308  23444404.000    96000939.77147
  23411841.420   123030455.18408  23411838.960    95868049.14246
  22572872.540   118621259.28309  22572869.320    92432140.51347
 15 02 23 00 08 30.0000000  0  8G16G18G21G22G25G27G29G31
  22205597.180   116691212.00409  22205593.540    90928212.28547
  22627743.920   118909680.19509  22627740.620    92656926.06546
  21100286.640   110883038.70108  21100282.780    86402471.55648
  24175941.860   127045464.25508  24175939.420    98996469.88145
  24333207.960   127872053.29408  24333209.400    99640652.80246
  23431556.000   123133666.67608  23431555.800    95948328.65947
  23425015.300   123099683.27609  23425012.780    95921993.11047
  22588656.960   118704206.65509  22588653.760    92496774.81847
 15 02 23 00 09  0.0000000  0  8G16G18G21G22G25G27G29G31
  22190486.920   116611807.28309  22190483.220    90866338.49347
  22615219.820   118843865.18409  22615216.340    92605641.68047
  21106040.800   110913277.24708  21106036.960    86426034.06548
  24157900.500   126950657.28808  24157897.900    98922594.63646
  24352017.780   127970899.58808  24352019.400    99717675.82946
  23418722.800   123066227.74708  23418722.540    95895778.87547
  23438196.180   123168949.93809  23438193.480    95975967.09547
  22604489.100   118787404.81009  22604485.900    92561604.52348
 15 02 23 00 09 30.0000000  0  8G16G18G21G22G25G27G29G31
  22175416.760   116532612.92909  22175413.000    90804628.61347
  22602745.180   118778310.38309  22602741.780    92554560.05347
  21111861.180   110943863.60309  21111857.360    86449867.58748
  24139852.840   126855816.90708  24139850.080    98848693.32446
  24370859.520   128069913.41708  24370861.260    99794829.36346
  23405904.300   122998865.91808  23405903.900    95843289.16047
  23451383.840   123238253.36708  23451381.800    96029969.70447
  22620368.120   118870849.25609  22620364.940    92626626.13047
 15 02 23 00 10  0.0000000  0  8G16G18G21G22G25G27G29G31
  22160386.720   116453629.43809  22160382.900    90743083.04847
  22590320.060   118713015.96309  22590316.740    92503681.30547
  21117747.120   110974794.48208  21117743.340    86473969.57348
  24121798.740   126760943.67308  24121795.960    98774766.42545
  24389732.520   128169091.63508  24389734.220    99872111.01645
  23393100.080   122931579.33508  23393099.600    95790858.08747
  23464578.640   123307592.18108  23464576.040    96083999.99946
  22636293.080   118954535.25709  22636289.960    92691835.97847
 15 02 23 00 10 30.0000000  0  8G16G18G21G22G25G27G29G31
  22145397.040   116374858.03309  22145393.140    90681702.73947
  22577944.860   118647984.02409  22577941.700    92453007.10847
  21123698.140   111006067.26408  21123694.420    86498337.98248
  24103738.900   126666039.59808  24103735.900    98700815.45946
  24408636.400   128268431.76208  24408637.880    99949518.85045
  23380309.920   122864367.03208  23380309.500    95738484.90347
  23477779.860   123376965.23909  23477777.800    96138056.85847
  22652263.280   119038458.96409  22652260.200    92757231.05947
 15 02 23 00 11  0.0000000  0  8G16G18G21G22G25G27G29G31
  22130449.700   116296309.22909  22130445.740    90620495.87647
  22565621.480   118583225.17909  22565618.440    92402545.70547
  21129715.500   111037688.44909  21129711.800    86522977.86148
  24085675.180   126571115.38108  24085672.080    98626848.80346
  24427572.460   128367940.67208  24427574.000   100027058.15645
  23367535.420   122797237.19608  23367535.120    95686175.96647
  23490988.820   123446380.48908  23490986.940    96192146.62346
  22668279.700   119122625.59309  22668276.700    92822815.41048
 15 02 23 00 11 30.0000000  0  8G16G18G21G22G25G27G29G31
  22115542.940   116217974.05209  22115538.980    90559455.48347
  22553348.360   118518730.50109  22553345.540    92352290.14947
  21135796.820   111069645.56009  21135793.060    86547879.51848
  24067606.040   126476162.17408  24067602.900    98552859.54746
  24446538.000   128467605.54908  24446539.420   100104718.97845
  23354774.460   122730178.43708  23354774.320    95633922.43547
  23504204.120   123515827.27608  23504202.220    96246261.02647
  22684339.600   119207020.82409  22684336.700    92888577.89947
 15 02 23 00 12  0.0000000  0  8G16G18G21G22G25G27G29G31
  22100678.560   116139861.64909  22100674.740    90498588.68847
  22541127.400   118454509.71709  22541124.660    92302248.01447
  21141942.980   111101943.28409  21141939.140    86573046.57148
  24049533.100   126381189.27908  24049529.940    98478854.93946
  24465534.240   128567431.77908  24465535.620   100182505.58445
  23342028.380   122663197.59008  23342028.380    95581729.59847
  23517426.680   123585312.28908  23517424.720    96300405.16646
  22700443.820   119291648.93809  22700440.940    92954521.86348
 15 02 23 00 12 30.0000000  0  8G16G18G21G22G25G27G29G31
  22085857.140   116061975.07409  22085853.440    90437897.85647
  22528959.280   118390566.10309  22528956.600    92252421.84647
  21148153.880   111134581.45009  21148150.000    86598478.92148
  24031456.940   126286200.48208  24031453.980    98404837.95346
  24484561.060   128667419.11808  24484562.860   100260417.67945
  23329297.300   122596295.81208  23329297.380    95529598.39147
  23530656.580   123654836.19308  23530654.940    96354579.59047
  22716592.000   119376508.07309  22716589.120    93020645.84047
 15 02 23 00 13  0.0000000  0  8G16G18G21G22G25G27G29G31
  22071078.520   115984313.31909  22071075.020    90377382.21547
  22516843.700   118326898.51609  22516841.080    92202810.78247
  21154428.460   111167554.34908  21154424.580    86624172.08548
  24013377.700   126191194.98808  24013374.760    98330807.93145
  24503617.600   128767562.32708  24503619.560   100338451.26245
  23316580.540   122529469.35208  23316580.760    95477525.84447
  23543893.080   123724395.72908  23543891.860    96408781.79247
  22732782.820   119461591.47409  22732779.960    93086944.56047
 15 02 23 00 13 30.0000000  0  8G16G18G21G22G25G27G29G31
  22056343.140   115906878.29109  22056339.720    90317043.24248
  22504781.180   118263509.41709  22504778.500    92153416.68546
  21160766.560   111200861.00008  21160762.620    86650125.31548
  23995295.620   126096174.76608  23995292.600    98256766.43345
  24522703.420   128867859.79508  24522705.660   100416604.99046
  23303878.120   122462717.97108  23303878.380    95425511.81547
  23557136.480   123793990.38108  23557135.380    96463011.36747
  22749015.720   119546895.81609  22749012.860    93153415.43948
 15 02 23 00 14  0.0000000  0  8G16G18G21G22G25G27G29G31
  22041651.700   115829673.81309  22041648.260    90256883.90748
  22492772.280   118200402.35009  22492769.580    92104242.38847
  21167168.020   111234500.51809  21167163.960    86676337.92348
  23977211.560   126001143.81108  23977208.400    98182716.52646
  24541818.620   128968311.07708  24541820.840   100494878.63945
  23291190.180   122396042.71108  23291190.440    95373557.11047
  23570386.700   123863621.36708  23570386.000    96517269.24747
  22765290.420   119632419.65809  22765287.560    93220057.36547
 15 02 23 00 14 30.0000000  0  8G16G18G21G22G25G27G29G31
  22027004.340   115752700.90009  22027000.820    90196905.02148
  22480817.440   118137579.31609  22480814.660    92055289.38547
  21173632.360   111268470.52309  21173628.180    86702808.06948
  23959125.940   125906104.05608  23959122.760    98108659.81245
  24560962.720   129068914.23607  24560964.860   100573270.61445
  23278516.600   122329443.09008  23278516.800    95321661.34347
  23583643.800   123933288.13108  23583643.480    96571555.04447
  22781606.200   119718159.43709  22781603.340    93286867.56047
 15 02 23 00 15  0.0000000  0  8G16G18G21G22G25G27G29G31
  22012401.880   115675963.86609  22012398.260    90137109.92648
  22468917.320   118075044.51709  22468914.580    92006561.01346
  21180159.720   111302771.81309  21180155.420    86729536.34748
  23941039.440   125811059.53508  23941036.040    98034599.34545
  24580135.920   129169669.52207  24580138.100   100651781.10245
  23265857.780   122262920.88108  23265857.920    95269825.88447
  23596908.100   124002992.81108  23596907.940    96625870.34447
  22797962.880   119804113.97209  22797959.940    93353845.08647
 15 02 23 00 15 30.0000000  0  8G16G18G21G22G25G27G29G31
  21997843.560   115599459.10709  21997839.880    90077495.83548
  22457071.360   118012794.20509  22457068.780    91958054.29947
  21186748.520   111337396.39108  21186744.160    86756516.53548
  23922951.540   125716007.42808  23922948.080    97960532.96746
  24599336.740   129270569.36908  24599338.800   100730404.21245
  23253212.580   122196469.95408  23253212.680    95218045.99647
  23610178.620   124072729.24208  23610178.440    96680210.38747
  22814358.680   119890274.24309  22814355.700    93420982.93347
 15 02 23 00 16  0.0000000  0  8G16G18G21G22G25G27G29G31
  21983331.000   115523195.08409  21983327.320    90018069.32348
  22445281.220   117950837.03009  22445278.880    91909776.00947
  21193399.680   111372348.93009  21193395.380    86783752.28848
  23904863.900   125620956.37508  23904860.420    97886467.36946
  24618566.140   129371618.52508  24618567.620   100809143.74045
  23240582.180   122130096.63808  23240582.280    95166326.55847
  23623456.500   124142503.54308  23623456.140    96734579.98447
  22830794.220   119976643.64909  22830791.280    93488283.73247
 15 02 23 00 16 30.0000000  0  8G16G18G21G22G25G27G29G31
  21968863.800   115447169.46109  21968860.100    89958828.58048
  22433546.580   117889171.28809  22433544.340    91861724.81547
  21200112.040   111407623.20308  21200107.820    86811238.73448
  23886775.980   125525904.15808  23886772.540    97812400.88846
  24637822.780   129472810.93108  24637823.560   100887994.83945
  23227965.660   122063796.20708  23227965.700    95114663.92147
  23636740.860   124212311.17908  23636740.100    96788975.50647
  22847268.140   120063214.61209  22847265.180    93555741.60147
 15 02 23 00 17  0.0000000  0  8G16G18G21G22G25G27G29G31
  21954444.060   115371393.38209  21954440.380    89899782.28447
  22421869.580   117827808.01009  22421867.380    91813909.29247
  21206887.020   111443226.29109  21206882.840    86838981.39748
  23868690.080   125430862.68708  23868686.540    97738342.77246
  24657107.940   129574153.93008  24657108.380   100966963.31745
  23215364.780   121997577.62608  23215364.680    95063065.07047
  23650032.980   124282161.21008  23650031.640    96843404.11847
  22863781.520   120149993.01809  22863778.560    93623361.11148
 15 02 23 00 17 30.0000000  0  8G16G18G21G22G25G27G29G31
  21940070.600   115295860.42109  21940066.940    89840925.43248
  22410248.940   117766740.78009  22410246.680    91766324.45247
  21213722.660   111479147.66409  21213718.440    86866972.06748
  23850605.040   125335825.52808  23850601.480    97664287.99246
  24676419.660   129675637.21408  24676419.960   101046041.01744
  23202777.820   121931431.99808  23202777.540    95011523.05547
  23663331.640   124352044.97609  23663330.180    96897858.96647
  22880332.160   120236966.98909  22880329.160    93691132.98847
 15 02 23 00 18  0.0000000  0  8G16G18G21G22G25G27G29G31
  21925744.220   115220575.09409  21925740.580    89782261.54448
  22398685.460   117705973.99109  22398683.160    91718973.73347
  21220618.940   111515387.45109  21220614.680    86895210.86548
  23832521.740   125240797.30308  23832518.140    97590240.17846
  24695758.200   129777261.09008  24695758.140   101125228.38945
  23190205.100   121865361.32508  23190204.600    94960039.44247
  23676636.760   124421964.35808  23676635.040    96952341.57546
  22896919.860   120324135.86209  22896916.860    93759056.75247
 15 02 23 00 18 30.0000000  0  8G16G18G21G22G25G27G29G31
  21911466.240   115145544.07309  21911462.640    89723795.81648
  22387180.500   117645515.02009  22387178.120    91671862.86847
  21227576.480   111551949.39709  21227572.240    86923700.69348
  23814441.580   125145785.33408  23814437.800    97516205.00946
  24715124.100   129879028.89507  24715123.940   101204527.86345
  23177647.460   121799370.35808  23177646.860    94908617.94647
  23689949.560   124491924.09908  23689947.640    97006855.65447
  22913544.960   120411501.21309  22913541.980    93827133.62347
 15 02 23 00 19  0.0000000  0  8G16G18G21G22G25G27G29G31
  21897236.020   115070764.17209  21897232.500    89665525.77048
  22375733.420   117585360.52409  22375731.160    91624989.26947
  21234594.000   111588826.56109  21234589.760    86952436.16048
  23796363.960   125050786.82908  23796360.000    97442180.31446
  24734516.080   129980933.46108  24734515.920   101283933.85645
  23165103.860   121733453.49008  23165103.300    94857254.19247
  23703268.880   124561918.63608  23703267.260    97061396.80746
  22930205.860   120499054.76509  22930202.880    93895357.16047
 15 02 23 00 19 30.0000000  0  8G16G18G21G22G25G27G29G31
  21883054.400   114996239.34009  21883050.940    89607454.47648
  22364345.140   117525514.56509  22364342.680    91578356.07247
  21241671.340   111626018.18109  21241667.180    86981416.63348
  23778289.680   124955805.91508  23778285.720    97368169.33146
  24753934.100   130082974.75907  24753933.900   101363446.47945
  23152574.620   121667612.29108  23152574.120    94805949.37847
  23716595.340   124631949.61408  23716593.620    97115966.40046
  22946902.220   120586794.74809  22946899.300    93963725.93047
 15 02 23 00 20  0.0000000  0  8G16G18G21G22G25G27G29G31
  21868922.320   114921974.96609  21868918.940    89549586.14148
  22353016.540   117465982.31709  22353013.960    91531967.33547
  21248808.740   111663525.34209  21248804.640    87010642.99748
  23760219.780   124860847.98908  23760215.620    97294176.21946
  24773378.240   130185154.33907  24773378.320   101443066.77745
  23140060.360   121601849.81608  23140059.980    94754705.92747
  23729929.080   124702020.01708  23729927.120    97170566.70046
  22963634.100   120674721.51009  22963631.220    94032240.26747
 15 02 23 00 20 30.0000000  0  8G16G18G21G22G25G27G29G31
  21854839.580   114847969.56509  21854836.200    89491919.59748
  22341747.460   117406762.64709  22341744.740    91485822.15847
  21256005.320   111701343.43109  21256001.260    87040111.63548
  23742154.000   124765912.14408  23742149.920    97220200.27446
  24792847.660   130287466.97908  24792848.420   101522790.73845
  23127560.420   121536162.41408  23127560.080    94703520.96347
  23743269.940   124772126.53908  23743268.160    97225195.17346
  22980400.200   120762828.25709  22980397.400    94100894.85547
 15 02 23 00 21  0.0000000  0  8G16G18G21G22G25G27G29G31
  21840806.540   114774225.71309  21840803.240    89434456.85948
  22330538.340   117347858.09009  22330535.480    91439922.52447
  21263260.700   111739470.62609  21263256.680    87069821.13448
  23724093.000   124671001.09608  23724088.840    97146243.50046
  24812342.140   130389911.16808  24812343.220   101602617.26045
  23115074.820   121470550.15108  23115074.440    94652394.55747
  23756617.520   124842269.16308  23756616.120    97279851.70446
  22997200.040   120851112.30309  22997197.360    94169687.58447
 15 02 23 00 21 30.0000000  0  7G16G18G21G22G27G29G31
  21826824.680   114700750.80509  21826821.380    89377203.69048
  22319390.720   117289276.45809  22319387.580    91394274.51347
  21270575.540   111777910.48309  21270571.580    87099774.26948
  23706038.220   124576123.23608  23706034.240    97072312.67546
  23102604.500   121405018.41808  23102604.140    94601330.89747
  23769973.140   124912453.27508  23769971.340    97334540.64946
  23014034.120   120939575.91209  23014031.540    94238620.23147
 15 02 23 00 22  0.0000000  0  7G16G18G21G22G27G29G31
  21812893.100   114627540.15809  21812889.780    89320156.43548
  22308303.580   117231012.57409  22308300.240    91348874.10247
  21277948.160   111816654.13609  21277944.260    87129964.13148
  23687988.720   124481273.52708  23687984.900    96998403.76446
  23090148.080   121339560.01508  23090147.840    94550324.37747
  23783335.240   124982671.54508  23783333.400    97389256.18046
  23030900.460   121028208.90109  23030897.940    94307684.85147
 15 02 23 00 22 30.0000000  0  7G16G18G21G22G27G29G31
  21799012.520   114554597.34409  21799009.200    89263317.89048
  22297277.500   117173069.75409  22297273.960    91303723.87347
  21285378.420   111855700.66209  21285374.500    87160389.99248
  23669945.380   124386456.22308  23669941.920    96924520.19146
  23077705.840   121274176.06508  23077705.680    94499375.87547
  23796704.040   125052925.46008  23796702.480    97443999.43546
  23047798.680   121117009.13209  23047796.200    94376879.80947
 15 02 23 00 23  0.0000000  0  7G16G18G21G22G27G29G31
  21785183.400   114481924.80909  21785180.000    89206689.94648
  22286313.020   117115450.61809  22286309.340    91258825.85947
  21292866.180   111895049.27809  21292862.200    87191051.24648
  23651908.780   124291674.15108  23651905.580    96850664.00746
  23065277.860   121208866.88408  23065277.760    94448485.63347
  23810079.880   125123215.39808  23810078.080    97498770.83046
  23064728.320   121205974.39909  23064725.780    94446203.36347
 15 02 23 00 23 30.0000000  0  7G16G18G21G22G27G29G31
  21771406.320   114409525.63409  21771402.820    89150275.00248
  22275410.760   117058158.96509  22275407.200    91214183.03847
  21300411.300   111934699.18209  21300407.220    87221947.27248
  23633879.560   124196930.79908  23633876.500    96776838.06546
  23052864.320   121143633.44008  23052864.240    94397654.40547
  23823462.700   125193542.51108  23823460.560    97553571.16946
  23081689.040   121295102.74609  23081686.420    94515653.98247
 15 02 23 00 24  0.0000000  0  7G16G18G21G22G27G29G31
  21757682.040   114337404.17409  21757678.560    89094076.48248
  22264571.520   117001198.63709  22264568.060    91169798.38747
  21308013.900   111974651.20209  21308009.760    87253078.71748
  23615858.600   124102230.78708  23615855.600    96703045.90046
  23040465.600   121078477.59608  23040465.500    94346883.64547
  23836852.900   125263908.47908  23836850.980    97608401.78946
  23098680.520   121384393.00309  23098677.840    94585230.76347
 15 02 23 00 24 30.0000000  0  7G16G18G21G22G27G29G31
  21744010.800   114265561.30409  21744007.260    89038095.02748
  22253795.420   116944570.32309  22253791.980    91125672.44847
  21315673.220   112014901.20309  21315669.020    87284442.35248
  23597846.140   124007574.92308  23597843.060    96629288.06146
  23028081.360   121013397.83608  23028081.280    94296172.17147
  23850250.100   125334311.80008  23850248.500    97663261.47546
  23115701.800   121473840.02409  23115699.080    94654929.71547
 15 02 23 00 25  0.0000000  0  7G16G18G21G22G27G29G31
  21730392.220   114193995.18409  21730388.680    88982329.22948
  22243082.200   116888271.96909  22243078.680    91081803.62147
  21323388.040   112055442.92409  21323383.860    87316033.30448
  23579841.960   123912961.74908  23579838.760    96555563.42846
  23015710.840   120948390.06808  23015710.680    94245516.78147
  23863653.860   125404748.40108  23863652.120    97718147.14846
  23132751.660   121563437.26909  23132748.940    94724745.69847
 15 02 23 00 25 30.0000000  0  7G16G18G21G22G27G29G31
  21716828.320   114122716.30609  21716824.760    88926787.25048
  22232433.900   116832314.54609  22232430.280    91038200.44747
  21331159.580   112096282.74508  21331155.440    87347856.53548
  23561847.980   123818401.73708  23561844.420    96481880.00246
  23003355.580   120883462.57208  23003355.280    94194923.95147
  23877065.440   125475226.67708  23877063.460    97773065.25746
  23149831.040   121653189.83609  23149828.320    94794682.72247
 15 02 23 00 26  0.0000000  0  7G16G18G21G22G27G29G31
  21703318.760   114051723.32209  21703315.220    88871468.04448
  22221850.200   116776696.33609  22221846.420    90994861.58447
  21338987.000   112137416.33209  21338982.900    87379908.67548
  23543864.180   123723894.62708  23543860.480    96408237.72645
  22991014.900   120818611.77708  22991014.480    94144390.89047
  23890484.260   125545743.04608  23890482.600    97828013.05346
  23166938.680   121743091.14609  23166936.020    94864735.64847
 15 02 23 00 26 30.0000000  0  7G16G18G21G22G27G29G31
  21689863.760   113981017.32509  21689860.280    88816372.48048
  22211331.260   116721418.68909  22211327.460    90951788.11547
  21346869.800   112178840.78909  21346865.740    87412187.47648
  23525890.800   123629442.13308  23525887.120    96334638.24346
  22978688.640   120753836.55508  22978688.160    94093916.70747
  23903909.900   125616296.37508  23903908.460    97882989.61546
  23184073.780   121833137.09309  23184071.200    94934901.28447
 15 02 23 00 27  0.0000000  0  7G16G18G21G22G27G29G31
  21676463.900   113910601.09209  21676460.480    88761502.69748
  22200877.460   116666483.50709  22200873.740    90908981.49747
  21354807.580   112220554.14109  21354803.560    87444691.38148
  23507928.300   123535046.64808  23507924.640    96261083.03546
  22966376.760   120689137.16208  22966376.280    94043501.61747
  23917342.800   125686887.27208  23917341.560    97937995.52346
  23201235.900   121923325.05209  23201233.420    95005177.57747
 15 02 23 00 27 30.0000000  0  7G16G18G21G22G27G29G31
  21663119.840   113840477.88609  21663116.480    88706861.24848
  22190489.520   116611894.95309  22190485.980    90866444.97547
  21362800.240   112262555.99809  21362796.260    87477420.10448
  23489977.380   123440712.58708  23489973.660    96187575.84546
  22954079.500   120624514.70108  22954079.060    93993146.47347
  23930783.120   125757516.58308  23930782.240    97993031.30046
  23218424.680   122013652.96408  23218422.320    95075562.91947
 15 02 23 00 28  0.0000000  0  7G16G18G21G22G27G29G31
  21649831.340   113770646.30509  21649828.000    88652447.03548
  22180167.100   116557650.92909  22180163.780    90824176.92547
  21370846.720   112304840.56209  21370842.800    87510369.11148
  23472037.780   123346438.42008  23472034.000    96114115.53746
  22941796.120   120559965.47908  22941795.680    93942848.40247
  23944230.240   125828180.81908  23944229.240    98048094.35246
  23235638.780   122104114.00109  23235636.480    95146051.97847
 15 02 23 00 28 30.0000000  0  7G16G18G21G22G27G29G31
  21636600.080   113701115.32809  21636596.720    88598267.05548
  22169911.800   116503759.83609  22169908.640    90782183.87647
  21378947.900   112347412.63909  21378943.980    87543542.16548
  23454111.360   123252233.92109  23454107.460    96040709.49847
  22929527.960   120495496.11808  22929527.500    93892612.55347
  23957685.100   125898886.17808  23957684.020    98103189.41246
  23252878.940   122194711.89209  23252876.700    95216647.70347
 15 02 23 00 29  0.0000000  0  7G16G18G21G22G27G29G31
  21623425.400   113631881.68309  21623422.040    88544318.77748
  22159723.120   116450218.93109  22159720.160    90740463.71747
  21387102.620   112390265.95009  21387098.720    87576934.34948
  23436197.480   123158096.09609  23436193.600    95967355.47846
  22917273.980   120431101.43408  22917273.480    93842434.90747
  23971146.900   125969628.02008  23971145.820    98158312.86846
  23270143.640   122285438.43208  23270141.400    95287343.67347
 15 02 23 00 29 30.0000000  0  7G16G18G21G22G27G29G31
  21610308.540   113562951.93709  21610305.180    88490607.30148
  22149602.300   116397034.24109  22149599.500    90699021.11347
  21395311.160   112433402.09009  21395307.300    87610546.93648
  23418297.480   123064031.35009  23418293.600    95894058.50846
  22905034.840   120366785.16008  22905034.440    93792318.35747
  23984616.420   126040410.23408  23984615.100    98213467.84546
  23287433.000   122376294.36109  23287430.760    95358140.45447
 15 02 23 00 30  0.0000000  0  7G16G18G21G22G27G29G31
  21597248.540   113494321.14509  21597245.160    88437128.77448
  22139548.500   116344201.37309  22139545.720    90657852.67847
  21403571.880   112476812.29909  21403567.960    87644373.07548
  23400410.420   122970035.34809  23400406.480    95820815.04446
  22892809.380   120302540.63308  22892809.120    93742257.71747
  23998092.520   126111225.95508  23998090.940    98268648.90146
  23304745.120   122467269.77208  23304742.820    95429030.33747
 15 02 23 00 30 30.0000000  0  7G16G18G21G22G27G29G31
  21584247.320   113425999.32009  21584243.940    88383890.99448
  22129563.480   116291729.70209  22129560.760    90616965.66947
  21411885.760   112520502.20709  21411881.880    87678417.15648
  23382538.560   122876118.98008  23382534.640    95747633.86345
  22880599.060   120238375.29108  22880598.920    93692258.77047
  24011576.400   126182082.89308  24011574.720    98323862.04846
  23322080.860   122558369.16709  23322078.520    95500016.81547
 15 02 23 00 31  0.0000000  0  7G16G18G21G22G27G29G31
  21571305.560   113357989.96009  21571302.160    88330896.69848
  22119647.780   116239622.37309  22119645.140    90576362.58547
  21420252.840   112564471.76409  21420249.060    87712679.14748
  23364682.480   122782285.61108  23364678.500    95674517.36145
  22868404.120   120174290.53308  22868403.960    93642322.62647
  24025068.120   126252981.90508  24025065.940    98379108.04246
  23339439.940   122649591.10709  23339437.500    95571098.79147
 15 02 23 00 31 30.0000000  0  7G16G18G21G22G27G29G31
  21558422.120   113290286.94909  21558418.740    88278141.10748
  22109800.340   116187873.33709  22109797.580    90536038.66747
  21428671.180   112608710.77809  21428667.500    87747151.10248
  23346841.020   122688529.42009  23346836.880    95601460.97347
  22856223.000   120110278.00808  22856222.740    93592442.75447
  24038566.240   126323915.11508  24038564.280    98434380.65346
  23356820.160   122740924.34608  23356817.620    95642267.48947
 15 02 23 00 32  0.0000000  0  7G16G18G21G22G27G29G31
  21545599.220   113222902.01909  21545595.800    88225633.37748
  22100023.120   116136493.51309  22100020.280    90496002.46147
  21437142.140   112653226.49609  21437138.540    87781838.68548
  23329016.380   122594861.57108  23329012.080    95528472.98647
  22844057.420   120046347.09608  22844057.060    93542626.49048
  24052072.520   126394891.82108  24052070.960    98489687.14046
  23374222.580   122832374.37808  23374219.980    95713527.20847
 15 02 23 00 32 30.0000000  0  7G16G18G21G22G27G29G31
  21532835.720   113155829.26009  21532832.280    88173368.90048
  22090315.180   116085477.73109  22090312.180    90456249.92247
  21445663.920   112698009.23308  21445660.420    87816734.33248
  23311207.760   122501277.56808  23311203.440    95455550.31146
  22831905.880   119982489.76608  22831905.460    93492867.56248
  24065585.660   126465904.12908  24065584.200    98545021.40046
  23391645.200   122923930.67308  23391642.600    95784869.71347
 15 02 23 00 33  0.0000000  0  7G16G18G21G22G27G29G31
  21520132.900   113089075.48809  21520129.460    88121352.98448
  22080677.640   116034832.20109  22080674.540    90416785.89547
  21454237.060   112743061.63208  21454233.600    87851840.09448
  23293416.600   122407784.93308  23293412.300    95382698.91146
  22819769.160   119918710.58808  22819768.760    93443169.52648
  24079106.520   126536956.30508  24079105.080    98600386.71346
  23409088.340   123015594.82408  23409085.700    95856296.24947
 15 02 23 00 33 30.0000000  0  7G16G18G21G22G27G29G31
  21507491.240   113022642.84109  21507487.760    88069587.28148
  22071110.860   115984558.49309  22071107.660    90377611.59347
  21462861.280   112788382.28009  21462857.800    87887154.87648
  23275643.240   122314385.48509  23275639.000    95309920.08547
  22807647.280   119855009.42609  22807646.820    93393532.27447
  24092634.940   126608048.32408  24092633.380    98655783.03346
  23426551.400   123107363.46408  23426548.760    95927804.21847
 15 02 23 00 34  0.0000000  0  7G16G18G21G22G27G29G31
  21494910.960   112956532.48709  21494907.400    88018072.72748
  22061615.100   115934657.86109  22061611.840    90338728.01547
  21471535.960   112833967.78908  21471532.400    87922676.05048
  23257888.140   122221082.13808  23257883.900    95237216.50647
  22795540.020   119791385.29608  22795539.460    93343955.05647
  24106170.860   126679179.64908  24106169.060    98711210.04146
  23444033.600   123199232.64008  23444030.920    95999390.51847
 15 02 23 00 34 30.0000000  0  7G16G18G21G22G27G29G31
  21482392.720   112890748.27709  21482389.060    87966812.30848
  22052191.040   115885133.66109  22052187.740    90300137.74547
  21480260.980   112879817.73208  21480257.300    87958403.27648
  23240151.920   122127878.28008  23240147.680    95164590.76046
  22783447.600   119727839.55408  22783446.900    93294438.91847
  24119714.380   126750351.22708  24119712.280    98766668.39746
  23461534.620   123291200.68708  23461531.900    96071053.86247
 15 02 23 00 35  0.0000000  0  7G16G18G21G22G27G29G31
  21469936.440   112825289.80009  21469932.700    87915805.70048
  22042838.500   115835985.14509  22042835.100    90261840.21747
  21489035.500   112925927.63309  21489031.640    87994333.06548
  23222434.480   122034773.76808  23222430.160    95092042.36947
  22771369.680   119664369.88008  22771368.900    93244982.04147
  24133265.280   126821560.82508  24133263.020    98822156.37546
  23479053.420   123383262.16408  23479050.680    96142790.00647
 15 02 23 00 35 30.0000000  0  7G16G18G21G22G27G29G31
  21457543.300   112760163.49109  21457539.560    87865057.93348
  22033558.640   115787218.65009  22033555.200    90223840.36547
  21497859.980   112972300.07409  21497855.960    88030467.42048
  23204737.020   121941774.99109  23204732.780    95019576.27047
  22759307.040   119600980.33608  22759306.240    93195587.61847
  24146824.080   126892812.72208  24146821.700    98877677.31146
  23496590.160   123475417.92608  23496587.380    96214599.62147
 15 02 23 00 36  0.0000000  0  7G16G18G21G22G27G29G31
  21445213.160   112695368.44409  21445209.420    87814568.28848
  22024351.140   115738832.70609  22024347.740    90186137.05047
  21506733.500   113018930.50508  21506729.400    88066802.82948
  23187059.600   121848881.57408  23187055.460    94947192.08947
  22747259.020   119537668.02108  22747258.300    93146253.36747
  24160390.260   126964103.63108  24160387.760    98933228.66346
  23514143.660   123567662.04708  23514140.840    96286478.09346
 15 02 23 00 36 30.0000000  0  7G16G18G21G22G27G29G31
  21432946.780   112630908.72809  21432943.080    87764339.94548
  22015216.840   115690831.42009  22015213.480    90148733.46347
  21515656.000   113065818.54309  21515651.860    88103338.96148
  23169403.080   121756097.83408  23169398.940    94874893.17147
  22735225.960   119474434.77108  22735225.300    93096980.72347
  24173964.240   127035435.91108  24173962.000    98988812.22046
  23531713.740   123659993.37208  23531711.000    96358424.50247
 15 02 23 00 37  0.0000000  0  7G16G18G21G22G27G29G31
  21420744.320   112566784.67009  21420740.680    87714373.15148
  22006155.680   115643214.79509  22006152.460    90111629.61447
  21524626.700   113112960.06609  21524622.660    88140072.60448
  23151767.680   121663424.78509  23151763.580    94802680.49747
  22723207.580   119411278.58508  22723207.040    93047768.13547
  24187545.700   127106807.03308  24187543.720    99044426.06846
  23549299.460   123752406.87308  23549296.780    96430434.94946
 15 02 23 00 37 30.0000000  0  7G16G18G21G22G27G29G31
  21408606.180   112502998.30309  21408602.560    87664669.48448
  21997167.960   115595984.38809  21997164.780    90074826.72447
  21533645.400   113160354.01409  21533641.540    88177002.95848
  23134154.000   121570865.09709  23134149.920    94730556.13547
  22711204.020   119348199.47808  22711203.480    92998615.59247
  24201134.640   127178217.17408  24201132.720    99100070.33546
  23566900.200   123844899.27308  23566897.540    96502506.87146
 15 02 23 00 38  0.0000000  0  7G16G18G21G22G27G29G31
  21396533.060   112439553.66909  21396529.520    87615232.11548
  21988254.380   115549143.86409  21988251.300    90038327.62647
  21542712.000   113207999.82609  21542708.320    88214129.56748
  23116562.840   121478423.27109  23116558.640    94658523.61147
  22699215.580   119285199.30408  22699214.960    92949524.56847
  24214731.420   127249668.44408  24214729.740    99155746.60646
  23584515.820   123937469.60508  23584513.040    96574639.51847
 15 02 23 00 38 30.0000000  0  7G16G18G21G22G27G29G31
  21384524.880   112376450.09209  21384521.340    87566060.49848
  21979414.860   115502692.39309  21979411.860    90002131.68747
  21551825.700   113255893.00009  21551822.100    88251448.91948
  23098994.100   121386098.99009  23098989.820    94586582.69547
  22687241.640   119222275.29608  22687240.900    92900492.89948
  24228335.620   127321157.69608  24228333.980    99211452.50746
  23602145.120   124030111.91008  23602142.400    96646828.23346
 15 02 23 00 39  0.0000000  0  7G16G18G21G22G27G29G31
  21372583.100   112313695.69009  21372579.600    87517160.97148
  21970650.820   115456637.46409  21970647.800    89966244.74647
  21560987.280   113304037.51208  21560983.740    88288964.12348
  23081449.420   121293900.78509  23081445.020    94514739.99547
  22675283.260   119159433.30708  22675282.420    92851525.12747
  24241948.200   127392690.81108  24241946.180    99267192.60246
  23619788.660   124122828.94208  23619786.060    96719075.18646
 15 02 23 00 39 30.0000000  0  7G16G18G21G22G27G29G31
  21360707.860   112251291.04309  21360704.400    87468533.97348
  21961962.280   115410979.00409  21961959.180    89930666.74448
  21570196.020   113352429.86709  21570192.520    88326672.45648
  23063928.760   121201829.23009  23063924.340    94442996.01247
  22663340.120   119096671.82208  22663339.300    92802620.09648
  24255568.700   127464266.47208  24255566.480    99322965.79646
  23637445.500   124215616.16508  23637443.020    96791376.84547
 15 02 23 00 40  0.0000000  0  7G16G18G21G22G27G29G31
  21348899.300   112189236.77009  21348895.860    87420179.99448
  21953349.400   115365717.71509  21953346.140    89895398.22347
  21579451.320   113401066.63909  21579447.760    88364571.23548
  23046432.460   121109885.96309  23046427.960    94371351.97547
  22651411.980   119033989.27508  22651411.280    92753776.56147
  24269196.880   127535882.96008  24269194.720    99378770.83346
  23655114.800   124308468.89008  23655112.420    96863729.51947
 15 02 23 00 40 30.0000000  0  7G16G18G21G22G27G29G31
  21337158.020   112127535.88009  21337154.560    87372101.38348
  21944812.520   115320855.91109  21944809.180    89860440.98348
  21588752.960   113449946.63009  21588749.280    88402659.53648
  23028961.180   121018074.32908  23028956.680    94299810.53847
  22639499.040   118971386.55008  22639498.400    92704995.23147
  24282832.920   127607541.19908  24282830.980    99434608.39946
  23672796.100   124401384.83008  23672793.800    96936131.46246
 15 02 23 00 41  0.0000000  0  7G16G18G21G22G27G29G31
  21325484.660   112066191.89909  21325481.120    87324300.87248
  21936352.260   115276396.83909  21936348.900    89825797.56547
  21598100.820   113499069.49309  21598097.040    88440937.08748
  23011515.580   120926398.00909  23011511.200    94228374.54647
  22627601.600   118908864.96308  22627600.860    92656277.12847
  24296476.940   127679242.49008  24296475.200    99490479.53746
  23690489.100   124494362.17008  23690486.920    97008581.23346
 15 02 23 00 41 30.0000000  0  7G16G18G21G22G27G29G31
  21313879.100   112005204.44809  21313875.560    87276778.19348
  21927968.480   115232339.78609  21927965.100    89791467.42147
  21607494.060   113548431.01309  21607490.200    88479400.61648
  22994095.840   120834857.14709  22994091.520    94157044.11247
  22615719.180   118846422.24508  22615718.420    92607620.48847
  24310128.780   127750984.46808  24310127.180    99546382.33246
  23708192.840   124587395.65708  23708190.660    97081074.79047
 15 02 23 00 42  0.0000000  0  7G16G18G21G22G27G29G31
  21302341.880   111944576.25809  21302338.420    87229535.45348
  21919661.760   115188687.31009  21919658.260    89757452.51247
  21616932.420   113598029.80409  21616928.520    88518049.02448
  22976702.660   120743455.25109  22976698.200    94085821.91747
  22603851.880   118784059.15008  22603851.160    92559025.88447
  24323788.440   127822767.84008  24323786.860    99602317.39746
  23725906.860   124680483.13008  23725904.640    97153610.38546
 15 02 23 00 42 30.0000000  0  7G16G18G21G22G27G29G31
  21290873.580   111884310.47909  21290870.180    87182575.10648
  21911432.480   115145441.70209  21911428.820    89723754.63848
  21626415.740   113647864.78709  21626411.800    88556881.47048
  22959336.520   120652195.53509  22959332.000    94014710.52147
  22591999.820   118721776.45908  22591999.160    92510493.93848
  24337456.180   127894593.28408  24337454.560    99658285.26945
  23743630.720   124773622.10908  23743628.380    97226186.08646
 15 02 23 00 43  0.0000000  0  7G16G18G21G22G27G29G31
  21279474.460   111824408.24009  21279471.140    87135898.04548
  21903280.660   115102603.32309  21903276.940    89690374.09648
  21635943.440   113697933.06209  21635939.480    88595895.71748
  22941997.700   120561079.60509  22941993.100    93943711.16747
  22580162.860   118659573.26108  22580162.260    92462023.94248
  24351131.960   127966459.99308  24351130.080    99714285.27145
  23761363.680   124866808.52608  23761361.160    97298798.77646
 15 02 23 00 43 30.0000000  0  7G16G18G21G22G27G29G31
  21268144.720   111764870.19609  21268141.400    87089504.77248
  21895206.300   115060172.48009  21895202.540    89657311.12547
  21645514.920   113748231.20309  21645510.900    88635089.08448
  22924686.420   120470108.48509  22924681.740    93872824.62547
  22568340.740   118597447.87709  22568340.220    92413614.56848
  24364815.400   128038366.04308  24364813.020    99770315.98946
  23779104.640   124960037.27708  23779102.020    97371444.45446
 15 02 23 00 44  0.0000000  0  7G16G18G21G22G27G29G31
  21256885.520   111705702.54909  21256882.100    87043400.12248
  21887210.640   115018155.60209  21887206.920    89624570.70947
  21655130.700   113798762.00309  21655126.620    88674463.73148
  22907404.020   120379289.27009  22907399.320    93802056.46347
  22556534.380   118535405.02809  22556533.940    92365269.51648
  24378507.260   128110316.26008  24378504.740    99826381.03146
  23796854.020   125053310.43908  23796851.380    97444124.70446
 15 02 23 00 44 30.0000000  0  7G16G18G21G22G27G29G31
  21245696.780   111646904.96609  21245693.240    86997583.80548
  21879293.400   114976551.30809  21879289.900    89592151.79747
  21664789.780   113849520.77709  21664785.760    88714016.01848
  22890150.420   120288621.69709  22890145.800    93731406.47447
  22544743.220   118473442.07208  22544742.820    92316986.70948
  24392206.980   128182307.88108  24392204.480    99882478.37645
  23814610.740   125146622.32708  23814608.180    97516835.14046
 15 02 23 00 45  0.0000000  0  7G16G18G21G22G27G29G31
  21234580.000   111588485.86109  21234576.440    86952062.43348
  21871456.220   114935367.66309  21871452.960    89560060.66447
  21674493.020   113900511.69509  21674489.080    88753749.20148
  22872927.440   120198114.89909  22872922.980    93660881.75947
  22532968.460   118411565.33608  22532968.120    92268771.09348
  24405915.620   128254347.31808  24405913.220    99938613.01045
  23832375.380   125239975.93808  23832373.000    97589578.09946
 15 02 23 00 45 30.0000000  0  7G16G18G21G22G27G29G31
  21223534.060   111530438.94409  21223530.440    86906831.07348
  21863697.840   114894597.82109  21863694.700    89528291.97047
  21684238.580   113951725.04509  21684234.680    88793655.70348
  22855733.860   120107762.86909  22855729.400    93590477.63247
  22521208.500   118349766.55208  22521208.220    92220616.21748
  24419631.680   128326425.85708  24419629.400    99994778.10646
  23850145.760   125333359.79508  23850143.460    97662344.60947
 15 02 23 00 46  0.0000000  0  7G16G18G21G22G27G29G31
  21212560.300   111472771.56709  21212556.720    86861895.45948
  21856019.560   114854248.72309  21856016.480    89496851.13748
  21694026.940   114003163.57109  21694023.080    88833737.67548
  22838571.400   120017573.81709  22838566.920    93520200.49547
  22509464.420   118288051.07108  22509464.140    92172526.25748
  24433356.240   128398549.13808  24433354.200   100050978.01346
  23867922.400   125426776.34808  23867920.240    97735136.59346
 15 02 23 00 46 30.0000000  0  7G16G18G21G22G27G29G31
  21201658.860   111415483.81109  21201655.240    86817255.65148
  21848421.240   114814319.41309  21848418.100    89465737.39947
  21703857.520   114054823.85109  21703853.680    88873992.43548
  22821439.940   119927547.74409  22821435.480    93450050.35247
  22497735.800   118226416.74109  22497735.380    92124499.52948
  24447088.960   128470714.88208  24447087.060   100107211.02446
  23885704.320   125520220.36908  23885702.360    97807949.99546
 15 02 23 00 47  0.0000000  0  7G16G18G21G22G27G29G31
  21190830.340   111358579.12309  21190826.640    86772914.33448
  21840903.380   114774812.89709  21840900.280    89434953.11048
  21713730.140   114106705.06409  21713726.300    88914419.36048
  22804340.260   119837688.37509  22804335.740    93380030.12147
  22486022.900   118164864.98109  22486022.400    92076537.12648
  24460830.020   128542924.25108  24460828.160   100163478.05445
  23903491.160   125613690.22708  23903489.300    97880783.50346
 15 02 23 00 47 30.0000000  0  7G16G18G21G22G27G29G31
  21180075.180   111302059.90109  21180071.420    86728873.38148
  21833466.420   114735731.35909  21833463.300    89404499.97347
  21723644.540   114158805.66409  21723640.660    88955017.21848
  22787272.900   119747999.11809  22787268.320    93310142.43247
  22474325.800   118103396.35308  22474325.200    92028639.50848
  24474579.520   128615177.96508  24474577.440   100219779.65945
  23921282.380   125707183.14108  23921280.600    97953634.97746
 15 02 23 00 48  0.0000000  0  7G16G18G21G22G27G29G31
  21169393.400   111245926.63409  21169389.620    86685133.18248
  21826110.320   114697074.66109  21826107.100    89374377.88948
  21733600.000   114211122.12709  21733596.140    88995783.30448
  22770238.100   119658480.77409  22770233.500    93240387.92347
  22462644.160   118042009.33809  22462643.620    91980805.48548
  24488337.140   128687474.15708  24488334.760   100276114.37745
  23939077.100   125800694.48208  23939075.280    98026500.80646
 15 02 23 00 48 30.0000000  0  7G16G18G21G22G27G29G31
  21158785.840   111190183.42709  21158782.020    86641696.91748
  21818835.780   114658846.60309  21818832.460    89344589.79648
  21743596.800   114263655.49009  21743592.880    89036718.38348
  22753236.780   119569138.58409  22753232.220    93170770.67947
  22450978.580   117980706.44409  22450978.060    91933037.01848
  24502103.360   128759815.33308  24502100.780   100332484.09246
  23956875.280   125894223.66908  23956873.540    98099380.53446
 15 02 23 00 49  0.0000000  0  7G16G18G21G22G27G29G31
  21148252.600   111134830.83809  21148248.760    86598565.03348
  21811642.720   114621046.81809  21811639.380    89315135.42647
  21753634.120   114316401.70509  21753630.140    89077819.33248
  22736269.020   119479972.77909  22736264.560    93101290.87047
  22439328.740   117919486.09509  22439328.240    91885332.86548
  24515877.800   128832199.72008  24515875.280   100388887.50746
  23974675.920   125987765.80908  23974674.360    98172270.34646
 15 02 23 00 49 30.0000000  0  7G16G18G21G22G27G29G31
  21137794.080   111079871.01809  21137790.240    86555739.20648
  21804531.420   114583676.80009  21804528.100    89286015.94247
  21763711.560   114369358.87309  21763707.600    89119084.66048
  22719335.480   119390986.50509  22719331.060    93031950.96547
  22427694.720   117858348.35009  22427694.140    91837693.08048
  24529660.400   128904627.37608  24529657.920   100445324.62646
  23992478.580   126081318.40508  23992476.980    98245168.32146
 15 02 23 00 50  0.0000000  0  7G16G18G21G22G27G29G31
  21127411.480   111025310.12909  21127407.680    86513224.22948
  21797502.860   114546741.67509  21797499.640    89257235.34248
  21773829.600   114422529.47109  21773825.700    89160516.29148
  22702437.380   119302186.30809  22702433.000    92962756.05447
  22416077.180   117797297.31609  22416076.540    91790120.86248
  24543452.000   128977102.36308  24543449.500   100501798.61646
  24010283.340   126174882.30908  24010281.780    98318075.06946
 15 02 23 00 50 30.0000000  0  7G16G18G21G22G27G29G31
  21117104.540   110971146.68109  21117100.760    86471018.94948
  21790556.780   114510240.08609  21790553.640    89228792.56548
  21783987.000   114475907.16809  21783983.180    89202109.30048
  22685574.460   119213570.90509  22685570.060    92893705.13847
  22404475.480   117736329.81309  22404474.800    91742613.74648
  24557251.800   129049620.98508  24557249.260   100558306.64345
  24028088.980   126268450.66208  24028087.420    98390985.29946
 15 02 23 00 51  0.0000000  0  6G16G18G21G22G27G31
  21106880.720   110917420.29909  21106877.040    86429154.24048
  21783700.580   114474210.84009  21783697.500    89200717.82648
  21794190.840   114529528.96709  21794187.100    89243892.52148
  22668754.420   119125180.87009  22668749.900    92824829.81047
  22392896.760   117675483.50209  22392896.100    91695201.04848
  24045902.080   126362058.32508  24045900.400    98463926.15346
 15 02 23 00 51 30.0000000  0  6G16G18G21G22G27G31
  21096727.060   110864062.54209  21096723.460    86387576.76948
  21776921.080   114438584.84009  21776918.080    89172957.32747
  21804427.440   114583322.63209  21804423.680    89285809.66548
  22651964.360   119036948.49309  22651959.780    92756077.36047
  22381327.640   117614688.02908  22381327.060    91647827.97648
  24063708.720   126455632.17408  24063707.160    98536840.62646
 15 02 23 00 52  0.0000000  0  6G16G18G21G22G27G31
