     2.11           OBSERVATION DATA    G                   RINEX VERSION / TYPE
SPIDER V4,0,0,3554                      2015 03 31 03:59    PGM / RUN BY / DATE 
EADB                                                        MARKER NAME         
EADB                                                        MARKER NUMBER       
                                                            OBSERVER / AGENCY   
462408              LEICA GRX1200PRO    3.00/2.127          REC # / TYPE / VERS 
103310              LEIAT504                                ANT # / TYPE        
  5238464.6656   142765.3090  3625629.6523                  APPROX POSITION XYZ 
        0.0770        0.0000        0.0000                  ANTENNA: DELTA H/E/N
     1     1                                                WAVELENGTH FACT L1/2
     4    C1    L1    P2    L2                              # / TYPES OF OBSERV 
    30.000                                                  INTERVAL            
  2015    02    23    00    00    0.0000000     GPS         TIME OF FIRST OBS   
  2015    02    23    23    59   30.0000000     GPS         TIME OF LAST OBS    
    16                                                      LEAP SECONDS        
    30                                                      # OF SATELLITES     
   G 1   835   835   835   835                              PRN / # OF OBS      
   G 2   925   925   925   925                              PRN / # OF OBS      
   G 3   842   842   842   842                              PRN / # OF OBS      
   G 4   849   849   849   849                              PRN / # OF OBS      
   G 5   673   673   673   673                              PRN / # OF OBS      
   G 6   726   726   726   726                              PRN / # OF OBS      
   G 7   648   648   648   648                              PRN / # OF OBS      
   G 9   789   789   789   789                              PRN / # OF OBS      
   G10   782   782   782   782                              PRN / # OF OBS      
   G11   799   799   799   799                              PRN / # OF OBS      
   G12   817   817   817   817                              PRN / # OF OBS      
   G13   822   822   822   822                              PRN / # OF OBS      
   G14   929   929   929   929                              PRN / # OF OBS      
   G15   732   732   732   732                              PRN / # OF OBS      
   G16   691   691   691   691                              PRN / # OF OBS      
   G17   925   925   925   925                              PRN / # OF OBS      
   G18   937   937   937   937                              PRN / # OF OBS      
   G19   778   778   778   778                              PRN / # OF OBS      
   G20   810   810   810   810                              PRN / # OF OBS      
   G21   705   705   705   705                              PRN / # OF OBS      
   G22   783   783   783   783                              PRN / # OF OBS      
   G23   731   731   731   731                              PRN / # OF OBS      
   G24   842   842   842   842                              PRN / # OF OBS      
   G25   854   854   854   854                              PRN / # OF OBS      
   G27   832   832   832   832                              PRN / # OF OBS      
   G28   906   906   906   906                              PRN / # OF OBS      
   G29   744   744   744   744                              PRN / # OF OBS      
   G30   695   695   695   695                              PRN / # OF OBS      
   G31   781   781   781   781                              PRN / # OF OBS      
   G32   744   744   744   744                              PRN / # OF OBS      
BIT 2 OF LLI FLAGS DATA COLLECTED UNDER A/S CONDITION       COMMENT             
SNR is mapped to RINEX snr flag value [2-9]                 COMMENT             
Lx:     = 25dBHz -> 1; 26-27dBHz -> 2; 28-31dBHz -> 3       COMMENT             
       32-35dBHz -> 4; 36-38dBHz -> 5; 39-41dBHz -> 6       COMMENT             
       42-44dBHz -> 7; 45-48dBHz -> 8; >=49dBHz -> 9        COMMENT             
                                                            END OF HEADER       
 15 02 23 00 00  0.0000000  0  7G16G18G21G25G27G29G31
  22148616.601   116391773.66308  22148615.041    90694883.13047
  23200597.524   121920030.75608  23200596.571    95002641.66945
  21138085.051   111081392.71309  21138083.187    86556924.27449
  24453925.645   128506211.29607  24453928.176   100134761.45245
  23148237.464   121644819.31707  23148238.726    94788187.92446
  23650602.121   124284743.03207  23650601.693    96845246.82646
  22135283.753   116321691.57208  22135282.814    90640269.11048
 15 02 23 00 00 30.0000000  0  7G16G18G21G25G27G29G31
  22134066.139   116315310.50008  22134064.533    90635301.45047
  23187754.660   121852541.39407  23187753.712    94950052.59045
  21143262.605   111108600.09709  21143260.421    86578124.83849
  24471821.797   128600257.46305  24471823.902   100208044.27044
  23135802.362   121579473.10207  23135803.703    94737268.83346
  23664824.141   124359479.24907  23664823.307    96903482.83246
  22150692.434   116402664.83108  22150691.568    90703365.12848
 15 02 23 00 01  0.0000000  0  7G16G18G21G25G27G29G31
  22119549.236   116239023.44308  22119547.690    90575857.00047
  23174947.777   121785241.64308  23174947.298    94897611.27845
  21148515.475   111136204.46309  21148513.388    86599634.73349
  24489749.881   128694500.61614  24489752.715   100281438.63853
  23123391.274   121514252.01707  23123392.663    94686447.22746
  23679047.800   124434224.45907  23679046.871    96961725.82546
  22166160.550   116483949.76908  22166159.382    90766704.02547
 15 02 23 00 01 30.0000000  0  8G16G18G21G22G25G27G29G31
  22105065.222   116162909.31008  22105063.517    90516547.29647
  23162176.490   121718128.66907  23162175.746    94845315.50145
  21153842.727   111164199.10609  21153840.555    86621448.74849
  24551196.915   129017409.49116  24551198.773   100533058.19155
  24507709.724   128788878.94607  24507713.115   100354980.22246
  23111002.826   121449150.87507  23111004.280    94635719.09046
  23693272.010   124508973.15507  23693271.204    97019971.55946
  22181686.366   116565538.42108  22181685.035    90830279.57248
 15 02 23 00 02  0.0000000  0  7G16G18G21G22G27G29G31
  22090613.023   116086962.02308  22090611.193    90457367.59947
  23149440.035   121651197.68008  23149439.116    94793161.50545
  21159242.090   111192573.60909  21159239.991    86643558.75449
  24534154.863   128927855.30705  24534157.131   100463276.48645
  23098635.737   121384161.26007  23098637.030    94585077.86246
  23707495.153   124583717.02507  23707494.821    97078213.48646
  22197267.829   116647419.68408  22197266.638    90894083.13048
 15 02 23 00 02 30.0000000  0  8G16G18G21G22G25G27G29G31
  22076197.936   116011210.00708  22076196.211    90398340.06447
  23136743.853   121584478.23008  23136742.811    94741172.35345
  21164718.928   111221354.33709  21164716.836    86665985.29949
  24517098.816   128838226.92806  24517100.580   100393436.98145
  24543721.003   128978129.08815  24543725.459   100502441.00254
  23086294.854   121319309.69907  23086296.232    94534544.20046
  23721722.569   124658482.53907  23721722.502    97136472.30546
  22212909.604   116729617.51608  22212908.450    90958133.36247
 15 02 23 00 03  0.0000000  0  8G16G18G21G22G25G27G29G31
  22061815.957   115935632.70008  22061814.130    90339448.66147
  23124083.729   121517949.83008  23124083.131    94689332.07845
  21170268.250   111250516.78309  21170266.265    86688709.28249
  24500024.657   128748504.46107  24500025.696   100323524.05844
  24561774.608   129072991.61216  24561778.770   100576376.76154
  23073976.006   121254573.74907  23073977.320    94484100.62947
  23735949.836   124733246.76707  23735949.648    97194730.12046
  22228606.718   116812106.84508  22228605.557    91022410.73648
 15 02 23 00 03 30.0000000  0  8G16G18G21G22G25G27G29G31
  22047469.914   115860243.35808  22047467.956    90280703.72647
  23111462.751   121451626.29908  23111462.194    94637651.45145
  21175892.155   111280070.76009  21175890.185    86711738.35849
  24482934.678   128658701.13906  24482935.342   100253548.00944
  24579858.437   129168023.99507  24579860.345   100650428.09845
  23061681.293   121189964.28307  23061682.600    94433755.62047
  23750178.878   124808020.79207  23750178.266    97252995.58746
  22244360.995   116894895.97208  22244359.951    91086921.71748
 15 02 23 00 04  0.0000000  0  8G16G18G21G22G25G27G29G31
  22033158.853   115785038.66108  22033157.019    90222102.67447
  23098879.867   121385504.95408  23098879.749    94586128.38345
  21181589.356   111310009.44109  21181587.334    86735067.20149
  24465828.986   128568814.15205  24465829.533   100183506.79944
  24597972.659   129263214.80705  24597977.624   100724597.64056
  23049409.357   121125475.85807  23049410.905    94383504.92446
  23764408.873   124882799.36307  23764408.331    97311264.57546
  22260170.828   116977976.83108  22260169.867    91151660.02648
 15 02 23 00 04 30.0000000  0  8G16G18G21G22G25G27G29G31
  22018883.170   115710019.82008  22018881.463    90163646.44047
  23086336.486   121319587.66408  23086335.825    94534764.26445
  21187359.256   111340330.78309  21187357.256    86758694.22449
  24448708.871   128478830.27916  24448709.938   100113371.82555
  24616117.188   129358569.10716  24616118.783   100798898.77955
  23037160.481   121061107.67407  23037161.985    94333347.92547
  23778639.520   124957581.16507  23778638.801    97369536.09845
  22276035.255   117061345.80408  22276034.074    91216622.83447
 15 02 23 00 05  0.0000000  0  7G16G18G21G22G27G29G31
  22004644.068   115635192.70908  22004642.256    90105339.61247
  23073833.130   121253881.12008  23073832.117    94483564.39245
  21193202.384   111371036.78509  21193200.178    86782620.98249
  24431573.504   128388785.97007  24431574.786   100043208.02445
  23024935.358   120996863.49708  23024936.638    94283287.54746
  23792871.237   125032370.09107  23792870.745    97427813.15446
  22291954.975   117145003.86908  22291953.700    91281810.91348
 15 02 23 00 05 30.0000000  0  8G16G18G21G22G25G27G29G31
  21990441.095   115560555.64309  21990439.251    90047180.87047
  23061369.320   121188383.76008  23061368.415    94432527.51945
  21199117.840   111402122.52809  21199115.691    86806843.64349
  24414423.794   128298665.01407  24414425.048    99972984.46345
  24652495.715   129549733.84016  24652500.190   100947869.56155
  23012732.962   120932739.50808  23012734.102    94233320.82647
  23807103.730   125107162.10007  23807103.071    97486092.65146
  22307928.556   117228944.75908  22307927.472    91347219.37248
 15 02 23 00 06  0.0000000  0  8G16G18G21G22G25G27G29G31
  21976275.522   115486114.55209  21976273.623    89989174.83447
  23048946.801   121123102.70008  23048946.058    94381659.20245
  21205105.831   111433589.88209  21205103.715    86831363.66149
  24397259.386   128208473.59905  24397261.306    99902705.96744
  24670730.398   129645555.21408  24670733.656   101022535.55446
  23000554.166   120868739.56407  23000555.475    94183450.75847
  23821337.287   125181960.72907  23821337.246    97544377.24846
  22323955.982   117313169.38908  22323954.636    91412848.92847
 15 02 23 00 06 30.0000000  0  8G16G18G21G22G25G27G29G31
  21962147.183   115411869.03609  21962145.280    89931321.19547
  23036565.320   121058037.76708  23036564.685    94330959.29746
  21211165.938   111465435.11509  21211163.823    86856178.13349
  24380081.690   128118211.50806  24380084.451    99832372.36744
  24688993.673   129741538.62417  24688996.015   101097313.58254
  22988398.350   120804860.81807  22988399.791    94133675.13947
  23835571.759   125256763.25707  23835571.665    97602664.90746
  22340036.564   117397672.26208  22340035.299    91478695.30547
 15 02 23 00 07  0.0000000  0  7G16G18G21G22G27G29G31
  21948056.695   115337823.02209  21948054.831    89873623.00647
  23024225.720   120993193.89008  23024225.047    94280431.63945
  21217297.832   111497658.93509  21217295.706    86881287.60749
  24362892.344   128027883.82207  24362894.975    99761987.64744
  22976266.090   120741105.61107  22976267.416    94083995.77946
  23849807.564   125331572.07507  23849807.407    97660957.45546
  22356169.719   117482453.34608  22356168.677    91544758.44847
 15 02 23 00 07 30.0000000  0  8G16G18G21G22G25G27G29G31
  21934002.738   115263969.94709  21934001.024    89816075.16847
  23011927.186   120928564.62508  23011926.314    94230071.19445
  21223500.087   111530251.50609  21223497.890    86906684.42249
  24345689.882   127937484.21206  24345692.034    99691546.88745
  24725607.158   129933938.40815  24725611.134   101247231.74855
  22964155.545   120677464.98907  22964157.030    94034405.71347
  23864042.534   125406378.28407  23864042.284    97719247.99146
  22372353.733   117567500.75808  22372352.603    91611029.14047
 15 02 23 00 08  0.0000000  0  8G16G18G21G22G25G27G29G31
  21919988.133   115190322.42409  21919986.277    89758687.50047
  22999671.899   120864162.68908  22999670.665    94179887.89045
  21229774.057   111563221.19009  21229771.912    86932375.08649
  24328475.936   127847025.21906  24328477.430    99621059.83644
  24743957.904   130030368.35805  24743961.186   101322371.64243
  22952069.041   120613949.13707  22952070.325    93984912.86547
  23878278.882   125481191.89007  23878278.849    97777544.28045
  22388589.690   117652821.88008  22388588.667    91677513.10647
 15 02 23 00 08 30.0000000  0  8G16G18G21G22G25G27G29G31
  21906012.154   115116878.03409  21906010.345    89701458.11247
  22987459.645   120799987.20608  22987458.684    94129881.05945
  21236118.490   111596561.56609  21236116.269    86958354.60349
  24311250.710   127756505.32906  24311251.011    99550525.24844
  24762336.370   130126947.34705  24762339.103   101397627.86143
  22940005.156   120550553.77707  22940006.543    93935513.91247
  23892516.087   125556008.16007  23892515.788    97835842.66746
  22404876.584   117738409.58708  22404875.352    91744204.79747
 15 02 23 00 09  0.0000000  0  8G16G18G21G22G25G27G29G31
  21892075.012   115043638.01309  21892073.044    89644387.97547
  22975290.786   120736039.44908  22975289.784    94080051.66545
  21242533.288   111630271.02909  21242530.935    86984621.71649
  24294014.340   127665926.22007  24294013.942    99479944.48944
  24780742.823   130223673.69106  24780746.591   101472999.22745
  22927964.203   120487277.85908  22927965.748    93886208.02646
  23906753.479   125630826.25107  23906753.555    97894142.44046
  22421213.543   117824260.35208  22421212.380    91811101.47547
 15 02 23 00 09 30.0000000  0  8G16G18G21G22G25G27G29G31
  21878177.707   114970607.64909  21878176.005    89587481.20647
  22963166.423   120672325.45908  22963165.709    94030404.45146
  21249018.448   111664351.17909  21249016.197    87011177.68449
  24276767.561   127575293.53206  24276767.307    99409322.02845
  24799177.438   130320548.21505  24799181.672   101548485.42646
  22915946.597   120424124.53607  22915947.800    93836997.66347
  23920992.001   125705649.12707  23920991.596    97952445.96546
  22437600.575   117910374.63208  22437599.503    91878203.47447
 15 02 23 00 10  0.0000000  0  8G16G18G21G22G25G27G29G31
  21864320.562   114897787.48509  21864318.792    89530738.23347
  22951086.668   120608845.70208  22951085.768    93980939.73746
  21255573.472   111698798.94009  21255571.556    87038020.09849
  24259510.560   127484608.06706  24259510.121    99338658.48444
  24817639.929   130417569.13606  24817644.310   101624085.78144
  22903951.862   120361092.15308  22903953.150    93787881.54446
  23935231.054   125780475.51307  23935230.887    98010752.19846
  22454036.912   117996747.94608  22454035.685    91945507.33147
 15 02 23 00 10 30.0000000  0  7G16G18G21G22G27G29G31
  21850503.181   114825176.75209  21850501.316    89474158.44947
  22939051.592   120545600.51008  22939050.461    93931657.79046
  21262197.737   111733609.77909  21262195.771    87065145.43149
  24242243.213   127393869.92407  24242242.846    99267953.81944
  22891979.589   120298177.84108  22891981.053    93738857.43247
  23949469.913   125855302.25407  23949469.704    98069058.71446
  22470521.444   118083374.68608  22470520.124    92013008.66447
 15 02 23 00 11  0.0000000  0  7G16G18G21G22G27G29G31
  21836727.267   114752783.30609  21836725.173    89417747.97847
  22927062.489   120482597.97908  22927061.224    93882564.92946
  21268891.905   111768787.74409  21268889.855    87092556.83749
  24224967.434   127303087.46707  24224967.093    99197214.52744
  22880031.038   120235387.22208  22880032.324    93689929.69847
  23963710.071   125930134.60107  23963709.589    98127369.63146
  22487054.768   118170257.60608  22487053.585    92080709.61247
 15 02 23 00 11 30.0000000  0  7G16G18G21G22G27G29G31
  21822992.567   114680607.56409  21822990.772    89361507.15148
  22915119.786   120419838.83708  22915118.608    93833661.72745
  21275655.363   111804329.86309  21275653.312    87120251.99749
  24207682.798   127212261.21605  24207683.416    99126441.10445
  22868105.592   120172718.45308  22868106.753    93641096.91646
  23977951.000   126004971.56307  23977950.629    98185684.12145
  22503636.058   118257392.06208  22503634.845    92148606.56847
 15 02 23 00 12  0.0000000  0  7G16G18G21G22G27G29G31
  21809299.015   114608647.42909  21809297.194    89305434.33048
  22903223.192   120357321.78208  22903222.182    93784947.16446
  21282486.914   111840229.74709  21282484.839    87148225.93049
  24190389.170   127121389.36805  24190391.222    99055632.30446
  22856202.555   120110167.25708  22856203.605    93592355.73347
  23992192.238   126079808.42907  23992191.359    98243998.56045
  22520263.675   118344771.34308  22520262.704    92216694.27547
 15 02 23 00 12 30.0000000  0  7G16G18G21G22G27G29G31
  21795647.521   114536908.59509  21795645.627    89249533.94748
  22891373.881   120295052.97908  22891373.051    93736426.04646
  21289387.135   111876490.05909  21289384.994    87176480.72148
  24173089.558   127030478.79407  24173091.215    98984793.23146
  22844322.425   120047737.53508  22844323.684    93543709.22446
  24006433.894   126154648.74507  24006433.601    98302315.66145
  22536938.275   118432396.45808  22536937.087    92284973.55547
 15 02 23 00 13  0.0000000  0  7G16G18G21G22G27G29G31
  21782037.707   114465388.57409  21782036.043    89193804.07148
  22879571.328   120233030.02208  22879570.551    93688096.50146
  21296354.368   111913103.65009  21296352.305    87205010.79249
  24155782.597   126939527.13207  24155783.069    98913922.11145
  22832464.601   119985424.15808  22832465.763    93495153.36347
  24020675.216   126229487.74107  24020674.726    98360631.75046
  22553658.159   118520259.38208  22553656.729    92353438.16247
 15 02 23 00 13 30.0000000  0  7G16G18G21G22G27G29G31
  21768470.882   114394094.70809  21768469.143    89138250.41448
  22867816.810   120171260.92808  22867816.205    93639964.76546
  21303389.927   111950075.16909  21303387.743    87233819.76548
  24138468.352   126848541.84606  24138467.963    98843024.76844
  22820629.835   119923232.41808  22820631.090    93446692.29247
  24034917.309   126304330.44207  24034917.130    98418950.69846
  22570423.480   118608362.45908  22570422.004    92422089.88047
 15 02 23 00 14  0.0000000  0  7G16G18G21G22G27G29G31
  21754947.812   114323030.49409  21754945.946    89082875.71548
  22856111.638   120109749.30008  22856110.872    93592033.66446
  21310493.202   111987403.56609  21310491.032    87262906.82749
  24121148.710   126757526.91907  24121148.260    98772104.35744
  22808818.520   119861163.16108  22808819.502    93398326.66047
  24049160.010   126379177.68707  24049159.713    98477273.19545
  22587234.446   118696704.18308  22587233.126    92490927.55347
 15 02 23 00 14 30.0000000  0  7G16G18G21G22G27G29G31
  21741467.236   114252189.96509  21741465.513    89027675.31148
  22844454.490   120048490.23008  22844453.487    93544299.34146
  21317662.740   112025079.55709  21317660.527    87292264.74148
  24103822.732   126666477.48007  24103822.208    98701157.07045
  22797028.788   119799208.98508  22797029.906    93350050.70346
  24063402.911   126454022.07407  24063402.346    98535593.49145
  22604088.597   118785274.21708  22604087.706    92559943.11547
 15 02 23 00 15  0.0000000  0  7G16G18G21G22G27G29G31
  21728031.367   114181583.37109  21728029.557    88972657.19548
  22832847.484   119987494.22208  22832846.352    93496770.00046
  21324899.840   112063110.08409  21324897.427    87321898.91948
  24086491.764   126575403.72007  24086490.997    98630190.81345
  22785262.734   119737377.79508  22785263.928    93301870.58347
  24077646.145   126528871.80507  24077645.358    98593917.96345
  22620987.465   118874077.55408  22620986.223    92629140.50047
 15 02 23 00 15 30.0000000  0  7G16G18G21G22G27G29G31
  21714639.808   114111210.53309  21714638.045    88917821.22448
  22821290.493   119926761.04208  22821288.951    93449445.46546
  21332203.319   112101490.66009  21332201.000    87351805.86048
  24069156.029   126484306.25506  24069155.594    98559206.07945
  22773519.460   119675666.91108  22773520.834    93253784.20247
  24091890.171   126603724.01207  24091889.700    98652244.32045
  22637929.596   118963108.80308  22637928.098    92698515.48747
 15 02 23 00 16  0.0000000  0  7G16G18G21G22G27G29G31
  21701292.987   114041072.98609  21701291.170    88863168.59348
  22809783.505   119866292.69308  22809782.260    93402327.30446
  21339573.184   112140219.18309  21339570.808    87381983.93048
  24051816.112   126393186.97306  24051815.063    98488204.22444
  22761799.088   119614075.85108  22761800.413    93205791.19247
  24106134.222   126678578.09607  24106134.074    98710572.14945
  22654914.257   119052364.70908  22654913.163    92768065.49247
 15 02 23 00 16 30.0000000  0  7G16G18G21G22G27G29G31
  21687991.049   113971170.23609  21687988.998    88808698.92248
  22798327.190   119806089.53708  22798325.801    93355415.76946
  21347008.343   112179291.36809  21347006.052    87412429.79248
  24034472.508   126302045.74907  24034471.428    98417185.34245
  22750101.101   119552601.85808  22750102.230    93157889.40347
  24120378.081   126753431.33307  24120377.933    98768899.30745
  22671940.891   119141839.74408  22671939.781    92837786.27047
 15 02 23 00 17  0.0000000  0  7G16G18G21G22G27G29G31
  21674733.875   113901503.97409  21674732.126    88754413.52948
  22786921.754   119746153.38108  22786920.604    93308712.30046
  21354508.532   112218705.03009  21354506.200    87443141.73948
  24017125.350   126210885.15907  24017124.528    98346151.37846
  22738425.272   119491244.52208  22738426.254    93110078.51147
  24134622.434   126828283.31907  24134621.882    98827225.52345
  22689008.533   119231530.52608  22689007.438    92907675.16047
 15 02 23 00 17 30.0000000  0  7G16G18G21G22G27G29G31
  21661523.680   113832083.30209  21661521.866    88700319.50348
  22775568.689   119686493.56108  22775567.817    93262224.16046
  21362074.573   112258465.25209  21362072.326    87474123.72748
  23999776.004   126119714.42206  23999775.276    98275109.49745
  22726772.760   119430010.59508  22726773.809    93062363.79147
  24148867.435   126903141.27007  24148867.092    98885556.37146
  22706117.983   119321441.01108  22706116.893    92977735.23847
 15 02 23 00 18  0.0000000  0  7G16G18G21G22G27G29G31
  21648359.738   113762906.16409  21648357.910    88646415.24248
  22764268.154   119627108.12908  22764266.645    93215949.81546
  21369705.281   112298565.73709  21369703.156    87505370.85848
  23982423.858   126028531.65206  23982423.101    98204058.27244
  22715142.860   119368895.55808  22715144.042    93014741.71447
  24163112.569   126978000.32906  24163112.559    98943888.08245
  22723267.902   119411564.09808  22723266.744    93047960.97847
 15 02 23 00 18 30.0000000  0  7G16G18G21G22G27G29G31
  21635242.038   113693972.68809  21635240.131    88592700.85048
  22753019.861   119567998.13508  22753018.414    93169890.09246
  21377400.385   112339003.74809  21377398.231    87536880.99648
  23965070.622   125937338.03107  23965069.122    98132998.44144
  22703535.248   119307897.74108  22703536.488    92967210.97147
  24177357.558   127052858.87707  24177357.164    99002219.39045
  22740457.370   119501895.11108  22740455.832    93118348.76346
 15 02 23 00 19  0.0000000  0  7G16G18G21G22G27G29G31
  21622171.881   113625288.92109  21622170.267    88539181.03348
  22741825.076   119509169.70708  22741823.573    93124049.78046
  21385160.177   112379781.79209  21385158.301    87568656.09048
  23947716.158   125846140.01807  23947714.952    98061935.23645
  22691950.719   119247020.87808  22691952.133    92919774.47647
  24191603.610   127127720.54307  24191603.312    99060553.14045
  22757686.630   119592435.20608  22757685.304    93188899.44747
 15 02 23 00 19 30.0000000  0  7G16G18G21G22G27G29G31
  21609148.754   113556851.58409  21609147.030    88485853.24248
  22730683.300   119450619.93508  22730682.018    93078426.60046
  21392983.158   112420891.96009  21392981.114    87600689.98648
  23930359.628   125754934.68406  23930359.396    97990866.41446
  22680388.293   119186259.35608  22680389.468    92872427.85847
  24205848.777   127202579.90307  24205848.087    99118885.11545
  22774953.933   119683175.58708  22774952.844    93259606.19947
 15 02 23 00 20  0.0000000  0  7G16G18G21G22G27G29G31
  21596174.157   113488669.52609  21596172.370    88432724.36848
  22719596.352   119392357.60108  22719595.208    93033027.40346
  21400870.303   112462338.90609  21400868.381    87632986.30548
  23913003.967   125663731.13207  23913003.669    97919798.95945
  22668848.955   119125619.79008  22668850.236    92825176.25747
  24220095.128   127277443.29607  24220094.506    99177220.19445
  22792260.048   119774120.30608  22792259.019    93330472.15446
 15 02 23 00 20 30.0000000  0  7G16G18G21G22G27G29G31
  21583247.554   113420739.39309  21583245.572    88379791.79248
  22708563.731   119334380.03408  22708562.610    92987850.10246
  21408820.448   112504116.26109  21408818.370    87665540.08748
  23895648.423   125572526.75707  23895647.677    97848730.76145
  22657331.849   119065096.77108  22657332.917    92778015.47847
  24234340.932   127352305.84107  24234340.507    99235554.62345
  22809603.492   119865260.90708  22809602.044    93401490.78846
 15 02 23 00 21  0.0000000  0  7G16G18G21G22G27G29G31
  21570370.026   113353067.24709  21570368.098    88327060.24848
  22697586.266   119276693.44408  22697585.003    92942899.54146
  21416833.583   112546225.82109  21416831.391    87698352.72848
  23878294.147   125481328.20106  23878293.379    97777667.06245
  22645837.618   119004693.92808  22645838.718    92730948.34447
  24248586.981   127427170.93106  24248587.126    99293891.02346
  22826984.721   119956598.41008  22826983.291    93472662.83647
 15 02 23 00 21 30.0000000  0  7G16G18G21G22G27G29G31
  21557541.958   113285655.48009  21557540.059    88274531.60548
  22686664.717   119219300.87708  22686663.542    92898178.07846
  21424909.869   112588666.24209  21424907.664    87731423.18248
  23860940.355   125390138.22507  23860940.358    97706610.24546
  22634366.194   118944411.72208  22634367.387    92683975.22247
  24262834.199   127502039.06607  24262833.951    99352229.79345
  22844402.486   120048130.25908  22844401.454    93543986.30346
 15 02 23 00 22  0.0000000  0  7G16G18G21G22G27G29G31
  21544763.161   113218502.76009  21544761.268    88222204.81148
  22675798.869   119162200.71208  22675797.664    92853684.46946
  21433047.958   112631432.15609  21433045.708    87764747.26948
  23843589.119   125298955.98607  23843588.856    97635559.30646
  22622917.110   118884246.38008  22622918.323    92637093.15847
  24277080.740   127576906.36107  24277080.166    99410567.94545
  22861856.043   120139849.88508  22861855.237    93615456.09747
 15 02 23 00 22 30.0000000  0  7G16G18G21G22G27G29G31
  21532033.411   113151607.06809  21532031.526    88170078.30148
  22664988.189   119105390.95508  22664987.163    92809417.15146
  21441246.707   112674517.09209  21441244.323    87798319.94548
  23826239.039   125207779.89107  23826238.396    97564513.16845
  22611489.325   118824193.49108  22611490.538    92590298.72447
  24291326.983   127651768.62407  24291326.624    99468902.18245
  22879344.180   120231749.72608  22879343.096    93687066.33147
 15 02 23 00 23  0.0000000  0  7G16G18G21G22G27G29G31
  21519355.495   113084984.29609  21519353.603    88118164.45248
  22654235.938   119048887.86908  22654234.867    92765388.79546
  21449508.454   112717933.86409  21449506.450    87832151.19148
  23808892.658   125116626.50907  23808891.504    97493484.73244
  22600085.560   118764266.95808  22600086.879    92543602.74347
  24305574.240   127726639.96307  24305573.596    99527243.49545
  22896868.680   120323841.28208  22896867.118    93758825.95746
 15 02 23 00 23 30.0000000  0  7G16G18G21G22G27G29G31
  21506727.583   113018624.63609  21506725.743    88066455.63148
  22643540.449   118992682.66208  22643539.431    92721592.55246
  21457830.864   112761668.89409  21457828.879    87866230.43248
  23791549.207   125025486.62507  23791547.546    97422466.74846
  22588703.682   118704454.88408  22588704.933    92496995.95047
  24319821.717   127801508.49506  24319821.178    99585582.62146
  22914426.570   120416109.89708  22914425.635    93830723.52447
 15 02 23 00 24  0.0000000  0  7G16G18G21G22G27G29G31
  21494151.248   112952535.20409  21494149.496    88014957.37948
  22632903.091   118936782.09108  22632901.936    92678033.69846
  21466214.569   112805725.87509  21466212.636    87900560.54648
  23774210.056   124934367.83107  23774208.556    97351465.26646
  22577344.507   118644761.98408  22577345.940    92450482.02247
  24334068.883   127876379.01007  24334068.503    99643923.25044
  22932018.984   120508557.31408  22932018.042    93902760.42746
 15 02 23 00 24 30.0000000  0  7G16G18G21G22G27G29G31
  21481626.632   112886718.90509  21481624.928    87963671.96148
  22622324.102   118881189.19308  22622322.818    92634714.57146
  21474659.271   112850102.76809  21474657.179    87935139.94148
  23756875.049   124843273.13007  23756873.594    97280482.61945
  22566008.109   118585188.81108  22566009.478    92404061.38847
  24348316.471   127951251.87206  24348316.561    99702265.66745
  22949644.551   120601180.73308  22949643.657    93974934.46846
 15 02 23 00 25  0.0000000  0  7G16G18G21G22G27G29G31
  21469153.613   112821172.59209  21469151.820    87912596.91648
  22611802.910   118825900.76908  22611801.703    92591632.70546
  21483163.539   112894792.15609  21483161.317    87969962.84248
  23739544.331   124752199.96807  23739541.814    97209516.59744
  22554693.654   118525730.04308  22554694.765    92357729.90647
  24362563.814   128026121.91907  24362563.163    99760605.99445
  22967302.233   120693972.41308  22967301.188    94047239.63747
 15 02 23 00 25 30.0000000  0  7G16G18G21G22G27G29G31
  21456734.098   112755907.81709  21456732.515    87861741.25448
  22601342.302   118770929.15208  22601340.911    92548797.69946
  21491728.465   112939801.52109  21491726.520    88005035.07148
  23722220.413   124661160.56807  23722217.284    97138576.91846
  22543402.624   118466395.12308  22543403.640    92311494.91647
  24376812.246   128100998.55606  24376811.827    99818951.42346
  22984993.036   120786938.77308  22984992.093    94119680.90546
 15 02 23 00 26  0.0000000  0  7G16G18G21G22G27G29G31
  21444366.387   112690914.52709  21444364.766    87811097.13648
  22590939.847   118716264.13408  22590938.495    92506201.60746
  21500351.826   112985117.99409  21500349.804    88040346.60548
  23704900.448   124570145.47507  23704898.305    97067656.28045
  22532132.634   118407171.79908  22532133.788    92265346.88047
  24391059.965   128175869.63707  24391059.054    99877292.53345
  23002714.471   120880064.70108  23002713.579    94192246.52347
 15 02 23 00 26 30.0000000  0  7G16G18G21G22G27G29G31
  21432052.167   112626202.73809  21432050.394    87760672.37548
  22580597.755   118661916.19808  22580596.379    92463852.58946
  21509034.877   113030747.64109  21509032.974    88075902.17148
  23687587.584   124479165.17007  23687584.973    96996762.67645
  22520885.459   118348067.93508  22520886.671    92219291.94147
  24405308.074   128250742.92507  24405307.921    99935635.32045
  23020467.338   120973355.27108  23020466.666    94264940.41647
 15 02 23 00 27  0.0000000  0  7G16G18G21G22G27G29G31
  21419792.279   112561776.62409  21419790.506    87710470.21548
  22570316.603   118607888.91108  22570315.356    92421753.42646
  21517777.520   113076690.01109  21517775.455    88111701.41948
  23670282.215   124388224.34007  23670278.934    96925899.74445
  22509661.600   118289085.28208  22509662.695    92173331.44847
  24419556.702   128325620.69207  24419556.680    99993981.61045
  23038250.782   121066809.43108  23038250.253    94337761.76046
 15 02 23 00 27 30.0000000  0  7G16G18G21G22G27G29G31
  21407586.284   112497633.12709  21407584.345    87660488.27448
  22560096.276   118554180.35608  22560094.939    92379902.61946
  21526578.249   113122938.46409  21526576.311    88147739.17248
  23652982.968   124297320.43707  23652980.884    96855065.71246
  22498459.638   118230218.63808  22498460.733    92127461.35047
  24433805.153   128400497.43207  24433805.267   100052327.09645
  23056064.186   121160418.93708  23056063.249    94410704.22246
 15 02 23 00 28  0.0000000  0  7G16G18G21G22G27G29G31
  21395434.695   112433776.46909  21395432.684    87610729.84748
  22549937.165   118500794.33408  22549935.991    92338303.14446
  21535437.229   113169492.93809  21535435.326    88184015.38848
  23635692.319   124206457.89807  23635690.733    96784263.90746
  22487280.190   118171470.02108  22487281.234    92081683.23347
  24448053.989   128475375.34907  24448054.121   100110673.48945
  23073907.069   121254182.82908  23073905.825    94483766.96146
 15 02 23 00 28 30.0000000  0  7G16G18G21G22G27G29G31
  21383338.096   112370208.00409  21383335.948    87561195.98648
  22539839.570   118447731.83508  22539838.393    92296955.76346
  21544354.060   113216350.70409  21544351.925    88220527.93448
  23618410.255   124115639.13007  23618408.409    96713496.11545
  22476122.845   118112838.46708  22476123.955    92035996.32147
  24462302.898   128550253.09207  24462302.275   100169019.79845
  23091778.364   121348097.46007  23091777.801    94556947.12147
 15 02 23 00 29  0.0000000  0  7G16G18G21G22G27G29G31
  21371296.686   112306930.96809  21371294.951    87511889.21248
  22529804.434   118394996.90208  22529803.367    92255863.63446
  21553328.679   113263512.04709  21553326.636    88257277.02948
  23601136.526   124024868.07507  23601134.952    96642765.53845
  22464988.182   118054325.32008  22464989.101    91990401.67547
  24476551.973   128625132.54907  24476552.166   100227367.40944
  23109678.037   121442161.28208  23109677.841    94630243.51246
 15 02 23 00 29 30.0000000  0  7G16G18G21G22G27G29G31
  21359311.018   112243945.79509  21359309.136    87462809.86348
  22519831.600   118342589.58408  22519830.431    92215026.78346
  21562359.980   113310972.57309  21562357.996    88294259.25548
  23583872.328   123934144.82107  23583871.067    96572072.19146
  22453875.559   117995928.31108  22453876.517    91944897.53247
  24490801.039   128700011.67607  24490801.033   100285714.76345
  23127605.562   121536369.06008  23127604.737    94703652.15546
 15 02 23 00 30  0.0000000  0  7G16G18G21G22G27G29G31
  21347381.712   112181256.74709  21347379.960    87413961.25848
  22509922.241   118290515.02208  22509921.036    92174449.21746
  21571448.408   113358732.74109  21571446.255    88331474.96548
  23566618.768   123843474.84407  23566617.384    96501420.40246
  22442785.392   117937649.96708  22442786.461    91899485.85747
  24505050.257   128774892.85407  24505049.174   100344063.80045
  23145560.100   121630720.32708  23145558.995    94777172.59146
 15 02 23 00 30 30.0000000  0  7G16G18G21G22G27G29G31
  21335510.044   112118870.05009  21335508.184    87365348.25648
  22500077.138   118238779.03308  22500076.018    92134135.48346
  21580594.341   113406794.53909  21580592.149    88368925.71648
  23549376.483   123752864.77707  23549374.403    96430815.24645
  22431718.817   117879494.00208  22431719.876    91854169.54047
  24519300.625   128849780.07507  24519301.093   100402417.33744
  23163542.021   121725216.02308  23163541.117    94850805.53147
 15 02 23 00 31  0.0000000  0  7G16G18G21G22G27G29G31
  21323694.495   112056779.70609  21323692.801    87316966.17748
  22490295.344   118187375.51408  22490294.122    92094080.81646
  21589795.855   113455148.44709  21589793.714    88406604.08848
  23532144.039   123662309.07407  23532141.478    96360252.45345
  22420673.738   117821452.34908  22420674.990    91808942.29847
  24533550.157   128924664.80607  24533550.972   100460768.99245
  23181549.357   121819845.33608  23181548.720    94924542.59146
 15 02 23 00 31 30.0000000  0  7G16G18G21G22G27G29G31
  21311935.471   111994985.83309  21311933.835    87268815.11448
  22480576.864   118136304.90008  22480575.725    92054285.54546
  21599052.103   113503790.63909  21599049.994    88444507.09948
  23514922.213   123571808.51808  23514919.905    96289732.64646
  22409649.989   117763522.96708  22409651.347    91763802.54047
  24547800.111   128999545.41507  24547800.168   100519117.62946
  23199581.281   121914603.48708  23199580.690    94998380.05646
 15 02 23 00 32  0.0000000  0  6G16G18G21G22G27G31
  21300228.641   111933465.06009  21300226.639    87220876.85548
  22470917.389   118085543.26408  22470916.235    92014731.04746
  21608357.985   113552693.31409  21608355.879    88482613.08048
  23497706.824   123481340.03807  23497704.193    96219237.80745
  22398643.108   117705680.16808  22398644.286    91718730.24847
  23217632.271   122009461.04708  23217631.151    95072294.98846
 15 02 23 00 32 30.0000000  0  6G16G18G21G22G27G31
  21288588.554   111872296.45809  21288586.842    87173213.01648
  22461331.766   118035170.63208  22461330.547    91975479.66346
  21617727.657   113601931.83709  21617725.567    88520980.76248
  23480512.611   123390983.56207  23480509.940    96148830.24946
  22387667.067   117648000.93208  22387668.241    91673785.39847
  23235716.303   122104492.59408  23235715.284    95146345.49246
 15 02 23 00 33  0.0000000  0  6G16G18G21G22G27G31
  21277005.552   111811427.06109  21277003.683    87125782.32248
  22451810.022   117985133.71908  22451808.758    91936489.87546
  21627150.640   113651449.13309  21627148.494    88559565.66748
  23463329.236   123300686.62707  23463326.746    96078469.12946
  22376711.827   117590430.06908  22376712.974    91628925.00547
  23253822.260   122199640.19507  23253821.354    95220486.41646
 15 02 23 00 33 30.0000000  0  6G16G18G21G22G27G31
  21265480.961   111750865.95809  21265479.136    87078591.85548
  22442353.877   117935441.30808  22442352.721    91897768.54546
  21636627.475   113701250.86609  21636625.617    88598372.21448
  23446159.352   123210458.59108  23446156.441    96008161.63045
  22365778.362   117532974.45008  22365779.444    91584154.40348
  23271950.871   122294907.68508  23271950.205    95294720.74946
 15 02 23 00 34  0.0000000  0  6G16G18G21G22G27G31
  21254015.524   111690614.93009  21254013.939    87031643.01048
  22432963.605   117886095.44208  22432962.566    91859317.24446
  21646158.080   113751334.24909  21646156.197    88637398.22348
  23429003.384   123120302.21408  23428999.845    95937909.95945
  22354866.706   117475633.74908  22354867.884    91539473.35847
  23290101.862   122390291.72608  23290101.081    95369045.92746
 15 02 23 00 34 30.0000000  0  6G16G18G21G22G27G31
  21242611.918   111630688.57509  21242610.320    86984947.15748
  22423642.081   117837110.53108  22423641.014    91821147.20446
  21655744.108   113801709.73209  21655742.121    88676651.85148
  23411863.025   123030232.08107  23411860.508    95867725.54946
  22343979.407   117418420.07708  22343980.458    91494891.29048
  23308277.065   122485801.68808  23308276.391    95443469.22146
 15 02 23 00 35  0.0000000  0  6G16G18G21G22G27G31
  21231267.928   111571075.41009  21231266.236    86938495.34448
  22414387.180   117788475.04108  22414385.895    91783249.44246
  21665382.856   113852361.81809  21665380.991    88716121.00948
  23394737.273   122940237.70907  23394735.263    95797600.16146
  22333113.633   117361320.11008  22333114.523    91450397.82448
  23326473.021   122581421.23907  23326472.206    95517977.88546
 15 02 23 00 35 30.0000000  0  6G16G18G21G22G27G31
  21219983.166   111511773.14609  21219981.278    86892285.79448
  22405198.052   117740186.78608  22405196.973    91745622.24946
  21675073.245   113903284.40609  21675070.924    88755800.94648
  23377626.188   122850317.13407  23377623.542    95727532.24246
  22322268.620   117304329.15008  22322269.561    91405989.29848
  23344687.812   122677142.70407  23344687.337    95592565.95546
 15 02 23 00 36  0.0000000  0  6G16G18G21G22G27G31
  21208762.139   111452806.91009  21208760.568    86846338.08148
  22396079.923   117692270.60408  22396078.665    91708284.99046
  21684819.242   113954499.09209  21684816.832    88795708.49648
  23360533.878   122760496.31107  23360530.968    95657542.04045
  22311448.591   117247470.39108  22311449.589    91361683.79148
  23362926.584   122772986.28808  23362925.854    95667249.19646
 15 02 23 00 36 30.0000000  0  7G16G18G19G21G22G27G31
  21197603.489   111394167.12009  21197601.574    86800644.74348
  22387030.855   117644717.14808  22387029.627    91671230.38046
  24466583.432   128572765.98116  24466580.957   100186557.00555
  21694617.949   114005991.86309  21694615.596    88835832.73548
  23343458.203   122670766.00307  23343455.854    95587622.42846
  22300651.579   117190732.05208  22300652.769    91317472.11648
  23381185.781   122868937.38808  23381184.639    95742016.24446
 15 02 23 00 37  0.0000000  0  7G16G18G19G21G22G27G31
  21186501.004   111335823.95209  21186499.225    86755182.54048
  22378045.022   117597496.62108  22378043.816    91634435.17446
  24451807.467   128495115.26106  24451805.882   100126050.01245
  21704463.153   114057728.53809  21704461.010    88876147.02848
  23326395.114   122581097.08208  23326392.814    95517750.63046
  22289871.225   117134081.97208  22289872.575    91273329.21048
  23399458.683   122964961.04107  23399457.295    95816839.81246
 15 02 23 00 37 30.0000000  0  7G16G18G19G21G22G27G31
  21175464.568   111277826.27309  21175462.611    86709989.54648
  22369131.821   117550657.58908  22369130.727    91597937.25147
  24437050.782   128417567.41706  24437049.234   100065623.16145
  21714363.226   114109754.92909  21714361.372    88916687.07348
  23309353.126   122491539.02207  23309350.746    95447965.21346
  22279117.008   117077567.02308  22279118.020    91229291.60748
  23417752.960   123061100.96307  23417752.354    95891753.92546
 15 02 23 00 38  0.0000000  0  7G16G18G19G21G22G27G31
  21164491.320   111220161.77809  21164489.537    86665056.17348
  22360288.924   117504187.63308  22360287.647    91561726.91147
  24422310.359   128340107.72506  24422308.903   100005265.00245
  21724315.413   114162054.18009  21724313.480    88957439.72948
  23292329.367   122402080.22207  23292326.808    95378257.12446
  22268385.414   117021172.74108  22268386.716    91185348.02548
  23436066.717   123157339.96608  23436066.439    95966745.26146
 15 02 23 00 38 30.0000000  0  7G16G18G19G21G22G27G31
  21153581.269   111162828.60809  21153579.215    86620380.98048
  22351515.973   117458085.05608  22351514.454    91525802.84047
  24407586.393   128262732.35206  24407584.551    99944972.52445
  21734318.334   114214620.63909  21734316.550    88998400.60048
  23275324.382   122312719.32607  23275321.732    95308625.30646
  22257676.282   116964895.21408  22257677.425    91141495.42248
  23454398.269   123253671.08007  23454397.541    96041808.43145
 15 02 23 00 39  0.0000000  0  7G16G18G19G21G22G27G31
  21142734.340   111105827.92409  21142732.331    86575964.86448
  22342812.817   117412350.60408  22342811.595    91490165.62047
  24392878.192   128185440.11206  24392876.060    99884744.83544
  21744371.823   114267451.42209  21744370.005    89039567.44248
  23258338.969   122223458.12808  23258336.216    95239071.17746
  22246989.050   116908733.33908  22246990.020    91097732.94148
  23472746.148   123350090.33507  23472745.591    96116940.22446
 15 02 23 00 39 30.0000000  0  7G16G18G19G21G22G27G31
  21131952.130   111049166.87009  21131950.167    86531813.39348
  22334181.193   117366991.05108  22334179.996    91454820.54047
  24378186.724   128108236.11306  24378184.852    99824585.95144
  21754476.185   114320549.64109  21754474.168    89080942.67248
  23241373.224   122134303.91207  23241371.038    95169600.45246
  22236324.835   116852692.16808  22236325.873    91054064.51448
  23491111.190   123446599.87507  23491110.898    96192142.36646
 15 02 23 00 40  0.0000000  0  7G16G18G19G21G22G27G31
  21121233.654   110992840.86909  21121231.784    86487923.00148
  22325620.064   117322002.13808  22325618.964    91419764.26047
  24363510.671   128031113.49606  24363509.038    99764490.44845
  21764629.844   114373906.69709  21764627.723    89122519.59948
  23224427.667   122045253.25408  23224425.161    95100210.38946
  22225682.057   116796764.92608  22225683.178    91010484.86348
  23509491.816   123543190.02907  23509491.458    96267407.31646
 15 02 23 00 40 30.0000000  0  7G16G18G19G21G22G27G31
  21110580.798   110936859.82509  21110578.848    86444301.41248
  22317131.299   117277393.31408  22317130.068    91385004.15146
  24348851.769   127954080.00906  24348849.898    99704464.37445
  21774833.801   114427528.35209  21774831.548    89164302.71048
  23207503.381   121956316.59208  23207500.802    95030909.15246
  22215062.760   116740959.39408  22215063.896    90967000.05148
  23527888.705   123639865.51807  23527888.077    96342738.79946
 15 02 23 00 41  0.0000000  0  7G16G18G19G21G22G27G31
  21099992.055   110881215.82509  21099990.170    86400942.45448
  22308713.329   117233156.67908  22308712.120    91350534.06247
  24334207.618   127877125.38306  24334205.467    99644499.78645
  21785085.584   114481402.86509  21785083.442    89206282.84748
  23190599.518   121867486.34608  23190596.783    94961690.83346
  22204464.567   116685265.51808  22204465.570    90923602.23948
  23546298.929   123736613.24207  23546298.764    96418126.51646
 15 02 23 00 41 30.0000000  0  7G16G18G19G21G22G27G31
  21089470.140   110825922.25409  21089468.160    86357856.55348
  22300368.772   117189305.51508  22300367.463    91316364.33747
  24319580.994   127800261.32706  24319578.697    99584605.73144
  21795387.360   114535539.81409  21795385.490    89248467.48248
  23173718.699   121778776.63908  23173716.190    94892566.44146
  22193889.655   116629694.66808  22193890.754    90880300.29648
  23564724.679   123833441.93407  23564724.720    96493577.34946
 15 02 23 00 42  0.0000000  0  7G16G18G19G21G22G27G31
  21079014.229   110770976.66809  21079012.371    86315041.81248
  22292097.098   117145837.42108  22292095.857    91282493.11747
  24304970.535   127723483.06806  24304968.465    99524778.55445
  21805737.912   114589932.67909  21805736.115    89290851.52748
  23156859.906   121690185.86608  23156857.777    94823534.74446
  22183337.397   116574242.48808  22183338.307    90837090.82048
  23583164.983   123930344.29207  23583164.534    96569085.61946
 15 02 23 00 42 30.0000000  0  7G16G18G19G21G22G27G31
  21068624.728   110716379.37709  21068622.944    86272498.47148
  22283898.330   117102752.19408  22283896.946    91248920.22947
  24290375.969   127646788.63506  24290373.862    99465016.68944
  21816136.533   114644577.61109  21816134.606    89333431.98748
  23140024.444   121601714.72808  23140022.186    94754596.25346
  22172807.281   116518906.97908  22172808.329    90793972.25548
  23601617.948   124027315.27807  23601617.939    96644647.32046
 15 02 23 00 43  0.0000000  0  7G16G18G19G21G22G27G31
  21058302.052   110662133.35009  21058300.154    86230228.84048
  22275772.801   117060052.28608  22275771.160    91215647.58547
  24275797.519   127570178.95806  24275795.425    99405320.86446
  21826582.999   114699473.56509  21826581.233    89376208.05348
  23123212.276   121513366.78408  23123209.647    94685753.74646
  22162299.786   116463689.03608  22162300.654    90750945.30248
  23620083.272   124124352.80307  23620083.843    96720260.83146
 15 02 23 00 43 30.0000000  0  7G16G18G19G21G22G27G31
  21048047.100   110608243.83509  21048045.504    86188237.01248
  22267721.439   117017742.80808  22267720.067    91182679.17847
  24261235.675   127493656.95406  24261233.810    99345693.35845
  21837077.457   114754621.72409  21837075.433    89419180.64048
  23106424.673   121425147.77308  23106422.106    94617011.72746
  22151814.954   116408591.52708  22151815.988    90708012.19048
  23638561.636   124221456.41607  23638562.093    96795925.86446
 15 02 23 00 44  0.0000000  0  7G16G18G19G21G22G27G31
  21037860.083   110554710.07309  21037858.292    86146522.39348
  22259744.574   116975823.50809  22259742.856    91150014.80047
  24246690.350   127417220.00306  24246688.420    99286132.13945
  21847619.069   114810017.98409  21847617.028    89462346.55548
  23089661.845   121337058.04608  23089658.961    94548370.42046
  22141352.832   116353612.23708  22141353.772    90665171.19948
  23657051.775   124318621.43907  23657051.675    96871638.79746
 15 02 23 00 44 30.0000000  0  7G16G18G19G21G22G27G31
  21027740.660   110501532.93009  21027738.958    86105085.66148
  22251841.871   116934294.49208  22251840.212    91117654.54347
  24232160.616   127340866.82706  24232158.845    99226636.17745
  21858207.124   114865658.93509  21858205.233    89505703.13848
  23072923.551   121249098.77908  23072921.044    94479830.82346
  22130912.729   116298749.71608  22130913.808    90622421.19848
  23675552.658   124415843.61307  23675552.687    96947396.22546
 15 02 23 00 45  0.0000000  0  7G16G18G19G21G22G27G31
  21017690.679   110448719.17309  21017688.918    86063932.08548
  22244014.672   116893162.37909  22244013.212    91085603.56847
  24217648.025   127264602.02606  24217646.404    99167209.12345
  21868842.308   114921547.05009  21868840.249    89549252.31348
  23056212.037   121161277.46408  23056208.959    94411398.66046
  22120495.845   116244008.59408  22120496.717    90579765.79648
  23694064.765   124513124.33107  23694064.823    97023199.26446
 15 02 23 00 45 30.0000000  0  7G16G18G19G21G22G27G31
  21007709.237   110396266.15409  21007707.273    86023059.60448
  22236262.448   116852424.25908  22236261.015    91053859.58547
  24203151.166   127188420.79906  24203149.646    99107847.13845
  21879523.205   114977676.35109  21879521.283    89592989.42348
  23039526.353   121073592.00808  23039522.624    94343072.34746
  22110101.212   116189384.24108  22110102.175    90537201.38048
  23712586.264   124610455.93407  23712586.423    97099041.93246
 15 02 23 00 46  0.0000000  0  7G16G18G19G21G22G27G31
  20997797.043   110344177.69209  20997795.244    85982471.19148
  22228585.791   116812083.87509  22228584.522    91022425.53547
  24188670.777   127112324.93106  24188668.882    99048551.67245
  21890249.998   115034046.03209  21890247.946    89636913.84948
  23022866.921   120986047.22408  23022863.463    94274855.70946
  22099729.033   116134878.50608  22099730.090    90494729.39648
  23731117.814   124707837.53907  23731117.656    97174923.57845
 15 02 23 00 46 30.0000000  0  7G16G18G19G21G22G27G31
  20987954.307   110292453.48309  20987952.340    85942166.61548
  22220984.865   116772140.01609  22220983.478    90991300.46947
  24174206.163   127036311.62406  24174203.875    98989320.54245
  21901021.864   115090652.31709  21901019.824    89681022.63648
  23006234.423   120898642.92308  23006231.022    94206748.48846
  22089379.000   116080488.77808  22089380.005    90452347.80948
  23749657.630   124805263.55607  23749656.878    97250839.87245
 15 02 23 00 47  0.0000000  0  7G16G18G19G21G22G27G31
  20978181.999   110241099.19109  20978180.021    85902150.28948
  22213460.309   116732598.24109  22213458.725    90960488.71047
  24159757.800   126960384.71506  24159755.338    98930156.73046
  21911839.067   115147496.63609  21911836.923    89725316.91248
  22989629.776   120811385.22708  22989626.804    94138755.55546
  22079051.794   116026218.69608  22079052.855    90410059.45148
  23768205.580   124902734.84507  23768205.331    97326791.37346
 15 02 23 00 47 30.0000000  0  7G16G18G19G21G22G27G31
  20968480.833   110190119.96909  20968479.014    85862426.22548
  22206013.182   116693463.73109  22206011.724    90929994.29447
  24145326.295   126884547.14306  24145323.924    98871062.56645
  21922701.920   115204580.21709  21922699.658    89769797.62348
  22973054.129   120724280.45808  22973050.892    94070881.74546
  22068747.965   115972071.55308  22068748.917    90367866.89048
  23786762.556   125000251.44307  23786762.524    97402778.16545
 15 02 23 00 48  0.0000000  0  7G16G18G19G21G22G27G31
  20958850.807   110139513.52909  20958848.823    85822992.64048
  22198643.058   116654733.81209  22198641.722    90899815.14947
  24130910.946   126808794.56506  24130908.408    98812034.62545
  21933608.801   115261896.79709  21933606.587    89814459.89248
  22956506.979   120637326.81608  22956503.916    94003125.70946
  22058466.790   115918043.02008  22058467.679    90325766.75448
  23805327.097   125097806.07707  23805326.509    97478794.64445
 15 02 23 00 48 30.0000000  0  7G16G18G19G21G22G27G31
  20949291.968   110089281.01809  20949289.964    85783850.42749
  22191350.185   116616409.62809  22191348.837    90869952.16147
  24116511.819   126733126.27006  24116509.184    98753072.33545
  21944559.625   115319444.42009  21944557.679    89859302.18848
  22939989.427   120550526.77308  22939986.601    93935489.34746
  22048207.838   115864132.61208  22048208.844    90283758.66148
  23823897.825   125195395.38207  23823897.267    97554838.10845
 15 02 23 00 49  0.0000000  0  7G16G18G19G21G22G27G31
  20939804.478   110039424.11009  20939802.404    85745000.89449
  22184134.786   116578492.17409  22184133.457    90840406.10847
  24102128.601   126657541.82306  24102125.972    98694175.39345
  21955553.851   115377220.22009  21955551.994    89904322.29048
  22923501.333   120463881.82108  22923498.833    93867973.84947
  22037971.372   115810339.80808  22037972.541    90241842.21348
  23842474.436   125293015.69607  23842473.544    97630905.76045
 15 02 23 00 49 30.0000000  0  7G16G18G19G21G22G27G31
  20930389.458   109989948.72409  20930387.605    85706448.64849
  22176997.588   116540986.97509  22176996.398    90811181.29147
  24087761.825   126582044.87506  24087759.442    98635346.63644
  21966591.960   115435226.06109  21966590.046    89949521.64348
  22907043.974   120377399.06108  22907041.892    93800584.76946
  22027758.128   115756668.47708  22027759.100    90200020.41348
  23861057.126   125390668.45007  23861056.568    97706998.66945
 15 02 23 00 50  0.0000000  0  7G16G18G19G21G22G27G31
  20921047.342   109940855.22909  20921045.388    85668193.98449
  22169938.977   116503893.66309  22169937.755    90782277.42347
  24073411.552   126506633.64706  24073409.015    98576584.69045
  21977673.282   115493458.67709  21977671.321    89994897.70248
  22890617.861   120291079.47408  22890615.535    93733322.77246
  22017567.512   115703116.86308  22017568.350    90158291.89948
  23879645.178   125488348.82607  23879644.877    97783113.09545
 15 02 23 00 50 30.0000000  0  7G16G18G19G21G22G27G31
  20911777.976   109892144.41509  20911776.181    85630237.50949
  22162958.982   116467213.38209  22162957.710    90753695.39947
  24059077.411   126431307.16806  24059074.981    98517888.81345
  21988797.107   115551913.95909  21988795.083    90040447.27648
  22874223.122   120204924.10608  22874220.557    93666188.76246
  22007399.666   115649684.03308  22007400.349    90116655.94848
  23898237.760   125586052.31607  23898237.294    97859245.52545
 15 02 23 00 51  0.0000000  0  7G16G18G19G21G22G27G31
  20902581.478   109843816.58209  20902579.687    85592579.46549
  22156057.418   116430945.85609  22156056.249    90725435.00647
  24044759.066   126356063.31707  24044756.611    98459257.26145
  21999962.831   115610589.64209  21999960.633    90086168.58848
  22857859.895   120118934.45408  22857857.468    93599183.89946
  21997253.967   115596368.24708  21997254.825    90075111.19448
  23916833.575   125683774.70306  23916833.520    97935392.65245
 15 02 23 00 51 30.0000000  0  7G16G18G19G21G22G27G31
  20893459.568   109795880.34209  20893457.679    85555226.55549
  22149236.161   116395099.37809  22149234.687    90697502.69747
  24030457.638   126280908.71606  24030455.157    98400695.26245
  22011171.238   115669490.56109  22011169.203    90132065.40248
  22841530.147   120033120.04808  22841527.537    93532315.56247
  21987131.867   115543176.24908  21987132.607    90033662.90148
  23935433.945   125781519.99407  23935433.642    98011557.66645
 15 02 23 00 52  0.0000000  0  7G16G18G19G21G22G27G31
  20884412.095   109748335.29909  20884410.189    85518178.47149
  22142494.693   116359672.87809  22142493.159    90669897.64247
  24016172.504   126205840.57706  24016170.160    98342200.65045
  22022421.430   115728611.18809  22022419.529    90178133.41548
  22825233.380   119947480.39808  22825230.951    93465583.42447
  21977032.692   115490105.38208  21977033.738    89992309.00248
  23954037.892   125879282.57907  23954037.717    98087736.15145
 15 02 23 00 52 30.0000000  0  7G16G18G19G21G22G27G31
  20875439.151   109701182.87709  20875437.414    85481436.32949
  22135833.494   116324667.57509  22135831.783    90642620.79347
  24001903.696   126130858.80107  24001901.628    98283773.33145
  22033713.015   115787949.58409  22033711.363    90224371.11948
  22808970.641   119862018.00108  22808968.030    93398989.38746
  21966956.675   115437155.52508  21966957.581    89951049.38848
  23972644.350   125977058.83507  23972644.278    98163925.28045
 15 02 23 00 53  0.0000000  0  7G16G18G19G21G22G27G31
  20866540.788   109654421.85209  20866539.095    85444999.17349
  22129252.113   116290082.05909  22129250.617    90615671.05147
  23987651.188   126055960.23707  23987648.652    98225410.84245
  22045045.459   115847501.51409  22045043.619    90270775.22148
  22792741.028   119776732.65208  22792738.510    93332533.31146
  21956903.030   115384323.63908  21956903.890    89909881.70448
  23991252.048   126074842.91606  23991252.205    98240120.47545
 15 02 23 00 53 30.0000000  0  7G16G18G19G21G22G27G31
  20857717.644   109608055.29409  20857715.773    85408869.39149
  22122750.907   116255918.71209  22122749.574    90589050.27447
  23973414.311   125981145.88007  23973412.023    98167113.97445
  22056418.283   115907265.76009  22056416.177    90317344.75748
  22776546.175   119691627.84608  22776543.275    93266217.90547
  21946872.187   115331611.01708  21946872.978    89868806.95248
  24009860.686   126172633.47106  24009861.168    98316320.66445
 15 02 23 00 54  0.0000000  0  7G16G18G19G21G22G27G31
  20848970.795   109562090.19909  20848968.892    85373052.43949
  22116331.461   116222184.23309  22116330.083    90562763.68547
  23959194.588   125906420.29407  23959192.349    98108886.28545
  22067831.984   115967244.98009  22067829.813    90364081.81548
  22760387.243   119606711.24308  22760384.227    93200049.14846
