     2.11           OBSERVATION DATA    G                   RINEX VERSION / TYPE
SPIDER V4,0,0,3554                      2015 03 19 00:35    PGM / RUN BY / DATE 
OBHM                                                        MARKER NAME         
OBHM                                                        MARKER NUMBER       
                                                            OBSERVER / AGENCY   
496638              LEICA GRX1200+GNSS  8.20/4.007          REC # / TYPE / VERS 
10321015            LEIAR25         NONE                    ANT # / TYPE        
  5268006.0133   -44062.8765  3585543.8986                  APPROX POSITION XYZ 
        0.1200        0.0000        0.0000                  ANTENNA: DELTA H/E/N
     1     1                                                WAVELENGTH FACT L1/2
     4    C1    L1    P2    L2                              # / TYPES OF OBSERV 
    30.000                                                  INTERVAL            
  2015    02    23    00    00    0.0000000     GPS         TIME OF FIRST OBS   
  2015    02    23    23    59   30.0000000     GPS         TIME OF LAST OBS    
    16                                                      LEAP SECONDS        
    30                                                      # OF SATELLITES     
   G 1   844   844   844   844                              PRN / # OF OBS      
   G 2   918   918   918   918                              PRN / # OF OBS      
   G 3   842   842   842   842                              PRN / # OF OBS      
   G 4   854   854   853   853                              PRN / # OF OBS      
   G 5   683   683   683   683                              PRN / # OF OBS      
   G 6   645   645   645   645                              PRN / # OF OBS      
   G 7   745   744   743   743                              PRN / # OF OBS      
   G 9   780   780   780   780                              PRN / # OF OBS      
   G10   796   796   796   796                              PRN / # OF OBS      
   G11   810   810   809   809                              PRN / # OF OBS      
   G12   812   811   811   811                              PRN / # OF OBS      
   G13   834   834   834   834                              PRN / # OF OBS      
   G14   929   929   929   929                              PRN / # OF OBS      
   G15   742   742   742   742                              PRN / # OF OBS      
   G16   703   703   702   702                              PRN / # OF OBS      
   G17   925   925   925   925                              PRN / # OF OBS      
   G18   944   944   943   943                              PRN / # OF OBS      
   G19   795   794   794   794                              PRN / # OF OBS      
   G20   822   822   822   822                              PRN / # OF OBS      
   G21   707   707   707   707                              PRN / # OF OBS      
   G22   816   815   814   814                              PRN / # OF OBS      
   G23   722   722   722   722                              PRN / # OF OBS      
   G24   853   853   852   852                              PRN / # OF OBS      
   G25   869   869   869   869                              PRN / # OF OBS      
   G27   844   843   843   843                              PRN / # OF OBS      
   G28   917   917   916   916                              PRN / # OF OBS      
   G29   746   746   746   746                              PRN / # OF OBS      
   G30   687   686   686   686                              PRN / # OF OBS      
   G31   743   743   743   743                              PRN / # OF OBS      
   G32   736   736   736   736                              PRN / # OF OBS      
BIT 2 OF LLI FLAGS DATA COLLECTED UNDER A/S CONDITION       COMMENT             
SNR is mapped to RINEX snr flag value [2-9]                 COMMENT             
Lx:     = 25dBHz -> 1; 26-27dBHz -> 2; 28-31dBHz -> 3       COMMENT             
       32-35dBHz -> 4; 36-38dBHz -> 5; 39-41dBHz -> 6       COMMENT             
       42-44dBHz -> 7; 45-48dBHz -> 8; >=49dBHz -> 9        COMMENT             
                                                            END OF HEADER       
 15 02 23 00 00  0.0000000  0  7G16G18G21G25G27G29G31
  22080953.540   116036202.16209  22080949.940    90417819.36747
  23292893.860   122405049.28008  23292891.560    95380586.47946
  21202190.100   111418356.57608  21202186.540    86819469.12748
  24575181.680   129143697.14208  24575183.580   100631553.48247
  22987181.140   120798471.06809  22987181.040    94128688.46547
  23831271.580   125234576.98308  23831269.180    97585552.41946
  22040410.100   115823155.48609  22040406.980    90251811.58948
 15 02 23 00 00 30.0000000  0  7G16G18G21G25G27G29G31
  22066792.500   115961785.26109  22066788.860    90359832.17347
  23280387.440   122339327.08708  23280384.940    95329374.41746
  21207763.140   111447643.74308  21207759.660    86842290.29648
  24592803.960   129236302.73307  24592805.940   100703713.31644
  22975167.440   120735338.34109  22975167.280    94079494.15547
  23845738.100   125310599.78208  23845735.740    97644790.93946
  22055774.420   115903895.31409  22055771.260    90314725.71648
 15 02 23 00 01  0.0000000  0  7G16G18G21G25G27G29G31
  22052663.240   115887535.57209  22052659.660    90301975.28347
  23267915.340   122273785.37308  23267912.700    95278302.99446
  21213411.880   111477328.38408  21213408.440    86865421.19648
  24610457.240   129329071.04107  24610459.200   100776000.10245
  22963179.760   120672342.06909  22963179.480    94030406.18247
  23860203.300   125386615.09408  23860200.880    97704023.63446
  22071199.260   115984953.06709  22071196.000    90377887.58548
 15 02 23 00 01 30.0000000  0  8G16G18G21G22G25G27G29G31
  22038565.880   115813453.71309  22038562.420    90244249.16347
  23255477.820   122208425.27808  23255475.040    95227373.08746
  21219135.760   111507407.69808  21219132.340    86888859.61648
  24544398.000   128981685.93606  24544400.760   100505213.99544
  24628141.040   129421999.41508  24628143.120   100848411.68246
  22951217.760   120609480.94609  22951217.400    93981423.50347
  23874666.860   125462621.29208  23874664.360    97763249.21345
  22086683.860   116066324.76109  22086680.540    90441294.07148
 15 02 23 00 02  0.0000000  0  8G16G18G21G22G25G27G29G31
  22024501.340   115739543.89309  22024497.900    90186657.10247
  23243075.880   122143252.24408  23243072.920    95176588.94446
  21224934.760   111537881.56908  21224931.340    86912605.49848
  24527737.680   128894138.06207  24527740.740   100436995.97045
  24645855.480   129515088.56807  24645857.660   100920948.34844
  22939281.860   120546756.86108  22939281.320    93932547.62147
  23889129.200   125538620.44508  23889126.500    97822469.31645
  22102228.040   116148009.69209  22102224.700    90504944.64648
 15 02 23 00 02 30.0000000  0  8G16G18G21G22G25G27G29G31
  22010469.980   115665808.50209  22010466.520    90129200.95347
  23230710.180   122078269.93908  23230707.160    95125953.40645
  21230808.960   111568750.38908  21230805.480    86936659.12048
  24511059.760   128806498.34607  24511062.780   100368706.31646
  24663600.500   129608338.66307  24663602.920   100993610.45845
  22927372.020   120484170.33208  22927371.440    93883778.92147
  23903590.320   125614613.01408  23903587.400    97881684.29346
  22117831.420   116230005.86509  22117828.080    90568837.73848
 15 02 23 00 03  0.0000000  0  8G16G18G21G22G25G27G29G31
  21996472.080   115592248.83609  21996468.580    90071881.73947
  23218381.060   122013479.75508  23218377.980    95075467.57946
  21236757.820   111600011.53308  21236754.280    86961018.45948
  24494364.700   128718768.57108  24494367.600   100300346.44146
  24681375.860   129701748.20307  24681378.480   101066396.82846
  22915488.140   120421720.80908  22915487.700    93835116.98747
  23918049.980   125690597.95208  23918046.860    97940893.34446
  22133493.420   116312310.19409  22133490.100    90632970.96248
 15 02 23 00 03 30.0000000  0  8G16G18G21G22G25G27G29G31
  21982508.320   115518868.62709  21982504.760    90014702.36547
  23206089.320   121948886.07308  23206086.180    95025134.87746
  21242781.400   111631665.35208  21242777.800    86985683.77348
  24477653.260   128630952.70608  24477655.980   100231919.41046
  24699181.480   129795317.82806  24699184.440   101139308.08345
  22903630.420   120359409.63608  22903630.260    93786562.87147
  23932508.440   125766576.91308  23932505.280    98000097.71546
  22149213.760   116394921.56909  22149210.520    90697343.43848
 15 02 23 00 04  0.0000000  0  8G16G18G21G22G25G27G29G31
  21968578.320   115445666.22209  21968574.740    89957661.53647
  23193834.800   121884487.98908  23193831.560    94974954.58446
  21248878.740   111663706.73808  21248875.060    87010651.08448
  24460925.220   128543049.69408  24460927.760   100163424.45946
  24717016.600   129889043.17506  24717019.620   101212340.89045
  22891798.280   120297233.09708  22891798.460    93738113.66047
  23946964.940   125842546.34908  23946961.920    98059294.65946
  22164991.280   116477833.73709  22164988.220    90761950.29148
 15 02 23 00 04 30.0000000  0  8G16G18G21G22G25G27G29G31
  21954682.540   115372643.71209  21954678.980    89900760.90047
  23181618.040   121820288.24808  23181614.660    94924928.84346
  21255049.580   111696134.55808  21255045.880    87035919.52248
  24444181.240   128455062.33608  24444183.440   100094863.70946
  24734881.160   129982922.85406  24734884.340   101285493.94244
  22879991.900   120235191.30208  22879992.300    93689769.44647
  23961419.480   125918505.90508  23961416.680    98118483.91046
  22180825.560   116561044.02609  22180822.640    90826789.44948
 15 02 23 00 05  0.0000000  0  8G16G18G21G22G25G27G29G31
  21940821.420   115299803.12709  21940817.900    89844002.00547
  23169439.580   121756289.78008  23169436.240    94875059.92946
  21261293.540   111728946.96308  21261289.820    87061487.62948
  24427421.720   128366993.13908  24427423.520   100026239.14846
  24752775.240   130076955.97807  24752777.800   101358766.54744
  22868211.240   120173284.13908  22868211.660    93641530.12847
  23975872.080   125994455.59808  23975869.480    98177665.45046
  22196716.160   116644549.67709  22196713.300    90891858.75948
 15 02 23 00 05 30.0000000  0  8G16G18G21G22G25G27G29G31
  21926995.220   115227145.56709  21926991.680    89787385.72447
  23157299.600   121692493.88608  23157296.360    94825348.87446
  21267610.320   111762141.90808  21267606.580    87087353.82248
  24410646.960   128278843.78108  24410648.400    99957552.06446
  24770698.260   130171140.56307  24770700.540   101432157.16544
  22856456.100   120111510.65008  22856456.460    93593394.97147
  23990322.600   126070394.26308  23990320.300    98236838.41146
  22212662.380   116728347.33209  22212659.560    90957155.60248
 15 02 23 00 06  0.0000000  0  8G16G18G21G22G25G27G29G31
  21913204.700   115154675.53009  21913201.180    89730915.57248
  23145199.200   121628906.27808  23145196.080    94775800.11746
  21273999.980   111795719.84308  21273996.240    87113518.45148
  24393857.940   128190619.19508  24393858.920    99888806.36046
  24788650.420   130265478.42607  24788652.360   101505667.39444
  22844726.880   120049873.23808  22844727.160    93545365.84547
  24004771.440   126146324.03208  24004769.320    98296004.44846
  22228664.100   116812436.53909  22228661.280    91022679.63248
 15 02 23 00 06 30.0000000  0  8G16G18G21G22G25G27G29G31
  21899449.940   115082393.51609  21899446.460    89674591.93448
  23133138.540   121565527.82208  23133135.740    94726414.34046
  21280462.020   111829677.98708  21280458.280    87139979.34248
  24377054.740   128102320.06208  24377055.440    99820002.53945
  24806631.100   130359966.26308  24806632.920   101579294.31645
  22833023.220   119988370.03708  22833023.460    93497441.30447
  24019218.360   126222243.25608  24019216.320    98355162.25046
  22244720.500   116896812.87509  22244717.680    91088427.40948
 15 02 23 00 07  0.0000000  0  7G16G18G21G22G27G29G31
  21885731.600   115010303.07909  21885728.160    89618417.57448
  23121118.560   121502363.09208  23121116.000    94677195.09946
  21286996.520   111864016.73208  21286992.740    87166736.81048
  24360238.220   128013951.15908  24360238.620    99751144.27645
  22821345.540   119927003.03608  22821345.700    93449622.89048
  24033663.700   126298153.87008  24033661.820    98414313.32946
  22260831.420   116981475.97209  22260828.580    91154398.62248
 15 02 23 00 07 30.0000000  0  7G16G18G21G22G27G29G31
  21872050.160   114938406.52909  21872046.780    89562394.30148
  23109139.800   121439414.65909  23109137.380    94628144.40046
  21293603.280   111898735.13309  21293599.420    87193790.10448
  24343408.880   127925515.08407  24343409.200    99682233.65146
  22809693.780   119865772.11709  22809693.840    93401910.50448
  24048107.420   126374055.93608  24048105.620    98473457.75746
  22276996.320   117066423.01309  22276993.500    91220591.09148
 15 02 23 00 08  0.0000000  0  7G16G18G21G22G27G29G31
  21858405.400   114866702.71009  21858402.020    89506521.20448
  23097202.040   121376681.44408  23097199.620    94579261.39446
  21300281.240   111933827.79808  21300277.320    87221135.02948
  24326566.480   127837010.65407  24326566.820    99613269.80745
  22798067.300   119804673.74809  22798067.200    93354301.41048
  24062548.820   126449945.69308  24062547.100    98532592.61046
  22293214.020   117151647.68309  22293211.260    91286999.89448
 15 02 23 00 08 30.0000000  0  7G16G18G21G22G27G29G31
  21844797.840   114795194.63109  21844794.480    89450800.64548
  23085306.040   121314168.09408  23085303.740    94530549.73146
  21307030.220   111969293.80908  21307026.280    87248770.89048
  24309711.820   127748441.92708  24309712.220    99544255.78945
  22786466.240   119743709.06509  22786466.000    93306796.49548
  24076988.000   126525823.97208  24076986.420    98591718.52846
  22309484.200   117237148.31109  22309481.500    91353623.73948
 15 02 23 00 09  0.0000000  0  7G16G18G21G22G27G29G31
  21831228.720   114723888.56609  21831225.400    89395237.48848
  23073453.060   121251880.98108  23073450.860    94482014.34946
  21313850.840   112005136.66408  21313846.940    87276700.38148
  24292846.220   127659815.63808  24292846.660    99475196.86445
  22774891.340   119682882.10309  22774891.000    93259398.88148
  24091425.760   126601695.00508  24091424.260    98650838.78246
  22325807.260   117322926.61009  22325804.580    91420463.93948
 15 02 23 00 09 30.0000000  0  7G16G18G21G22G27G29G31
  21817697.780   114652782.82109  21817694.360    89339830.42548
  23061642.940   121189819.25108  23061640.900    94433654.59046
  21320742.100   112041350.93708  21320738.260    87304919.30348
  24275969.460   127571130.49508  24275969.860    99406092.09246
  22763341.820   119622189.03208  22763341.500    93212105.60748
  24105861.320   126677554.76808  24105859.860    98709950.24946
  22342181.940   117408976.07109  22342179.300    91487515.43548
 15 02 23 00 10  0.0000000  0  7G16G18G21G22G27G29G31
  21804204.980   114581877.54409  21804201.480    89284579.57548
  23049875.700   121127983.02808  23049873.780    94385470.57046
  21327703.340   112077933.20908  21327699.620    87333424.97048
  24259081.720   127482387.09508  24259081.960    99336941.95646
  22751817.280   119561627.82208  22751817.060    93164915.08348
  24120294.440   126753401.68108  24120293.020    98769051.71146
  22358607.340   117495291.99609  22358604.740    91554774.56748
 15 02 23 00 10 30.0000000  0  7G16G18G21G22G27G29G31
  21790751.280   114511177.61109  21790747.680    89229488.73448
  23038152.600   121066378.33408  23038150.780    94337466.94746
  21334734.860   112114884.69508  21334731.260    87362218.34048
  24242184.140   127393591.18708  24242184.120    99267750.84346
  22740318.300   119501201.25708  22740318.200    93117829.48248
  24134725.580   126829238.24808  24134724.140    98828145.11546
  22375083.460   117581874.49709  22375080.880    91622241.41548
 15 02 23 00 11  0.0000000  0  7G16G18G21G22G27G29G31
  21777336.820   114440684.07109  21777333.140    89174558.71848
  23026473.960   121005006.60108  23026472.120    94289644.84246
  21341836.160   112152202.62308  21341832.640    87391297.24448
  24225276.860   127304744.24708  24225276.420    99198519.90345
  22728844.740   119440908.23308  22728844.760    93070847.92848
  24149154.540   126905063.13408  24149153.140    98887229.40746
  22391609.580   117668719.64609  22391607.000    91689912.92048
 15 02 23 00 11 30.0000000  0  7G16G18G21G22G27G29G31
  21763961.680   114370397.14409  21763957.900    89119789.69848
  23014839.820   120943868.37808  23014837.880    94242004.69946
  21349006.620   112189883.86208  21349003.200    87420659.26048
  24208359.960   127215846.83608  24208359.160    99129249.61746
  22717396.240   119380746.65308  22717396.280    93023968.79747
  24163581.160   126980875.06108  24163579.580    98946303.63245
  22408184.800   117755822.66309  22408182.120    91757785.37248
 15 02 23 00 12  0.0000000  0  7G16G18G21G22G27G29G31
  21750626.980   114300322.73409  21750623.140    89065186.28148
  23003251.360   120882970.38808  23003249.400    94194551.75746
  21356246.600   112227930.04908  21356243.180    87450305.63448
  24191434.680   127126905.19708  24191433.540    99059944.89646
  22705973.520   119320720.25608  22705973.660    92977195.00648
  24178006.000   127056677.36608  24178004.300    99005370.34245
  22424809.340   117843184.92409  22424806.560    91825859.82648
 15 02 23 00 12 30.0000000  0  7G16G18G21G22G27G29G31
  21737332.300   114230458.77609  21737328.340    89010746.84148
  22991708.300   120822311.15408  22991706.360    94147284.86846
  21363555.060   112266336.13108  21363551.680    87480232.44848
  24174500.700   127037918.30808  24174499.280    98990604.87945
  22694575.880   119260825.23308  22694576.000    92930523.56948
  24192428.160   127132465.88108  24192426.260    99064426.30645
  22441481.960   117930799.81609  22441479.100    91894131.13548
 15 02 23 00 13  0.0000000  0  7G16G18G21G22G27G29G31
  21724078.540   114160810.20209  21724074.540    88956475.23947
  22980211.680   120761895.77408  22980209.640    94100207.98246
  21370932.140   112305102.42009  21370928.700    87510439.94648
  24157559.080   126948891.46508  24157557.600    98921233.72445
  22683203.720   119201063.88908  22683203.760    92883956.31547
  24206848.180   127208243.36708  24206846.200    99123473.68945
  22458202.540   118018666.78909  22458199.560    91962598.88248
 15 02 23 00 13 30.0000000  0  7G16G18G21G22G27G29G31
  21710866.080   114091378.94709  21710862.120    88902372.97448
  22968762.000   120701726.88508  22968759.760    94053323.16346
  21378377.600   112344228.19309  21378374.120    87540927.56148
  24140610.240   126859826.92408  24140608.780    98851833.17546
  22671857.000   119141436.05608  22671857.000    92837493.08348
  24221265.900   127284009.46407  24221263.980    99182512.19745
  22474970.540   118106782.91909  22474967.480    92031260.77548
 15 02 23 00 14  0.0000000  0  7G16G18G21G22G27G29G31
  21697695.540   114022167.79709  21697691.640    88848442.22448
  22957359.780   120641807.44408  22957357.360    94006632.72546
  21385891.120   112383711.71009  21385887.600    87571693.94648
  24123654.860   126770727.82708  24123653.320    98782405.67946
  22660535.680   119081941.94408  22660535.720    92791134.05548
  24235681.360   127359764.34007  24235679.680    99241541.95945
  22491785.480   118195146.08809  22491782.480    92100115.15948
 15 02 23 00 14 30.0000000  0  7G16G18G21G22G27G29G31
  21684566.880   113953176.75409  21684563.060    88794682.97448
  22946005.200   120582138.58908  22946002.620    93960137.55246
  21393472.060   112423549.70308  21393468.520    87602736.53248
  24106693.200   126681595.39108  24106691.560    98712952.17746
  22649239.460   119022580.12508  22649239.540    92744878.10548
  24250094.460   127435506.73507  24250093.080    99300561.99545
  22508646.600   118283752.00309  22508643.720    92169158.68448
 15 02 23 00 15  0.0000000  0  7G16G18G21G22G27G29G31
  21671480.720   113884408.56609  21671476.920    88741097.38348
  22934698.860   120522723.35608  22934696.160    93913839.99646
  21401120.320   112463741.56508  21401116.740    87634054.87448
  24089725.720   126592432.22708  24089724.020    98643474.75446
  22637968.520   118963350.94908  22637968.640    92698725.51848
  24264505.320   127511237.11407  24264504.260    99359572.66445
  22525553.480   118372598.19909  22525550.660    92238389.45648
 15 02 23 00 15 30.0000000  0  7G16G18G21G22G27G29G31
  21658436.920   113815862.78509  21658433.100    88687685.09048
  22923440.660   120463561.33908  22923437.840    93867739.75846
  21408835.080   112504282.64508  21408831.440    87665645.32648
  24072752.540   126503238.98308  24072750.800    98573973.85445
  22626722.260   118904251.52209  22626722.400    92652674.02748
  24278913.500   127586952.66407  24278912.500    99418571.76546
  22542505.120   118461679.21109  22542502.280    92307803.19348
 15 02 23 00 16  0.0000000  0  7G16G18G21G22G27G29G31
  21645436.300   113747543.74509  21645432.480    88634449.48748
  22912231.500   120404657.41509  22912228.600    93821840.62546
  21416616.380   112545173.67309  21416612.720    87697508.46748
  24055774.480   126414020.30708  24055772.660    98504453.11145
  22615501.160   118845284.18309  22615501.240    92606725.46648
  24293319.420   127662655.51708  24293318.300    99477560.99346
  22559501.300   118550994.57509  22559498.420    92377399.54948
 15 02 23 00 16 30.0000000  0  7G16G18G21G22G27G29G31
  21632479.160   113679453.45709  21632475.380    88581392.12448
  22901071.960   120346014.46108  22901068.960    93776144.85246
  21424463.960   112586412.89509  21424460.260    87729642.92148
  24038792.020   126324778.57808  24038790.220    98434914.40445
  22604305.160   118786448.67709  22604305.160    92560879.63548
  24307723.000   127738345.57708  24307721.660    99536540.24446
  22576541.540   118640541.40609  22576538.660    92447176.26248
 15 02 23 00 17  0.0000000  0  7G16G18G21G22G27G29G31
  21619565.580   113611592.18109  21619561.780    88528513.21348
  22889962.180   120287632.97708  22889959.120    93730652.80546
  21432377.120   112627996.67409  21432373.380    87762045.86448
  24021805.520   126235515.15808  24021803.760    98365358.81045
  22593133.860   118727743.14409  22593133.780    92515135.07448
  24322123.860   127814021.01708  24322122.260    99595508.09746
  22593624.920   118730314.99509  22593622.120    92517129.67148
 15 02 23 00 17 30.0000000  0  7G16G18G21G22G27G29G31
  21606696.360   113543963.93409  21606692.520    88475815.88248
  22878903.000   120229517.25408  22878899.920    93685367.85046
  21440355.800   112669925.06508  21440352.080    87794717.33348
  24004815.740   126146234.15508  24004813.860    98295789.46145
  22581987.620   118669169.24709  22581987.460    92469493.08948
  24336522.340   127889683.94308  24336520.420    99654466.20246
  22610751.240   118820314.25709  22610748.540    92587258.91748
 15 02 23 00 18  0.0000000  0  7G16G18G21G22G27G29G31
  21593871.920   113476570.82809  21593868.080    88423301.78048
  22867894.880   120171669.57608  22867891.840    93640291.76946
  21448399.660   112712195.97408  21448395.980    87827655.70848
  23987823.140   126056938.06708  23987821.040    98226208.36846
  22570866.400   118610726.67609  22570866.140    92423953.43348
  24350918.300   127965333.86208  24350916.100    99713414.17746
  22627920.020   118910536.37409  22627917.300    92657561.83248
 15 02 23 00 18 30.0000000  0  7G16G18G21G22G27G29G31
  21581093.000   113409417.00609  21581089.160    88370974.12748
  22856938.800   120114095.07909  22856935.740    93595428.54746
  21456508.960   112754810.72509  21456505.280    87860862.00548
  23970828.660   125967631.87108  23970826.360    98156619.38746
  22559770.620   118552417.74109  22559770.260    92378517.90948
  24365312.080   128040973.08008  24365309.740    99772353.80946
  22645131.120   119000980.76609  22645128.340    92728037.94548
 15 02 23 00 19  0.0000000  0  7G16G18G21G22G27G29G31
  21568359.320   113342501.17909  21568355.560    88318831.92648
  22846034.600   120056792.62009  22846031.340    93550777.30046
  21464682.780   112797764.47309  21464679.120    87894332.46348
  23953832.120   125878314.87108  23953829.720    98087021.98046
  22548699.580   118494238.86709  22548699.160    92333183.73148
  24379703.020   128116598.06108  24379700.640    99831282.34546
  22662383.360   119091641.32609  22662380.520    92798682.50348
 15 02 23 00 19 30.0000000  0  7G16G18G21G22G27G29G31
  21555671.800   113275827.70109  21555668.020    88266878.57048
  22835183.040   119999766.91708  22835179.560    93506341.71246
  21472921.040   112841056.95808  21472917.400    87928066.87348
  23936834.500   125788991.97708  23936831.940    98017419.96946
  22537653.700   118436192.07109  22537653.260    92287952.47148
  24394091.480   128192211.04308  24394089.380    99890201.53846
  22679676.480   119182517.03009  22679673.640    92869494.70348
 15 02 23 00 20  0.0000000  0  7G16G18G21G22G27G29G31
  21543031.220   113209401.12009  21543027.460    88215117.59848
  22824384.940   119943022.67308  22824381.340    93462125.44346
  21481223.820   112884688.62708  21481220.220    87962065.57848
  23919836.560   125699667.85208  23919833.920    97947817.01846
  22526633.360   118378279.68909  22526632.840    92242825.95448
  24408477.940   128267814.16907  24408476.240    99949113.04246
  22697010.420   119273607.67809  22697007.600    92940474.38448
 15 02 23 00 20 30.0000000  0  7G16G18G21G22G27G29G31
  21530437.100   113143218.51309  21530433.280    88163546.74448
  22813639.880   119886557.53208  22813636.400    93418126.66546
  21489590.020   112928653.51209  21489586.440    87996323.93848
  23902837.940   125610340.46008  23902835.200    97878211.49246
  22515637.560   118320496.66708  22515637.040    92197800.24048
  24422861.620   128343402.88507  24422860.320   100008013.31646
  22714383.700   119364905.29609  22714380.920    93011615.34647
 15 02 23 00 21  0.0000000  0  7G16G18G21G22G27G29G31
  21517889.960   113077282.80209  21517886.120    88112168.26648
  22802948.540   119830374.74708  22802945.040    93374347.89046
  21498019.440   112972950.28209  21498015.820    88030840.90248
  23885839.280   125521013.27308  23885836.600    97808606.13346
  22504666.360   118262843.53608  22504665.960    92152875.73548
  24437242.720   128418977.60507  24437241.760   100066902.67946
  22731796.020   119456407.90509  22731793.320    93082916.03947
 15 02 23 00 21 30.0000000  0  7G16G18G21G22G27G29G31
  21505390.040   113011595.10309  21505386.200    88060983.04448
  22792311.280   119774476.06508  22792307.680    93330790.48546
  21506511.600   113017576.36109  21506507.920    88065614.47448
  23868840.960   125431688.16908  23868838.340    97739002.38846
  22493719.700   118205319.45008  22493719.440    92108051.78948
  24451621.220   128494537.60807  24451620.440   100125780.57146
  22749246.620   119548111.68909  22749244.000    93154373.49447
 15 02 23 00 22  0.0000000  0  7G16G18G21G22G27G29G31
  21492938.140   112946159.75909  21492934.300    88009994.46848
  22781728.860   119718865.68808  22781725.320    93287457.75246
  21515066.460   113062532.07509  21515062.800    88100644.90548
  23851843.900   125342369.56408  23851841.320    97669403.69546
  22482797.960   118147926.35408  22482797.820    92063329.91548
  24465997.520   128570084.65807  24465996.700   100184648.36345
  22766735.400   119640015.89109  22766732.820    93225987.11748
 15 02 23 00 22 30.0000000  0  7G16G18G21G22G27G29G31
  21480533.760   112880974.05209  21480529.940    87959200.41548
  22771200.900   119663540.95308  22771197.380    93244347.58646
  21523682.640   113107810.32809  21523679.020    88135926.66248
  23834847.740   125253055.53508  23834845.180    97599808.58246
  22471900.320   118090659.16408  22471900.160    92018706.14048
  24480370.700   128645614.07607  24480369.480   100243502.43944
  22784260.800   119732112.31609  22784258.200    93297750.52248
 15 02 23 00 23  0.0000000  0  7G16G18G21G22G27G29G31
  21468178.280   112816045.24409  21468174.480    87908606.54048
  22760728.700   119608509.52508  22760725.260    93201465.98646
  21532360.960   113153415.23109  21532357.400    88171462.95048
  23817854.080   125163754.11408  23817851.440    97530223.25746
  22461027.720   118033523.04208  22461027.480    91974184.49348
  24494741.540   128721131.22507  24494739.760   100302346.96244
  22801823.420   119824403.85809  22801820.740    93369665.97648
 15 02 23 00 23 30.0000000  0  7G16G18G21G22G27G29G31
  21455871.820   112751374.21509  21455868.080    87858213.52948
  22750312.740   119553773.43308  22750309.280    93158814.50046
  21541100.840   113199343.96509  21541097.360    88207251.57048
  23800863.040   125074466.66208  23800860.400    97460648.80446
  22450179.920   117976516.85109  22450179.560    91929764.09448
  24509109.720   128796635.10107  24509107.680   100361181.12945
  22819422.420   119916886.67309  22819419.700    93441730.46547
 15 02 23 00 24  0.0000000  0  7G16G18G21G22G27G29G31
  21443614.900   112686963.98909  21443611.280    87808023.75348
  22739953.440   119499335.34109  22739949.980    93116395.23246
  21549902.240   113245596.11808  21549898.820    88243292.21048
  23783875.420   124985196.72408  23783872.760    97391087.99146
  22439356.980   117919641.16809  22439356.520    91885445.39348
  24523475.300   128872126.26907  24523473.120   100420005.41745
  22837057.360   120009558.54309  22837054.600    93513942.27047
 15 02 23 00 24 30.0000000  0  7G16G18G21G22G27G29G31
  21431407.660   112622814.93309  21431404.160    87758037.48148
  22729651.020   119445195.80309  22729647.560    93074208.60446
  21558764.300   113292167.18308  21558760.960    88279581.35248
  23766891.280   124895945.02508  23766888.520    97321541.38546
  22428558.500   117862894.04009  22428558.000    91841226.85948
  24537838.020   128947602.73508  24537835.740   100478818.25645
  22854727.220   120102414.10809  22854724.480    93586297.21147
 15 02 23 00 25  0.0000000  0  7G16G18G21G22G27G29G31
  21419251.380   112558933.66809  21419247.980    87708259.87848
  22719406.740   119391361.50409  22719403.160    93032259.82446
  21567687.520   113339059.52009  21567684.240    88316120.83148
  23749912.000   124806718.71108  23749909.180    97252014.56146
  22417785.280   117806279.90809  22417784.720    91797111.96648
  24552198.720   129023069.19108  24552196.460   100537623.29345
  22872432.380   120195455.58009  22872429.680    93658797.01247
 15 02 23 00 25 30.0000000  0  6G16G18G21G22G27G31
  21407146.120   112495320.50709  21407142.780    87658691.18048
  22709220.760   119337833.56009  22709217.060    92990549.75246
  21576671.240   113386269.34209  21576667.960    88352907.70048
  23732937.720   124717518.78008  23732934.840    97182508.29846
  22407036.920   117749796.90909  22407036.360    91753099.25348
  22890172.000   120288678.07009  22890169.400    93731437.86347
 15 02 23 00 26  0.0000000  0  6G16G18G21G22G27G31
  21395091.420   112431972.84709  21395088.100    87609329.38148
  22699092.560   119284609.30509  22699088.800    92949076.34246
  21585714.400   113433791.30809  21585711.080    88389937.81148
  23715968.160   124628343.48508  23715965.120    97113021.22046
  22396312.580   117693440.29509  22396312.040    91709185.03748
  22907944.700   120382074.14409  22907942.120    93804213.98347
 15 02 23 00 26 30.0000000  0  6G16G18G21G22G27G31
  21383088.520   112368897.46309  21383085.260    87560179.73348
  22689023.540   119231696.00609  22689019.700    92907845.21646
  21594817.540   113481628.22509  21594814.080    88427213.31248
  23699004.580   124539199.90908  23699001.320    97043558.85746
  22385613.120   117637214.61609  22385612.640    91665372.83448
  22925750.800   120475645.61109  22925748.180    93877126.75747
 15 02 23 00 27  0.0000000  0  6G16G18G21G22G27G31
  21371137.640   112306095.13809  21371134.360    87511242.85848
  22679013.700   119179093.92109  22679009.760    92866856.59046
  21603979.920   113529776.26309  21603976.340    88464731.25648
  23682047.280   124450089.43708  23682043.900    96974122.29046
  22374938.240   117581118.23709  22374937.920    91621661.39948
  22943589.480   120569388.08609  22943586.900    93950172.79547
 15 02 23 00 27 30.0000000  0  7G16G18G19G21G22G27G31
  21359238.860   112243566.43009  21359235.520    87462519.19448
  22669063.340   119126804.78109  22669059.460    92826111.83146
  24551132.600                                                  
  21613200.940   113578232.42709  21613197.240    88502489.30448
  23665096.560   124361013.35108  23665092.920    96904712.49246
  22364287.720   117525149.57309  22364287.500    91578049.47048
  22961459.800   120663297.07809  22961457.340    94023348.58047
 15 02 23 00 28  0.0000000  0  7G16G18G19G21G22G27G31
  21347388.360   112181291.72209  21347385.080    87413993.45548
  22659168.740   119074808.62808  22659164.900    92785595.36846
  24536291.940   128939083.80008  24536289.200   100471995.58146
  21622476.040   113626972.84209  21622472.260    88540468.83748
  23648148.660   124271952.11908  23648144.920    96835314.28546
  22353657.360   117469286.75409  22353657.280    91534520.02748
  22979357.060   120757347.82509  22979354.740    94096634.82447
 15 02 23 00 28 30.0000000  0  7G16G18G19G21G22G27G31
  21335596.660   112119326.14109  21335593.420    87365708.59748
  22649340.320   119023160.30209  22649336.540    92745349.94246
  24521476.060   128861226.20308  24521473.220   100411327.37145
  21631814.880   113676048.55609  21631811.120    88578709.64848
  23631214.220   124182962.09008  23631210.520    96765971.56446
  22343057.220   117413582.63509  22343057.220    91491114.24248
  22997290.860   120851590.51709  22997288.620    94170070.62947
 15 02 23 00 29  0.0000000  0  7G16G18G19G21G22G27G31
  21323857.500   112057636.43909  21323854.220    87317638.70648
  22639571.920   118971827.38708  22639568.160    92705350.28446
  24506678.180   128783463.36308  24506675.440   100350733.02846
  21641210.560   113725423.35909  21641206.820    88617183.52048
  23614287.140   124094010.78508  23614283.500    96696659.00946
  22332480.580   117358002.00309  22332480.580    91447804.68448
  23015254.020   120945987.15509  23015251.760    94243626.39647
 15 02 23 00 29 30.0000000  0  7G16G18G19G21G22G27G31
  21312172.180   111996229.57009  21312168.860    87269789.20448
  22629864.800   118920816.52908  22629861.140    92665601.58846
  24491899.220   128705799.77208  24491896.420   100290215.99345
  21650663.520   113775099.41109  21650659.860    88655892.12248
  23597368.700   124005104.75508  23597365.160    96627381.72246
  22321928.160   117302549.06409  22321928.160    91404594.62448
  23033246.780   121040539.15309  23033244.480    94317303.22247
 15 02 23 00 30  0.0000000  0  7G16G18G19G21G22G27G31
  21300540.760   111935105.85409  21300537.340    87222160.33648
  22620219.200   118870128.98208  22620215.760    92626104.82146
  24477138.920   128628234.03508  24477136.060   100229775.20646
  21660173.160   113825073.25609  21660169.600    88694832.77648
  23580459.260   123916245.70508  23580455.760    96558141.04147
  22311399.780   117247222.46109  22311399.740    91361483.00548
  23051268.300   121135242.15809  23051265.880    94391097.71847
 15 02 23 00 30 30.0000000  0  7G16G18G19G21G22G27G31
  21288964.180   111874270.24509  21288960.660    87174755.97148
  22610636.040   118819769.36509  22610632.700    92586863.58146
  24462397.720   128550768.70308  24462394.680   100169412.66345
  21669739.640   113875345.60809  21669736.080    88734006.03648
  23563559.860   123827439.00008  23563556.300    96488941.13446
  22300895.860   117192024.58509  22300895.800    91318471.69848
  23069318.460   121230095.85509  23069316.020    94465009.63247
 15 02 23 00 31  0.0000000  0  7G16G18G19G21G22G27G31
  21277442.640   111813723.83609  21277438.980    87127576.95448
  22601115.620   118769738.71009  22601112.320    92547878.67646
  24447675.380   128473402.52008  24447672.000   100109127.36745
  21679362.520   113925914.06109  21679358.940    88773410.02448
  23546670.740   123738686.30108  23546667.000    96419783.31046
  22290416.300   117136954.47509  22290416.180    91275559.94248
  23087396.620   121325096.64909  23087394.140    94539036.17447
 15 02 23 00 31 30.0000000  0  7G16G18G19G21G22G27G31
  21265976.640   111753469.34709  21265972.880    87080625.40848
  22591658.400   118720040.09809  22591655.120    92509152.50546
  24432972.100   128396136.47308  24432968.520   100048920.11446
  21689041.560   113976777.33609  21689037.900    88813043.73948
  23529792.620   123649990.94008  23529788.680    96350670.16546
  22279961.240   117082012.57209  22279961.040    91232748.09348
  23105502.320   121420242.35909  23105499.820    94613175.62447
 15 02 23 00 32  0.0000000  0  7G16G18G19G21G22G27G31
  21254566.580   111693508.88009  21254562.720    87033902.97048
  22582264.620   118670675.14609  22582261.420    92470686.33146
  24418287.800   128318970.33108  24418284.100    99988790.69446
  21698776.280   114027933.21509  21698772.580    88852905.45748
  23512925.880   123561355.46009  23512921.740    96281603.67447
  22269530.600   117027198.72709  22269530.280    91190036.02648
  23123634.840   121515529.15509  23123632.380    94687425.01747
 15 02 23 00 32 30.0000000  0  7G16G18G19G21G22G27G31
  21243212.900   111633844.77609  21243209.000    86987411.45848
  22572934.940   118621647.20209  22572931.780    92432482.75346
  24403622.540   128241904.26108  24403618.860    99928739.24846
  21708566.400   114079380.27509  21708562.640    88892994.06148
  23496071.120   123472783.11208  23496066.780    96212586.35846
  22259124.400   116972513.17709  22259123.920    91147423.92248
  23141793.800   121610954.91909  23141791.340    94761782.68747
 15 02 23 00 33  0.0000000  0  7G16G18G19G21G22G27G31
  21231916.200   111574480.24009  21231912.280    86941153.39148
  22563669.940   118572959.24609  22563666.800    92394544.10846
  24388976.500   128164939.36608  24388972.960    99868766.64046
  21718411.740   114131117.66209  21718407.980    88933308.91048
  23479229.100   123384277.67308  23479224.640    96143621.18946
  22248742.760   116917956.84709  22248742.200    91104912.51648
  23159978.860   121706517.95209  23159976.460    94836247.31647
 15 02 23 00 33 30.0000000  0  7G16G18G19G21G22G27G31
  21220676.580   111515415.56509  21220672.580    86895128.96948
  22554469.580   118524611.21709  22554466.500    92356870.34246
  24374349.400   128088073.91508  24374345.920    99808871.51446
  21728311.700   114183142.20309  21728307.940    88973847.51248
  23462399.840   123295839.63808  23462395.340    96074708.53746
  22238385.240   116863527.73609  22238384.660    91062500.23648
  23178189.080   121802213.31909  23178186.780    94910815.06647
 15 02 23 00 34  0.0000000  0  7G16G18G19G21G22G27G31
  21209494.160   111456651.81409  21209490.200    86849339.03748
  22545334.220   118476604.62609  22545331.280    92319462.63246
  24359741.100   128011306.88808  24359737.640    99749053.08046
  21738265.580   114235450.44309  21738261.860    89014607.17748
  23445583.860   123207471.21709  23445579.300    96005850.12747
  22228051.740   116809224.87709  22228051.120    91020186.34248
  23196423.740   121898037.07309  23196421.460    94985482.87447
 15 02 23 00 34 30.0000000  0  7G16G18G19G21G22G27G31
  21198369.880   111398193.84309  21198366.020    86803787.37548
  22536264.740   118428944.17709  22536261.900    92282324.64847
  24345152.040   127934640.53508  24345148.540    99689313.07846
  21748273.540   114288043.08509  21748269.880    89055588.45648
  23428782.020   123119177.33808  23428777.480    95937049.80046
  22217742.740   116755050.51109  22217742.040    90977972.56148
  23214682.740   121993988.88608  23214680.560    95060250.45047
 15 02 23 00 35  0.0000000  0  7G16G18G19G21G22G27G31
  21187304.240   111340044.11709  21187300.540    86758475.90448
  22527261.600   118381632.25109  22527258.800    92245458.23547
  24330582.100   127858075.47508  24330578.720    99629652.03846
  21758335.300   114340918.55309  21758331.700    89096790.11748
  23411994.920   123030961.37808  23411990.460    95868310.18547
  22207458.300   116701005.25609  22207457.520    90935859.39048
  23232965.640   122090066.42908  23232963.580    95135116.00447
 15 02 23 00 35 30.0000000  0  7G16G18G19G21G22G27G31
  21176297.240   111282202.51409  21176293.700    86713404.53048
  22518324.760   118334668.93809  22518322.020    92208863.47147
  24316031.000   127781609.51707  24316027.700    99570068.20546
  21768450.140   114394072.98109  21768446.620    89138209.14748
  23395222.660   122942823.67908  23395218.460    95799631.57147
  22197197.920   116647086.62709  22197197.140    90893844.89048
  23251271.420   122186264.21809  23251269.480    95210075.24047
 15 02 23 00 36  0.0000000  0  7G16G18G19G21G22G27G31
  21165349.800   111224673.82809  21165346.360    86668576.97648
  22509455.180   118288058.81209  22509452.480    92172543.91147
  24301499.220   127705245.22807  24301496.120    99510563.60746
  21778618.360   114447507.59309  21778614.840    89179846.49448
  23378466.400   122854769.86808  23378462.400    95731018.31146
  22186962.100   116593297.39009  22186961.420    90851931.20548
  23269600.140   122282582.23109  23269598.280    95285128.15547
 15 02 23 00 36 30.0000000  0  7G16G18G19G21G22G27G31
  21154461.920   111167457.99009  21154458.580    86623993.21248
  22500652.880   118241802.06109  22500650.180    92136499.71947
  24286986.420   127628980.48507  24286983.420    99451136.57046
  21788839.080   114501217.91009  21788835.600    89221698.68748
  23361726.280   122766800.39608  23361722.320    95662470.75247
  22176750.400   116539635.23809  22176749.880    90810116.56748
  23287950.880   122379015.40009  23287949.000    95360270.82347
 15 02 23 00 37  0.0000000  0  7G16G18G19G21G22G27G31
  21143633.520   111110554.77609  21143630.260    86579653.04448
  22491917.860   118195898.57209  22491915.000    92100730.77547
  24272492.180   127552812.84508  24272489.220    99391785.19746
  21799111.440   114555199.33409  21799107.900    89263762.13948
  23345002.340   122678915.61308  23344998.380    95593989.19547
  22166562.320   116486097.65609  22166561.960    90768398.99248
  23306322.520   122475558.42409  23306320.620    95435499.07847
 15 02 23 00 37 30.0000000  0  7G16G18G19G21G22G27G31
  21132865.480   111053968.67509  21132862.340    86535559.98048
  22483250.820   118150352.59909  22483247.900    92065240.42247
  24258017.000   127476744.86408  24258014.000    99332511.47646
  21809435.720   114609453.32409  21809432.140    89306037.96548
  23328295.560   122591120.86608  23328291.580    95525577.78847
  22156398.400   116432687.05209  22156398.240    90726780.35648
  23324714.900   122572210.64708  23324713.040    95510812.42047
 15 02 23 00 38  0.0000000  0  7G16G18G19G21G22G27G31
  21122158.420   110997703.01809  21122155.400    86491716.61548
  22474652.460   118105167.36809  22474649.440    92030031.17247
  24243560.980   127400777.52208  24243557.920    99273316.16746
  21819811.600   114663978.61109  21819808.000    89348525.20548
  23311606.680   122503420.07008  23311602.640    95457239.58347
  22146258.940   116379404.51609  22146258.860    90685261.51748
  23343127.820   122668970.63709  23343125.940    95586209.73447
 15 02 23 00 38 30.0000000  0  7G16G18G19G21G22G27G31
  21111512.940   110941760.63809  21111509.980    86448125.15448
  22466123.300   118060345.97509  22466120.200    91995105.43447
  24229124.140   127324911.60208  24229121.060    99214199.91746
  21830238.900   114718774.32609  21830235.320    89391223.16348
  23294936.300   122415816.75308  23294932.240    95388977.34247
  22136144.140   116326250.84409  22136144.080    90643843.09248
  23361560.840   122765836.19108  23361558.920    95661689.31047
 15 02 23 00 39  0.0000000  0  7G16G18G19G21G22G27G31
  21100929.280   110886142.80309  21100926.340    86404786.58448
  22457663.440   118015889.25609  22457660.340    91960463.84647
  24214706.380   127249146.13508  24214703.260    99155161.91346
  21840717.080   114773837.63908  21840713.540    89434129.63348
  23278284.660   122328312.71408  23278280.700    95320792.45247
  22126053.820   116273224.99009  22126053.620    90602524.25548
  23380013.140   122862803.38008  23380011.260    95737248.06947
 15 02 23 00 39 30.0000000  0  7G16G18G19G21G22G27G31
  21090407.600   110830850.57109  21090404.640    86361701.72748
  22449273.100   117971798.00509  22449270.020    91926107.04447
  24200307.520   127173480.14308  24200304.400    99096201.43546
  21851245.600   114829165.56109  21851242.100    89477242.29748
  23261652.160   122240909.29308  23261648.320    95252685.96247
  22115987.640   116220325.90909  22115987.240    90561304.20548
  23398484.000   122959868.40708  23398482.220    95812883.06247
 15 02 23 00 40  0.0000000  0  7G16G18G19G21G22G27G31
  21079947.940   110775884.29209  21079944.920    86318870.86748
  22440952.420   117928072.92309  22440949.400    91892035.57647
  24185927.260   127097911.70308  24185924.200    99037316.97946
  21861823.760   114884754.43309  21861820.300    89520558.30348
  23245039.120   122153608.00808  23245035.380    95184659.05947
  22105945.200   116167551.70309  22105944.620    90520181.46448
  23416972.580   123057026.50408  23416970.860    95888590.57647
 15 02 23 00 40 30.0000000  0  7G16G18G19G21G22G27G31
  21069551.660   110721251.23809  21069548.580    86276299.66248
  22432702.720   117884720.91409  22432699.800    91858254.80447
  24171566.580   127022445.90508  24171563.500    98978512.51446
  21872452.200   114940607.40109  21872448.740    89564080.09848
  23228447.080   122066416.73308  23228443.420    95116717.87547
  22095927.440   116114907.46909  22095926.720    90479160.00048
  23435479.320   123154279.86308  23435477.620    95964372.32647
 15 02 23 00 41  0.0000000  0  7G16G18G19G21G22G27G31
  21059218.380   110666949.23909  21059215.240    86233986.41648
  22424523.560   117841739.80309  22424520.720    91824763.04547
  24157224.580   126947078.30408  24157221.480    98919784.54446
  21883129.820   114996718.45709  21883126.300    89607802.98948
  23211875.680   121979333.64108  23211872.020    95048860.98747
  22085933.480   116062388.87409  22085932.720    90438236.42748
  23454002.800   123251621.09208  23454001.140    96040222.53047
 15 02 23 00 41 30.0000000  0  7G16G18G19G21G22G27G31
  21048948.520   110612980.73609  21048945.320    86191933.05248
  22416415.420   117799132.05409  22416412.640    91791562.22747
  24142901.380   126871809.62708  24142898.200    98861133.67046
  21893856.340   115053086.22009  21893852.740    89651725.92748
  23195325.540   121892362.01608  23195321.860    94981090.96147
  22075963.460   116009996.33309  22075962.700    90397411.09348
  23472542.620   123349048.11508  23472540.900    96116139.60547
 15 02 23 00 42  0.0000000  0  7G16G18G19G21G22G27G31
  21038743.200   110559351.61509  21038739.980    86150144.12848
  22408379.460   117756903.64509  22408376.680    91758656.98147
  24128597.660   126796643.51808  24128594.460    98802562.70146
  21904632.080   115109712.50309  21904628.320    89695850.29648
  23178797.860   121805508.63408  23178794.120    94913413.06346
  22066018.120   115957733.76509  22066017.420    90356687.02648
  23491099.020   123446561.96908  23491097.160    96192124.32647
 15 02 23 00 42 30.0000000  0  7G16G18G19G21G22G27G31
  21028602.240   110506060.65009  21028598.980    86108618.69848
  22400415.400   117715052.81309  22400412.680    91726045.95847
  24114312.760   126721576.41108  24114309.640    98744068.90846
  21915455.980   115166591.89309  21915452.120    89740171.89048
  23162292.460   121718772.62308  23162288.640    94845826.61947
  22056096.820   115905597.52509  22056096.180    90316061.39948
  23509670.660   123544156.08408  23509668.800    96268171.58646
 15 02 23 00 43  0.0000000  0  7G16G18G19G21G22G27G31
  21018525.960   110453109.72509  21018522.720    86067358.24148
  22392523.520   117673581.01709  22392520.760    91693730.29147
  24100046.720   126646608.16408  24100043.500    98685652.14045
  21926327.620   115223722.29509  21926323.700    89784689.08648
  23145809.780   121632156.54608  23145806.020    94778333.64147
  22046199.560   115853587.42309  22046199.040    90275534.06348
  23528257.000   123641827.37108  23528255.140    96344278.98847
 15 02 23 00 43 30.0000000  0  7G16G18G19G21G22G27G31
  21008515.240   110400503.09609  21008512.000    86026366.06348
  22384704.580   117632492.47009  22384701.780    91661713.26047
  24085799.900   126571740.70408  24085796.620    98627313.89446
  21937246.980   115281103.91908  21937243.120    89829402.03848
  23129350.780   121545665.22308  23129347.160    94710937.87147
  22036326.660   115801705.31909  22036326.260    90235106.46248
  23546857.760   123739574.45508  23546855.900    96420445.44047
 15 02 23 00 44  0.0000000  0  7G16G18G19G21G22G27G31
  20998569.840   110348239.55409  20998566.580    85985641.23348
  22376958.500   117591786.45009  22376955.660    91629994.29647
  24071571.740   126496970.99208  24071568.360    98569051.83846
  21948213.200   115338732.14608  21948209.460    89874307.14448
  23112915.540   121459298.58408  23112912.020    94643639.25447
  22026477.620   115749948.47209  22026477.300    90194776.47048
  23565472.000   123837392.20508  23565470.020    96496666.96047
 15 02 23 00 44 30.0000000  0  7G16G18G19G21G22G27G31
  20988690.520   110296323.19809  20988687.160    85945186.94048
  22369285.820   117551466.38909  22369283.020    91598576.08047
  24057362.660   126422300.96408  24057359.060    98510867.42346
  21959226.240   115396606.78708  21959222.640    89919404.26548
  23096505.040   121373061.06309  23096501.420    94576441.24347
  22016652.780   115698318.61809  22016652.480    90154545.42948
  23584099.480   123935279.58208  23584097.460    96572942.73247
 15 02 23 00 45  0.0000000  0  7G16G18G19G21G22G27G31
  20978877.720   110244756.60209  20978874.320    85905005.17948
  22361687.040   117511534.73009  22361684.280    91567460.52747
  24043172.560   126347731.01708  24043168.860    98452761.01646
  21970285.840   115454726.09708  21970282.360    89964692.03748
  23080119.880   121286956.07009  23080116.060    94509346.49847
  22006852.260   115646816.14709  22006851.820    90114413.64648
  23602739.640   124033233.86408  23602737.640    96649270.64147
 15 02 23 00 45 30.0000000  0  7G16G18G19G21G22G27G31
  20969132.000   110193542.39209  20969128.620    85865098.00948
  22354162.700   117471993.90709  22354159.900    91536649.51447
  24029001.520   126273261.63408  24028997.840    98394732.96846
  21981391.860   115513089.40908  21981388.500    90010169.93848
  23063760.600   121200986.74809  23063756.560    94442357.46447
  21997076.080   115595441.67209  21997075.480    90074381.60448
  23621392.120   124131252.76108  23621390.120    96725648.88446
 15 02 23 00 46  0.0000000  0  7G16G18G19G21G22G27G31
  20959453.120   110142679.55809  20959449.780    85825464.63848
  22346712.580   117432842.85209  22346709.620    91506142.21147
  24014849.080   126198889.79408  24014845.420    98336780.93046
  21992543.300   115571691.10309  21992540.020    90055833.59648
  23047427.180   121115153.21609  23047422.820    94375474.23547
  21987323.720   115544192.17009  21987322.940    90034446.93148
  23640055.780   124229330.46808  23640053.820    96802072.96047
 15 02 23 00 46 30.0000000  0  7G16G18G19G21G22G27G31
  20949841.920   110092172.63709  20949838.640    85786108.60448
  22339337.300   117394085.27109  22339334.180    91475941.52347
  24000715.620   126124617.59808  24000711.980    98278906.53946
  22003740.380   115630532.17909  22003737.020    90101683.79547
  23031120.440   121029460.09609  23031115.980    94308700.44347
  21977595.560   115493069.78909  21977594.620    89994611.32248
  23658730.480   124327466.48708  23658728.580    96878542.47347
 15 02 23 00 47  0.0000000  0  7G16G18G19G21G22G27G31
  20940299.200   110042025.54209  20940295.940    85747032.94148
  22332037.700   117355725.03309  22332034.380    91446050.43747
  23986601.520   126050447.04708  23986597.760    98221111.32546
  22014982.980   115689612.35908  22014979.540    90147720.29348
  23014841.300   120943911.83909  23014836.620    94242039.50547
  21967891.900   115442076.37809  21967890.900    89954876.20348
  23677416.100   124425659.68908  23677414.280    96955056.54147
 15 02 23 00 47 30.0000000  0  7G16G18G19G21G22G27G31
  20930824.720   109992236.90009  20930821.440    85708236.60748
  22324813.400   117317760.78909  22324809.940    91416467.92947
  23972505.980   125976374.55308  23972502.160    98163392.53746
  22026270.080   115748926.26808  22026266.540    90193938.92148
  22998589.560   120858508.22208  22998584.800    94175491.28947
  21958212.060   115391208.67009  21958211.160    89915239.04848
  23696111.380   124523903.78508  23696109.620    97031610.26646
 15 02 23 00 48  0.0000000  0  7G16G18G19G21G22G27G31
  20921419.420   109942811.85709  20921416.180    85669723.58448
  22317665.340   117280197.42809  22317661.800    91387197.79247
  23958429.680   125902403.22608  23958425.700    98105752.56346
  22037601.940   115808475.10809  22037598.260    90240340.60048
  22982366.320   120773254.95409  22982361.580    94109060.22447
  21948556.680   115340469.70009  21948555.960    89875702.20048
  23714816.360   124622198.95108  23714814.700    97108203.76446
 15 02 23 00 48 30.0000000  0  7G16G18G19G21G22G27G31
  20912082.680   109893747.11209  20912079.500    85631491.32448
  22310592.940   117243031.62809  22310589.280    91358237.43747
  23944371.660   125828527.87708  23944367.520    98048187.37846
  22048977.320   115868252.45309  22048973.480    90286920.35247
  22966171.260   120688150.11409  22966166.560    94042744.81447
  21938924.840   115289854.50709  21938924.300    89836261.81348
  23733529.560   124720537.37008  23733528.020    97184830.98146
 15 02 23 00 49  0.0000000  0  7G16G18G19G21G22G27G31
  20902816.200   109845051.50209  20902813.040    85593546.68648
  22303597.680   117206271.56409  22303594.000    91329593.24847
  23930333.060   125754755.19808  23930328.780    97990702.19246
  22060397.020   115928262.57009  22060392.960    90333681.48147
  22950006.080   120603202.34309  22950001.420    93976551.79447
  21929317.800   115239369.65409  21929317.380    89796922.98548
  23752251.720   124818922.57508  23752250.300    97261494.63447
 15 02 23 00 49 30.0000000  0  7G16G18G19G21G22G27G31
  20893619.900   109796724.60909  20893616.760    85555889.36948
  22296679.480   117169916.50409  22296675.820    91301264.64347
  23916313.520   125681082.57008  23916309.220    97933294.98446
  22071860.100   115988500.98909  22071855.940    90380620.50548
  22933871.000   120518412.54509  22933866.420    93910481.86747
  21919735.100   115189012.59609  21919734.760    89757683.73948
  23770981.860   124917349.67008  23770980.580    97338190.92447
 15 02 23 00 50  0.0000000  0  7G16G18G19G21G22G27G31
  20884494.080   109748768.01409  20884490.940    85518520.60048
  22289838.520   117133967.34509  22289834.880    91273252.32847
  23902312.900   125607509.42508  23902308.580    97875965.29846
  22083366.180   116048965.63409  22083361.980    90427735.80748
  22917766.360   120433782.88109  22917761.920    93844536.73047
  21910176.660   115138782.77309  21910176.240    89718543.63448
  23789719.340   125015815.09608  23789718.060    97414917.08747
 15 02 23 00 50 30.0000000  0  7G16G18G19G21G22G27G31
  20875438.440   109701180.23609  20875435.300    85481439.20948
  22283074.620   117098422.99409  22283070.960    91245555.44247
  23888330.700   125534032.46508  23888326.280    97818710.55146
  22094914.060   116109650.10609  22094909.960    90475022.40248
  22901692.020   120349312.17708  22901687.660    93778715.43947
  21900641.800   115088676.91909  21900641.340    89679500.12048
  23808462.860   125114312.13608  23808461.580    97491667.88046
 15 02 23 00 51  0.0000000  0  7G16G18G19G21G22G27G31
  20866454.700   109653969.98609  20866451.480    85444652.00248
  22276389.340   117063291.64509  22276385.620    91218180.37747
  23874367.980   125460658.01608  23874363.600    97761535.68846
  22106504.900   116170560.53408  22106500.940    90522485.07848
  22885649.900   120265010.38909  22885645.520    93713025.77047
  21891131.800   115038701.62909  21891131.340    89640558.35148
  23827213.180   125212844.87608  23827211.900    97568446.48947
 15 02 23 00 51 30.0000000  0  7G16G18G19G21G22G27G31
  20857542.460   109607135.62009  20857539.140    85408157.70048
  22269782.280   117028571.32609  22269778.540    91191125.60747
  23860424.040   125387382.41908  23860419.760    97704437.84646
  22118137.660   116231691.47808  22118133.840    90570119.57647
  22869639.880   120180876.81409  22869635.460    93647467.19147
  21881645.980   114988853.30109  21881645.500    89601715.52548
  23845969.080   125311407.18608  23845967.860    97645248.13946
 15 02 23 00 52  0.0000000  0  7G16G18G19G21G22G27G31
  20848702.580   109560681.71609  20848699.240    85371959.85048
  22263254.240   116994266.06309  22263250.460    91164394.24247
  23846499.340   125314207.83908  23846495.120    97647418.71846
  22129812.240   116293042.38608  22129808.580    90617925.47648
  22853662.760   120096915.99509  22853658.280    93582043.21847
  21872184.780   114939134.25409  21872184.240    89562973.42348
  23864730.400   125409998.49908  23864729.260    97722072.37146
 15 02 23 00 52 30.0000000  0  7G16G18G19G21G22G27G31
  20839934.560   109514605.43609  20839931.160    85336056.26248
  22256804.520   116960372.77409  22256800.720    91137983.90747
  23832593.060   125241129.91008  23832588.860    97590474.91446
  22141527.460   116354607.02108  22141523.980    90665897.91647
  22837718.200   120013126.16809  22837713.620    93516752.48247
  21862747.340   114889540.00709  21862746.720    89524328.57948
  23883495.740   125508610.91608  23883494.680    97798913.03946
 15 02 23 00 53  0.0000000  0  7G16G18G19G21G22G27G31
  20831239.700   109468913.51209  20831236.140    85300452.16948
  22250434.480   116926898.09009  22250430.600    91111899.74447
  23818706.040   125168153.36908  23818701.900    97533610.10246
  22153284.080   116416389.06208  22153280.720    90714039.76548
  22821807.700   119929515.17509  22821803.040    93451601.09447
  21853334.600   114840075.42509  21853333.860    89485784.75948
  23902265.600   125607246.56308  23902264.420    97875771.82346
 15 02 23 00 53 30.0000000  0  7G16G18G19G21G22G27G31
  20822618.000   109423606.36709  20822614.400    85265147.90748
  22244144.060   116893841.80709  22244140.140    91086141.61847
  23804838.000   125095276.67108  23804833.820    97476823.09346
  22165081.420   116478384.69608  22165078.100    90762348.05748
  22805931.320   119846083.87509  22805926.620    93386589.73847
  21843946.220   114790739.10709  21843945.420    89447340.89448
  23921039.120   125705901.38808  23921037.880    97952645.54346
 15 02 23 00 54  0.0000000  0  7G16G18G19G21G22G27G31
  20814069.620   109378684.28009  20814065.960    85230143.68148
  22237933.220   116861203.88509  22237929.380    91060709.48747
  23790988.500   125022497.51208  23790984.300    97420112.08746
  22176918.680   116540589.71509  22176915.300    90810819.49647
