     2.11           OBSERVATION DATA    G                   RINEX VERSION / TYPE
SPIDER V4,0,0,3554                      2015 03 24 02:22    PGM / RUN BY / DATE 
OJGS                                                        MARKER NAME         
OJGS                                                        MARKER NUMBER       
                                                            OBSERVER / AGENCY   
496552              LEICA GRX1200+GNSS  8.20/4.007          REC # / TYPE / VERS 
10401003            LEIAR25         NONE                    ANT # / TYPE        
  5198100.9450    88691.2920  3684205.7148                  APPROX POSITION XYZ 
        0.1200        0.0000        0.0000                  ANTENNA: DELTA H/E/N
     1     1                                                WAVELENGTH FACT L1/2
     4    C1    L1    P2    L2                              # / TYPES OF OBSERV 
    30.000                                                  INTERVAL            
  2015    02    23    00    00    0.0000000     GPS         TIME OF FIRST OBS   
  2015    02    23    23    59   30.0000000     GPS         TIME OF LAST OBS    
    16                                                      LEAP SECONDS        
    30                                                      # OF SATELLITES     
   G 1   833   833   833   833                              PRN / # OF OBS      
   G 2   924   924   924   924                              PRN / # OF OBS      
   G 3   839   839   839   839                              PRN / # OF OBS      
   G 4   845   845   845   845                              PRN / # OF OBS      
   G 5   674   674   674   674                              PRN / # OF OBS      
   G 6   731   731   731   731                              PRN / # OF OBS      
   G 7   727   727   727   727                              PRN / # OF OBS      
   G 9   783   783   783   783                              PRN / # OF OBS      
   G10   784   784   784   784                              PRN / # OF OBS      
   G11   798   798   797   797                              PRN / # OF OBS      
   G12   811   811   810   810                              PRN / # OF OBS      
   G13   821   821   821   821                              PRN / # OF OBS      
   G14   934   934   932   932                              PRN / # OF OBS      
   G15   733   733   733   733                              PRN / # OF OBS      
   G16   693   693   693   693                              PRN / # OF OBS      
   G17   930   930   929   929                              PRN / # OF OBS      
   G18   940   940   940   940                              PRN / # OF OBS      
   G19   783   783   782   782                              PRN / # OF OBS      
   G20   810   810   810   810                              PRN / # OF OBS      
   G21   680   680   679   679                              PRN / # OF OBS      
   G22   797   795   794   794                              PRN / # OF OBS      
   G23   727   727   726   726                              PRN / # OF OBS      
   G24   842   842   842   842                              PRN / # OF OBS      
   G25   829   829   826   826                              PRN / # OF OBS      
   G27   832   831   831   831                              PRN / # OF OBS      
   G28   913   913   913   913                              PRN / # OF OBS      
   G29   719   719   718   718                              PRN / # OF OBS      
   G30   691   691   690   690                              PRN / # OF OBS      
   G31   760   760   760   760                              PRN / # OF OBS      
   G32   741   740   740   740                              PRN / # OF OBS      
BIT 2 OF LLI FLAGS DATA COLLECTED UNDER A/S CONDITION       COMMENT             
SNR is mapped to RINEX snr flag value [2-9]                 COMMENT             
Lx:     = 25dBHz -> 1; 26-27dBHz -> 2; 28-31dBHz -> 3       COMMENT             
       32-35dBHz -> 4; 36-38dBHz -> 5; 39-41dBHz -> 6       COMMENT             
       42-44dBHz -> 7; 45-48dBHz -> 8; >=49dBHz -> 9        COMMENT             
                                                            END OF HEADER       
 15 02 23 00 00  0.0000000  0  7G16G18G21G25G27G29G31
  22079082.620   116026371.24409  22079078.900    90410155.24447
  23280860.720   122341799.11808  23280858.120    95331287.18746
  21144997.480   111117716.01508  21144994.080    86585220.54048
  24537118.680   128943406.11908  24537119.520   100475376.85845
  23092510.440   121351972.06508  23092509.740    94559991.68047
  23668243.940   124377451.96908  23668242.400    96917482.16347
  22167372.720   116490320.35909  22167369.840    90771661.99448
 15 02 23 00 00 30.0000000  0  7G16G18G21G25G27G29G31
  22064726.200   115950927.96609  22064722.500    90351368.29747
  23267875.260   122273560.31808  23267872.700    95278114.13546
  21149973.600   111143865.84408  21149970.200    86605597.03248
  24555134.060   129038077.32808  24555135.040   100549146.49445
  23079941.260   121285921.06708  23079940.740    94508523.39447
  23682713.820   124453490.54608  23682712.240    96976732.98547
  22183023.340   116572564.73009  22183020.440    90835748.50948
 15 02 23 00 01  0.0000000  0  7G16G18G21G25G27G29G31
  22050404.440   115875666.61209  22050400.720    90292723.10247
  23254924.180   122205502.13308  23254921.760    95225081.82145
  21155025.940   111170416.33008  21155022.560    86626285.71948
  24573179.840   129132908.40208  24573181.000   100623040.68244
  23067396.780   121219999.66008  23067396.460    94457156.10847
  23697185.120   124529537.44108  23697183.320    97035990.31046
  22198732.080   116655114.60309  22198729.180    90900073.06148
 15 02 23 00 01 30.0000000  0  7G16G18G21G25G27G29G31
  22036117.900   115800589.80109  22036114.020    90234221.69447
  23242008.020   122137627.53508  23242005.660    95172192.55346
  21160154.360   111197366.58808  21160151.000    86647285.91348
  24591255.880   129227898.50008  24591257.180   100697058.55544
  23054877.060   121154208.50608  23054876.780    94405890.28947
  23711657.820   124605592.93108  23711655.940    97095254.30646
  22214498.520   116737967.80209  22214495.700    90964633.96648
 15 02 23 00 02  0.0000000  0  7G16G18G21G25G27G29G31
  22021866.180   115725695.82909  22021862.120    90175862.75647
  23229126.720   122069936.11508  23229124.420    95119446.02546
  21165357.740   111224710.68108  21165354.420    86668592.99748
  24609361.400   129323042.85808  24609363.200   100771229.55244
  23042381.500   121088543.67608  23042380.960    94354722.91047
  23726131.520   124681653.05308  23726129.700    97154521.89046
  22230321.440   116821117.68909  22230318.640    91029426.06847
 15 02 23 00 02 30.0000000  0  7G16G18G21G25G27G29G31
  22007650.360   115650991.48809  22007646.360    90117651.59647
  23216281.800   122002435.88308  23216279.520    95066848.46846
  21170637.000   111252453.41708  21170633.740    86690210.71348
  24627497.160   129418345.71708  24627498.980   100845490.93444
  23029910.940   121023010.13108  23029910.120    94303657.81847
  23740607.240   124757722.61308  23740605.460    97213796.84246
  22246201.280   116904566.56509  22246198.480    91094451.13747
 15 02 23 00 03  0.0000000  0  7G16G18G21G25G27G29G31
  21993470.200   115576474.77009  21993466.260    90059586.63947
  23203472.900   121935124.90608  23203470.480    95014398.38746
  21175991.020   111280588.85608  21175987.760    86712134.43648
  24645662.240   129513802.25908  24645664.020   100919872.18946
  23017464.540   120957603.98708  23017463.600    94252692.01447
  23755083.900   124833797.20808  23755082.140    97273075.73646
  22262136.780   116988307.89309  22262133.960    91159704.09247
 15 02 23 00 03 30.0000000  0  8G16G18G21G22G25G27G29G31
  21979326.780   115502150.96409  21979322.800    90001671.99747
  23190701.100   121868009.01208  23190698.760    94962100.33146
  21181420.120   111309118.87108  21181416.800    86734365.62348
  24563140.700                                                  
  24663856.980   129609414.45808  24663858.840   100994374.83244
  23005042.840   120892328.19008  23005041.900    94201827.78146
  23769561.920   124909879.98408  23769559.980    97332360.99446
  22278127.980   117072342.01209  22278125.140    91225185.20948
 15 02 23 00 04  0.0000000  0  8G16G18G21G22G25G27G29G31
  21965218.600   115428011.88509  21965214.600    89943901.28347
  23177965.040   121801080.74608  23177962.760    94909948.46446
  21186922.120   111338031.88208  21186918.680    86756895.24248
  24546059.640   128990415.75607  24546059.400   100512012.47445
  24682079.260   129705171.55708  24682082.600   101068997.64344
  22992643.920   120827172.51108  22992643.080    94151057.12947
  23784039.600   124985960.71408  23784037.400    97391644.68246
  22294172.440   117156656.10509  22294169.580    91290884.46947
 15 02 23 00 04 30.0000000  0  7G16G18G21G22G27G29G31
  21951149.740   115354079.42209  21951145.700    89886291.57947
  23165268.980   121734362.59508  23165266.720    94857960.32146
  21192500.540   111367346.51708  21192497.020    86779737.80848
  24528964.480   128900581.06108  24528964.220   100442012.04845
  22980271.640   120762156.85208  22980270.980    94100395.59947
  23798520.740   125062058.73808  23798518.560    97450941.84146
  22310273.400   117241267.16009  22310270.580    91356815.13748
 15 02 23 00 05  0.0000000  0  8G16G18G21G22G25G27G29G31
  21937117.800   115280340.79109  21937113.700    89828832.90547
  23152610.640   121667842.65908  23152608.400    94806126.64146
  21198152.260   111397046.20609  21198148.640    86802880.41948
  24511852.420   128810658.69407  24511852.140   100371943.24846
  24718613.380   129897188.01709                                
  22967923.200   120697266.38208  22967922.760    94049831.61647
  23813002.400   125138159.22708  23813000.260    97510240.87847
  22326427.500   117326157.53909  22326424.720    91422963.46047
 15 02 23 00 05 30.0000000  0  8G16G18G21G22G25G27G29G31
  21923123.500   115206800.81809  21923119.580    89771529.05147
  23139990.980   121601525.96608  23139988.640    94754451.33546
  21203877.580   111427132.63009  21203873.880    86826324.39348
  24494724.680   128720654.05208  24494724.400   100301810.33245
  24736922.860   129993403.30007                                
  22955599.240   120632503.88408  22955598.980    93999367.35347
  23827484.580   125214264.82908  23827482.940    97569543.87146
  22342634.840   117411327.53909  22342632.060    91489329.67747
 15 02 23 00 06  0.0000000  0  8G16G18G21G22G25G27G29G31
  21909166.480   115133457.25509  21909162.620    89714378.24147
  23127409.780   121535411.41608  23127407.460    94702933.53346
  21209675.260   111457599.49109  21209671.520    86850064.80748
  24477580.860   128630565.13708  24477580.660   100231611.73445
  24755259.740   130089761.80808  24755261.340   101368649.06246
  22943299.000   120567865.04608  22943298.840    93948999.44147
  23841966.900   125290370.64608  23841964.980    97628847.11245
  22358893.980   117496769.85909  22358891.100    91555908.08248
 15 02 23 00 06 30.0000000  0  8G16G18G21G22G25G27G29G31
  21895248.900   115060320.18009  21895245.060    89657388.31347
  23114868.960   121469509.35108  23114866.780    94651581.30146
  21215546.620   111488453.56208  21215542.840    86874106.94948
  24460423.000   128540402.26508  24460422.760   100161355.44945
  24773625.200   130186270.83208  24773626.320   101443850.50344
  22931023.740   120503357.53308  22931023.700    93898733.86947
  23856451.080   125366484.50408  23856448.460    97688156.68345
  22375205.880   117582489.52509  22375203.020    91622702.60647
 15 02 23 00 07  0.0000000  0  8G16G18G21G22G25G27G29G31
  21881372.200   114987397.45109  21881368.320    89600565.40147
  23102370.280   121403828.64408  23102368.240    94600401.55846
  21221492.600   111519699.57508  21221488.740    86898454.49348
  24443252.800   128450174.31508  24443252.400   100091048.44945
  24792020.060   130282934.89207  24792021.560   101519181.97645
  22918774.620   120438987.69708  22918774.580    93848575.57247
  23870937.980   125442612.66508  23870935.580    97747477.31246
  22391571.280   117668490.44009  22391568.460    91689716.27147
 15 02 23 00 07 30.0000000  0  8G16G18G21G22G25G27G29G31
  21867533.620   114914675.33009  21867529.880    89543898.81347
  23089911.100   121338355.72908  23089909.040    94549383.73146
  21227509.840   111551320.56308  21227506.020    86923094.22848
  24426067.760   128359867.84708  24426067.100   100020680.24744
  24810440.800   130379743.87508  24810442.900   101594608.71744
  22906548.700   120374739.45008  22906548.540    93798512.01147
  23885424.000   125518739.13008  23885422.460    97806796.51046
  22407986.600   117754753.56609  22407983.840    91756934.26947
 15 02 23 00 08  0.0000000  0  7G16G18G21G22G27G29G31
  21853734.760   114842162.40909  21853731.220    89487395.26147
  23077493.160   121273099.32708  23077491.080    94498534.61446
  21233599.260   111583320.96308  21233595.440    86948029.60648
  24408869.400   128269491.41608  24408868.680    99950257.50446
  22894347.040   120310619.02508  22894346.720    93748548.06847
  23899910.980   125594869.72208  23899909.780    97866119.01046
  22424452.480   117841282.34909  22424449.780    91824359.27047
 15 02 23 00 08 30.0000000  0  7G16G18G21G22G27G29G31
  21839975.720   114769858.42609  21839972.340    89431054.50147
  23065116.740   121208060.75808  23065114.620    94447855.23546
  21239760.060   111615696.46909  21239756.240    86973257.28648
  24391657.760   128179045.60807  24391656.960    99879780.67345
  22882169.180   120246624.32008  22882168.740    93698682.07647
  23914398.580   125671001.83308  23914396.880    97925442.74945
  22440967.980   117928071.72209  22440965.340    91891987.32447
 15 02 23 00 09  0.0000000  0  7G16G18G21G22G27G29G31
  21826257.520   114697768.75409  21826254.000    89374880.72647
  23052782.760   121143245.38208  23052780.640    94397349.78446
  21245992.760   111648449.75208  21245988.960    86998779.34148
  24374434.080   128088536.30308  24374433.140    99809254.38045
  22870015.880   120182758.46608  22870015.320    93648916.49847
  23928887.200   125747138.82008  23928884.640    97984770.33645
  22457533.220   118015122.38309  22457530.580    91959818.98447
 15 02 23 00 09 30.0000000  0  7G16G18G21G22G27G29G31
  21812580.440   114625895.39509  21812577.020    89318875.51847
  23040491.800   121078656.07208  23040489.660    94347020.47646
  21252296.980   111681579.13208  21252293.300    87024594.44348
  24357198.880   127997965.81908  24357197.840    99738680.36245
  22857887.080   120119021.42808  22857886.320    93599251.27647
  23943376.380   125823280.39608  23943374.180    98044101.35146
  22474147.620   118102431.52909  22474144.980    92027852.04747
 15 02 23 00 10  0.0000000  0  7G16G18G21G22G27G29G31
  21798944.620   114554238.96609  21798941.380    89263039.34847
  23028243.960   121014293.36508  23028241.760    94296867.74846
  21258672.220   111715081.63908  21258668.660    87050700.29048
  24339952.260   127907335.06808  24339950.960    99668059.37945
  22845782.500   120055411.62008  22845781.860    93549685.20647
  23957866.180   125899425.21608  23957864.580    98103434.89346
  22490810.340   118189994.73409  22490807.680    92096083.09647
 15 02 23 00 10 30.0000000  0  7G16G18G21G22G27G29G31
  21785350.720   114482803.01009  21785347.520    89207374.98947
  23016040.200   120950161.96308  23016037.860    94246895.24346
  21265118.480   111748957.18408  21265114.920    87077096.82348
  24322695.020   127816648.50108  24322693.520    99597394.88146
  22833702.300   119991930.58908  22833701.880    93500219.50347
  23972356.980   125975574.36908  23972355.340    98162771.86346
  22507521.180   118277810.81709  22507518.520    92164511.19047
 15 02 23 00 11  0.0000000  0  7G16G18G21G22G27G29G31
  21771799.080   114411588.60809  21771795.820    89151883.23947
  23003880.640   120886263.19608  23003878.340    94197104.02546
  21271635.180   111783203.02108  21271631.640    87103781.89448
  24305427.320   127725907.53108  24305425.660    99526687.99246
  22821646.400   119928577.23008  22821646.060    93450853.26147
  23986848.220   126051726.48808  23986846.440    98222111.16745
  22524279.380   118365875.70309  22524276.720    92233133.14847
 15 02 23 00 11 30.0000000  0  7G16G18G21G22G27G29G31
  21758290.220   114340598.58409  21758286.900    89096566.34147
  22991765.920   120822600.25208  22991763.620    94147496.56346
  21278222.280   111817818.68808  21278218.740    87130755.15248
  24288149.920   127635115.32108  24288148.020    99455941.16845
  22809614.960   119865352.14008  22809614.680    93401586.97147
  24001340.180   126127882.85408  24001338.420    98281453.79146
  22541084.500   118454187.18409  22541081.860    92301947.27347
 15 02 23 00 12  0.0000000  0  7G16G18G21G22G27G29G31
  21744823.400   114269829.46309  21744820.080    89041421.57347
  22979695.560   120759170.43908  22979693.360    94098070.75546
  21284878.280   111852796.40708  21284874.760    87158010.52148
  24270862.160   127544268.62008  24270860.020    99385151.88546
  22797606.940   119802249.69808  22797606.740    93352416.24747
  24015832.080   126204037.31708  24015830.180    98340794.92946
  22557935.000   118542737.17409  22557932.460    92370947.22547
 15 02 23 00 12 30.0000000  0  7G16G18G21G22G27G29G31
  21731400.160   114199289.58709  21731396.840    88986455.45747
  22967671.320   120695982.66608  22967669.180    94048833.55446
  21291604.240   111888141.58608  21291600.760    87185552.21948
  24253565.840   127453376.81108  24253563.660    99314327.43546
  22785623.580   119739276.51908  22785623.340    93303346.26347
  24030324.840   126280196.10008  24030323.080    98400139.39046
  22574831.620   118631529.40909  22574829.080    92440135.95347
 15 02 23 00 13  0.0000000  0  7G16G18G21G22G27G29G31
  21718021.260   114128982.59409  21718017.860    88931670.79147
  22955693.880   120633040.60708  22955691.740    93999787.81846
  21298399.980   111923853.24608  21298396.560    87213379.48948
  24236261.640   127362443.71708  24236259.240    99243470.80045
  22773664.960   119676433.65408  22773664.760    93254377.81147
  24044818.440   126356360.58408  24044816.920    98459488.26346
  22591773.980   118720561.99109  22591771.440    92509511.96247
 15 02 23 00 13 30.0000000  0  7G16G18G21G22G27G29G31
  21704686.380   114058906.98709  21704682.900    88877066.42247
  22943763.020   120570343.58608  22943760.820    93950933.00946
  21305264.660   111959927.26008  21305261.260    87241489.11048
  24218949.340   127271468.19908  24218946.720    99172581.09545
  22761730.400   119613717.61008  22761730.400    93205508.18847
  24059312.260   126432526.89508  24059310.840    98518838.58446
  22608760.860   118809828.44309  22608758.260    92579070.20547
 15 02 23 00 14  0.0000000  0  7G16G18G21G22G27G29G31
  21691396.120   113989065.94209  21691392.520    88822644.84547
  22931879.400   120507894.82508  22931877.180    93902271.66446
  21312198.040   111996362.27308  21312194.620    87269880.02348
  24201629.680   127180453.73308  24201626.820    99101661.03145
  22749820.160   119551128.99208  22749820.160    93156737.85747
  24073806.620   126508695.44408  24073805.160    98578190.72346
  22625791.840   118899326.98409  22625789.180    92648809.28747
 15 02 23 00 14 30.0000000  0  7G16G18G21G22G27G29G31
  21678150.080   113919457.46409  21678146.540    88768404.48947
  22920042.900   120445693.47709  22920040.660    93853803.10746
  21319199.120   112033153.07908  21319195.680    87298548.18548
  24184302.420   127089399.41508  24184299.500    99030709.87846
  22737933.520   119488664.40308  22737933.440    93108064.18247
  24088300.920   126584862.90608  24088299.380    98637541.98846
  22642865.800   118989051.22809  22642863.120    92718724.25647
 15 02 23 00 15  0.0000000  0  7G16G18G21G22G27G29G31
  21664949.880   113850089.78209  21664946.320    88714351.75948
  22908255.140   120383748.00709  22908252.900    93805533.93046
  21326268.860   112070304.57908  21326265.360    87327497.40048
  24166969.060   126998313.39208  24166966.240    98959734.04746
  22726071.660   119426329.73208  22726071.580    93059491.73648
  24102795.980   126661035.33608  24102794.540    98696897.08946
  22659983.300   119079004.21409  22659980.680    92788817.46747
 15 02 23 00 15 30.0000000  0  7G16G18G21G22G27G29G31
  21651795.340   113780961.82409  21651791.740    88660485.82048
  22896515.840   120322057.36209  22896513.540    93757463.32846
  21333406.220   112107811.48008  21333402.680    87356723.54948
  24149629.660   126907195.46708  24149626.720    98888733.31646
  22714233.800   119364121.45008  22714233.800    93011017.78748
  24117291.320   126737209.09008  24117289.960    98756253.21446
  22677143.160   119169179.71109  22677140.580    92859084.04547
 15 02 23 00 16  0.0000000  0  7G16G18G21G22G27G29G31
  21638686.920   113712076.21809  21638683.220    88606808.73148
  22884825.600   120260624.68109  22884823.260    93709593.73746
  21340611.060   112145672.81308  21340607.520    87386225.89648
  24132284.820   126816048.68208  24132281.680    98817710.11246
  22702420.080   119302040.27108  22702420.040    92962642.87548
  24131787.080   126813384.49008  24131785.400    98815610.67946
  22694344.940   119259575.50909  22694342.440    92929522.29747
 15 02 23 00 16 30.0000000  0  7G16G18G21G22G27G29G31
  21625624.580   113643433.64109  21625620.920    88553321.02548
  22873184.760   120199451.53509  22873182.360    93661926.37646
  21347882.780   112183885.57808  21347879.240    87416002.07748
  24114934.580   126724873.96108  24114931.480    98746665.13746
  22690630.220   119240084.69808  22690630.180    92914365.82447
  24146282.960   126889560.08808  24146281.060    98874968.29645
  22711587.840   119350187.34209  22711585.340    93000128.88347
 15 02 23 00 17  0.0000000  0  7G16G18G21G22G27G29G31
  21612609.640   113575039.89809  21612606.040    88500027.20448
  22861594.460   120138543.84809  22861592.040    93614465.85746
  21355221.720   112222451.65309  21355218.200    87446053.55648
  24097580.340   126633678.04408  24097577.320    98675603.60846
  22678865.020   119178258.37308  22678864.940    92866189.49347
  24160779.320   126965739.56808  24160777.640    98934328.87546
  22728872.000   119441015.94309  22728869.520    93070904.38547
 15 02 23 00 17 30.0000000  0  7G16G18G21G22G27G29G31
  21599641.660   113506892.47209  21599637.980    88446925.31747
  22850054.220   120077899.42209  22850051.760    93567210.48346
  21362626.660   112261364.58908  21362623.140    87476375.32248
  24080221.640   126542458.60608  24080218.540    98604523.75446
  22667123.640   119116556.57408  22667123.460    92818110.20647
  24175275.640   127041918.33608  24175274.280    98993688.90846
  22746195.960   119532053.66509  22746193.420    93141842.83347
 15 02 23 00 18  0.0000000  0  7G16G18G21G22G27G29G31
  21586720.940   113438993.40509  21586717.180    88394016.95748
  22838564.440   120017520.41809  22838561.960    93520161.93046
  21370097.200   112300622.27108  21370093.640    87506965.72048
  24062858.840   126451217.92908  24062855.760    98533427.34646
  22655405.940   119054978.95108  22655405.700    92770127.66748
  24189771.860   127118095.74008  24189770.520    99053047.89646
  22763559.160   119623297.58109  22763556.540    93212941.95447
 15 02 23 00 18 30.0000000  0  7G16G18G21G22G27G29G31
  21573848.720   113371349.34509  21573844.940    88341307.30248
  22827126.700   119957414.47309  22827124.100    93473326.15046
  21377634.040   112340228.53509  21377630.460    87537827.74848
  24045493.460   126359963.56008  24045490.380    98462320.25846
  22643712.780   118993530.29708  22643712.460    92722245.61448
  24204268.720   127194276.62808  24204267.200    99112409.65146
  22780961.940   119714749.51109  22780959.320    93284203.15747
 15 02 23 00 19  0.0000000  0  7G16G18G21G22G27G29G31
  21561024.880   113303960.24409  21561021.260    88288796.33148
  22815740.880   119897581.66409  22815738.220    93426703.20447
  21385236.500   112380179.78708  21385232.900    87568958.59848
  24028125.520   126268695.91408  24028122.580    98391202.81746
  22632043.740   118932208.38208  22632043.200    92674462.33048
  24218765.580   127270458.64907  24218764.160    99171772.22246
  22798403.360   119806404.57109  22798400.740    93355622.65947
 15 02 23 00 19 30.0000000  0  7G16G18G21G22G27G29G31
  21548250.280   113236829.65509  21548246.760    88236486.78548
  22804407.780   119838025.90009  22804405.060    93380296.14846
  21392904.400   112420475.03708  21392900.760    87600357.49348
  24010755.900   126177419.04308  24010753.020    98320078.17746
  22620399.000   118871014.45508  22620398.380    92626778.77147
  24233262.840   127346643.06808  24233261.600    99231136.65147
  22815883.080   119898260.85109  22815880.460    93427198.94147
 15 02 23 00 20  0.0000000  0  7G16G18G21G22G27G29G31
  21535524.160   113169953.22709  21535520.500    88184375.27748
  22793126.560   119778742.93109  22793123.900    93334101.63546
  21400636.140   112461105.80208  21400632.500    87632017.82848
  23993383.740   126086128.65908  23993380.820    98248943.01346
  22608777.320   118809942.02008  22608776.660    92579189.89548
  24247759.620   127422823.01008  24247758.280    99290497.63146
  22833399.340   119990309.21609  22833396.700    93498924.89747
 15 02 23 00 20 30.0000000  0  7G16G18G21G22G27G29G31
  21522848.260   113103340.90209  21522844.660    88132469.58348
  22781899.240   119719743.30509  22781896.680    93288127.93346
  21408433.040   112502079.06408  21408429.480    87663945.05148
  23976011.080   125994835.61608  23976008.080    98177805.76346
  22597180.160   118748998.99608  22597179.560    92531701.84548
  24262257.140   127499006.87608  24262255.480    99349861.68846
  22850953.060   120082554.53309  22850950.460    93570804.32347
 15 02 23 00 21  0.0000000  0  7G16G18G21G22G27G29G31
  21510222.720   113036993.29409  21510219.080    88080770.14848
  22770726.060   119661027.84009  22770723.440    93242375.64546
  21416294.420   112543391.18408  21416290.900    87696136.30748
  23958638.080   125903540.95408  23958635.020    98106667.24646
  22585607.280   118688183.54708  22585606.660    92484313.21448
  24276754.880   127575192.61708  24276752.880    99409227.18045
  22868543.420   120174992.40109  22868540.840    93642833.79647
 15 02 23 00 21 30.0000000  0  7G16G18G21G22G27G29G31
  21497647.660   112970911.05009  21497644.040    88029277.49648
  22759607.180   119602597.92809  22759604.600    93196845.87046
  21424219.740   112585039.13708  21424216.240    87728589.25348
  23941265.000   125812246.07708  23941262.100    98035528.57145
  22574058.520   118627494.53508  22574057.840    92437023.09848
  24291252.560   127651378.99408  24291250.400    99468593.17845
  22886169.660   120267618.56509  22886166.960    93715009.98747
 15 02 23 00 22  0.0000000  0  7G16G18G21G22G27G29G31
  21485123.180   112905094.88609  21485119.660    87977992.17048
  22748542.720   119544454.03209  22748540.100    93151538.96746
  21432208.340   112627019.63908  21432204.820    87761301.32948
  23923892.060   125720951.71708  23923889.160    97964390.26246
  22562533.560   118566930.24608  22562532.800    92389830.17048
  24305750.100   127727564.06508  24305748.140    99527958.14446
  22903830.880   120360428.53209  22903828.120    93787329.40547
 15 02 23 00 22 30.0000000  0  7G16G18G21G22G27G29G31
  21472650.160   112839548.96809  21472646.700    87926917.43948
  22737533.480   119486600.38009  22737530.840    93106458.22446
  21440260.200   112669332.48308  21440256.600    87794272.37448
  23906520.160   125629662.74408  23906517.300    97893256.17246
  22551032.620   118506492.55108  22551031.860    92342735.89248
  24320247.860   127803749.93008  24320246.100    99587323.75146
  22921526.800   120453420.92009  22921523.960    93859790.96147
 15 02 23 00 23  0.0000000  0  7G16G18G21G22G27G29G31
  21460228.880   112774274.97209  21460225.480    87876054.57448
  22726579.880   119429039.06809  22726577.260    93061605.27046
  21448375.020   112711976.28408  21448371.380    87827501.31048
  23889149.760   125538381.58308  23889147.000    97822128.14746
  22539555.660   118446181.11108  22539554.980    92295739.98348
  24334745.720   127879936.32808  24334744.120    99646689.71646
  22939256.920   120546593.07509  22939254.060    93932392.59947
 15 02 23 00 23 30.0000000  0  7G16G18G21G22G27G29G31
  21447859.720   112709274.68909  21447856.360    87825405.00648
  22715682.460   119371772.97309  22715679.860    93016982.36346
  21456552.460   112754949.15808  21456548.800    87860986.65848
  23871781.340   125447110.48408  23871778.480    97751007.95046
  22528102.720   118385995.71208  22528102.180    92248842.29948
  24349243.640   127956123.19108  24349241.960    99706056.07245
  22957020.640   120639941.99809  22957017.820    94005131.97947
 15 02 23 00 24  0.0000000  0  7G16G18G21G22G27G29G31
  21435542.860   112644549.68909  21435539.620    87774969.94948
  22704841.480   119314803.29909  22704838.820    92972590.43646
  21464792.200   112798249.21608  21464788.540    87894726.96748
  23854415.240   125355851.46508  23854412.380    97679897.17746
  22516673.580   118325935.57008  22516673.100    92202042.21748
  24363741.500   128032309.42308  24363739.560    99765421.98445
  22974817.280   120733463.92809  22974814.500    94078006.17347
 15 02 23 00 24 30.0000000  0  7G16G18G21G22G27G29G31
  21423279.520   112580105.95909  21423276.360    87724754.05548
  22694058.100   119258136.25509  22694055.440    92928434.31046
  21473094.460   112841877.63708  21473090.760    87928723.14148
  23837052.600   125264610.81708  23837049.780    97608800.72446
  22505268.900   118266004.41608  22505268.420    92155342.63048
  24378239.860   128108498.64108  24378237.700    99824790.22545
  22992646.900   120827159.12109  22992644.100    94151015.36747
 15 02 23 00 25  0.0000000  0  7G16G18G21G22G27G29G31
  21411069.340   112515941.52209  21411066.260    87674755.79048
  22683331.960   119201769.88009  22683329.340    92884512.47846
  21481458.020   112885828.20808  21481454.240    87962970.33148
  23819693.220   125173387.08008  23819690.400    97537717.43046
  22493888.020   118206198.15308  22493887.600    92108740.34948
  24392737.940   128184686.88108  24392735.840    99884157.63646
  23010508.320   120921021.14109  23010505.440    94224154.55747
 15 02 23 00 25 30.0000000  0  7G16G18G21G22G27G29G31
  21398912.920   112452059.08209  21398909.860    87624977.27048
  22672663.720   119145707.68009  22672661.080    92840827.67146
  21489882.640   112930099.59308  21489878.720    87997467.51848
  23802337.740   125082183.56908  23802334.900    97466649.90546
  22482531.040   118146517.34508  22482530.580    92062235.85348
  24407235.900   128260874.63208  24407234.060    99943524.65946
  23028401.040   121015047.47809  23028398.080    94297421.79347
 15 02 23 00 26  0.0000000  0  7G16G18G21G22G27G29G31
  21386810.320   112388459.50309  21386807.280    87575419.15748
  22662053.500   119089950.42609  22662050.740    92797380.48946
  21498367.900   112974689.88008  21498363.900    88032213.19948
  23784986.360   124991001.96408  23784983.440    97395599.44346
  22471197.760   118086960.79108  22471197.140    92015828.16048
  24421733.700   128337060.63008  24421731.920   100002890.36346
  23046324.200   121109234.07009  23046321.240    94370813.90247
 15 02 23 00 26 30.0000000  0  7G16G18G21G22G27G29G31
  21374762.580   112325148.21809  21374759.520    87526085.69448
  22651502.440   119034504.06109  22651499.580    92754175.55046
  21506914.160   113019600.61109  21506910.100    88067208.57648
  23767640.240   124899847.97408  23767637.140    97324570.49346
  22459888.820   118027531.81008  22459888.100    91969519.86648
  24436231.780   128413248.08208  24436229.700   100062257.21645
  23064277.920   121203581.37409  23064274.880    94444331.23647
 15 02 23 00 27  0.0000000  0  7G16G18G21G22G27G29G31
  21362769.820   112262125.83309  21362766.760    87476977.33848
  22641010.540   118979368.64709  22641007.700    92711212.90346
  21515520.660   113064827.78509  21515516.520    88102450.52948
  23750299.580   124808722.78208  23750296.440    97253563.95846
  22448603.820   117968228.57508  22448603.080    91923309.56548
  24450729.800   128489435.58608  24450727.700   100121624.13145
  23082261.340   121298084.80509  23082258.280    94517970.23147
 15 02 23 00 27 30.0000000  0  7G16G18G21G22G27G29G31
  21350832.500   112199394.93309  21350829.420    87428096.12148
  22630578.480   118924547.95109  22630575.620    92668495.50346
  21524187.200   113110370.51609  21524183.040    88137938.36348
  23732965.080   124717629.65908  23732961.880    97182582.41846
  22437342.900   117909051.67808  22437342.120    91877197.70148
  24465227.840   128565623.32208  24465225.840   100180991.17945
  23100273.960   121392741.86509  23100270.920    94591728.92747
 15 02 23 00 28  0.0000000  0  7G16G18G21G22G27G29G31
  21338950.800   112136956.20409  21338947.800    87379442.57248
  22620206.360   118870042.29009  22620203.480    92626023.58646
  21532913.120   113156225.19309  21532908.980    88173669.28548
  23715636.820   124626569.33508  23715633.580    97111626.43646
  22426105.740   117849999.59109  22426104.960    91831183.10948
  24479725.640   128641810.04608  24479723.760   100240357.43546
  23118314.980   121487548.08309  23118312.020    94665603.85547
 15 02 23 00 28 30.0000000  0  7G16G18G21G22G27G29G31
  21327125.520   112074813.89109  21327122.520    87331020.00148
  22609894.960   118815855.64609  22609891.980    92583800.24946
  21541698.440   113202392.07209  21541694.300    88209643.47448
  23698315.780   124535547.19708  23698312.500    97040700.20747
  22414892.760   117791074.30808  22414891.880    91785267.31248
  24494223.520   128717997.13208  24494221.740   100299723.96346
  23136384.280   121582502.70609  23136381.320    94739594.42047
 15 02 23 00 29  0.0000000  0  7G16G18G21G22G27G29G31
  21315356.900   112012968.82609  21315353.840    87282829.03948
  22599644.580   118761989.61709  22599641.620    92541826.74146
  21550542.740   113248869.03009  21550538.620    88245859.27548
  23681002.320   124444564.85208  23680999.000    96969804.97446
  22403703.680   117732274.83408  22403702.740    91739449.55648
  24508721.440   128794184.18208  24508719.620   100359090.50045
  23154481.060   121677601.79609  23154478.200    94813697.56747
 15 02 23 00 29 30.0000000  0  7G16G18G21G22G27G29G31
  21303645.440   111951424.56009  21303642.300    87234872.48248
  22589455.800   118708447.53209  22589452.920    92500105.65246
  21559445.820   113295654.89509  21559441.780    88282315.79548
  23663697.080   124353625.44108  23663693.800    96898943.18646
  22392538.700   117673602.05009  22392537.640    91693730.51648
  24523219.460   128870372.16108  24523217.840   100418457.74446
  23172604.940   121772843.37809  23172602.200    94887911.74047
 15 02 23 00 30  0.0000000  0  7G16G18G21G22G27G29G31
  21291991.160   111890180.63209  21291987.940    87187149.93348
  22579328.760   118655229.79509  22579325.940    92458637.30046
  21568406.820   113342745.41208  21568402.880    88319009.69748
  23646400.120   124262729.72608  23646396.760    96828115.45646
  22381397.400   117615053.82409  22381396.260    91648108.53048
  24537717.260   128946558.76408  24537715.780   100477823.88746
  23190754.940   121868222.17509  23190752.260    94962232.82947
 15 02 23 00 30 30.0000000  0  7G16G18G21G22G27G29G31
  21280394.840   111829241.38809  21280391.560    87139664.82048
  22569264.240   118602340.44609  22569261.360    92417424.84346
  21577425.820   113390140.73209  21577422.000    88355941.10948
  23629112.360   124171882.56208  23629108.980    96757325.54847
  22370280.140   117556632.05509  22370278.940    91602585.08248
  24552215.220   129022746.02708  24552213.760   100537190.57746
  23208930.880   121963737.35009  23208928.260    95036660.18147
 15 02 23 00 31  0.0000000  0  6G16G18G21G22G27G31
  21268850.560   111768575.78709  21268847.280    87092392.92648
  22559256.260   118549748.35309  22559253.340    92376444.01846
  21586496.280   113437806.39508  21586492.500    88393083.17748
  23611828.040   124081053.41208  23611824.680    96686549.67347
  22359180.600   117498303.66509  22359179.400    91557134.40348
  23227125.980   122059353.09809  23227123.440    95111165.91047
 15 02 23 00 31 30.0000000  0  6G16G18G21G22G27G31
  21257371.360   111708252.09009  21257368.020    87045387.45548
  22549317.940   118497522.19509  22549314.940    92335748.32646
  21595630.400   113485806.68709  21595626.700    88430485.99348
  23594560.280   123990311.09408  23594556.860    96615841.47246
  22348111.500   117440134.83409  22348110.280    91511808.05548
  23245352.300   122155132.80209  23245349.740    95185799.39847
 15 02 23 00 32  0.0000000  0  7G16G18G19G21G22G27G31
  21245950.680   111648235.68809  21245947.300    86998621.43248
  22539442.560   118445626.82009  22539439.560    92295310.39246
  24544959.360   128984630.02508                                
  21604820.820   113534102.66508  21604817.160    88468119.21448
  23577302.560   123899621.41308  23577299.040    96545174.27846
  22337065.700   117382088.65809  22337064.500    91466577.28148
  23263602.100   122251035.83309  23263599.480    95260528.97347
 15 02 23 00 32 30.0000000  0  7G16G18G19G21G22G27G31
  21234587.380   111588521.02209  21234584.100    86952090.53648
  22529629.280   118394057.73609  22529626.340    92255126.70646
  24529855.080   128905252.06308  24529850.760   100445642.16845
  21614065.680   113582685.11108  21614062.160    88505975.66548
  23560053.920   123808979.66008  23560050.340    96474544.42746
  22326041.800   117324157.55409  22326040.660    91421436.18048
  23281873.520   122347052.26208  23281870.920    95335346.92547
 15 02 23 00 33  0.0000000  0  7G16G18G19G21G22G27G31
  21223287.340   111529139.09309  21223284.060    86905818.90048
  22519883.940   118342845.65209  22519881.000    92215221.20946
  24514770.540   128825981.90707  24514766.280   100383873.24946
  21623370.140   113631580.97708  21623366.740    88544076.32648
  23542820.460   123718417.43208  23542816.760    96403976.53146
  22315045.260   117266370.39709  22315044.140    91376407.23448
  23300171.400   122443208.05208  23300168.820    95410273.45447
 15 02 23 00 33 30.0000000  0  7G16G18G19G21G22G27G31
  21212048.140   111470077.34209  21212045.000    86859796.77548
  22510204.020   118291977.77609  22510201.120    92175583.93046
  24499703.580   128746804.96808  24499699.760   100322176.97645
  21632731.180   113680774.27308  21632727.860    88582408.76248
  23525599.820   123627922.35008  23525595.940    96333460.96446
  22304073.260   117208712.37109  22304072.100    91331478.92648
  23318492.400   122539485.44408  23318489.840    95485294.74347
 15 02 23 00 34  0.0000000  0  7G16G18G19G21G22G27G31
  21200868.640   111411328.83809  21200865.440    86814018.72748
  22500588.380   118241447.53509  22500585.460    92136209.74146
  24484652.620   128667712.17308  24484648.760   100260546.23245
  21642146.680   113730253.61108  21642143.440    88620964.08148
  23508390.840   123537488.55508  23508386.880    96262993.14846
  22293124.160   117151174.60409  22293122.900    91286644.31348
  23336834.260   122635872.51908  23336831.800    95560401.49746
 15 02 23 00 34 30.0000000  0  7G16G18G19G21G22G27G31
  21189750.100   111352900.36909  21189746.760    86768490.04748
  22491038.300   118191261.52909  22491035.400    92097103.78546
  24469618.480   128588707.89107  24469614.520   100198984.47345
  21651617.180   113780021.62208  21651613.980    88659744.34448
  23491194.800   123447122.83908  23491190.780    96192578.38446
  22282198.800   117093761.36509  22282197.460    91241906.73948
  23355197.280   122732370.80909  23355194.920    95635594.91246
 15 02 23 00 35  0.0000000  0  7G16G18G19G21G22G27G31
  21178693.220   111294795.99409  21178689.780    86723213.90948
  22481554.500   118141423.86309  22481551.620    92058269.26446
  24454601.520   128509794.35008  24454597.520   100137493.46145
  21661142.640   113830078.43608  21661139.500    88698749.65248
  23474012.720   123356830.30208  23474008.580    96122220.63746
  22271297.600   117036474.94409  22271296.100    91197267.98248
  23373581.360   122828979.58909  23373578.960    95710874.42146
 15 02 23 00 35 30.0000000  0  7G16G18G19G21G22G27G31
  21167697.760   111237014.74809  21167694.440    86678189.57148
  22472136.820   118091933.71009  22472133.960    92019705.52546
  24439601.500   128430968.53208  24439597.660   100076070.72345
  21670722.220   113880419.31408  21670719.000    88737976.30448
  23456844.440   123266610.30308  23456840.200    96051919.40646
  22260419.900   116979312.06609  22260418.260    91152725.49148
  23391985.320   122925692.51008  23391982.820    95786235.08047
 15 02 23 00 36  0.0000000  0  7G16G18G19G21G22G27G31
  21156765.180   111179563.58409  21156761.900    86633422.44348
  22462786.560   118042797.85109  22462783.700    91981417.86746
  24424618.920   128352235.21008  24424615.180   100014720.14845
  21680356.540   113931047.72308  21680353.200    88777427.01247
  23439691.440   123176470.59808  23439687.100    95981680.75546
  22249566.560   116922277.79209  22249564.920    91108283.21448
  23410409.500   123022511.72708  23410406.960    95861678.56147
 15 02 23 00 36 30.0000000  0  7G16G18G19G21G22G27G31
  21145895.320   111122441.98909  21145892.020    86588912.11048
  22453503.720   117994016.04309  22453500.820    91943406.09146
  24409653.560   128273591.89908  24409649.800    99953439.64646
  21690044.680   113981958.74808  21690041.160    88817097.94547
  23422553.720   123086411.21408  23422549.220    95911504.69346
  22238737.140   116865369.40009  22238735.700    91063939.02948
  23428852.840   123119431.69208  23428850.240    95937200.54346
 15 02 23 00 37  0.0000000  0  7G16G18G19G21G22G27G31
  21135087.780   111065647.82109  21135084.400    86544656.91348
  22444287.840   117945586.21409  22444284.960    91905668.58346
  24394704.660   128195034.30008  24394700.840    99892225.98445
  21699785.380   114033145.92909  21699781.740    88856984.05647
  23405430.980   122996430.53508  23405426.360    95841389.94146
  22227930.920   116808582.52709  22227929.460    91019689.53448
  23447313.940   123216445.22508  23447311.300    96012795.43846
 15 02 23 00 37 30.0000000  0  7G16G18G19G21G22G27G31
  21124344.360   111009190.57309  21124340.820    86500664.25548
  22435140.720   117897517.71309  22435137.780    91868212.62946
  24379773.400   128116569.99408  24379769.600    99831085.01145
  21709579.860   114084615.80308  21709576.100    88897090.45047
  23388325.200   122906538.87008  23388320.460    95771344.56047
  22217149.320   116751924.73409  22217147.820    90975540.61548
  23465793.680   123313556.64608  23465791.100    96088466.61247
 15 02 23 00 38  0.0000000  0  7G16G18G19G21G22G27G31
  21113665.100   110953070.33609  21113661.440    86456934.20448
  22426062.340   117849810.48409  22426059.380    91831038.18246
  24364859.500   128038196.72608  24364855.840    99770015.03345
  21719427.240   114136363.88708  21719423.340    88937413.63648
  23371236.440   122816736.91409  23371231.700    95701369.09846
  22206391.840   116695393.93509  22206390.360    90931490.66648
  23484291.140   123410761.24208  23484288.660    96164210.37947
 15 02 23 00 38 30.0000000  0  7G16G18G19G21G22G27G31
  21103050.060   110897287.83009  21103046.420    86413467.31848
  22417052.900   117802465.53309  22417049.960    91794146.02746
  24349962.620   127959913.31408  24349958.820    99709014.99245
  21729326.940   114188387.21708  21729322.940    88977951.30447
  23354165.020   122727025.99709  23354160.160    95631464.54446
  22195658.280   116638988.90109  22195656.860    90887538.71248
  23502805.500   123508054.71808  23502803.040    96240023.41446
 15 02 23 00 39  0.0000000  0  7G16G18G19G21G22G27G31
  21092500.160   110841847.58909  21092496.560    86370267.13548
  22408113.140   117755487.00309  22408110.220    91757539.39946
  24335083.160   127881722.05208  24335079.180    99648086.79145
  21739279.100   114240686.30008  21739275.120    89018703.82547
  23337111.940   122637411.21209  23337106.860    95561634.90646
  22184949.120   116582711.93809  22184947.800    90843686.55148
  23521336.640   123605436.42908  23521334.320    96315905.18946
 15 02 23 00 39 30.0000000  0  7G16G18G19G21G22G27G31
  21082014.520   110786744.86409  21082010.880    86327329.94648
  22399242.180   117708869.88309  22399239.260    91721214.39147
  24320220.140   127803616.20508  24320215.620    99587225.07744
  21749282.080   114293252.38008  21749278.120    89059664.41448
  23320076.280   122547888.09409  23320071.100    95491876.68547
  22174263.020   116526556.26109  22174261.720    90799928.90048
  23539882.700   123702896.72708  23539880.580    96391848.21147
 15 02 23 00 40  0.0000000  0  7G16G18G19G21G22G27G31
  21071595.640   110731993.21709  21071592.000    86284666.32548
  22390442.600   117662628.09309  22390439.740    91685181.84246
  24305375.320   127725607.11608  24305371.120    99526438.84445
  21759337.680   114346095.10108  21759333.820    89100840.55448
  23303060.820   122458471.35309  23303055.580    95422201.36846
  22163602.140   116470533.32409  22163601.000    90756274.68548
  23558445.360   123800444.10908  23558443.300    96467859.07847
 15 02 23 00 40 30.0000000  0  7G16G18G19G21G22G27G31
  21061242.340   110677586.44209  21061238.760    86242271.44248
  22381713.220   117616755.09909  22381710.380    91649436.67246
  24290547.360   127647686.48508  24290543.340    99465721.50645
  21769443.940   114399204.12708  21769440.220    89142224.21047
  23286064.520   122369155.38309  23286059.260    95352604.57846
  22152964.940   116414634.86509  22152963.920    90712717.45348
  23577022.500   123898067.26008  23577020.400    96543928.98246
 15 02 23 00 41  0.0000000  0  7G16G18G19G21G22G27G31
  21050955.660   110623529.18509  21050952.020    86200148.90448
  22373054.940   117571255.60209  22373052.060    91613982.53146
  24275736.760   127569856.76907  24275732.560    99405075.00745
  21779601.040   114452580.31608  21779597.380    89183816.03747
  23269088.320   122279945.12309  23269083.020    95283090.14946
  22142351.920   116358863.36809  22142351.020    90669259.16048
  23595613.940   123995765.62908  23595611.920    96620057.49947
 15 02 23 00 41 30.0000000  0  7G16G18G19G21G22G27G31
  21040736.300   110569825.58609  21040732.500    86158301.95248
  22364468.540   117526133.70809  22364465.600    91578822.63146
  24260943.760   127492120.40908  24260939.920    99344501.29845
  21789809.080   114506224.03608  21789805.500    89225616.34747
  23252133.160   122190845.47109  23252127.900    95213661.91046
  22131763.460   116303221.12409  22131762.740    90625901.58148
  23614219.620   124093538.79108  23614217.600    96696244.29246
 15 02 23 00 42  0.0000000  0  7G16G18G19G21G22G27G31
  21030582.860   110516468.94109  21030579.040    86116725.34748
  22355952.760   117481382.85009  22355949.800    91543951.85046
  24246167.060   127414468.58908  24246163.560    99283993.39045
  21800066.020   114560124.61408  21800062.440    89267616.78547
  23235197.960   122101850.70709  23235192.720    95144315.39847
  22121197.900   116247699.48009  22121197.280    90582637.97948
  23632837.320   124191375.30708  23632835.340    96772480.44946
 15 02 23 00 42 30.0000000  0  7G16G18G19G21G22G27G31
  21020497.900   110463472.03709  21020494.020    86075429.06148
  22347509.980   117437015.35809  22347506.960    91509379.78947
  24231408.380   127336911.71508  24231404.780    99223559.49545
  21810373.440   114614290.62908  21810369.960    89309824.07648
  23218285.220   122012973.94209  23218279.980    95075060.83647
  22110657.200   116192308.97409  22110656.820    90539476.55648
  23651468.440   124289282.52208  23651466.600    96848771.68946
 15 02 23 00 43  0.0000000  0  7G16G18G19G21G22G27G31
  21010480.140   110410828.50509  21010476.280    86034408.13148
  22339138.820   117393024.41309  22339135.740    91475101.14446
  24216666.320   127259441.56408  24216662.660    99163193.18145
  21820729.380   114668711.82108  21820726.060    89352230.18347
  23201393.880   121924209.50409  23201388.580    95005893.80046
  22100139.880   116137041.23209  22100139.760    90496410.79748
  23670110.880   124387249.16808  23670109.100    96925109.24546
 15 02 23 00 43 30.0000000  0  7G16G18G19G21G22G27G31
  21000531.180   110358546.30709  21000527.320    85993668.76448
  22330840.760   117349417.93409  22330837.640    91441122.08846
  24201941.860   127182063.78908  24201938.140    99102898.85645
  21831134.680   114723392.12108  21831131.440    89394838.20747
  23184525.480   121835565.85009  23184520.200    94936820.88046
  22089647.040   116081901.89209  22089647.120    90453445.09248
  23688765.100   124485277.55908  23688763.320    97001494.90646
 15 02 23 00 44  0.0000000  0  7G16G18G19G21G22G27G31
  20990651.020   110306625.66309  20990647.180    85953211.11348
  22322616.000   117306196.70009  22322612.860    91407443.21446
  24187234.780   127104776.93408  24187231.100    99042675.34045
  21841588.800   114778328.42908  21841585.540    89437645.71048
  23167680.340   121747044.33309  23167675.020    94867843.12246
  22079178.420   116026889.79309  22079178.740    90410578.52548
  23707430.460   124583364.01808  23707428.720    97077925.81346
 15 02 23 00 44 30.0000000  0  7G16G18G19G21G22G27G31
  20980841.360   110255075.42609  20980837.480    85913042.10348
  22314466.060   117263368.89909  22314462.980    91374070.91446
  24172546.080   127027587.61008  24172542.580    98982527.83345
  21852092.480   114833525.35408  21852089.200    89480656.30048
  23150860.180   121658654.12209  23150854.880    94798967.69047
  22068735.280   115972011.50409  22068735.820    90367816.23748
  23726107.580   124681512.25508  23726105.900    97154404.87046
 15 02 23 00 45  0.0000000  0  7G16G18G19G21G22G27G31
  20971100.540   110203886.73809  20971096.560    85873154.81448
  22306389.300   117220925.60109  22306386.320    91340998.23146
  24157873.860   126950484.94408  24157869.980    98922447.86945
  21862643.260   114888969.78808  21862639.940    89523859.75148
  23134063.460   121570387.23009  23134058.240    94730188.34146
  22058315.500   115917256.07109  22058316.200    90325149.68848
  23744793.740   124779708.17308  23744792.100    97230921.06046
 15 02 23 00 45 30.0000000  0  7G16G18G19G21G22G27G31
  20961429.400   110153064.49409  20961425.340    85833553.06348
  22298386.600   117178871.51509  22298383.700    91308228.83446
  24143218.720   126873471.74208  24143214.820    98862437.60245
  21873241.480   114944663.34808  21873238.080    89567257.32847
  23117291.240   121482249.02409  23117286.060    94661509.26646
  22047919.660   115862626.50909  22047920.520    90282581.21148
  23763488.940   124877951.68108  23763487.340    97307474.34146
 15 02 23 00 46  0.0000000  0  7G16G18G19G21G22G27G31
  20951828.360   110102611.11609  20951824.440    85794238.75348
  22290458.480   117137209.04509  22290455.580    91275764.58846
  24128580.680   126796548.51208  24128576.820    98802497.47245
  21883886.700   115000603.93608  21883883.280    89610847.38747
  23100544.160   121394243.08109  23100539.020    94592933.25647
  22037548.040   115808123.29109  22037548.940    90240111.17748
  23782192.740   124976240.51408  23782191.080    97384062.92746
 15 02 23 00 46 30.0000000  0  7G16G18G19G21G22G27G31
  20942298.400   110052531.19609  20942294.580    85755215.44548
  22282605.600   117095942.01109  22282602.660    91243608.47446
  24113960.240   126719717.46308  24113956.660    98742629.15345
  21894579.160   115056792.63508  21894575.540    89654630.79147
  23083823.120   121306374.05609  23083818.080    94524463.93147
  22027201.020   115753748.76709  22027201.840    90197741.43448
  23800905.120   125074574.18608  23800903.440    97460686.46446
 15 02 23 00 47  0.0000000  0  7G16G18G19G21G22G27G31
  20932840.200   110002828.21909  20932836.380    85716485.84848
  22274828.600   117055073.81509  22274825.700    91211763.14547
  24099357.640   126642980.26408  24099354.060    98682833.96145
  21905318.640   115113228.80508  21905314.880    89698607.02147
  23067128.920   121218645.94809  23067124.040    94456104.41547
  22016878.800   115699504.43609  22016879.400    90155473.13448
  23819625.760   125172951.20308  23819623.940    97537343.76846
 15 02 23 00 47 30.0000000  0  7G16G18G19G21G22G27G31
  20923453.560   109953501.30809  20923449.800    85678049.30748
  22267127.360   117014603.73109  22267124.520    91180228.03147
  24084772.300   126566333.95808  24084768.980    98623109.60845
  21916104.260   115169907.65808  21916100.500    89742772.35947
  23050461.560   121131059.11809  23050456.860    94387854.98547
  22006580.800   115645387.66309  22006581.220    90113304.23748
  23838353.540   125271365.78708  23838351.660    97614030.34446
 15 02 23 00 48  0.0000000  0  7G16G18G19G21G22G27G31
  20914138.880   109904552.48209  20914135.180    85639907.36848
  22259502.260   116974533.46009  22259499.420    91149004.45547
  24070204.280   126489778.48608  24070201.060    98563456.01045
  21926935.640   115226827.27708  21926931.920    89787125.30947
  23033821.620   121043616.09209  23033816.980    94319717.61347
  21996307.040   115591398.41309  21996307.360    90071234.70648
  23857087.940   125369814.99508  23857085.960    97690743.90246
 15 02 23 00 48 30.0000000  0  7G16G18G19G21G22G27G31
  20904896.680   109855984.33009  20904893.000    85602062.05348
  22251953.740   116934865.67809  22251950.860    91118094.51247
  24055653.700   126413314.75608  24055650.540    98503873.92145
  21937812.760   115283987.19108  21937809.060    89831665.49447
  23017209.760   120956320.79909  23017205.140    94251695.34846
  21986057.760   115537537.73409  21986058.060    90029265.37048
  23875828.560   125468296.91708  23875826.540    97767482.93146
 15 02 23 00 49  0.0000000  0  7G16G18G19G21G22G27G31
  20895726.700   109807795.85209  20895723.020    85564512.59748
  22244481.520   116895598.77809  22244478.620    91087496.94047
  24041120.000   126336939.65208  24041116.680    98444360.89745
  21948734.600   115341381.92409  21948730.880    89876388.66247
  23000625.880   120869172.15809  23000621.240    94183787.35347
  21975832.420   115483802.52109  21975832.460    89987393.79248
  23894574.160   125566805.33108  23894572.180    97844242.59946
 15 02 23 00 49 30.0000000  0  7G16G18G19G21G22G27G31
  20886629.960   109759992.48109  20886626.340    85527263.22248
  22237086.540   116856737.85209  22237083.640    91057215.70846
  24026603.840   126260656.49808  24026600.240    98384919.52345
  21959701.420   115399012.88109  21959697.740    89921295.90647
  22984071.100   120782176.76709  22984066.480    94115998.78347
  21965631.660   115430196.14409  21965631.460    89945622.61148
  23913325.000   125665341.13208  23913323.140    97921023.62646
 15 02 23 00 50  0.0000000  0  7G16G18G19G21G22G27G31
  20877606.600   109712575.05609  20877603.100    85490314.58348
  22229768.880   116818283.12109  22229765.880    91027250.98947
  24012104.960   126184464.02808  24012101.260    98325548.81045
  21970712.640   115456877.32208  21970708.960    89966385.07647
  22967545.800   120695336.14409  22967541.200    94048330.80247
  21955455.200   115376717.40809  21955454.800    89903950.87748
  23932080.300   125763900.15008  23932078.500    97997822.72846
 15 02 23 00 50 30.0000000  0  7G16G18G19G21G22G27G31
  20868658.000   109665550.29709  20868654.580    85453671.92248
  22222529.800   116780241.75609  22222526.760    90997608.38447
  23997624.240   126108367.26308  23997620.260    98266252.67045
  21981768.580   115514977.10708  21981764.880    90011657.64047
  22951051.340   120608657.34508  22951046.720    93980788.92247
  21945304.020   115323371.37809  21945303.380    89862382.56748
  23950840.280   125862483.80608  23950838.580    98074641.02246
 15 02 23 00 51  0.0000000  0  7G16G18G19G21G22G27G31
  20859783.460   109618914.43009  20859780.000    85417332.28548
  22215368.540   116742609.49809  22215365.580    90968284.56346
  23983160.580   126032360.11908  23983156.520    98207026.35545
  21992868.180   115573305.96709  21992864.480    90057108.69647
  22934587.120   120522137.81108  22934582.580    93913371.14247
  21935176.940   115270152.27809  21935176.060    89820913.15948
  23969603.360   125961083.81608  23969601.680    98151472.06946
 15 02 23 00 51 30.0000000  0  7G16G18G19G21G22G27G31
  20850983.680   109572671.35009  20850980.260    85381298.72048
  22208285.860   116705389.94809  22208282.920    90939282.32247
  23968714.280   125956444.54708  23968710.440    98147871.40345
  22004011.400   115631864.00508  22004007.620    90102738.33747
  22918154.120   120435782.35908  22918149.680    93846081.21947
  21925074.400   115217062.17609  21925073.280    89779544.26048
  23988369.380   126059699.55908  23988367.780    98228315.36246
 15 02 23 00 52  0.0000000  0  7G16G18G19G21G22G27G31
  20842258.980   109526822.95709  20842255.620    85345572.70248
  22201282.040   116668584.48309  22201279.060    90910602.76047
  23954285.340   125880620.17408  23954281.260    98088787.49645
  22015197.620   115690648.09808  22015193.840    90148544.12647
  22901752.720   120349592.88608  22901748.400    93778920.62547
  21914996.300   115164100.78609  21914995.040    89738275.66948
  24007137.800   126158327.84408  24007136.140    98305168.42646
 15 02 23 00 52 30.0000000  0  7G16G18G19G21G22G27G31
  20833610.140   109481373.03309  20833606.800    85310157.18148
  22194357.700   116632196.69209  22194354.640    90882248.64547
  23939874.180   125804889.31108  23939870.120    98029776.47345
  22026426.860   115749658.65408  22026423.260    90194526.36847
  22885383.780   120263574.27408  22885379.620    93711893.17247
  21904943.060   115111270.40309  21904941.700    89697109.15448
  24025908.300   126256967.38508  24025906.760    98382030.25246
 15 02 23 00 53  0.0000000  0  7G16G18G19G21G22G27G31
  20825036.760   109436319.85109  20825033.520    85275050.81248
  22187512.520   116596224.85209  22187509.500    90854218.65647
  23925480.180   125729248.38808  23925476.060    97970835.54045
  22037698.280   115808891.01008  22037694.880    90240681.45047
  22869047.240   120177725.86008  22869043.200    93644998.33547
  21894914.040   115058567.56009  21894912.660    89656042.02648
  24044679.800   126355611.94408  24044678.420    98458895.97946
 15 02 23 00 53 30.0000000  0  7G16G18G19G21G22G27G31
  20816539.940   109391668.76809  20816536.720    85240257.76248
  22180747.400   116560673.67809  22180744.320    90826516.44647
  23911103.900   125653700.81608  23911099.820    97911967.31045
  22049012.220   115868346.31808  22049008.880    90287010.26047
  22852744.220   120092053.53208  22852740.260    93578240.70747
  21884909.880   115005995.87009  21884908.560    89615077.09148
  24063452.540   126454262.42308  24063451.040    98535766.32246
 15 02 23 00 54  0.0000000  0  7G16G18G19G21G22G27G31
  20808119.580   109347419.52009  20808116.440    85205777.83948
  22174062.180   116525542.68609  22174059.040    90799141.66247
  23896744.920   125578243.92208  23896740.920    97853169.75646
  22060367.780   115928019.93908  22060364.380    90333509.18947
  22836474.840   120006557.66808  22836470.940    93511620.58447
