     2.11           OBSERVATION DATA    G                   RINEX VERSION / TYPE
SPIDER V4,0,0,3554                      2015 03 16 00:29    PGM / RUN BY / DATE 
ADCK                                                        MARKER NAME         
ADCK                                                        MARKER NUMBER       
                                                            OBSERVER / AGENCY   
496498              LEICA GRX1200+GNSS  8.20/4.007          REC # / TYPE / VERS 
                    LEIAR25         NONE                    ANT # / TYPE        
  5227539.7664   314968.1794  3630496.8998                  APPROX POSITION XYZ 
        0.0480        0.0000        0.0000                  ANTENNA: DELTA H/E/N
     1     1                                                WAVELENGTH FACT L1/2
     4    C1    L1    P2    L2                              # / TYPES OF OBSERV 
    30.000                                                  INTERVAL            
  2015    02    14    00    00    0.0000000     GPS         TIME OF FIRST OBS   
  2015    02    14    23    59   30.0000000     GPS         TIME OF LAST OBS    
    16                                                      LEAP SECONDS        
    30                                                      # OF SATELLITES     
   G 1   829   829   829   829                              PRN / # OF OBS      
   G 2   933   932   932   932                              PRN / # OF OBS      
   G 3   849   849   848   848                              PRN / # OF OBS      
   G 4   847   847   847   847                              PRN / # OF OBS      
   G 5   665   665   665   665                              PRN / # OF OBS      
   G 6   777   775   775   775                              PRN / # OF OBS      
   G 7   657   657   656   656                              PRN / # OF OBS      
   G 9   798   797   797   797                              PRN / # OF OBS      
   G10   776   776   776   776                              PRN / # OF OBS      
   G11   793   793   793   793                              PRN / # OF OBS      
   G12   824   824   824   824                              PRN / # OF OBS      
   G13   816   816   816   816                              PRN / # OF OBS      
   G14   938   938   937   937                              PRN / # OF OBS      
   G15   723   723   723   723                              PRN / # OF OBS      
   G16   685   685   685   685                              PRN / # OF OBS      
   G17   937   937   935   935                              PRN / # OF OBS      
   G18   929   929   928   928                              PRN / # OF OBS      
   G19   774   774   774   774                              PRN / # OF OBS      
   G20   820   819   819   819                              PRN / # OF OBS      
   G21   726   726   726   726                              PRN / # OF OBS      
   G22   728   728   728   728                              PRN / # OF OBS      
   G23   740   740   740   740                              PRN / # OF OBS      
   G24   839   839   839   839                              PRN / # OF OBS      
   G25   867   867   867   867                              PRN / # OF OBS      
   G27   826   825   825   825                              PRN / # OF OBS      
   G28   898   898   898   898                              PRN / # OF OBS      
   G29   767   767   767   767                              PRN / # OF OBS      
   G30   703   703   703   703                              PRN / # OF OBS      
   G31   823   822   821   821                              PRN / # OF OBS      
   G32   756   756   756   756                              PRN / # OF OBS      
BIT 2 OF LLI FLAGS DATA COLLECTED UNDER A/S CONDITION       COMMENT             
SNR is mapped to RINEX snr flag value [2-9]                 COMMENT             
Lx:     = 25dBHz -> 1; 26-27dBHz -> 2; 28-31dBHz -> 3       COMMENT             
       32-35dBHz -> 4; 36-38dBHz -> 5; 39-41dBHz -> 6       COMMENT             
       42-44dBHz -> 7; 45-48dBHz -> 8; >=49dBHz -> 9        COMMENT             
                                                            END OF HEADER       
 15 02 14 00 00  0.0000000  0  7G16G18G21G25G27G29G31
  23373561.360   122828893.13808  23373557.840    95710809.58446
  24115449.940   126727597.74908  24115449.100    98748799.54445
  20944092.180   110062257.17109  20944088.200    85762913.74948
  23116223.600   121476783.39808  23116223.840    94657327.75447
  24293927.680   127665456.81607  24293928.760    99479580.50346
  22452448.820   117988785.71109  22452446.500    91939459.85648
  21272056.840   111785430.42809  21272053.320    87105522.12548
 15 02 14 00 00 30.0000000  0  7G16G18G21G25G27G29G31
  23357172.140   122742767.35308  23357168.540    95643698.61146
  24101084.800   126652109.28008  24101083.960    98689977.58545
  20942869.940   110055834.17709  20942865.960    85757908.82948
  23131359.720   121556324.36908  23131359.960    94719307.71347
  24279654.760   127590452.66407  24279655.820    99421135.77946
  22465828.700   118059097.51009  22465826.380    91994248.26048
  21281887.040   111837088.31009  21281883.500    87145775.00748
 15 02 14 00 01  0.0000000  0  7G16G18G21G25G27G29G31
  23340792.660   122656692.59908  23340788.980    95576627.38946
  24086720.340   126576624.29208  24086719.420    98631158.34645
  20941735.520   110049872.80709  20941731.540    85753263.61248
  23146541.420   121636104.94008  23146541.660    94781474.35547
  24265403.980   127515564.25208  24265404.900    99362781.24246
  22479219.260   118129465.14209  22479216.900    92049080.16448
  21291808.440   111889225.66309  21291804.920    87186401.49648
 15 02 14 00 01 30.0000000  0  7G16G18G21G25G27G29G31
  23324423.020   122570669.52408  23324419.260    95509596.45146
  24072356.940   126501144.81708  24072355.840    98572343.39245
  20940688.920   110044372.94209  20940684.920    85748978.01148
  23161768.620   121716124.47708  23161768.900    94843827.22547
  24251175.240   127440791.46408  24251176.040    99304516.81546
  22492620.220   118199887.64309  22492617.880    92103954.83748
  21301820.660   111941840.39509  21301817.200    87227399.96748
 15 02 14 00 02  0.0000000  0  7G16G18G21G25G27G29G31
  23308063.020   122484697.17708  23308059.200    95442605.01946
  24057994.600   126425671.03108  24057993.300    98513532.85445
  20939729.580   110039331.64809  20939725.580    85745049.72948
  23177040.700   121796379.55209  23177040.900    94906363.62246
  24236967.980   127366131.54608  24236968.620    99246340.29946
  22506030.980   118270361.47609  22506028.560    92158869.50048
  21311922.820   111994927.75909  21311919.400    87268766.72648
 15 02 14 00 02 30.0000000  0  7G16G18G21G25G27G29G31
  23291713.880   122398781.94008  23291710.040    95375658.09346
  24043634.840   126350210.67408  24043633.500    98454732.78145
  20938858.280   110034753.06709  20938854.300    85741482.00848
  23192358.440   121876874.45108  23192358.560    94969086.90647
  24222783.140   127291589.48508  24222783.600    99188255.63446
  22519452.260   118340890.45009  22519449.740    92213827.13848
  21322115.600   112048491.16109  21322112.200    87310504.42648
 15 02 14 00 03  0.0000000  0  7G16G18G21G25G27G29G31
  23275375.100   122312921.38208  23275371.300    95308753.78346
  24029277.260   126274761.71208  24029275.840    98395941.57645
  20938074.080   110030632.08909  20938070.080    85738270.86348
  23207720.860   121957604.21908  23207720.960    95031993.20246
  24208619.840   127217160.77108  24208620.220    99130259.30045
  22532883.120   118411469.70209  22532880.520    92268823.94948
  21332397.760   112102523.97409  21332394.300    87352607.90448
 15 02 14 00 03 30.0000000  0  7G16G18G21G25G27G29G31
  23259047.140   122227117.56208  23259043.380    95241893.67846
  24014922.500   126199327.94808  24014921.080    98337162.21745
  20937377.240   110026970.01509  20937373.180    85735417.30348
  23223128.020   122038569.52808  23223128.180    95095083.02246
  24194478.360   127142846.78908  24194478.660    99072352.34245
  22546323.760   118482100.37909  22546321.100    92323860.81648
  21342769.100   112157025.44709  21342765.600    87395076.56448
 15 02 14 00 04  0.0000000  0  7G16G18G21G25G27G29G31
  23242730.580   122141373.42908  23242726.820    95175080.08246
  24000571.380   126123913.19708  24000569.980    98278397.63145
  20936767.740   110023766.77409  20936763.580    85732921.27548
  23238580.080   122119770.86408  23238580.220    95158356.76647
  24180358.940   127068648.64408  24180359.000    99014535.64945
  22559774.160   118552782.54309  22559771.440    92378937.80848
  21353229.500   112211994.90209  21353225.980    87437909.89448
 15 02 14 00 04 30.0000000  0  7G16G18G21G25G27G29G31
  23226425.560   122055690.17108  23226421.760    95108313.92346
  23986224.380   126048519.96308  23986222.860    98219649.84245
  20936245.520   110021022.33209  20936241.300    85730782.75248
  23254076.840   122201207.25308  23254077.080    95221813.66846
  24166261.460   126994566.01508  24166261.340    98956808.95446
  22573234.160   118623515.30409  22573231.460    92434054.22348
  21363778.520   112267430.14009  21363774.980    87481106.16449
 15 02 14 00 05  0.0000000  0  7G16G18G21G25G27G29G31
  23210132.420   121970069.23108  23210128.600    95041596.32246
  23971881.880   125973150.46308  23971880.260    98160920.53244
  20935810.500   110018736.24109  20935806.260    85729001.39248
  23269618.220   122282878.03708  23269618.520    95285453.21146
  24152185.900   126920598.85308  24152185.700    98899172.25345
  22586703.640   118694297.77109  22586700.920    92489209.37948
  21374415.800   112323329.14509  21374412.200    87524663.81448
 15 02 14 00 05 30.0000000  0  7G16G18G21G25G27G29G31
  23193850.820   121884509.05608  23193847.160    94974926.08046
  23957543.900   125897804.41008  23957542.320    98102209.48245
  20935461.840   110016904.19709  20935457.640    85727573.83248
  23285203.500   122364779.42508  23285203.860    95349272.44646
  24138131.700   126846744.07708  24138131.620    98841623.12745
  22600181.900   118765126.18709  22600179.200    92544400.32248
  21385140.340   112379686.71009  21385136.680    87568578.78848
 15 02 14 00 06  0.0000000  0  7G16G18G21G25G27G29G31
  23177582.100   121799016.33208  23177578.520    94908308.39946
  23943211.900   125822489.91208  23943210.400    98043523.01745
  20935200.560   110015531.22909  20935196.420    85726503.99448
  23300833.600   122446915.90608  23300833.940    95413274.87246
  24124099.840   126773006.76508  24124099.900    98784165.54246
  22613669.780   118836005.11509  22613667.140    92599630.64448
  21395952.740   112436506.13009  21395949.060    87612853.64348
 15 02 14 00 06 30.0000000  0  7G16G18G21G25G27G29G31
  23161325.740   121713588.40209  23161322.120    94841741.20446
  23928885.520   125747204.93408  23928884.000    97984859.56444
  20935025.700   110014612.44209  20935021.580    85725788.06048
  23316507.540   122529282.63808  23316507.780    95477456.72346
  24110089.540   126699382.74907  24110089.740    98726796.23046
  22627166.300   118906929.42509  22627163.700    92654896.31948
  21406851.820   112493781.13209  21406848.160    87657483.50148
 15 02 14 00 07  0.0000000  0  7G16G18G21G25G27G29G31
  23145082.100   121628227.45809  23145078.460    94775226.18746
  23914565.440   125671952.95508  23914563.840    97926221.82045
  20934937.320   110014147.88109  20934933.160    85725426.07448
  23332225.240   122611879.35108  23332225.460    95541817.78046
  24096100.920   126625872.48807  24096101.240    98669515.56246
  22640671.500   118977899.31509  22640668.920    92710197.51448
  21417837.240   112551510.04009  21417833.620    87702467.05148
 15 02 14 00 07 30.0000000  0  7G16G18G21G25G27G29G31
  23128851.980   121542937.56508  23128848.260    94708766.53646
  23900252.720   125596739.64508  23900251.020    97867614.18945
  20934935.740   110014139.57209  20934931.600    85725419.60648
  23347987.160   122694708.28808  23347987.260    95606359.78446
  24082134.520   126552478.79708  24082134.920    98612325.74146
  22654185.660   119048916.44209  22654183.080    92765535.52148
  21428909.120   112609693.43809  21428905.560    87747804.74848
 15 02 14 00 08  0.0000000  0  7G16G18G21G25G27G29G31
  23112635.100   121457717.57508  23112631.380    94642361.36546
  23885947.280   125521564.72808  23885945.580    97809036.49645
  20935020.260   110014583.88309  20935016.160    85725765.82748
  23363792.600   122777766.05508  23363792.680    95671080.10346
  24068189.780   126479199.01708  24068190.240    98555224.66946
  22667708.200   119119978.07509  22667705.660    92820908.20348
  21440066.600   112668326.77509  21440063.100    87793493.03848
 15 02 14 00 08 30.0000000  0  7G16G18G21G25G27G29G31
  23096432.040   121372570.29308  23096428.340    94576012.85646
  23871649.800   125446431.76208  23871648.040    97750491.47145
  20935191.140   110015482.09509  20935187.080    85726465.73848
  23379641.620   122861052.98008  23379641.640    95735978.99046
  24054266.860   126406034.10908  24054267.400    98498213.12246
  22681239.200   119191084.39309  22681236.660    92876315.71248
  21451309.580   112727409.10209  21451306.120    87839531.20648
 15 02 14 00 09  0.0000000  0  7G16G18G21G25G27G29G31
  23080242.900   121287495.84009  23080239.220    94509721.07546
  23857360.640   125371342.13508  23857358.800    97691980.21045
  20935447.920   110016831.69309  20935443.880    85727517.37548
  23395533.800   122944566.92608  23395533.880    95801054.76546
  24040365.600   126332982.71508  24040366.220    98441290.00546
  22694778.280   119262232.94409  22694775.700    92931756.12847
  21462637.300   112786936.76109  21462633.860    87885916.36948
 15 02 14 00 09 30.0000000  0  7G16G18G21G25G27G29G31
  23064068.520   121202498.86609  23064064.800    94443489.66446
  23843080.700   125296301.11908  23843078.800    97633506.81445
  20935791.120   110018635.33709  20935787.100    85728922.81448
  23411469.620   123028310.13608  23411469.820    95866309.18247
  24026486.540   126260047.70808  24026487.080    98384457.56946
  22708326.020   119333427.04509  22708323.460    92987232.03547
  21474049.920   112846910.51109  21474046.500    87932649.13648
 15 02 14 00 10  0.0000000  0  7G16G18G21G25G27G29G31
  23047908.620   121117578.03108  23047904.860    94377317.60046
  23828810.060   125221308.83108  23828808.120    97575071.40045
  20936219.940   110020888.83508  20936215.960    85730678.79548
  23427448.400   123112279.04508  23427448.660    95931739.47547
  24012629.100   126187226.22708  24012629.540    98327713.60546
  22721881.660   119404662.60609  22721879.080    93042740.27247
  21485546.500   112907325.36509  21485543.120    87979725.62948
 15 02 14 00 10 30.0000000  0  7G16G18G21G25G27G29G31
  23031763.460   121032734.86609  23031759.700    94311206.04546
  23814549.260   125146368.14408  23814547.300    97516676.17245
  20936734.360   110023592.20409  20936730.420    85732785.31648
  23443469.960   123196472.89808  23443470.320    95997345.04046
  23998793.320   126114518.21608  23998793.600    98271058.03646
  22735445.140   119475939.25009  22735442.540    93098280.48847
  21497126.640   112968179.39509  21497123.280    88027144.33048
 15 02 14 00 11  0.0000000  0  7G16G18G21G25G27G29G31
  23015633.620   120947972.17409  23015629.960    94245157.20846
  23800298.940   125071482.51208  23800296.940    97458323.85445
  20937334.260   110026744.83408  20937330.340    85735241.92348
  23459534.360   123280891.86808  23459534.740    96063126.03046
  23984979.280   126041924.63008  23984979.440    98214491.65146
  22749016.520   119547257.21309  22749013.840    93153852.91647
  21508790.080   113029471.18109  21508786.740    88074904.14348
 15 02 14 00 11 30.0000000  0  7G16G18G21G25G27G29G31
  22999519.420   120863291.58909  22999515.820    94179172.35546
  23786059.520   124996654.42008  23786057.520    97400016.36545
  20938019.580   110030346.37809  20938015.680    85738048.33348
  23475641.440   123365535.07208  23475641.780    96129081.75246
  23971186.920   125969445.20308  23971187.000    98158014.22446
  22762595.700   119618615.87009  22762592.900    93209457.06747
  21520536.360   113091198.16809  21520533.020    88123003.07148
 15 02 14 00 12  0.0000000  0  7G16G18G21G25G27G29G31
  22983421.380   120778695.62109  22983417.780    94113253.43147
  23771831.820   124921887.96408  23771829.760    97341756.90345
  20938790.500   110034397.63208  20938786.600    85741205.15648
  23491791.320   123450403.18208  23491791.560    96195212.71946
  23957416.500   125897081.37508  23957416.580    98101626.86946
  22776182.680   119690015.80109  22776179.900    93265093.35448
  21532365.340   113153359.75609  21532362.020    88171440.64648
 15 02 14 00 12 30.0000000  0  7G16G18G21G25G27G29G31
  22967339.160   120694182.75809  22967335.540    94047399.26947
  23757615.800   124847182.66608  23757613.720    97283545.08945
  20939646.240   110038894.57308  20939642.340    85744709.27548
  23507983.180   123535492.02808  23507983.380    96261515.68946
  23943667.440   125824829.75308  23943667.520    98045326.94546
  22789776.800   119761453.36209  22789774.120    93320758.96247
  21544275.960   113215950.36609  21544272.660    88220212.52748
 15 02 14 00 13  0.0000000  0  7G16G18G21G25G27G29G31
  22951273.420   120609756.76408  22951269.840    93981612.79447
  23743412.180   124772542.81408  23743410.140    97225384.26945
  20940586.920   110043837.91408  20940583.020    85748561.23948
  23524217.240   123620802.79208  23524217.440    96327991.57846
  23929940.020   125752692.18908  23929940.120    97989115.90746
  22803378.340   119832929.70909  22803375.780    93376454.78648
  21556268.200   113278969.82109  21556264.900    88269318.56948
 15 02 14 00 13 30.0000000  0  7G16G18G21G25G27G29G31
  22935225.500   120525424.53609  22935221.980    93915899.37846
  23729222.560   124697976.43808  23729220.580    97167280.70446
  20941613.520   110049232.65509  20941609.620    85752764.94148
  23540494.460   123706340.06008  23540494.600    96394643.97946
  23916235.340   125680674.01708  23916235.400    97932997.90246
  22816988.160   119904449.82709  22816985.720    93432184.72147
  21568342.600   113342421.24709  21568339.340    88318761.21248
 15 02 14 00 14  0.0000000  0  7G16G18G21G25G27G29G31
  22919193.720   120441177.14509  22919190.200    93850252.06047
  23715045.460   124623475.73508  23715043.480    97109228.30646
  20942723.860   110055067.30509  20942719.920    85757311.42848
  23556812.620   123792092.32308  23556812.820    96461463.89546
  23902551.300   125608764.50108  23902551.440    97876964.55846
  22830604.180   119976002.62109  22830601.760    93487940.12547
  21580496.680   113406291.49009  21580493.440    88368530.20548
 15 02 14 00 14 30.0000000  0  7G16G18G21G25G27G29G31
  22903179.320   120357021.29609  22903175.860    93784676.08446
  23700882.300   124549048.33408  23700880.240    97051233.02045
  20943918.600   110061345.53009  20943914.620    85762203.55748
  23573172.580   123878064.00908  23573172.780    96528454.79346
  23888888.960   125536968.82908  23888889.100    97821019.92846
  22844227.260   120047592.61109  22844224.840    93543724.52447
  21592731.060   113470583.55909  21592727.840    88418627.89748
 15 02 14 00 15  0.0000000  0  7G16G18G21G25G27G29G31
  22887183.220   120272961.19709  22887179.720    93719174.72147
  23686734.080   124474699.47708  23686732.000    96993298.93045
  20945198.120   110068069.44008  20945194.120    85767442.98048
  23589574.520   123964256.44208  23589574.760    96595617.69846
  23875248.680   125465289.03908  23875248.840    97765165.59146
  22857857.580   120119220.86708  22857855.220    93599538.71547
  21605045.660   113535297.12409  21605042.460    88469054.02748
 15 02 14 00 15 30.0000000  0  7G16G18G21G25G27G29G31
  22871204.740   120188993.44509  22871201.120    93653745.30947
  23672600.420   124400426.85308  23672598.300    96935424.25245
  20946561.320   110075233.04109  20946557.300    85773025.01148
  23606017.380   124050664.03608  23606017.640    96662948.26146
  23861629.540   125393720.34608  23861629.760    97709397.82946
  22871494.340   120190882.92109  22871492.080    93655379.24647
  21617439.200   113600425.41409  21617435.960    88519803.31848
 15 02 14 00 16  0.0000000  0  7G16G18G21G25G27G29G31
  22855244.820   120105123.19409  22855241.120    93588391.87647
  23658482.440   124326236.84808  23658480.320    96877613.95346
  20948008.800   110082839.52609  20948004.760    85778952.15048
  23622501.700   124137289.43308  23622501.980    96730448.53846
  23848032.220   125322266.17608  23848032.440    97653719.30246
  22885138.220   120262581.68709  22885136.000    93711248.40247
  21629911.880   113665969.43309  21629908.560    88570876.56048
 15 02 14 00 16 30.0000000  0  7G16G18G21G25G27G29G31
  22839303.640   120021351.32609  22839299.820    93523115.09946
  23644380.440   124252130.53008  23644378.360    96819868.84846
  20949539.960   110090885.77108  20949535.880    85785221.95448
  23639027.000   124224130.53708  23639027.260    96798116.88946
  23834456.480   125250925.14108  23834456.600    97598128.93546
  22898788.780   120334315.19709  22898786.440    93767144.61647
  21642462.980   113731925.51109  21642459.560    88622270.88348
 15 02 14 00 17  0.0000000  0  7G16G18G21G25G27G29G31
  22823381.380   119937679.39509  22823377.560    93457916.21147
  23630294.920   124178110.94008  23630292.780    96762191.32946
  20951154.880   110099372.15909  20951150.780    85791834.73648
  23655593.260   124311186.84408  23655593.520    96865952.94846
  23820902.420   125179697.66808  23820902.420    97542627.04447
  22912445.900   120406083.17709  22912443.440    93823067.69347
  21655092.160   113798291.94809  21655088.700    88673984.96548
 15 02 14 00 17 30.0000000  0  7G16G18G21G25G27G29G31
  22807478.420   119854108.87309  22807474.580    93392796.32647
  23616226.420   124104180.64208  23616224.200    96704583.40346
  20952853.280   110108297.35609  20952849.160    85798789.43948
  23672200.200   124398457.19508  23672200.540    96933955.77346
  23807369.860   125108583.29908  23807369.860    97487213.31047
  22926109.460   120477884.92809  22926106.820    93879017.08547
  21667798.860   113865065.68209  21667795.360    88726016.42348
 15 02 14 00 18  0.0000000  0  7G16G18G21G25G27G29G31
  22791594.940   119770640.87009  22791591.140    93327756.32947
  23602175.300   124030341.51308  23602172.960    96647046.50046
  20954634.740   110117659.22809  20954630.640    85806084.40448
  23688847.580   124485939.90408  23688847.980    97002124.08346
  23793858.680   125037581.14508  23793858.640    97431887.02047
  22939779.080   120549718.83309  22939776.300    93934991.54447
  21680582.460   113932243.78009  21680578.960    88778362.96848
 15 02 14 00 18 30.0000000  0  7G16G18G21G25G27G29G31
  22775731.780   119687279.71109  22775728.000    93262799.58247
  23588142.580   123956599.09608  23588140.220    96589584.94745
  20956499.620   110127459.54108  20956495.580    85813721.01848
  23705535.720   124573636.84208  23705536.180    97070459.32346
  23780369.300   124966693.87808  23780369.240    97376650.22747
  22953455.260   120621587.67308  22953452.440    93990993.21947
  21693443.040   113999826.42109  21693439.560    88831024.74048
 15 02 14 00 19  0.0000000  0  7G16G18G21G25G27G29G31
  22759889.180   119604026.48609  22759885.400    93197926.94747
  23574128.500   123882955.03408  23574126.100    96532200.03745
  20958447.580   110137696.56309  20958443.640    85821697.92648
  23722264.320   124661546.10708  23722264.840    97138960.01346
  23766901.500   124895920.41108  23766901.440    97321502.13047
  22967137.780   120693489.87909  22967135.020    94047020.90647
  21706379.960   114067810.36509  21706376.480    88883999.22248
 15 02 14 00 19 30.0000000  0  7G16G18G21G25G27G29G31
  22744066.880   119520879.76509  22744063.080    93133137.30447
  23560132.980   123809408.61808  23560130.560    96474891.21445
  20960477.900   110148366.31308  20960474.020    85830012.02148
  23739032.600   124749663.68008  23739033.160    97207623.02146
  23753454.720   124825257.53808  23753454.660    97266440.19547
  22980825.880   120765421.58809  22980823.240    94103071.56247
  21719392.140   114136189.76709  21719388.700    88937281.85248
 15 02 14 00 20  0.0000000  0  7G16G18G21G25G27G29G31
  22728265.780   119437844.09809  22728261.880    93068434.20247
  23546157.180   123735965.91108  23546154.820    96417663.19246
  20962591.040   110159470.90708  20962587.160    85838664.96048
  23755840.940   124837991.71608  23755841.520    97276450.02246
  23740029.560   124754708.24108  23740029.520    97211466.76146
  22994520.120   120837385.54408  22994517.680    94159147.33747
  21732479.720   114204965.41709  21732476.320    88990873.24948
 15 02 14 00 20 30.0000000  0  7G16G18G21G25G27G29G31
  22712486.020   119354920.57909  22712482.080    93003818.48147
  23532201.500   123662628.75708  23532199.100    96360517.41546
  20964786.660   110171008.71609  20964782.700    85847655.46348
  23772689.040   124926528.75908  23772689.640    97345439.89246
  23726625.840   124684271.90208  23726625.840    97156581.35046
  23008220.360   120909381.01209  23008218.100    94215247.68547
  21745642.100   114274134.20109  21745638.720    89044770.97848
 15 02 14 00 21  0.0000000  0  7G16G18G21G25G27G29G31
  22696728.260   119272112.84109  22696724.340    92939292.99247
  23518266.760   123589401.58208  23518264.360    96303457.35846
  20967064.800   110182980.20708  20967060.760    85856983.90948
  23789577.040   125015275.57208  23789577.560    97414593.22246
  23713243.980   124613950.16308  23713243.980    97101785.24746
  23021926.820   120981408.99508  23021924.640    94271373.35847
  21758879.240   114343695.75209  21758875.860    89098974.76448
 15 02 14 00 21 30.0000000  0  7G16G18G21G25G27G29G31
  22680991.820   119189417.11809  22680987.900    92874854.76947
  23504352.380   123516281.44208  23504350.000    96246480.69545
  20969424.080   110195378.24208  20969420.040    85866644.71748
  23806503.620   125104225.38708  23806504.140    97483904.73046
  23699882.760   124543737.01208  23699882.820    97047073.74546
  23035638.220   121053462.93608  23035636.060    94327519.25747
  21772189.500   114413641.44309  21772186.080    89153477.87148
 15 02 14 00 22  0.0000000  0  7G16G18G21G25G27G29G31
  22665278.400   119106842.51409  22665274.460    92810510.91947
  23490460.340   123443278.22108  23490457.840    96189595.11845
  20971865.840   110208209.94308  20971861.840    85876643.45048
  23823470.080   125193384.80208  23823470.580    97553379.56446
  23686543.600   124473639.95708  23686543.720    96992452.70846
  23049355.900   121125549.83609  23049353.800    94383690.84747
  21785573.800   114483976.31509  21785570.400    89208284.24648
 15 02 14 00 22 30.0000000  0  7G16G18G21G25G27G29G31
  22649587.260   119024385.07509  22649583.320    92746258.37947
  23476590.000   123370389.12708  23476587.520    96132798.47846
  20974388.740   110221467.94008  20974384.740    85886974.36148
  23840475.200   125282747.10808  23840475.680    97623012.49346
  23673225.460   124403653.12908  23673225.580    96937917.57146
  23063078.780   121197663.92609  23063076.680    94439883.61147
  21799030.620   114554692.10009  21799027.200    89263387.42748
 15 02 14 00 23  0.0000000  0  7G16G18G21G25G27G29G31
  22633918.940   118942047.76809  22633915.040    92682099.44047
  23462742.080   123297617.91808  23462739.560    96076093.69246
  20976992.940   110235153.31908  20976988.980    85897638.29848
  23857519.040   125372312.73508  23857519.460    97692803.85746
  23659928.600   124333777.81908  23659928.680    96883469.31846
  23076807.020   121269805.97009  23076804.880    94496098.16647
  21812559.720   114625787.87409  21812556.280    89318786.70548
 15 02 14 00 23 30.0000000  0  7G16G18G21G25G27G29G31
  22618274.200   118859834.75409  22618270.380    92618037.37047
  23448917.580   123224969.83608  23448915.020    96019484.86446
  20979678.620   110249266.56009  20979674.640    85908635.63748
  23874601.760   125462082.68208  23874602.140    97762754.44146
  23646653.380   124264015.92708  23646653.300    96829109.44446
  23090540.900   121341977.84608  23090538.700    94552335.97847
  21826161.000   114697262.92809  21826157.540    89374481.53148
 15 02 14 00 24  0.0000000  0  7G16G18G21G25G27G29G31
  22602653.420   118777747.49709  22602649.700    92554073.27647
  23435116.920   123152447.06708  23435114.400    95962973.66946
  20982445.500   110263806.33908  20982441.480    85919965.34048
  23891723.080   125552055.86508  23891723.480    97832863.37046
  23633399.740   124194367.22708  23633399.460    96774837.75046
  23104280.300   121414178.82508  23104278.020    94608596.44447
  21839833.880   114769114.48909  21839830.480    89430469.73448
 15 02 14 00 24 30.0000000  0  7G16G18G21G25G27G29G31
  22587056.180   118695783.75809  22587052.520    92490205.43547
  23421339.860   123080048.17008  23421337.300    95906558.99346
  20985292.520   110278767.47508  20985288.500    85931623.37048
  23908882.100   125642227.19208  23908882.600    97903126.69746
  23620166.800   124124827.50808  23620166.500    96720650.99546
  23118024.420   121486404.43808  23118022.040    94664876.11447
  21853577.120   114841335.84009  21853573.780    89486746.08348
 15 02 14 00 25  0.0000000  0  7G16G18G21G25G27G29G31
  22571483.800   118613950.46409  22571480.160    92426439.24147
  23407587.760   123007780.79908  23407585.260    95850246.81146
  20988220.420   110294153.81708  20988216.440    85943612.73748
  23926079.580   125732600.61208  23926080.200    97973547.49446
  23606955.540   124055401.61308  23606955.200    96666552.93246
  23131774.140   121558659.54908  23131771.680    94721178.76747
  21867391.240   114913929.60409  21867387.960    89543312.62548
 15 02 14 00 25 30.0000000  0  7G16G18G21G25G27G29G31
  22555935.980   118532245.76909  22555932.320    92362773.25747
  23393860.540   122935644.03908  23393857.960    95794036.39845
  20991228.300   110309960.62208  20991224.380    85955929.73648
  23943314.640   125823171.46708  23943315.300    98044122.15346
  23593765.160   123986085.78808  23593764.860    96612540.63747
  23145528.580   121630939.37708  23145526.080    94777500.67847
  21881275.040   114986889.43409  21881271.780    89600164.41848
 15 02 14 00 26  0.0000000  0  7G16G18G21G25G27G29G31
  22540413.580   118450674.65209  22540409.880    92299211.34747
  23380159.260   122863643.67108  23380156.620    95737932.26445
  20994316.580   110326189.87708  20994312.680    85968575.91348
  23960587.780   125913942.07808  23960588.440    98114852.45246
  23580596.320   123916883.22208  23580596.100    96558616.60147
  23159288.280   121703247.17508  23159285.760    94833844.38747
  21895228.680   115060216.12609  21895225.400    89657302.07048
 15 02 14 00 26 30.0000000  0  7G16G18G21G25G27G29G31
  22524916.480   118369236.50609  22524912.720    92235753.05147
  23366484.040   122791780.15208  23366481.360    95681934.76446
  20997484.680   110342838.23108  20997480.740    85981548.66348
  23977898.260   126004908.96208  23977898.940    98185735.70246
  23567448.500   123847791.39008  23567448.400    96504778.85047
  23173052.800   121775580.30608  23173050.320    94890207.84047
  21909251.160   115133904.54209  21909247.880    89714721.58748
 15 02 14 00 27  0.0000000  0  7G16G18G21G25G27G29G31
  22509445.220   118287934.58009  22509441.460    92172400.90647
  23352835.540   122720057.10508  23352832.880    95626046.72646
  21000732.540   110359905.70108  21000728.560    85994847.99848
  23995246.160   126096072.28708  23995246.720    98256772.01446
  23554321.920   123778811.35008  23554321.920    96451028.21947
  23186822.320   121847939.25908  23186819.860    94946591.42047
  21923342.220   115207953.35809  21923338.920    89772421.92748
 15 02 14 00 27 30.0000000  0  7G16G18G21G25G27G29G31
  22493999.980   118206769.52209  22493996.240    92109155.41247
  23339214.100   122648476.09408  23339211.440    95570269.36446
  21004059.660   110377389.72408  21004055.640    86008471.92248
  24012631.040   126187429.91808  24012631.540    98327959.73546
  23541216.420   123709941.90908  23541216.520    96397363.77147
  23200596.420   121920322.17008  23200593.980    95002993.65947
  21937501.140   115282358.87909  21937497.860    89830400.23148
 15 02 14 00 28  0.0000000  0  7G16G18G21G25G27G29G31
  22478581.600   118125745.40709  22478577.840    92046019.74047
  23325620.680   122577042.33908  23325617.980    95514606.74145
  21007466.240   110395291.39709  21007462.200    86022421.28448
  24030053.100   126278982.98308  24030053.460    98399299.74546
  23528132.360   123641185.15608  23528132.520    96343787.12147
  23214375.580   121992731.95508  23214373.240    95059416.83047
  21951727.800   115357120.43509  21951724.520    89888655.95848
 15 02 14 00 28 30.0000000  0  7G16G18G21G25G27G29G31
  22463189.820   118044861.10409  22463186.000    91982993.00647
  23312055.220   122505755.32408  23312052.440    95459058.45746
  21010951.520   110413606.55608  21010947.460    86036692.83948
  24047511.500   126370727.41508  24047511.840    98470788.86846
  23515069.140   123572537.91308  23515069.300    96290295.79847
  23228159.180   122065164.92908  23228156.860    95115858.08147
  21966021.160   115432232.62509  21966017.940    89947184.90148
 15 02 14 00 29  0.0000000  0  7G16G18G21G25G27G29G31
  22447825.600   117964121.81709  22447821.820    91920079.28847
  23298518.860   122434621.03808  23298516.060    95403629.19846
  21014515.900   110432337.38708  21014511.800    86051288.30548
  24065006.700   126462665.54508  24065007.100    98542428.92645
  23502027.400   123504003.49008  23502027.540    96236892.40947
  23241947.640   122137623.69608  23241945.420    95172319.43247
  21980381.420   115507696.30009  21980378.240    90005987.74248
 15 02 14 00 29 30.0000000  0  7G16G18G21G25G27G29G31
  22432488.420   117883524.84709  22432484.780    91857276.46047
  23285011.100   122363637.21708  23285008.320    95348317.16946
  21018158.220   110451477.98909  21018154.120    86066203.06448
  24082537.640   126554791.50108  24082538.160    98614215.33246
  23489006.220   123435576.93008  23489006.360    96183573.05047
  23255740.040   122210103.22608  23255737.860    95228796.94047
  21994807.040   115583503.57109  21994803.940    90065058.30248
 15 02 14 00 30  0.0000000  0  7G16G18G21G25G27G29G31
  22417179.880   117803078.12309  22417176.280    91794590.71047
  23271533.660   122292812.82908  23271530.820    95293129.36946
  21021879.340   110471032.60109  21021875.220    86081440.43148
  24100105.340   126647110.38508  24100105.940    98686152.08446
  23476006.740   123367264.32208  23476006.860    96130342.47547
  23269537.560   122282609.48108  23269535.340    95285295.27847
  22009298.780   115659658.14009  22009295.680    90124399.49348
 15 02 14 00 30 30.0000000  0  7G16G18G21G25G27G29G31
  22401899.380   117722778.57709  22401895.820    91732019.65047
  23258086.140   122222145.75808  23258083.280    95238064.16646
  21025678.140   110490995.45908  21025673.980    86096995.91248
  24117708.620   126739616.11508  24117709.240    98758234.42146
  23463028.060   123299060.53608  23463027.980    96077196.69947
  23283339.100   122355136.94208  23283336.880    95341810.12947
  22023855.180   115736152.27009  22023852.040    90184005.27648
 15 02 14 00 31  0.0000000  0  7G16G18G21G25G27G29G31
  22386647.540   117642629.29909  22386643.920    91669565.67147
  23244669.200   122151639.58008  23244666.380    95183124.32246
  21029554.640   110511366.67709  21029550.440    86112869.59548
  24135347.480   126832308.86308  24135348.120    98830462.48045
  23450070.320   123230966.74008  23450070.020    96024136.62046
  23297144.840   122427686.61408  23297142.660    95398342.29047
  22038475.980   115812984.68009  22038472.780    90243874.65448
 15 02 14 00 31 30.0000000  0  7G16G18G21G25G27G29G31
  22371424.860   117562633.27109  22371421.120    91607231.10847
  23231283.560   122081297.85608  23231280.720    95128312.62346
  21033508.720   110532145.81008  21033504.580    86129061.13448
  24153021.920   126925188.47008  24153022.500    98902836.15446
  23437133.600   123162983.78908  23437133.160    95971162.91947
  23310955.000   122500259.41608  23310952.880    95454892.48847
  22053160.840   115890153.56709  22053157.580    90304006.22248
 15 02 14 00 32  0.0000000  0  7G16G18G21G25G27G29G31
  22356231.680   117482792.40809  22356227.840    91545017.44447
  23217929.700   122011123.33408  23217926.860    95073631.22146
  21037540.160   110553331.51708  21037536.060    86145569.48748
  24170731.740   127018253.82308  24170732.300    98975354.57546
  23424217.900   123095111.47208  23424217.340    95918275.41947
  23324769.480   122572854.71208  23324767.320    95511460.21947
  22067909.180   115967656.25709  22067905.880    90364397.89548
 15 02 14 00 32 30.0000000  0  7G16G18G21G25G27G29G31
  22341068.040   117403107.01309  22341064.160    91482924.93747
  23204607.900   121941117.28109  23204605.120    95019081.08045
  21041648.480   110574921.08408  21041644.440    86162392.53648
  24188476.380   127111502.21808  24188476.960    99048015.61746
  23411322.980   123027348.18408  23411322.400    95865472.88247
  23338587.840   122645470.51808  23338585.640    95568043.93347
  22082720.180   116045488.33009  22082716.840    90425046.22948
 15 02 14 00 33  0.0000000  0  7G16G18G21G25G27G29G31
  22325934.720   117323581.11409  22325930.880    91420956.70747
  23191319.140   121871284.50709  23191316.300    94964665.96046
  21045833.760   110596915.17909  21045829.740    86179530.79248
  24206256.060   127204934.70708  24206256.700    99120820.09646
  23398449.160   122959695.87108  23398448.640    95812756.81947
  23352410.540   122718108.97609  23352408.300    95624645.30947
  22097593.700   116123649.19509  22097590.380    90485950.76648
 15 02 14 00 33 30.0000000  0  7G16G18G21G25G27G29G31
  22310831.720   117244214.64909  22310827.980    91359112.71547
  23178063.420   121801625.18909  23178060.520    94910386.01146
  21050095.280   110619309.83809  21050091.300    86196981.18448
  24224070.140   127298547.96708  24224070.780    99193765.42446
  23385595.980   122892152.29308  23385595.560    95760125.47646
  23366237.080   122790767.64809  23366234.740    95681262.44147
  22112528.860   116202134.03509  22112525.540    90547107.74848
 15 02 14 00 34  0.0000000  0  7G16G18G21G25G27G29G31
  22295760.220   117165013.65309  22295756.540    91297397.66347
  23164842.080   121732146.52009  23164839.160    94856246.82446
  21054433.760   110642108.74909  21054429.800    86214746.57948
  24241919.260   127392345.20808  24241919.900    99266854.13246
  23372764.300   122824721.66508  23372763.960    95707582.15947
  23380068.180   122863450.47208  23380065.820    95737898.39147
  22127526.000   116280944.68209  22127522.740    90608518.60948
 15 02 14 00 34 30.0000000  0  7G16G18G21G25G27G29G31
  22280719.760   117085975.83909  22280716.160    91235809.77047
  23151654.700   121662846.35209  23151651.760    94802246.73846
  21058847.940   110665305.56908  21058844.000    86232822.03148
  24259802.260   127486320.73108  24259802.880    99340081.74546
  23359953.280   122757399.29808  23359952.940    95655123.20347
  23393902.880   122936152.15108  23393900.500    95794549.01847
  22142583.720   116360073.44009  22142580.480    90670177.34448
 15 02 14 00 35  0.0000000  0  7G16G18G21G25G27G29G31
  22265710.660   117007102.52209  22265707.060    91174350.05247
  23138501.700   121593726.84509  23138498.780    94748387.41046
  21063337.560   110688898.70709  21063333.640    86251206.30148
  24277718.900   127580473.05008  24277719.500    99413447.13346
  23347162.800   122690184.74808  23347162.440    95602748.24147
  23407741.160   123008872.55108  23407738.760    95851214.23047
  22157701.380   116439517.26109  22157698.180    90732081.58648
 15 02 14 00 35 30.0000000  0  7G16G18G21G25G27G29G31
  22250734.200   116928400.73609  22250730.560    91113023.99147
  23125384.600   121524795.90309  23125381.660    94694675.02746
  21067903.220   110712891.47809  21067899.280    86269901.97148
  24295669.860   127674805.87908  24295670.480    99486953.15745
  23334393.740   122623082.77708  23334393.380    95550461.02247
  23421583.860   123081616.31208  23421581.460    95907897.65347
  22172879.440   116519278.34509  22172876.260    90794233.04048
 15 02 14 00 36  0.0000000  0  7G16G18G21G25G27G29G31
  22235789.880   116849867.94609  22235786.240    91051829.61547
  23112302.980   121456051.42109  23112299.980    94641107.92546
  21072543.840   110737278.15908  21072539.900    86288904.57548
  24313654.000   127769313.34808  24313654.640    99560595.28245
  23321645.160   122556088.55808  23321644.800    95498257.74947
  23435430.060   123154378.60008  23435427.660    95964595.50347
  22188116.460   116599349.34909  22188113.260    90856625.98848
 15 02 14 00 36 30.0000000  0  7G16G18G21G25G27G29G31
  22220878.240   116771506.69109  22220874.580    90990768.90747
  23099257.480   121387496.91609  23099254.360    94587688.86346
  21077259.340   110762058.10009  21077255.320    86308213.62648
  24331671.360   127863995.18308  24331672.000    99634373.26145
  23308917.200   122489202.85508  23308916.820    95446139.05247
  23449279.820   123227159.62708  23449277.460    96021307.95747
  22203412.040   116679728.19609  22203408.880    90919258.82548
 15 02 14 00 37  0.0000000  0  7G16G18G21G25G27G29G31
  22206000.180   116693321.94509  22205996.500    90929845.73347
  23086249.140   121319137.85709  23086246.000    94534422.08846
  21082049.980   110787232.79909  21082045.920    86327830.27748
  24349722.260   127958852.97108  24349722.920    99708288.37045
  23296210.400   122422428.32308  23296210.080    95394106.97447
  23463133.700   123299962.18508  23463131.260    96078037.19646
  22218766.220   116760414.85609  22218763.080    90982131.50648
 15 02 14 00 37 30.0000000  0  8G16G18G21G22G25G27G29G31
  22191155.360   116615311.61909  22191151.600    90869058.46547
  23073277.680   121250972.65309  23073274.560    94481306.37546
  21086914.620   110812796.49508  21086910.500    86347750.04848
  24550961.620   129016170.78507  24550964.080   100532092.71744
  24367805.720   128053881.57508  24367806.220    99782336.58145
  23283524.000   122355760.94608  23283523.680    95342158.40147
  23476990.820   123372782.01808  23476988.360    96134779.90246
  22234177.720   116841402.77509  22234174.600    91045238.94148
 15 02 14 00 38  0.0000000  0  8G16G18G21G22G25G27G29G31
  22176343.440   116537474.29609  22176339.660    90808406.01647
  23060342.920   121183000.49808  23060339.860    94428341.09446
  21091852.360   110838744.74308  21091848.280    86367969.46748
  24533650.240   128925200.83208  24533652.680   100461208.13144
  24385920.760   128149076.32708  24385921.220    99856514.24945
  23270857.320   122289197.07008  23270857.020    95290290.48247
  23490850.480   123445615.00408  23490848.040    96191532.84647
  22249645.380   116922685.61709  22249642.260    91108576.18748
 15 02 14 00 38 30.0000000  0  8G16G18G21G22G25G27G29G31
  22161567.780   116459827.53209  22161564.020    90747902.04447
  23047448.360   121115239.59309  23047445.380    94375540.41646
  21096865.940   110865091.56508  21096861.940    86388499.45048
  24516323.680   128834152.69908  24516326.140   100390262.56844
  24404070.140   128244451.57408  24404070.600    99930832.55345
  23258213.200   122222752.15208  23258212.980    95238515.26047
  23504715.720   123518477.09808  23504713.320    96248308.47147
  22265171.600   117004276.07509  22265168.420    91172153.12348
 15 02 14 00 39  0.0000000  0  8G16G18G21G22G25G27G29G31
  22146825.820   116382358.07209  22146822.060    90687536.23547
  23034591.560   121047677.08908  23034588.680    94322894.34446
  21101952.140   110891820.17308  21101948.220    86409326.94048
  24498979.760   128743013.86008  24498982.340   100319246.31644
  24422250.680   128339990.65708  24422251.120   100005278.52845
  23245588.780   122156410.62908  23245588.540    95186820.59847
  23518583.480   123591352.28808  23518581.020    96305094.27046
  22280752.820   117086155.73909  22280749.620    91235955.41748
 15 02 14 00 39 30.0000000  0  8G16G18G21G22G25G27G29G31
  22132119.800   116305077.63909  22132116.100    90627317.71447
  23021774.940   120980325.43608  23021772.120    94270412.56046
  21107112.560   110918938.48908  21107108.660    86430458.09848
  24481620.900   128651796.35008  24481623.500   100248168.74244
  24440464.000   128435702.10008  24440464.540   100079858.78845
  23232985.880   122090182.09808  23232985.600    95135213.96947
  23532455.520   123664250.09808  23532453.020    96361897.71746
  22296390.420   117168331.69009  22296387.200    91299988.59148
 15 02 14 00 40  0.0000000  0  8G16G18G21G22G25G27G29G31
  22117448.460   116227979.50509  22117444.780    90567241.25047
  23008997.320   120913178.59209  23008994.440    94218090.38146
  21112345.140   110946436.00909  21112341.260    86451884.74348
  24464245.880   128560493.84508  24464248.320   100177024.92445
  24458708.220   128531576.14408  24458708.860   100154565.77445
  23220402.860   122024057.88908  23220402.500    95083688.62847
  23546330.180   123737161.69708  23546327.700    96418711.93047
  22312082.240   117250792.60909  22312079.020    91364243.81148
 15 02 14 00 40 30.0000000  0  8G16G18G21G22G25G27G29G31
  22102813.240   116151071.16509  22102809.580    90507312.67647
  22996260.260   120846244.85108  22996257.400    94165934.25046
  21117650.880   110974317.69309  21117647.000    86473610.72848
  24446856.160   128469114.24608  24446858.340   100105820.99644
  24476984.220   128627617.06208  24476984.980   100229402.76845
  23207840.740   121958043.45808  23207840.320    95032248.83847
  23560208.580   123810092.80608  23560206.180    96475541.32247
  22327828.800   117333541.13209  22327825.600    91428723.14148
 15 02 14 00 41  0.0000000  0  8G16G18G21G22G25G27G29G31
  22088214.660   116074355.08309  22088211.000    90447533.90247
  22983564.280   120779527.04608  22983561.400    94113946.37946
  21123029.560   111002582.45509  21123025.560    86495635.22348
  24429452.360   128377660.63008  24429454.400   100034559.35745
  24495291.820   128723824.11208  24495292.620   100304369.20345
  23195299.560   121892139.12308  23195299.100    94980894.82747
  23574090.620   123883043.40508  23574088.360    96532385.90847
  22343629.640   117416574.77309  22343626.460    91493424.63948
 15 02 14 00 41 30.0000000  0  8G16G18G21G22G25G27G29G31
  22073652.680   115997831.16509  22073649.000    90387904.87547
  22970909.400   120713025.46308  22970906.560    94062126.98846
  21128480.240   111031225.69909  21128476.200    86517954.62948
  24412034.380   128286132.79208  24412036.220    99963239.87945
  24513630.360   128820193.53008  24513631.240   100379462.16445
  23182778.840   121826342.29008  23182778.320    94929624.60047
  23587975.900   123956010.79408  23587973.640    96589243.59447
  22359483.760   117499888.35809  22359480.560    91558344.26848
 15 02 14 00 42  0.0000000  0  8G16G18G21G22G25G27G29G31
  22059127.520   115921500.95509  22059123.820    90328426.79347
  22958296.060   120646742.15108  22958293.300    94010477.68946
  21134002.640   111060245.98009  21133998.580    86540567.83348
  24394602.680   128194532.65508  24394604.380    99891864.04045
  24531999.500   128916723.70308  24532000.420   100454680.39245
  23170278.480   121760652.45008  23170277.940    94878437.74347
  23601864.260   124028994.21208  23601861.920    96646113.73847
  22375390.520   117583478.79309  22375387.340    91623479.64248
 15 02 14 00 42 30.0000000  0  8G16G18G21G22G25G27G29G31
  22044639.840   115845367.52209  22044636.080    90269102.03948
  22945725.000   120580680.86108  22945722.220    93959001.40046
  21139596.720   111089643.16909  21139592.680    86563474.74248
  24377158.060   128102864.16308  24377159.620    99820434.89045
  24550399.200   129013414.46607  24550400.280   100530023.76445
  23157798.680   121695070.59808  23157798.100    94827335.02347
  23615755.860   124101994.81508  23615753.520    96702997.28447
  22391349.580   117667344.05209  22391346.420    91688829.15748
 15 02 14 00 43  0.0000000  0  8G16G18G21G22G25G27G29G31
  22030190.040   115769433.27909  22030186.240    90209932.50147
  22933196.720   120514844.20209  22933193.800    93907700.14546
  21145262.140   111119415.29109  21145258.160    86586673.79848
  24359700.960   128011129.75408  24359702.280    99748954.34145
  24568829.260   129110264.74308  24568830.260   100605491.43745
  23145339.460   121629596.77608  23145338.860    94776316.49047
  23629650.640   124175012.39308  23629648.340    96759894.05547
  22407360.340   117751481.26609  22407357.260    91754390.57748
 15 02 14 00 43 30.0000000  0  8G16G18G21G22G25G27G29G31
  22015778.620   115693700.74809  22015774.860    90150920.13148
  22920711.800   120449235.48108  22920708.800    93856576.48246
  21150998.840   111149561.91409  21150994.880    86610164.66948
  24342231.960   127919332.51708  24342233.060    99677424.80445
  24587289.580   129207273.79708  24587290.600   100681082.80445
  23132900.840   121564231.44208  23132900.240    94725382.48847
  23643548.800   124248047.47208  23643546.460    96816804.46747
  22423422.500   117835888.63309  22423419.500    91820162.51148
 15 02 14 00 44  0.0000000  0  8G16G18G21G22G25G27G29G31
  22001405.860   115618171.28209  22001402.140    90092066.00347
  22908270.580   120383856.23209  22908267.480    93805631.64546
  21156806.340   111180080.27209  21156802.360    86633945.21448
  24324751.300   127827473.91308  24324752.160    99605847.42345
  24605779.680   129304439.38108  24605780.640   100756796.14345
  23120482.580   121498973.51008  23120482.100    94674532.18047
  23657450.040   124321098.75808  23657447.680    96873727.51646
  22439535.300   117920562.01609  22439532.320    91886141.72348
 15 02 14 00 44 30.0000000  0  8G16G18G21G22G25G27G29G31
  21987072.440   115542848.73309  21987068.720    90033373.10047
  22895873.860   120318711.00209  22895870.760    93754869.15546
  21162684.680   111210970.94209  21162680.700    86658015.86048
  24307259.840   127735558.49308  24307260.480    99534225.71745
  24624299.680   129401762.47007  24624300.620   100832632.23244
  23108085.140   121433825.11208  23108084.740    94623767.22147
  23671354.740   124394168.30808  23671352.400    96930664.79946
  22455698.640   118005500.86809  22455695.700    91952327.79448
 15 02 14 00 45  0.0000000  0  8G16G18G21G22G25G27G29G31
  21972778.400   115467733.28209  21972774.700    89974841.58047
  22883521.900   120253800.93309  22883518.780    93704289.90346
  21168633.280   111242230.67009  21168629.260    86682374.08948
  24289757.740   127643587.10808  24289758.140    99462560.36545
  24642849.100   129499239.86807  24642850.100   100908588.54145
  23095708.160   121368784.22408  23095707.840    94573086.03847
  23685262.500   124467254.36408  23685260.240    96987614.94246
  22471911.620   118090700.34209  22471908.620    92018716.95048
 15 02 14 00 45 30.0000000  0  8G16G18G21G22G25G27G29G31
  21958523.960   115392826.02309  21958520.340    89916472.29348
  22871214.840   120189127.07709  22871211.740    93653894.71546
  21174651.560   111273856.50109  21174647.460    86707017.59648
  24272245.180   127551560.84608  24272245.320    99390852.24245
  24661427.360   129596869.15907  24661428.340   100984663.20545
  23083351.420   121303849.65308  23083351.220    94522487.69747
  23699173.100   124540355.53608  23699170.840    97044576.83946
  22488173.420   118176156.32909  22488170.400    92085305.99048
 15 02 14 00 46  0.0000000  0  8G16G18G21G22G25G27G29G31
  21944310.040   115318131.34609  21944306.420    89858268.64648
  22858953.600   120124694.13109  22858950.480    93603687.25646
  21180739.700   111305849.41709  21180735.560    86731947.13948
  24254723.060   127459484.20108  24254723.060    99319104.82745
  24680034.720   129694651.05207  24680035.700   101060856.77545
  23071015.360   121239023.36708  23071015.180    94471973.73547
  23713086.900   124613473.56108  23713084.760    97101551.87046
  22504483.920   118261868.16409  22504480.860    92152094.38448
 15 02 14 00 46 30.0000000  0  8G16G18G21G22G25G27G29G31
  21930136.920   115243651.33609  21930133.360    89800232.27947
  22846738.740   120060505.00009  22846735.560    93553669.76946
  21186897.340   111338207.59209  21186893.120    86757161.29748
  24237191.960   127367360.18108  24237191.780    99247320.46345
  24698670.900   129792584.46607  24698672.000   101137168.39744
  23058699.900   121174305.32208  23058699.800    94421544.11847
  23727004.020   124686608.68808  23727001.920    97158540.22646
  22520842.540   118347832.90609  22520839.440    92219079.85248
 15 02 14 00 47  0.0000000  0  8G16G18G21G22G25G27G29G31
  21916004.060   115169382.68509  21916000.480    89742360.60148
  22834569.680   119996556.66009  22834566.480    93503839.90846
  21193123.040   111370923.76709  21193118.820    86782654.41848
  24219651.300   127275185.79508  24219650.960    99175496.83345
  24717334.640   129890662.55108  24717335.740   101213592.76945
  23046404.020   121109690.00808  23046403.880    94371194.54547
  23740923.400   124759755.14808  23740921.280    97215537.40146
  22537247.740   118434042.58309  22537244.640    92286256.17848
 15 02 14 00 47 30.0000000  0  8G16G18G21G22G25G27G29G31
  21901913.100   115095334.09309  21901909.540    89684660.40147
  22822448.280   119932858.59409  22822445.120    93454205.07646
  21199417.960   111404003.79509  21199413.720    86808431.06548
  24202102.860   127182970.46708  24202102.440    99103641.28445
  24736027.040   129988891.14507  24736028.220   101290134.39545
  23034129.000   121045184.46808  23034128.920    94320930.51747
  23754846.260   124832919.74508  23754844.140    97272548.71746
  22553700.300   118520501.23009  22553697.220    92353626.50848
 15 02 14 00 48  0.0000000  0  8G16G18G21G22G25G27G29G31
  21887863.900   115021505.05909  21887860.280    89627131.29447
  22810374.360   119869409.97609  22810371.280    93404764.61746
  21205781.120   111437442.71809  21205776.960    86834487.37348
  24184546.520   127090713.41308  24184545.940    99031753.20145
  24754747.140   130087265.43008  24754748.300   101366789.53945
  23021874.180   120980785.07808  23021874.080    94270749.20947
  23768771.980   124906099.03608  23768769.820    97329571.49846
  22570198.960   118607202.15509  22570195.940    92421185.62548
 15 02 14 00 48 30.0000000  0  8G16G18G21G22G25G27G29G31
  21873856.700   114947897.07309  21873853.160    89569774.42447
  22798348.420   119806213.17209  22798345.340    93355520.37646
  21212212.220   111471238.65009  21212208.080    86860821.86348
  24166982.720   126998416.97108  24166981.960    98959834.39146
  24773494.740   130185783.94207  24773495.840   101443557.08045
  23009639.480   120916491.59208  23009639.340    94220650.40147
  23782700.460   124979292.78308  23782698.240    97386605.53146
  22586743.160   118694142.51309  22586740.220    92488931.30348
 15 02 14 00 49  0.0000000  0  8G16G18G21G22G25G27G29G31
  21859892.500   114874514.88009  21859889.000    89512593.50548
  22786371.380   119743273.36709  22786368.300    93306476.40446
  21218711.540   111505392.93809  21218707.400    86887435.60148
  24149412.440   126906086.30308  24149411.480    98887888.90546
  24792270.060   130284448.14808  24792271.280   101520438.10745
  22997425.520   120852306.74708  22997425.340    94170636.27348
  23796632.120   125052503.55408  23796629.920    97443652.84047
  22603332.960   118781322.45109  22603330.100    92556863.68748
 15 02 14 00 49 30.0000000  0  8G16G18G21G22G25G27G29G31
  21845971.400   114801358.94809  21845967.920    89455588.87648
  22774443.360   119680591.20509  22774440.320    93257633.17647
  21225278.300   111539901.73609  21225274.200    86914325.57048
  24131835.760   126813722.12608  24131834.720    98815917.28946
  24811072.480   130383254.57507  24811073.660   101597429.98745
  22985231.820   120788228.36008  22985231.620    94120705.08548
  23810566.580   125125729.42608  23810564.440    97500711.91447
  22619967.360   118868736.71009  22619964.560    92624978.63748
 15 02 14 00 50  0.0000000  0  7G16G18G21G22G27G29G31
  21832094.640   114728436.11909  21832091.180    89398765.90148
  22762565.720   119618173.78809  22762562.720    93208996.25346
  21231913.100   111574767.97209  21231909.000    86941494.07148
  24114254.100   126721331.58708  24114252.900    98743925.09446
  22973059.240   120724261.08908  22973059.060    94070860.48748
  23824504.760   125198974.97208  23824502.720    97557786.32647
  22636646.720   118956387.19209  22636643.880    92693277.67348
 15 02 14 00 50 30.0000000  0  7G16G18G21G22G27G29G31
  21818261.080   114655740.26309  21818257.620    89342119.78348
  22750737.240   119556014.81109  22750734.260    93160560.71346
  21238614.160   111609982.30909  21238610.040    86968933.82048
  24096666.300   126628908.71608  24096664.940    98671907.68846
  22960906.180   120660396.53508  22960906.020    94021095.91847
  23838445.020   125272231.67708  23838443.060    97614869.43746
  22653368.900   119044262.42009  22653366.020    92761751.83048
 15 02 14 00 51  0.0000000  0  7G16G18G21G22G27G29G31
  21804471.840   114583276.99709  21804468.320    89285654.89848
  22738959.320   119494121.49409  22738956.320    93112332.17346
  21245381.720   111645546.25309  21245377.600    86996645.98448
  24079073.600   126536460.28508  24079072.080    98599870.35546
  22948773.380   120596638.37808  22948773.120    93971414.25747
  23852388.000   125345502.94408  23852386.120    97671963.88746
  22670134.040   119132363.60009  22670131.160    92830402.05247
 15 02 14 00 51 30.0000000  0  7G16G18G21G22G27G29G31
  21790727.380   114511049.07809  21790723.800    89229373.41548
  22727232.460   119432496.43709  22727229.420    93064312.67146
  21252215.620   111681458.90009  21252211.560    87024629.86948
  24061476.640   126443989.32008  24061475.000    98527815.44346
  22936660.960   120532987.08108  22936660.640    93921815.87147
  23866333.940   125418789.52208  23866332.100    97729070.26446
  22686941.680   119220688.22609  22686938.820    92899226.38947
 15 02 14 00 52  0.0000000  0  7G16G18G21G22G27G29G31
  21777027.960   114439057.82709  21777024.320    89173276.33748
  22715556.960   119371141.31809  22715553.920    93016503.50746
  21259115.360   111717717.69109  21259111.300    87052883.47448
  24043875.700   126351497.36208  24043874.000    98455744.15546
  22924568.720   120469441.76308  22924568.300    93872300.05547
  23880282.660   125492090.46408  23880280.800    97786187.85146
  22703791.100   119309232.46009  22703788.280    92968221.84347
 15 02 14 00 52 30.0000000  0  7G16G18G21G22G27G29G31
  21763373.960   114367305.25009  21763370.260    89117365.24248
  22703933.260   119310058.38809  22703930.160    92968906.44446
  21266080.600   111754320.74208  21266076.600    87081405.32848
  24026271.240   126258986.65308  24026269.540    98383658.24346
  22912496.540   120406001.98108  22912496.060    93822866.48347
  23894234.080   125565405.33408  23894232.200    97843316.29347
  22720681.760   119397993.18009  22720678.940    93037386.00048
 15 02 14 00 53  0.0000000  0  7G16G18G21G22G27G29G31
  21749766.000   114295794.65309  21749762.240    89061642.69748
