     2.11           OBSERVATION DATA    G                   RINEX VERSION / TYPE
SPIDER V4,0,0,3554                      2015 03 16 00:25    PGM / RUN BY / DATE 
ADJF                                                        MARKER NAME         
ADJF                                                        MARKER NUMBER       
                                                            OBSERVER / AGENCY   
496631              LEICA GRX1200+GNSS  8.20/4.007          REC # / TYPE / VERS 
103293              LEIAT504                                ANT # / TYPE        
  5273000.2084   285396.0090  3566759.2257                  APPROX POSITION XYZ 
        0.0480        0.0000        0.0000                  ANTENNA: DELTA H/E/N
     1     1                                                WAVELENGTH FACT L1/2
     4    C1    L1    P2    L2                              # / TYPES OF OBSERV 
    30.000                                                  INTERVAL            
  2015    02    14    00    00    0.0000000     GPS         TIME OF FIRST OBS   
  2015    02    14    23    59   30.0000000     GPS         TIME OF LAST OBS    
    16                                                      LEAP SECONDS        
    30                                                      # OF SATELLITES     
   G 1   834   834   834   834                              PRN / # OF OBS      
   G 2   931   931   931   931                              PRN / # OF OBS      
   G 3   853   853   852   852                              PRN / # OF OBS      
   G 4   853   853   853   853                              PRN / # OF OBS      
   G 5   668   668   668   668                              PRN / # OF OBS      
   G 6   759   759   758   758                              PRN / # OF OBS      
   G 7   656   656   656   656                              PRN / # OF OBS      
   G 9   799   799   799   799                              PRN / # OF OBS      
   G10   781   781   781   781                              PRN / # OF OBS      
   G11   798   798   798   798                              PRN / # OF OBS      
   G12   827   827   826   826                              PRN / # OF OBS      
   G13   822   822   822   822                              PRN / # OF OBS      
   G14   938   937   937   937                              PRN / # OF OBS      
   G15   726   725   725   725                              PRN / # OF OBS      
   G16   688   687   687   687                              PRN / # OF OBS      
   G17   936   934   934   934                              PRN / # OF OBS      
   G18   931   931   931   931                              PRN / # OF OBS      
   G19   778   778   778   778                              PRN / # OF OBS      
   G20   822   822   822   822                              PRN / # OF OBS      
   G21   726   726   725   725                              PRN / # OF OBS      
   G22   726   726   726   726                              PRN / # OF OBS      
   G23   740   740   740   740                              PRN / # OF OBS      
   G24   844   844   844   844                              PRN / # OF OBS      
   G25   871   871   871   871                              PRN / # OF OBS      
   G27   832   831   831   831                              PRN / # OF OBS      
   G28   898   898   898   898                              PRN / # OF OBS      
   G29   767   767   767   767                              PRN / # OF OBS      
   G30   703   703   703   703                              PRN / # OF OBS      
   G31   809   809   809   809                              PRN / # OF OBS      
   G32   756   756   756   756                              PRN / # OF OBS      
BIT 2 OF LLI FLAGS DATA COLLECTED UNDER A/S CONDITION       COMMENT             
SNR is mapped to RINEX snr flag value [2-9]                 COMMENT             
Lx:     = 25dBHz -> 1; 26-27dBHz -> 2; 28-31dBHz -> 3       COMMENT             
       32-35dBHz -> 4; 36-38dBHz -> 5; 39-41dBHz -> 6       COMMENT             
       42-44dBHz -> 7; 45-48dBHz -> 8; >=49dBHz -> 9        COMMENT             
                                                            END OF HEADER       
 15 02 14 00 00  0.0000000  0  7G16G18G21G25G27G29G31
  23399362.740   122964484.73208  23399360.040    95816474.24746
  24068927.980   126483151.48407  24068928.480    98558334.95445
  20937562.820   110027637.26809  20937559.860    85735811.16249
  23112238.620   121455627.92308  23112240.020    94640750.43346
  24256283.000   127467627.15107  24256283.960    99325428.94945
  22513435.320   118308895.04608  22513433.140    92188741.10747
  21226386.160   111545406.32609  21226383.460    86918486.40949
 15 02 14 00 00 30.0000000  0  7G16G18G21G25G27G29G31
  23383076.020   122878897.49907  23383073.320    95749782.91545
  24054766.540   126408732.66207  24054767.080    98500346.53045
  20936685.740   110023028.14209  20936682.780    85732219.63949
  23127126.580   121533864.75408  23127128.000    94701714.17246
  24242257.400   127393922.30707  24242258.420    99267996.68845
  22526818.460   118379224.17608  22526816.460    92243543.01047
  21235918.680   111595499.95709  21235915.960    86957520.38749
 15 02 14 00 01  0.0000000  0  7G16G18G21G25G27G29G31
  23366797.940   122793355.80007  23366795.120    95683127.06445
  24040606.420   126334322.09006  24040607.060    98442364.54144
  20935896.880   110018882.48109  20935893.900    85728989.26349
  23142060.680   121612344.02708  23142061.940    94762866.84946
  24228254.620   127320337.90007  24228255.840    99210658.29045
  22540210.860   118449602.29108  22540209.020    92298383.09647
  21245543.580   111646079.02709  21245540.860    86996932.63549
 15 02 14 00 01 30.0000000  0  7G16G18G21G25G27G29G31
  23350528.520   122707859.80007  23350525.760    95616506.82445
  24026448.040   126259921.51107  24026449.060    98384390.34645
  20935196.040   110015199.62609  20935193.060    85726119.50849
  23157040.620   121691064.70808  23157041.940    94824207.61346
  24214274.640   127246873.31606  24214276.160    99153413.23346
  22553612.340   118520028.00108  22553610.540    92353260.26647
  21255260.380   111697140.99809  21255257.700    87036721.16149
 15 02 14 00 02  0.0000000  0  7G16G18G21G25G27G29G31
  23334267.320   122622406.80308  23334264.700    95549920.09946
  24012291.600   126185529.31007  24012292.300    98326422.60645
  20934582.380   110011974.89209  20934579.420    85723606.73449
  23172065.600   121770021.67408  23172067.120    94885732.50547
  24200316.640   127173524.04407  24200318.260    99096258.05246
  22567021.940   118590496.05608  22567020.100    92408170.43347
  21265067.880   111748679.51109  21265065.160    87076881.02149
 15 02 14 00 02 30.0000000  0  7G16G18G21G25G27G29G31
  23318015.220   122537001.16607  23318012.740    95483370.26745
  23998137.900   126111151.21707  23998138.300    98268465.87444
  20934056.300   110009210.33909  20934053.340    85721452.54549
  23187136.100   121849217.27808  23187137.780    94947443.33146
  24186381.160   127100292.99607  24186382.720    99039194.96646
  22580439.940   118661008.32708  22580438.160    92463115.04947
  21274966.300   111800695.97209  21274963.560    87117413.31449
 15 02 14 00 03  0.0000000  0  7G16G18G21G25G27G29G31
  23301772.500   122451645.25907  23301769.980    95416859.18145
  23983987.220   126036790.06707  23983987.340    98210522.35845
  20933617.720   110006905.70309  20933614.800    85719656.73349
  23202251.980   121928651.45908  23202253.700    95009340.06346
  24172468.340   127027180.55707  24172469.880    98982224.29046
  22593866.400   118731564.75908  22593864.640    92518094.06447
  21284955.340   111853188.67909  21284952.620    87158316.70449
 15 02 14 00 03 30.0000000  0  7G16G18G21G25G27G29G31
  23285539.560   122366341.40807  23285537.020    95350388.69246
  23969840.480   125962449.94407  23969840.740    98152595.22545
  20933266.960   110005062.54709  20933264.040    85718220.50749
  23217413.400   122008325.28808  23217414.920    95071423.54146
  24158578.340   126954188.32207  24158579.760    98925347.30146
  22607301.600   118802166.88508  22607299.780    92573108.69447
  21295034.920   111906157.25909  21295032.240    87199590.90349
 15 02 14 00 04  0.0000000  0  7G16G18G21G25G27G29G31
  23269316.000   122281086.26408  23269313.360    95283956.11445
  23955697.520   125888128.47106  23955697.700    98094682.59045
  20933002.800   110003674.41409  20932999.880    85717138.85149
  23232619.300   122088232.93708  23232620.660    95133689.21346
  24144710.220   126881311.12507  24144711.400    98868559.92846
  22620744.280   118872808.47208  22620742.520    92628154.06847
  21305203.720   111959594.75509  21305201.080    87241230.48849
 15 02 14 00 04 30.0000000  0  7G16G18G21G25G27G29G31
  23253102.800   122195885.06808  23253100.100    95217565.58846
  23941559.240   125813832.11007  23941559.100    98036789.54444
  20932826.020   110002745.29709  20932823.060    85716414.87949
  23247870.460   122168377.55908  23247871.700    95196139.55746
  24130864.560   126808552.58206  24130865.680    98811865.00845
  22634195.040   118943492.66108  22634193.360    92683232.63847
  21315462.120   112013503.07909  21315459.520    87283236.96549
 15 02 14 00 05  0.0000000  0  7G16G18G21G25G27G29G31
  23236900.220   122110739.37908  23236897.460    95151218.30346
  23927426.240   125739563.27907  23927425.660    97978917.91044
  20932736.520   110002274.86909  20932733.520    85716048.31349
  23263166.620   122248758.71808  23263167.840    95258774.19046
  24117041.540   126735912.82806  24117042.700    98755262.66246
  22647653.800   119014218.76808  22647652.160    92738343.87147
  21325809.800   112067880.44709  21325807.240    87325608.91749
 15 02 14 00 05 30.0000000  0  7G16G18G21G25G27G29G31
  23220708.100   122025649.56307  23220705.520    95084914.57246
  23913298.800   125665323.67807  23913298.200    97921069.08545
  20932733.880   110002260.80109  20932730.820    85716037.35349
  23278507.400   122329374.70407  23278508.760    95321591.80846
  24103240.900   126663390.71907  24103242.160    98698751.99345
  22661120.240   119084985.11108  22661118.520    92793486.45547
  21336246.140   112122723.70009  21336243.620    87368343.89649
 15 02 14 00 06  0.0000000  0  7G16G18G21G25G27G29G31
  23204526.800   121940616.54908  23204524.340    95018655.11946
  23899177.300   125591115.64807  23899176.720    97863244.85545
  20932817.940   110002702.25809  20932814.780    85716381.35649
  23293892.580   122410224.23108  23293894.020    95384591.39946
  24089462.640   126590985.57107  24089463.740    98642332.46346
  22674594.100   119155790.41908  22674592.280    92848659.40547
  21346770.700   112178030.38409  21346768.180    87411439.99749
 15 02 14 00 06 30.0000000  0  7G16G18G21G25G27G29G31
  23188356.540   121855641.20208  23188354.020    94952440.57346
  23885062.240   125516940.73307  23885061.540    97805446.40444
  20932988.360   110003597.79809  20932985.180    85717079.18549
  23309322.080   122491306.05708  23309323.220    95447772.02446
  24075706.500   126518696.69407  24075707.740    98586003.54146
  22688075.100   119226633.12108  22688073.200    92903861.49447
  21357382.880   112233797.81109  21357380.340    87454895.11549
 15 02 14 00 07  0.0000000  0  7G16G18G21G25G27G29G31
  23172198.140   121770727.96308  23172195.480    94886274.42546
  23870954.580   125442804.66907  23870953.640    97747678.20644
  20933245.640   110004949.80309  20933242.440    85718132.70449
  23324796.160   122572622.29208  23324797.020    95511135.30246
  24061973.040   126446526.75107  24061974.380    98529767.28046
  22701563.640   119297515.80108  22701561.740    92959094.73547
  21368082.900   112290026.67209  21368080.380    87498709.79149
 15 02 14 00 07 30.0000000  0  7G16G18G21G25G27G29G31
  23156051.740   121685877.55408  23156048.760    94820157.20746
  23856854.720   125368709.89007  23856853.560    97689942.17744
  20933589.520   110006756.88109  20933586.280    85719540.82949
  23340314.560   122654171.85108  23340315.120    95574680.39646
  24048262.200   126374475.31907  24048263.420    98473623.35646
  22715059.440   119368436.74508  22715057.560    93014357.80347
  21378870.180   112346714.26609  21378867.660    87542881.92249
 15 02 14 00 08  0.0000000  0  7G16G18G21G25G27G29G31
  23139916.860   121601088.17408  23139913.880    94754087.57546
  23842762.360   125294655.39407  23842761.460    97632237.58044
  20934019.140   110009014.73809  20934015.920    85721300.20549
  23355876.540   122735950.81207  23355877.360    95638404.23846
  24034573.200   126302538.95507  24034574.400    98417569.12446
  22728561.920   119439392.61808  22728560.020    93069648.07847
  21389743.760   112403855.47009  21389741.300    87587407.51749
 15 02 14 00 08 30.0000000  0  7G16G18G21G25G27G29G31
  23123794.700   121516366.25408  23123792.060    94688070.52246
  23828679.180   125220648.47207  23828678.240    97574570.00044
  20934535.460   110011728.26509  20934532.280    85723414.64349
  23371482.900   122817963.21608  23371484.080    95702309.95046
  24020906.920   126230722.35307  24020908.040    98361608.16845
  22742071.780   119510387.36108  22742070.000    93124968.64547
  21400704.200   112461453.06209  21400701.780    87632288.72749
 15 02 14 00 09  0.0000000  0  7G16G18G21G25G27G29G31
  23107684.980   121431709.34008  23107682.500    94622104.11946
  23814604.840   125146687.93107  23814604.080    97516938.57544
  20935137.500   110014892.33309  20935134.420    85725880.15249
  23387132.900   122900204.39008  23387134.180    95766393.94446
  24007262.580   126159021.45907  24007263.740    98305737.39546
  22755588.080   119581415.92108  22755586.400    93180315.56347
  21411750.320   112519500.84409  21411747.920    87677520.74449
 15 02 14 00 09 30.0000000  0  7G16G18G21G25G27G29G31
  23091588.820   121347123.56408  23091586.280    94556193.12446
  23800540.600   125072780.57107  23800539.800    97459348.59544
  20935826.080   110018511.09509  20935823.060    85728699.97349
  23402827.120   122982678.17507  23402828.140    95830659.21746
  23993641.000   126087440.69207  23993642.300    98249960.22545
  22769111.780   119652483.16808  22769110.020    93235692.64747
  21422882.640   112578001.14909  21422880.120    87723105.37749
 15 02 14 00 10  0.0000000  0  7G16G18G21G25G27G29G31
  23075505.020   121262602.49608  23075502.240    94490332.54845
  23786485.480   124998921.41607  23786484.820    97401796.17845
  20936599.420   110022575.21009  20936596.440    85731866.82249
  23418563.940   123065375.93507  23418564.700    95895099.00846
  23980040.920   126015972.08907  23980042.100    98194270.44345
  22782641.040   119723579.92008  22782639.180    93291092.70947
  21434099.160   112636943.95509  21434096.540    87769034.81249
 15 02 14 00 10 30.0000000  0  7G16G18G21G25G27G29G31
  23059435.780   121178158.06208  23059432.960    94424531.69645
  23772442.000   124925123.82807  23772441.240    97344291.69145
  20937459.500   110027095.09809  20937456.540    85735388.81349
  23434345.300   123148307.41808  23434346.280    95959720.91246
  23966464.120   125944625.94907  23966465.280    98138676.08946
  22796177.840   119794716.31508  22796175.980    93346523.64447
  21445401.480   112696337.83209  21445398.840    87815315.72649
 15 02 14 00 11  0.0000000  0  7G16G18G21G25G27G29G31
  23043379.300   121093780.91808  23043376.540    94358783.29345
  23758408.840   124851379.13507  23758407.820    97286828.43345
  20938403.900   110032057.94309  20938400.940    85739255.96749
  23450168.940   123231460.75008  23450170.220    96024515.65946
  23952908.660   125873391.11007  23952909.580    98083168.43145
  22809719.880   119865880.44508  22809718.080    93401976.19147
  21456787.000   112756169.25409  21456784.480    87861937.58749
 15 02 14 00 11 30.0000000  0  7G16G18G21G25G27G29G31
  23027337.440   121009480.40408  23027334.860    94293094.60146
  23744387.580   124777697.50207  23744386.660    97229414.30945
  20939434.000   110037471.12109  20939431.060    85743474.03849
  23466036.140   123314842.75607  23466037.520    96089488.64446
  23939375.740   125802274.92807  23939376.540    98027753.27046
  22823268.580   119937079.47508  22823266.880    93457455.94547
  21468256.800   112816443.45209  21468254.380    87908904.47049
 15 02 14 00 12  0.0000000  0  7G16G18G21G25G27G29G31
  23011310.460   120925257.96408  23011307.920    94227466.73246
  23730378.580   124704081.95207  23730377.880    97172051.71845
  20940549.740   110043334.30809  20940546.760    85748042.75749
  23481946.640   123398453.14707  23481948.000    96154639.55946
  23925865.460   125731277.81507  23925866.240    97972430.88446
  22836823.820   120008312.86508  22836822.160    93512962.45547
  21479810.520   112877158.80209  21479808.200    87956215.10649
 15 02 14 00 12 30.0000000  0  7G16G18G21G25G27G29G31
  22995297.380   120841108.71808  22995294.780    94161895.89346
  23716381.720   124630528.79907  23716381.140    97114737.69445
  20941749.720   110049640.08309  20941746.740    85752956.36049
  23497899.220   123482284.44707  23497900.340    96219962.62146
  23912376.540   125660392.99907  23912377.440    97917196.01246
  22850384.320   120079573.75608  22850382.740    93568490.41747
  21491446.540   112938306.45809  21491444.260    88003862.60749
 15 02 14 00 13  0.0000000  0  7G16G18G21G25G27G29G31
  22979299.940   120757041.76408  22979297.200    94096389.18646
  23702398.540   124557047.58607  23702397.740    97057479.71845
  20943035.080   110056394.50909  20943032.040    85758219.56149
  23513895.260   123566343.29308  23513896.140    96285463.00246
  23898910.280   125589627.65306  23898911.280    97862054.24446
  22863951.300   120150868.66708  22863949.700    93624044.86247
  21503165.820   112999891.65609  21503163.520    88051851.05149
 15 02 14 00 13 30.0000000  0  7G16G18G21G25G27G29G31
  22963317.640   120673054.24708  22963314.940    94030944.38246
  23688428.840   124483636.69207  23688427.740    97000276.53645
  20944404.860   110063592.79609  20944401.800    85763828.62249
  23529933.620   123650624.56907  23529934.520    96351136.69746
  23885465.860   125518977.36907  23885466.940    97807002.13445
  22877523.900   120222192.83508  22877522.260    93679622.12847
  21514967.100   113061907.82209  21514964.780    88100175.30749
 15 02 14 00 14  0.0000000  0  7G16G18G21G25G27G29G31
  22947351.100   120589149.08208  22947348.320    93965563.72246
  23674473.260   124410300.15507  23674472.080    96943131.28045
  20945859.220   110071235.27009  20945856.100    85769783.80549
  23546014.160   123735128.68707  23546015.320    96416984.02946
  23872043.560   125448443.22707  23872044.740    97752040.51646
  22891102.180   120293547.11508  22891100.520    93735222.84847
  21526850.220   113124353.69709  21526847.820    88148834.40849
 15 02 14 00 14 30.0000000  0  7G16G18G21G25G27G29G31
  22931400.640   120505328.67108  22931397.920    93900249.13546
  23660532.460   124337041.29007  23660531.660    96886046.60045
  20947397.940   110079321.30109  20947394.800    85776084.61149
  23562137.080   123819855.84207  23562138.440    96483005.14446
  23858643.540   125378026.05107  23858644.620    97697170.04446
  22904686.220   120364931.76708  22904684.560    93790847.22747
  21538814.900   113187228.10809  21538812.440    88197827.42749
 15 02 14 00 15  0.0000000  0  7G16G18G21G25G27G29G31
  22915466.080   120421592.34208  22915463.460    93835000.06146
  23646606.660   124263860.55207  23646605.920    96829022.74645
  20949020.500   110087848.03509  20949017.360    85782728.82349
  23578301.900   123904802.51507  23578303.320    96549197.32646
  23845265.300   125307723.05407  23845266.220    97642388.52945
  22918275.420   120436342.98008  22918273.720    93846492.29947
  21550860.120   113250525.85609  21550857.680    88247150.31949
 15 02 14 00 15 30.0000000  0  7G16G18G21G25G27G29G31
  22899548.460   120337944.78908  22899545.820    93769820.16446
  23632696.760   124190763.71007  23632695.940    96772064.29745
  20950727.320   110096817.60509  20950724.180    85789718.10549
  23594508.900   123989971.29307  23594510.200    96615562.59746
  23831909.500   125237537.52607  23831910.220    97587698.53246
  22931870.340   120507784.44608  22931868.680    93902160.94747
  21562986.160   113314248.34009  21562983.700    88296804.17249
 15 02 14 00 16  0.0000000  0  7G16G18G21G25G27G29G31
  22883647.580   120254385.18308  22883644.940    93704708.77846
  23618802.800   124117751.19307  23618801.560    96715171.51345
  20952517.880   110106227.13809  20952514.760    85797050.21449
  23610757.580   124075358.93807  23610758.900    96682098.38946
  23818575.520   125167466.84607  23818576.300    97533098.04146
  22945470.320   120579253.14908  22945468.660    93957850.81347
  21575192.060   113378390.65409  21575189.540    88346785.16749
 15 02 14 00 16 30.0000000  0  7G16G18G21G25G27G29G31
  22867763.840   120170915.57608  22867761.060    93639667.54046
  23604925.380   124044825.31607  23604924.160    96658346.25844
  20954391.760   110116074.72209  20954388.700    85804723.66549
  23627047.780   124160964.60307  23627049.240    96748804.06246
  23805263.340   125097510.87307  23805264.100    97478586.95046
  22959075.400   120650748.35308  22959073.660    94013561.33947
  21587477.380   113442950.37009  21587474.860    88397091.41748
 15 02 14 00 17  0.0000000  0  7G16G18G21G25G27G29G31
  22851898.020   120087540.01408  22851895.220    93574699.57646
  23591065.560   123971991.56007  23591064.360    96601592.75845
  20956349.560   110126363.17509  20956346.520    85812740.64949
  23643379.860   124246790.33107  23643381.560    96815681.20946
  23791973.420   125027672.36407  23791974.380    97424167.38446
  22972685.960   120722272.28408  22972684.280    94069294.24047
  21599842.320   113507928.33209  21599839.800    88447723.56448
 15 02 14 00 17 30.0000000  0  7G16G18G21G25G27G29G31
  22836049.620   120004256.04108  22836046.840    93509802.98046
  23577223.060   123899248.65507  23577222.100    96544910.10246
  20958390.260   110137087.22809  20958387.240    85821097.06349
  23659752.980   124332831.06407  23659754.660    96882725.89946
  23778705.020   124957947.04507  23778706.080    97369836.03646
  22986301.160   120793820.44308  22986299.520    94125046.04247
  21612285.520   113573317.61609  21612282.960    88498676.23048
 15 02 14 00 18  0.0000000  0  7G16G18G21G25G27G29G31
  22820219.280   119921067.12708  22820216.560    93444980.46446
  23563398.740   123826600.88707  23563397.400    96488301.51745
  20960513.880   110148247.07709  20960510.900    85829793.05049
  23676167.240   124419087.58607  23676168.580    96949938.74746
  23765458.460   124888336.35107  23765459.560    97315594.00546
  22999921.060   120865393.54808  22999919.440    94180817.25847
  21624806.880   113639117.72309  21624804.320    88549949.01049
 15 02 14 00 18 30.0000000  0  7G16G18G21G25G27G29G31
  22804407.940   119837977.93008  22804405.200    93380235.64546
  23549593.440   123754054.09007  23549592.140    96431771.67245
  20962720.840   110159844.78509  20962717.860    85838830.23649
  23692622.860   124505562.16707  23692624.020    97017321.51146
  23752234.280   124818843.21307  23752235.440    97261443.59046
  23013546.320   120936994.76708  23013544.700    94236610.40547
  21637406.520   113705329.19409  21637403.920    88601542.34649
 15 02 14 00 19  0.0000000  0  7G16G18G21G25G27G29G31
  22788615.060   119754985.79808  22788612.280    93315566.45846
  23535806.920   123681606.20107  23535805.340    96375318.83345
  20965010.080   110171874.85409  20965007.120    85848204.32449
  23709118.880   124592249.25307  23709120.100    97084869.84046
  23739031.700   124749462.92407  23739032.680    97207381.05846
  23027175.960   121008618.84408  23027174.320    94292421.35347
  21650083.100   113771945.14709  21650080.520    88653450.85249
 15 02 14 00 19 30.0000000  0  7G16G18G21G25G27G29G31
  22772841.400   119672094.65008  22772838.680    93250975.95946
  23522040.240   123609261.91708  23522038.700    96318946.74746
  20967381.880   110184338.64409  20967378.900    85857916.37049
  23725655.600   124679150.17707  23725656.960    97152584.80946
  23725850.960   124680197.46607  23725851.680    97153408.01046
  23040810.240   121080267.34808  23040808.540    94348251.32247
  21662836.560   113838965.13209  21662834.020    88705674.18649
 15 02 14 00 20  0.0000000  0  7G16G18G21G25G27G29G31
  22757087.160   119589305.46308  22757084.420    93186464.92046
  23508293.820   123537023.71107  23508292.380    96262657.32045
  20969835.920   110197234.66209  20969832.940    85867965.22549
  23742232.820   124766263.61207  23742234.300    97220465.36746
  23712691.840   124611046.27307  23712692.420    97099524.00246
  23054449.060   121151939.45708  23054447.380    94404099.71147
  21675666.360   113906386.39309  21675663.880    88758210.20848
 15 02 14 00 20 30.0000000  0  7G16G18G21G25G27G29G31
  22741353.100   119506622.39908  22741350.320    93122036.55746
  23494568.420   123464896.53907  23494566.960    96206454.41945
  20972372.460   110210564.36409  20972369.500    85878352.00649
  23758850.720   124853591.27907  23758852.060    97288512.86145
  23699554.820   124542011.78407  23699555.520    97045730.94346
  23068092.780   121223637.52708  23068091.200    94459968.31047
  21688572.540   113974208.99309  21688570.140    88811058.95648
 15 02 14 00 21  0.0000000  0  7G16G18G21G25G27G29G31
  22725639.300   119424045.89308  22725636.420    93057691.23046
  23480864.360   123392881.67707  23480862.840    96150339.01245
  20974991.000   110224324.94809  20974988.040    85889074.54149
  23775508.780   124941130.80507  23775510.120    97356725.42646
  23686439.720   124473092.45307  23686440.620    96992027.61646
  23081740.980   121295359.45708  23081739.440    94515855.50147
  21701554.460   114042429.40309  21701552.080    88864217.68648
 15 02 14 00 21 30.0000000  0  7G16G18G21G25G27G29G31
  22709945.240   119341573.00708  22709942.360    92993426.65546
  23467181.260   123320977.00307  23467179.700    96094309.47645
  20977690.300   110238510.05909  20977687.380    85900127.88549
  23792206.100   125028876.25307  23792207.660    97425098.47545
  23673345.640   124404283.04007  23673346.760    96938409.96347
  23095392.640   121367099.58808  23095391.020    94571756.89446
  21714610.620   114111039.85809  21714608.220    88917680.36248
 15 02 14 00 22  0.0000000  0  7G16G18G21G25G27G29G31
  22694272.380   119259211.56108  22694269.580    92929248.91147
  23453520.840   123249191.11408  23453518.920    96038372.49745
  20980471.520   110253125.55009  20980468.600    85911516.58649
  23808943.720   125116833.02907  23808945.500    97493636.18646
  23660273.760   124335589.80207  23660274.880    96884882.82046
  23109048.920   121438863.61608  23109047.220    94627676.87947
  21727741.700   114180044.21009  21727739.320    88971449.95848
 15 02 14 00 22 30.0000000  0  7G16G18G21G25G27G29G31
  22678620.580   119176960.84408  22678617.840    92865157.46646
  23439883.020   123177524.52707  23439881.100    95982528.47945
  20983333.860   110268167.26409  20983330.920    85923237.40649
  23825720.920   125204997.75007  23825722.700    97562335.93345
  23647223.580   124267010.07108  23647224.660    96831444.09246
  23122709.220   121510649.13808  23122707.740    94683613.62446
  21740946.800   114249437.46809  21740944.460    89025522.59648
 15 02 14 00 23  0.0000000  0  7G16G18G21G25G27G29G31
  22662989.800   119094820.78008  22662987.000    92801152.22346
  23426268.100   123105977.97607  23426266.460    95926777.98646
  20986276.940   110283633.23109  20986273.980    85935288.81649
  23842537.240   125293367.85807  23842539.040    97631195.71945
  23634194.700   124198542.06607  23634195.560    96778092.44847
  23136373.220   121582453.82108  23136371.720    94739565.30347
  21754225.180   114319215.72109  21754222.820    89079895.23448
 15 02 14 00 23 30.0000000  0  7G16G18G21G25G27G29G31
  22647381.660   119012799.59308  22647378.800    92737239.61646
  23412677.840   123034560.76208  23412676.320    95871128.27845
  20989301.620   110299527.93409  20989298.660    85947674.30849
  23859393.660   125381948.50707  23859395.320    97700219.56145
  23621188.140   124130191.71707  23621188.800    96724832.47846
  23150042.040   121654283.71108  23150040.440    94795536.64846
  21767577.480   114389382.38909  21767575.080    89134570.53148
 15 02 14 00 24  0.0000000  0  7G16G18G21G25G27G29G31
  22631795.360   118930893.09608  22631792.480    92673416.37046
  23399111.560   122963269.45608  23399109.900    95815576.67845
  20992406.560   110315844.39909  20992403.560    85960388.43649
  23876288.940   125470732.98807  23876290.420    97769402.23646
  23608202.740   124061953.15607  23608203.240    96671659.60246
  23163714.460   121726132.48208  23163712.780    94851522.64846
  21781002.100   114459929.09909  21780999.680    89189541.96148
 15 02 14 00 24 30.0000000  0  7G16G18G21G25G27G29G31
  22616231.780   118849106.13108  22616229.000    92609686.27347
  23385570.300   122892109.69608  23385568.500    95760127.58345
  20995592.080   110332584.48009  20995589.080    85973432.65949
  23893223.200   125559723.31707  23893225.060    97838745.28046
  23595238.980   123993829.15607  23595239.620    96618576.01546
  23177391.020   121798002.78008  23177389.260    94907525.46146
  21794499.120   114530856.25009  21794496.700    89244809.84448
 15 02 14 00 25  0.0000000  0  7G16G18G21G25G27G29G31
  22600690.820   118767438.12208  22600688.080    92546048.87446
  23372054.100   122821081.71708  23372052.260    95704781.14445
  20998857.540   110349744.53509  20998854.540    85986804.13749
  23910195.980   125648916.11207  23910197.820    97908246.10046
  23582296.580   123925817.18407  23582297.340    96565579.71046
  23191071.100   121869892.03608  23191069.480    94963543.02247
  21808067.600   114602159.05409  21808065.240    89300370.43848
 15 02 14 00 25 30.0000000  0  7G16G18G21G25G27G29G31
  22585172.860   118685890.82308  22585170.120    92482505.53046
  23358563.420   122750188.18508  23358561.720    95649539.50745
  21002202.680   110367323.35209  21002199.680    86000501.92449
  23927207.220   125738310.26907  23927209.060    97977903.86246
  23569375.600   123857916.96007  23569376.320    96512670.48846
  23204754.640   121941799.06608  23204753.020    95019574.43846
  21821707.040   114673834.76609  21821704.760    89356221.60748
 15 02 14 00 26  0.0000000  0  7G16G18G21G25G27G29G31
  22569678.620   118604468.09208  22569675.880    92419059.24246
  23345099.260   122679433.76508  23345097.640    95594406.24645
  21005627.660   110385321.79309  21005624.640    86014526.68649
  23944257.020   125827907.10507  23944258.540    98047719.55046
  23556476.360   123790130.58407  23556477.020    96459849.97046
  23218441.900   122013726.10808  23218440.320    95075621.44346
  21835417.420   114745883.14209  21835415.140    89412363.16248
 15 02 14 00 26 30.0000000  0  7G16G18G21G25G27G29G31
  22554208.440   118523171.72108  22554205.700    92355711.43546
  23331662.140   122608821.36208  23331660.500    95539383.65045
  21009132.320   110403738.88409  21009129.280    86028877.67649
  23961345.000   125917705.64007  23961346.620    98117692.36846
  23543598.740   123722457.90007  23543599.340    96407118.05146
  23232132.980   122085672.93608  23232131.380    95131683.89346
  21849198.240   114818301.49809  21849195.940    89468793.02748
 15 02 14 00 27  0.0000000  0  7G16G18G21G25G27G29G31
  22538762.340   118442001.91008  22538759.540    92292462.23546
  23318252.160   122538351.55508  23318250.540    95484472.16645
  21012716.080   110422571.56309  21012713.020    86043552.49549
  23978470.980   126007702.93607  23978472.840    98187820.07845
  23530742.260   123654896.87107  23530742.760    96354473.14046
  23245827.280   122157637.02607  23245825.520    95187759.77146
  21863048.620   114891085.49209  21863046.340    89525507.78748
 15 02 14 00 27 30.0000000  0  7G16G18G21G25G27G29G31
  22523340.780   118360960.84208  22523337.920    92229313.35947
  23304869.880   122468027.45608  23304868.140    95429674.22546
  21016378.740   110441818.76309  21016375.640    86058550.31749
  23995634.680   126097898.55707  23995636.680    98258102.33546
  23517907.020   123587447.82807  23517907.480    96301915.48846
  23259524.820   122229618.07907  23259522.880    95243848.87646
  21876968.160   114964233.01609  21876965.940    89582505.83148
 15 02 14 00 28  0.0000000  0  7G16G18G21G25G27G29G31
  22507944.200   118280051.52808  22507941.400    92166267.14747
  23291516.080   122397853.26808  23291514.360    95374993.09145
  21020120.240   110461480.51309  21020117.140    86073871.16549
  24012836.180   126188292.58407  24012838.220    98328539.17445
  23505093.320   123520111.79007  23505093.600    96249445.87046
  23273226.060   122301618.02708  23273224.240    95299952.68946
  21890956.580   115037742.41509  21890954.380    89639785.84348
 15 02 14 00 28 30.0000000  0  7G16G18G21G25G27G29G31
  22492572.680   118199273.86008  22492569.960    92103323.53147
  23278190.940   122327829.46808  23278189.080    95320429.14445
  21023940.020   110481553.64209  21023936.940    86089512.57949
  24030074.880   126278882.01807  24030076.720    98399128.29445
  23492300.840   123452886.60408  23492300.780    96197062.62946
  23286930.320   122373634.26307  23286928.620    95356069.20847
  21905013.040   115111609.30309  21905010.780    89697344.43348
 15 02 14 00 29  0.0000000  0  7G16G18G21G25G27G29G31
  22477226.840   118118630.88008  22477224.120    92040484.84447
  23264895.240   122257959.93308  23264893.340    95265985.39745
  21027838.080   110502038.13309  21027835.020    86105474.52649
  24047350.740   126369667.16207  24047352.360    98469869.93845
  23479529.780   123385773.34608  23479529.600    96144766.60446
  23300637.740   122445667.24108  23300636.160    95412198.75246
  21919137.240   115185832.46209  21919134.960    89755180.62348
 15 02 14 00 29 30.0000000  0  7G16G18G21G25G27G29G31
  22461907.500   118038126.90008  22461904.680    91977754.48147
  23251629.760   122188249.42808  23251627.960    95211665.58345
  21031814.620   110522935.07009  21031811.540    86121757.85649
  24064663.980   126460649.09407  24064665.620    98540764.89546
  23466780.280   123318774.05807  23466780.240    96092559.39447
  23314348.680   122517719.01108  23314347.180    95468342.94146
  21933329.100   115260411.02109  21933326.760    89813293.75448
 15 02 14 00 30  0.0000000  0  7G16G18G21G25G27G29G31
  22446614.020   117957759.13308  22446611.200    91915130.25547
  23238394.120   122118696.20908  23238392.320    95157468.32145
  21035868.420   110544237.94409  21035865.340    86138357.50649
  24082013.860   126551822.32207  24082015.780    98611808.90646
  23454051.480   123251884.08807  23454051.840    96040437.37847
  23328062.340   122589784.86807  23328060.760    95524498.12846
  21947587.280   115335338.04009  21947584.980    89871678.40948
 15 02 14 00 30 30.0000000  0  7G16G18G21G25G27G29G31
  22431347.860   117877534.98708  22431345.120    91852617.94347
  23225190.000   122049308.66308  23225188.280    95103400.15445
  21040000.360   110565951.49809  21039997.260    86155277.16549
  24099400.860   126643191.33207  24099402.780    98683005.46946
  23441344.220   123185108.74207  23441345.160    95988404.73747
  23341779.700   122661869.79207  23341778.000    95580668.15746
  21961912.280   115410616.30709  21961910.040    89930336.76648
 15 02 14 00 31  0.0000000  0  7G16G18G21G25G27G29G31
  22416108.640   117797452.51808  22416105.920    91790216.02647
  23212017.180   121980085.31108  23212015.340    95049459.92646
  21044209.500   110588070.69909  21044206.400    86172512.91249
  24116824.180   126734751.24206  24116826.000    98754350.82345
  23428658.020   123118444.15307  23428659.440    95936458.37547
  23355499.960   122733969.84008  23355498.240    95636849.98146
  21976302.920   115486239.54109  21976300.700    89989263.92548
 15 02 14 00 31 30.0000000  0  7G16G18G21G25G27G29G31
  22400896.460   117717511.85708  22400893.700    91727924.61047
  23198875.680   121911026.97708  23198873.780    94995648.27445
  21048495.220   110610592.32809  21048492.100    86190062.23749
  24134283.240   126826499.23507  24134285.000    98825842.68945
  23415992.740   123051888.36107  23415994.240    95884596.76347
  23369222.740   122806083.12107  23369221.080    95693042.12346
  21990758.340   115562203.16509  21990756.100    90048456.32648
 15 02 14 00 32  0.0000000  0  7G16G18G21G25G27G29G31
  22385712.040   117637717.33908  22385709.280    91665747.06747
  23185766.600   121842138.73808  23185764.860    94941969.16845
  21052857.700   110633517.34709  21052854.580    86207925.89049
  24151778.560   126918436.50007  24151779.940    98897482.09545
  23403348.840   122985443.52408  23403349.840    95832821.56546
  23382948.240   122878211.44907  23382946.880    95749245.98446
  22005278.440   115638506.93509  22005276.200    90107913.77048
 15 02 14 00 32 30.0000000  0  7G16G18G21G25G27G29G31
  22370556.040   117558071.91308  22370553.180    91603685.70547
  23172690.700   121773424.59508  23172689.260    94888425.73646
  21057296.940   110656845.70809  21057293.840    86226103.84449
  24169309.740   127010563.15806  24169311.300    98969269.01246
  23390726.280   122919110.59108  23390726.760    95781133.56946
  23396676.760   122950355.51107  23396675.380    95805462.10146
  22019862.980   115715149.11009  22019860.800    90167634.91348
 15 02 14 00 33  0.0000000  0  7G16G18G21G25G27G29G31
  22355428.620   117478576.75108  22355425.720    91541741.42647
  23159648.320   121704886.47108  23159647.000    94835019.46246
  21061812.500   110680575.17509  21061809.400    86244594.34849
  24186876.400   127102877.42306  24186878.240    99041202.12845
  23378124.760   122852888.71007  23378124.940    95729532.12446
  23410408.240   123022514.66208  23410406.680    95861690.01246
  22034511.300   115792126.30109  22034509.120    90227617.10948
 15 02 14 00 33 30.0000000  0  7G16G18G21G25G27G29G31
  22340329.980   117399233.15608  22340327.160    91479915.25547
  23146639.760   121636525.94208  23146638.200    94781751.55145
  21066403.900   110704703.14509  21066400.780    86263395.37249
  24204478.520   127195377.32407  24204480.400    99113279.90045
  23365544.060   122786776.90107  23365544.300    95678016.44946
  23424142.400   123094687.79508  23424140.820    95917928.80046
  22049222.680   115869435.08009  22049220.500    90287857.67948
 15 02 14 00 34  0.0000000  0  7G16G18G21G25G27G29G31
  22325260.880   117320044.51708  22325258.160    91418209.83647
  23133665.800   121568347.54808  23133663.900    94728625.55646
  21071071.320   110729230.59209  21071068.200    86282507.67549
  24222116.360   127288063.53507  24222118.000    99185502.89945
  23352984.520   122720776.73507  23352985.100    95626587.80347
  23437879.400   123166876.30907  23437877.940    95974179.56046
  22063997.020   115947074.70109  22063994.820    90348356.04848
 15 02 14 00 34 30.0000000  0  7G16G18G21G25G27G29G31
  22310221.540   117241012.12008  22310218.800    91356626.15147
  23120726.820   121500352.73108  23120725.040    94675642.62946
  21075814.220   110754154.75209  21075811.120    86301929.10649
  24239789.060   127380934.02407  24239790.620    99257869.45245
  23340445.980   122654887.11407  23340446.960    95575245.29347
  23451618.900   123239078.59207  23451617.640    96030441.02946
  22078833.580   116025041.04509  22078831.380    90409109.01348
 15 02 14 00 35  0.0000000  0  7G16G18G21G25G27G29G31
  22295212.120   117162137.31708  22295209.380    91295165.27147
  23107823.140   121432543.73508  23107821.500    94622804.49746
  21080632.320   110779474.05409  21080629.200    86321658.43749
  24257496.500   127473987.39706  24257498.500    99330378.47345
  23327928.520   122589107.56407  23327929.620    95523988.54447
  23465360.960   123311294.55807  23465359.960    96086713.17446
  22093731.760   116103331.18609  22093729.620    90470114.27648
 15 02 14 00 35 30.0000000  0  8G16G18G21G22G25G27G29G31
  22280232.760   117083420.34908  22280230.020    91233827.38247
  23094955.020   121364921.64908  23094953.480    94570112.01645
  21085524.940   110805184.97009  21085521.820    86341692.92049
  24550129.360   129011798.69506  24550134.760   100528688.89845
  24275238.160   127567220.50506  24275240.180    99403027.55445
  23315431.640   122523436.04307  23315432.680    95472815.96347
  23479105.480   123383522.03807  23479104.520    96142994.30747
  22108690.640   116181940.51809  22108688.560    90531368.26748
 15 02 14 00 36  0.0000000  0  8G16G18G21G22G25G27G29G31
  22265282.700   117004857.25608  22265279.980    91172609.39247
  23082121.820   121297482.94908  23082120.240    94517562.42046
  21090490.700   110831280.32009  21090487.600    86362026.96749
  24533008.280   128921823.76407  24533012.820   100458579.41045
  24293012.800   127660626.23007  24293014.540    99475811.17945
  23302954.160   122457866.26408  23302955.120    95421722.65947
  23492851.040   123455754.82407  23492850.120    96199279.56846
  22123708.600   116260860.32809  22123706.520    90592864.18448
 15 02 14 00 36 30.0000000  0  8G16G18G21G22G25G27G29G31
  22250365.700   116926467.86008  22250362.860    91111526.74047
  23069327.600   121230248.48508  23069325.920    94465171.93946
  21095532.800   110857776.72909  21095529.660    86382673.52049
  24515870.300   128831765.39407  24515874.980   100388404.93945
  24310823.520   127754221.53606  24310824.860    99548742.54145
  23290499.500   122392416.25308  23290500.280    95370722.66546
  23506600.920   123528010.51807  23506599.740    96255582.66946
  22138788.620   116340105.87909  22138786.460    90654613.92948
 15 02 14 00 37  0.0000000  0  8G16G18G21G22G25G27G29G31
  22235479.920   116848242.56108  22235477.060    91050571.96547
  23056570.420   121163209.10708  23056568.600    94412933.51846
  21100648.760   110884661.07009  21100645.540    86403622.36149
  24498714.580   128741614.50906  24498718.960   100318158.38545
  24328667.640   127847993.61006  24328669.160    99621811.58745
  23278065.360   122327074.06208  23278065.920    95319806.69147
  23520352.860   123600277.33507  23520351.580    96311894.45646
  22153927.760   116419662.57809  22153925.600    90716606.12348
 15 02 14 00 37 30.0000000  0  8G16G18G21G22G25G27G29G31
  22220626.660   116770188.05608  22220623.860    90989750.27347
  23043851.700   121096372.07908  23043849.800    94360852.74246
  21105839.080   110911936.36209  21105835.840    86424875.83649
  24481542.000   128651377.92505  24481546.760   100247845.12645
  24346546.260   127941946.02706  24346548.080    99695021.18145
  23265652.560   122261844.40807  23265653.060    95268978.41146
  23534107.740   123672559.83607  23534106.440    96368218.45446
  22169126.560   116499532.70109  22169124.460    90778842.54448
 15 02 14 00 38  0.0000000  0  8G16G18G21G22G25G27G29G31
  22205805.420   116692301.84808  22205802.660    90929059.73547
  23031171.180   121029735.49908  23031169.140    94308928.17346
  21111102.720   110939597.03209  21111099.480    86446429.61549
  24464352.980   128561053.86307  24464358.180   100177463.84545
  24364458.200   128036073.17207  24364460.100    99768366.90145
  23253260.140   122196722.57907  23253260.620    95218234.16647
  23547864.700   123744852.87807  23547863.220    96424550.68246
  22184383.640   116579708.86409  22184381.500    90841317.45148
 15 02 14 00 38 30.0000000  0  8G16G18G21G22G25G27G29G31
  22191016.260   116614584.33308  22191013.440    90868500.62847
  23018528.980   120963300.40008  23018526.960    94257160.59846
  21116439.100   110967639.94009  21116435.860    86468281.23849
  24447147.820   128470642.87007  24447152.840   100107014.67746
  24382402.960   128130372.22406  24382404.600    99841846.62545
  23240887.980   122131706.79707  23240888.520    95167572.54247
  23561623.460   123817155.29007  23561622.100    96480890.16146
  22199698.140   116660186.64009  22199695.960    90904027.36548
 15 02 14 00 39  0.0000000  0  8G16G18G21G22G25G27G29G31
  22176260.560   116537042.62408  22176257.680    90808078.50847
  23005926.560   120897074.33408  23005924.540    94205555.89746
  21121848.900   110996068.61509  21121845.660    86490433.45449
  24429927.440   128380152.60406  24429932.160   100036503.79746
  24400381.100   128224846.98106  24400382.440    99915463.24145
  23228536.980   122066801.86708  23228537.500    95116997.29247
  23575384.940   123889471.53507  23575383.620    96537240.44546
  22215070.400   116740968.01209  22215068.200    90966973.85048
 15 02 14 00 39 30.0000000  0  8G16G18G21G22G25G27G29G31
  22161538.540   116459677.82409  22161535.620    90747794.25047
  22993364.220   120831059.10708  22993362.320    94154115.50846
  21127331.580   111024880.34109  21127328.340    86512884.15549
  24412691.940   128289584.52507  24412696.680    99965932.36144
  24418391.920   128319495.41406  24418393.020    99989215.16544
  23216206.840   122002006.69907  23216207.340    95066507.58647
  23589148.740   123961800.47707  23589147.420    96593600.60646
  22230499.720   116822049.47509  22230497.560    91030154.17648
 15 02 14 00 40  0.0000000  0  8G16G18G21G22G25G27G29G31
  22146850.120   116382489.45308  22146847.200    90687647.46747
  22980842.140   120765254.95908  22980840.160    94102839.57346
  21132886.320   111054070.83809  21132883.120    86535629.99949
  24395441.760   128198938.62907  24395445.940    99895300.16544
  24436435.220   128414314.01606  24436436.460   100063099.68145
  23203897.060   121937318.89608  23203897.600    95016101.54346
  23602914.320   124034139.59507  23602913.200    96649968.70546
  22245985.200   116903425.98009  22245983.100    91093564.40148
 15 02 14 00 40 30.0000000  0  8G16G18G21G22G25G27G29G31
  22132195.820   116305480.60808  22132192.860    90627640.57347
  22968360.920   120699665.78908  22968358.820    94051731.16646
  21138513.260   111083640.60709  21138510.060    86558671.38649
  24378177.620   128108218.40807  24378181.360    99824610.05546
  24454511.080   128509302.62106  24454512.280   100137116.70845
  23191607.960   121872739.43508  23191608.400    94965779.90246
  23616682.200   124106490.30907  23616681.060    96706345.86046
  22261526.440   116985095.79809  22261524.400    91157203.18348
 15 02 14 00 41  0.0000000  0  8G16G18G21G22G25G27G29G31
  22117576.100   116228653.50809  22117573.160    90567775.30747
  22955921.140   120634294.21408  22955918.960    94000792.31246
  21144212.120   111113588.35309  21144208.940    86582007.29249
  24360899.740   128017426.75806  24360903.540    99753864.33245
  24472618.980   128604460.44606  24472620.640   100211265.54645
  23179339.540   121808268.42608  23179339.920    94915542.77546
  23630452.240   124178852.34407  23630450.980    96762731.82346
  22277123.000   117067056.26009  22277120.940    91221068.43848
 15 02 14 00 41 30.0000000  0  8G16G18G21G22G25G27G29G31
  22102991.340   116152010.09608  22102988.440    90508053.17147
  22943523.160   120569142.51308  22943521.240    93950024.79746
  21149982.400   111143911.42609  21149979.240    86605635.66949
  24343608.380   127926565.46307  24343612.200    99683064.29245
  24490758.800   128699785.79306  24490760.500   100285544.91944
  23167091.780   121743905.22508  23167092.120    94865389.65047
  23644224.440   124251225.05307  23644222.880    96819126.13746
  22292774.280   117149304.22409  22292772.220    91285157.72948
 15 02 14 00 42  0.0000000  0  8G16G18G21G22G25G27G29G31
  22088441.660   116075550.91709  22088438.800    90448474.58647
  22931167.140   120504211.77808  22931165.320    93899429.44246
  21155823.620   111174607.38409  21155820.460    86629554.59349
  24326304.360   127835635.57207  24326307.860    99612210.71744
  24508930.140   128795275.97806  24508931.500   100359952.78545
  23154864.240   121679648.31408  23154864.480    94815319.35947
  23657998.380   124323606.78407  23657996.800    96875527.43946
  22308479.460   117231835.62009  22308477.480    91349467.85748
 15 02 14 00 42 30.0000000  0  8G16G18G21G22G25G27G29G31
  22073927.660   115999279.22409  22073924.800    90389042.10247
  22918853.960   120439505.97208  22918852.100    93849009.35446
  21161735.800   111205676.28109  21161732.680    86653764.12549
  24308988.140   127744641.13007  24308991.320    99541306.85245
  24527132.900   128890931.15806  24527134.100   100434489.18144
  23142657.060   121615498.84308  23142657.320    94765332.79547
  23671774.200   124395998.93107  23671772.660    96931936.85545
  22324238.280   117314648.67309  22324236.380    91413997.46148
 15 02 14 00 43  0.0000000  0  8G16G18G21G22G25G27G29G31
  22059450.600   115923201.79209  22059447.680    90329760.98847
  22906584.900   120375032.00008  22906582.960    93798769.93046
  21167719.400   111237120.42709  21167716.300    86678266.05549
  24291660.900   127653589.02307  24291664.000    99470358.04745
  24545367.420   128986754.66506  24545369.100   100509156.69545
  23130471.080   121551461.19108  23130471.340    94715433.35847
  23685552.680   124468405.62407  23685551.380    96988357.60546
  22340051.000   117397744.87009  22340049.120    91478747.70648
 15 02 14 00 43 30.0000000  0  8G16G18G21G22G25G27G29G31
  22045009.960   115847315.70109  22045007.000    90270628.96748
  22894359.520   120310787.78608  22894357.740    93748709.53646
  21173773.280   111268933.90709  21173770.200    86703055.78449
  24274322.200   127562476.91807  24274325.120    99399362.47845
  24563632.980   129082740.31506  24563634.960   100583950.59544
  23118305.320   121487530.27407  23118305.640    94665617.08247
  23699332.980   124540821.98807  23699331.780    97044785.89846
  22355916.260   117481117.00109  22355914.360    91543712.96148
 15 02 14 00 44  0.0000000  0  8G16G18G21G22G25G27G29G31
  22030606.160   115771623.04209  22030603.200    90211647.67547
  22882178.320   120246775.58408  22882176.680    93698829.92746
  21179897.080   111301114.73009  21179894.020    86728131.75049
  24256972.480   127471307.07707  24256974.880    99328321.82345
  24581929.220   129178886.66006  24581931.000   100658869.72245
  23106159.800   121423705.81108  23106160.160    94615883.75647
  23713115.140   124613247.54707  23713113.840    97101221.35746
  22371833.380   117564761.68409  22371831.360    91608890.59248
 15 02 14 00 44 30.0000000  0  8G16G18G21G22G25G27G29G31
  22016239.540   115696125.97609  22016236.660    90152818.80448
  22870041.860   120182998.24508  22870040.380    93649133.35046
  21186090.580   111333661.71109  21186087.500    86753493.03949
  24239612.240   127380082.27507  24239614.480    99257238.35045
  24600255.940   129275193.00706  24600257.480   100733913.54145
  23094034.640   121359988.19008  23094034.980    94566233.68746
  23726899.140   124685682.73507  23726897.680    97157664.36745
  22387801.940   117648676.72309  22387799.880    91674278.89748
 15 02 14 00 45  0.0000000  0  8G16G18G21G22G25G27G29G31
  22001910.720   115620827.62909  22001907.860    90094144.77247
  22857950.980   120119459.90308  22857949.420    93599622.96846
  21192353.700   111366574.51009  21192350.640    86779139.37549
  24222242.300   127288806.46607  24222244.500    99186115.11546
  24618612.700   129371659.17305  24618614.420   100809081.83944
  23081930.100   121296378.27208  23081930.380    94516667.53547
  23740685.120   124758128.70107  23740683.780    97214115.72146
  22403821.560   117732860.23409  22403819.580    91739876.39148
 15 02 14 00 45 30.0000000  0  8G16G18G21G22G25G27G29G31
  21987619.940   115545728.93109  21987617.040    90035626.30247
  22845905.780   120056161.40308  22845904.020    93550299.47646
  21198685.840   111399849.98609  21198682.740    86805068.31349
  24204862.960   127197480.51007  24204865.180    99114952.77446
  24636999.520   129468282.64006  24637001.540   100884372.70345
  23069845.820   121232874.67108  23069846.060    94467184.22647
  23754472.820   124830583.98707  23754471.720    97270574.31746
  22419891.440   117817307.98109  22419889.620    91805679.76948
 15 02 14 00 46  0.0000000  0  8G16G18G21G22G25G27G29G31
  21973368.120   115470835.04309  21973365.180    89977267.43447
  22833907.200   119993108.25108  22833905.320    93501167.19446
  21205087.320   111433489.88009  21205084.200    86831281.22149
  24187475.260   127106109.70007  24187477.260    99043755.44946
  24655416.720   129565064.97306  24655418.840   100959787.36845
  23057782.260   121169480.05408  23057782.560    94417785.85647
  23768262.900   124903051.10007  23768261.900    97327042.15846
  22436011.620   117902020.07309  22436009.840    91871689.14448
 15 02 14 00 46 30.0000000  0  8G16G18G21G22G25G27G29G31
  21959154.500   115396142.10309  21959151.660    89919065.14748
  22821954.660   119930297.34708  22821952.740    93452223.65046
  21211556.620   111467486.36809  21211553.500    86857771.98949
  24170078.380   127014691.12007  24170079.620    98972520.85444
  24673863.100   129661998.95507  24673864.940   101035320.16744
  23045738.240   121106188.47508  23045738.620    94368467.76947
  23782054.260   124975524.35507  23782053.100    97383514.77046
  22452180.460   117986987.64609  22452178.500    91937897.59548
 15 02 14 00 47  0.0000000  0  8G16G18G21G22G25G27G29G31
  21944981.020   115321659.99209  21944978.200    89861027.14248
  22810050.180   119867738.91908  22810048.140    93403476.84346
  21218094.900   111501845.37709  21218091.820    86884545.24349
  24152674.260   126923235.00507  24152675.120    98901256.97445
  24692339.060   129759091.24505  24692340.360   101110976.44443
  23033715.240   121043007.54308  23033715.720    94319235.90947
  23795848.200   125048011.34307  23795846.940    97439998.08346
  22468398.940   118072215.98108  22468396.860    92004309.24448
 15 02 14 00 47 30.0000000  0  8G16G18G21G22G25G27G29G31
  21930847.160   115247386.32409  21930844.360    89803151.56548
  22798193.500   119805431.34308  22798191.420    93354925.51846
  21224701.180   111536561.60709  21224698.100    86911596.85349
  24135262.880   126831739.73507  24135263.760    98829962.58046
  24710844.100   129856336.52506  24710846.000   101186751.79345
  23021712.520   120979933.15008  23021713.040    94270087.06847
  23809643.880   125120507.76807  23809642.640    97496488.75546
  22484665.680   118157697.99308  22484663.560    92070918.56148
 15 02 14 00 48  0.0000000  0  8G16G18G21G22G25G27G29G31
  21916752.880   115173320.58509  21916750.060    89745438.00548
  22786384.400   119743373.77008  22786382.240    93306568.99046
  21231374.500   111571630.08809  21231371.400    86938922.93849
  24117844.120   126740204.51307  24117845.020    98758636.98945
  24729377.620   129953729.96307  24729379.960   101262642.58944
  23009729.460   120916961.70308  23009729.900    94221018.41647
  23823440.500   125193010.22306  23823439.260    97552984.11546
  22500979.420   118243427.01509  22500977.360    92137720.33548
 15 02 14 00 48 30.0000000  0  8G16G18G21G22G25G27G29G31
  21902699.460   115099469.52709  21902696.580    89687891.72248
  22774624.280   119681573.85208  22774621.980    93258413.23446
  21238115.480   111607054.14009  21238112.360    86966526.09349
  24100418.920   126648636.90507  24100419.920    98687286.24045
  24747940.340   130051275.42106  24747942.560   101338651.88745
  22997766.940   120854098.12308  22997767.240    94172033.83747
  23837239.240   125265523.68007  23837238.200    97609488.04646
  22517340.640   118329405.47308  22517338.580    92204716.48548
 15 02 14 00 49  0.0000000  0  8G16G18G21G22G25G27G29G31
  21888686.900   115025832.97209  21888684.000    89630512.59648
  22762913.140   119620031.79708  22762910.780    93210458.40946
  21244923.440   111642830.16909  21244920.300    86994403.52749
  24082987.520   126557037.19607  24082987.820    98615910.34146
  24766531.160   130148969.35006  24766532.980   101414776.84045
  22985824.540   120791340.15308  22985824.780    94123131.53847
  23851039.840   125338045.88907  23851038.960    97665998.80346
  22533748.380   118415628.62608  22533746.260    92271903.31648
 15 02 14 00 49 30.0000000  0  8G16G18G21G22G25G27G29G31
  21874715.980   114952415.24009  21874713.060    89573303.97548
  22751251.980   119558752.14008  22751249.700    93162708.05446
  21251798.400   111678958.15709  21251795.200    87022555.20849
  24065551.180   126465410.08707  24065551.020    98544513.07645
  24785149.920   130246812.55006  24785151.760   101491018.11745
  22973902.500   120728689.49708  22973902.820    94074312.88547
  23864842.580   125410578.84407  23864841.640    97722517.95846
  22550202.380   118502095.08508  22550200.360    92339279.71848
 15 02 14 00 50  0.0000000  0  8G16G18G21G22G25G27G29G31
  21860786.320   114879214.19809  21860783.360    89516264.20548
  22739640.400   119497732.98908  22739638.220    93115160.69346
  21258739.160   111715432.04209  21258735.940    87050976.41749
  24048109.260   126373753.68507  24048109.200    98473093.00646
  24803796.280   130344799.09806  24803798.080   101567371.16245
  22962000.080   120666141.79508  22962000.360    94025574.42847
  23878646.480   125483118.13207  23878645.360    97779042.04845
  22566701.380   118588797.77108  22566699.360    92406840.21048
 15 02 14 00 50 30.0000000  0  7G16G18G21G22G27G29G31
  21846899.940   114806240.70809  21846896.940    89459401.74548
  22728080.460   119436985.04108  22728078.360    93067824.65946
  21265747.200   111752259.43009  21265743.960    87079673.09149
  24030663.740   126282079.02407  24030663.740    98401658.69246
  22950118.780   120603705.54108  22950119.160    93976922.83747
  23892453.180   125555672.23907  23892451.880    97835577.70846
  22583246.320   118675742.25408  22583244.400    92474589.10048
 15 02 14 00 51  0.0000000  0  7G16G18G21G22G27G29G31
  21833056.120   114733490.94309  21833053.180    89402713.62348
  22716571.720   119376506.08608  22716569.540    93020698.22547
  21272820.960   111789432.32409  21272817.740    87108638.97649
  24013214.180   126190383.47107  24013214.280    98330208.09346
  22938257.520   120541374.98508  22938258.060    93928353.59747
  23906261.240   125628235.27207  23906260.140    97892120.26746
  22599835.740   118762920.28108  22599833.920    92542519.97548
 15 02 14 00 51 30.0000000  0  7G16G18G21G22G27G29G31
  21819254.500   114660963.03009  21819251.620    89346198.35948
  22705113.720   119316294.02908  22705111.520    92973779.76246
  21279959.400   111826945.18709  21279956.200    87137869.77249
  23995760.520   126098665.44007  23995760.100    98258739.87445
  22926415.680   120479145.90608  22926416.240    93879863.42847
  23920070.380   125700803.27607  23920069.340    97948666.72945
  22616468.280   118850324.72108  22616466.420    92610627.27647
 15 02 14 00 52  0.0000000  0  7G16G18G21G22G27G29G31
  21805496.120   114588662.21009  21805493.220    89289860.05648
  22693707.620   119256354.51708  22693705.400    92927073.66846
  21287162.840   111864799.38309  21287159.620    87167366.55349
  23978303.600   126006930.43207  23978302.760    98187258.43945
  22914593.780   120417021.33408  22914594.300    93831454.69347
  23933881.180   125773379.33007  23933880.120    98005219.48046
  22633143.900   118937955.72708  22633142.100    92678911.12248
 15 02 14 00 52 30.0000000  0  7G16G18G21G22G27G29G31
  21791782.060   114516594.52509  21791779.160    89233703.42548
  22682354.560   119196693.81808  22682352.180    92880584.83746
  21294431.600   111902996.99309  21294428.400    87197130.92249
