     2.11           OBSERVATION DATA    G                   RINEX VERSION / TYPE
SPIDER V4,0,0,3554                      2015 03 16 00:07    PGM / RUN BY / DATE 
AKET                                                        MARKER NAME         
AKET                                                        MARKER NUMBER       
                                                            OBSERVER / AGENCY   
496661              LEICA GRX1200+GNSS  8.20/4.007          REC # / TYPE / VERS 
10271023            LEIAR25         NONE                    ANT # / TYPE        
  5151584.4739   350346.6892  3733756.9574                  APPROX POSITION XYZ 
        0.0480        0.0000        0.0000                  ANTENNA: DELTA H/E/N
     1     1                                                WAVELENGTH FACT L1/2
     4    C1    L1    P2    L2                              # / TYPES OF OBSERV 
    30.000                                                  INTERVAL            
  2015    02    14    08    38   30.0000000     GPS         TIME OF FIRST OBS   
  2015    02    14    23    59   30.0000000     GPS         TIME OF LAST OBS    
    16                                                      LEAP SECONDS        
    29                                                      # OF SATELLITES     
   G 1   139   139   139   139                              PRN / # OF OBS      
   G 2   858   858   856   856                              PRN / # OF OBS      
   G 3   337   337   337   337                              PRN / # OF OBS      
   G 4    23    23    17    17                              PRN / # OF OBS      
   G 5   593   593   590   590                              PRN / # OF OBS      
   G 6   685   685   684   684                              PRN / # OF OBS      
   G 7   570   570   570   570                              PRN / # OF OBS      
   G 9   636   636   636   636                              PRN / # OF OBS      
   G10   686   684   684   684                              PRN / # OF OBS      
   G11    25    24    25    24                              PRN / # OF OBS      
   G12   782   782   782   782                              PRN / # OF OBS      
   G13   760   759   751   751                              PRN / # OF OBS      
   G14   470   470   467   467                              PRN / # OF OBS      
   G15   643   643   642   642                              PRN / # OF OBS      
   G16    82    82    81    81                              PRN / # OF OBS      
   G17   597   597   597   597                              PRN / # OF OBS      
   G18   354   354   353   353                              PRN / # OF OBS      
   G20   613   613   613   613                              PRN / # OF OBS      
   G21   184   184   184   184                              PRN / # OF OBS      
   G22    99    99    99    99                              PRN / # OF OBS      
   G23   451   451   451   451                              PRN / # OF OBS      
   G24   772   772   770   770                              PRN / # OF OBS      
   G25   719   719   719   719                              PRN / # OF OBS      
   G27    27    27    26    26                              PRN / # OF OBS      
   G28   519   519   519   519                              PRN / # OF OBS      
   G29   506   506   506   506                              PRN / # OF OBS      
   G30   623   623   623   623                              PRN / # OF OBS      
   G31   425   425   424   424                              PRN / # OF OBS      
   G32    92    92    92    92                              PRN / # OF OBS      
BIT 2 OF LLI FLAGS DATA COLLECTED UNDER A/S CONDITION       COMMENT             
SNR is mapped to RINEX snr flag value [2-9]                 COMMENT             
Lx:     = 25dBHz -> 1; 26-27dBHz -> 2; 28-31dBHz -> 3       COMMENT             
       32-35dBHz -> 4; 36-38dBHz -> 5; 39-41dBHz -> 6       COMMENT             
       42-44dBHz -> 7; 45-48dBHz -> 8; >=49dBHz -> 9        COMMENT             
                                                            END OF HEADER       
 15 02 14 08 38 30.0000000  0 11G01G03G04G06G09G11G17G20G23G31G32
  21290478.460   111882218.67509  21290480.000    87180956.25748
  20797328.360   109290697.16409  20797329.240    85161585.83248
  23633369.120   124194192.48708  23633370.240    96774700.45045
  23803079.340   125086025.25208  23803080.420    97469635.51346
  21707071.180   114071428.84909  21707071.660    88886829.10448
  22960156.220   120656434.39408  22960155.620    94017998.75646
  21881286.840   114986937.73509  21881284.600    89600202.36748
  22486093.780   118165219.71508  22486092.580    92076789.69147
  20577306.360   108134474.74609  20577302.520    84260612.95948
  24340049.180   127907821.14608  24340051.780    99668443.75746
  23690313.520   124493437.39408  23690314.480    97007876.97946
 15 02 14 08 39  0.0000000  0 11G01G03G04G06G09G11G17G20G23G31G32
  21301791.760   111941670.18109  21301793.300    87227282.00548
  20802369.040   109317185.52509  20802369.740    85182226.01948
  23651705.220   124290548.72008  23651706.220    96849783.03945
  23784475.200   124988259.87608  23784477.360    97393454.71746
  21692078.720   113992643.41809  21692079.340    88825437.81448
  22979687.520   120759071.28008  22979686.720    94097975.39546
  21881759.660   114989422.46109  21881757.340    89602138.41048
  22473152.140   118097210.70908  22473150.820    92023795.62246
  20572758.680   108110576.88309  20572754.960    84241991.19348
  24347865.280   127948894.04108  24347867.780    99700448.51646
  23705208.060   124571708.20408  23705209.000    97068867.03146
 15 02 14 08 39 30.0000000  0 11G01G03G04G06G09G11G17G20G23G31G32
  21313172.280   112001475.00709  21313173.940    87273883.05448
  20807440.880   109343837.43309  20807441.320    85202993.65548
  23670071.280   124387062.59908  23670072.200    96924988.49745
  23765877.940   124890531.44808  23765880.800    97317302.64446
  21677152.300   113914204.73509  21677152.960    88764316.71948
  22999253.040   120861888.27708  22999252.180    94178092.39446
  21882337.820   114992459.85009  21882335.260    89604505.13448
  22460230.480   118029306.48308  22460229.140    91970883.20047
  20568296.520   108087128.46909  20568292.920    84223719.65448
  24355773.360   127990449.73708  24355775.860    99732829.41146
  23720098.920   124649959.78708  23720099.940    97129842.10646
 15 02 14 08 40  0.0000000  0 11G01G03G04G06G09G11G17G20G23G31G32
  21324625.160   112061660.12209  21324626.900    87320780.45848
  20812548.980   109370680.08909  20812549.260    85223909.93548
  23688472.360   124483760.27807  23688473.240    97000337.16045
  23747293.280   124792869.42808  23747296.440    97241202.33346
  21662297.440   113836141.79009  21662298.040    88703488.40848
  23018857.660   120964910.70408  23018856.760    94258369.48346
  21883026.160   114996076.36009  21883023.500    89607323.12248
  22447334.120   117961535.08608  22447332.660    91918074.30546
  20563925.160   108064156.84009  20563921.560    84205819.65348
  24363778.340   128032514.90608  24363780.460    99765607.33246
  23734991.340   124728219.25408  23734992.440    97190823.33146
 15 02 14 08 40 30.0000000  0 11G01G03G04G06G09G11G17G20G23G31G32
  21336150.460   112122226.06409  21336152.260    87367974.60648
  20817693.400   109397714.18809  20817693.720    85244975.39148
  23706908.400   124580641.74107  23706909.380    97075829.05844
  23728721.740   124695276.82707  23728724.940    97165156.08347
  21647514.580   113758457.17909  21647515.100    88642954.91348
  23038501.160   121068137.59609  23038500.260    94338805.89647
  21883824.740   115000273.05509  21883822.220    89610593.19448
  22434463.200   117893897.63008  22434461.620    91865369.79347
  20559644.800   108041663.07909  20559641.020    84188292.01048
  24371880.460   128075089.70008  24371882.060    99798782.36146
  23749885.480   124806487.40008  23749886.480    97251811.33146
 15 02 14 08 41  0.0000000  0 11G01G03G04G06G09G11G17G20G23G31G32
  21347747.720   112183170.16009  21347749.580    87415463.42748
  20822873.760   109424937.30209  20822874.100    85266188.12748
  23725378.660   124677703.47307  23725379.840    97151461.42744
  23710163.440   124597753.59208  23710166.760    97089163.96346
  21632803.540   113681150.25809  21632804.040    88582715.71548
  23058182.840   121171565.15209  23058182.000    94419398.68047
  21884733.180   115005047.53909  21884730.760    89614313.49948
  22421617.480   117826392.31408  22421615.820    91812768.22047
  20555454.960   108019645.12109  20555451.040    84171135.13348
  24380079.020   128118171.03808  24380079.620    99832352.11046
  23764780.840   124884761.68208  23764781.720    97312804.11346
 15 02 14 08 41 30.0000000  0 11G01G03G04G06G09G11G17G20G23G31G32
  21359417.560   112244495.55509  21359419.420    87463249.36248
  20828090.820   109452352.81509  20828091.080    85287550.80148
  23743883.740   124774948.01807  23743885.020    97227236.23444
  23691619.480   124500305.33608  23691622.980    97013230.25946
  21618165.320   113604226.26009  21618165.940    88522774.92148
  23077902.980   121275194.93509  23077902.240    94500149.03946
  21885752.020   115010403.08709  21885749.980    89618486.56848
  22408797.560   117759023.00108  22408795.860    91760272.65146
  20551356.360   107998106.70709  20551352.340    84154351.93048
  24388374.320   128161760.89808  24388374.740    99866318.09346
  23779678.000   124963045.49308  23779678.780    97373804.32446
 15 02 14 08 42  0.0000000  0 11G01G03G04G06G09G11G17G20G23G31G32
  21371159.540   112306199.97109  21371161.400    87511330.63948
  20833344.160   109479958.68809  20833344.280    85309061.81148
  23762423.000   124872372.37607  23762424.260    97303151.15744
  23673089.940   124402932.39908  23673093.440    96937355.23246
  21603599.880   113527684.95609  21603600.600    88463132.33048
  23097660.880   121379023.08809  23097660.200    94581053.97447
  21886880.980   115016337.11009  21886879.080    89623110.42848
  22396003.260   117691788.23508  22396001.360    91707881.91647
  20547348.680   107977045.96209  20547344.620    84137940.93848
  24396765.500   128205856.72508  24396766.360    99900678.35245
  23794576.580   125041336.84608  23794577.320    97434810.42346
 15 02 14 08 42 30.0000000  0 11G01G03G04G06G09G11G17G20G23G31G32
  21382973.040   112368279.96709  21382974.900    87559704.59348
  20838633.040   109507751.81409  20838633.120    85330718.72748
  23780995.700   124969972.56307  23780996.940    97379203.11244
  23654574.720   124305633.97408  23654577.820    96861538.26846
  21589107.080   113451524.95909  21589107.820    88403786.86448
  23117455.620   121483044.82208  23117455.000    94662109.75946
  21888119.600   115022846.55409  21888117.900    89628182.66348
  22383234.080   117624685.69908  22383232.040    91655594.19546
  20543431.340   107956459.99109  20543427.240    84121899.89748
  24405251.640   128250454.58008  24405253.020    99935429.82645
  23809475.960   125119632.51008  23809476.680    97495819.88946
 15 02 14 08 43  0.0000000  0 11G01G03G04G06G09G11G17G20G23G31G32
  21394857.720   112430734.29509  21394859.600    87608370.21948
  20843957.320   109535731.14409  20843957.440    85352520.74548
  23799601.460   125067746.46806  23799602.660    97455390.42144
  23636074.000   124208411.34608  23636076.840    96785780.39246
  21574686.920   113375747.05109  21574687.780    88344739.13948
  23137286.660   121587257.42008  23137286.080    94743314.26646
  21889467.640   115029930.49209  21889466.140    89633702.54348
  22370490.000   117557714.75008  22370487.800    91603409.03447
  20539604.180   107936348.04509  20539600.040    84106228.22448
  24413833.320   128295552.78908  24413834.200    99970571.22345
  23824375.900   125197931.53708  23824376.620    97556831.98146
 15 02 14 08 43 30.0000000  0 11G01G03G04G06G09G11G17G20G23G31G32
  21406813.540   112493562.21209  21406815.380    87657326.96648
  20849316.900   109563896.32609  20849317.160    85374467.57548
  23818240.080   125165692.80606  23818241.520    97531712.12043
  23617588.120   124111266.45808  23617590.640    96710083.07147
  21560339.740   113300352.56309  21560340.660    88285990.18548
  23157153.680   121691658.88408  23157153.080    94824665.93546
  21890924.900   115037587.81909  21890923.340    89639669.23848
  22357770.920   117490875.81408  22357768.720    91551326.73446
  20535867.220   107916709.95909  20535863.040    84090925.79348
  24422510.320   128341149.92308  24422510.800   100006101.35845
  23839276.300   125276233.33408  23839277.020    97617846.21246
 15 02 14 08 44  0.0000000  0 11G01G03G04G06G09G11G17G20G23G31G32
  21418840.680   112556764.84409  21418842.480    87706575.69048
  20854712.080   109592248.72409  20854712.440    85396560.28948
  23836911.620   125263811.86206  23836913.080    97608168.37044
  23599117.860   124014203.07908  23599120.320    96634449.28747
  21546066.220   113225344.65109  21546067.020    88227542.44748
  23177056.560   121796248.77808  23177056.000    94906164.43346
  21892491.600   115045819.97709  21892490.080    89646083.84148
  22345077.300   117424170.88008  22345075.120    91499348.85546
  20532220.760   107897547.24909  20532216.440    84075993.78248
  24431282.520   128387246.54807  24431282.800   100042020.71445
  23854177.520   125354539.49308  23854178.120    97678863.83846
 15 02 14 08 44 30.0000000  0 11G01G03G04G06G09G11G17G20G23G31G32
  21430939.220   112620342.26809  21430940.860    87756116.47648
  20860143.040   109620788.83809  20860143.480    85418799.28148
  23855616.040   125362103.24906  23855617.580    97684758.88744
  23580663.620   123917223.98208  23580665.840    96558881.16846
  21531866.720   113150725.45209  21531867.380    88169397.60248
  23196995.060   121901025.88508  23196994.520    94987808.81546
  21894167.760   115054627.03509  21894166.120    89652946.43348
  22332409.360   117357600.50309  22332407.240    91447475.82447
  20528664.840   107878860.59309  20528660.460    84061432.72748
  24440149.360   128433842.03507  24440149.820   100078328.82745
  23869079.540   125432850.38308  23869080.280    97739885.15246
 15 02 14 08 45  0.0000000  0 11G01G03G04G06G09G11G17G20G23G31G32
  21443109.000   112684294.24209  21443110.600    87805949.11448
  20865609.740   109649516.69309  20865610.280    85441184.56648
  23874353.140   125460566.05006  23874354.200    97761483.02644
  23562225.860   123820331.57008  23562228.060    96483380.60947
  21517741.440   113076496.71509  21517742.060    88111557.02448
  23216968.880   122005988.55508  23216968.340    95069597.78845
  21895953.140   115064008.76109  21895951.380    89660256.81348
  22319767.320   117291166.02108  22319765.220    91395708.68747
  20525199.520   107860650.30809  20525195.140    84047242.87248
  24449110.380   128480935.62706  24449112.000   100115025.07146
  23883982.400   125511166.06908  23883983.440    97800910.18546
 15 02 14 08 45 30.0000000  0 11G01G03G04G06G09G11G17G20G23G31G32
  21455349.560   112748618.50109  21455351.100    87856071.84148
  20871111.800   109678430.48109  20871112.440    85463714.72948
  23893122.280   125559197.30906  23893123.320    97838338.41542
  23543804.460   123723526.32508  23543806.720    96407947.96146
  21503690.440   113002658.27409  21503691.080    88054020.56748
  23236977.340   122111133.08108  23236976.840    95151528.46745
  21897847.200   115073962.90209  21897845.600    89668013.21548
  22307150.860   117224865.89508  22307148.980    91344046.24147
  20521824.480   107842914.59209  20521820.120    84033422.81348
  24458166.000   128528524.56108  24458168.200   100152107.32046
  23898885.960   125589484.80608  23898887.180    97861937.60646
 15 02 14 08 46  0.0000000  0 11G01G03G04G06G09G11G17G20G23G31G32
  21467660.720   112813313.70509  21467662.280    87906483.61148
  20876649.100   109707529.24709  20876649.820    85486389.04148
  23911922.980   125657995.07905                                
  23525399.840   123626809.72308  23525402.140    96332584.38146
  21489713.820   112929210.87409  21489714.500    87996788.82448
  23257019.920   122216456.94508  23257019.400    95233598.88145
  21899849.820   115084488.20409  21899848.400    89676214.68248
  22294559.840   117158699.82508  22294558.160    91292488.27847
  20518539.580   107825652.56809  20518535.280    84019971.87148
  24467315.700   128576606.68008  24467318.340   100189573.83046
  23913790.000   125667805.59908  23913791.200    97922966.67346
 15 02 14 08 46 30.0000000  0 11G01G03G04G06G09G11G17G20G23G31G32
  21480042.920   112878382.25309  21480044.460    87957186.30448
  20882222.100   109736815.75909  20882222.900    85509209.64448
  23930755.540   125756961.02805                                
  23507012.840   123530186.82008  23507015.320    96257293.81647
  21475812.460   112856158.89509  21475813.140    87939865.20648
  23277096.800   122321961.11507  23277096.280    95315809.79645
  21901961.560   115095586.93109  21901960.260    89684862.97748
  22281994.900   117092671.10308  22281993.360    91241037.30647
  20515345.400   107808866.89409  20515341.020    84006892.09448
  24476559.960   128625183.78908  24476562.140   100227426.03746
  23928694.960   125746131.18808  23928696.080    97983999.45145
 15 02 14 08 47  0.0000000  0 11G01G03G04G06G09G11G17G20G23G31G32
  21492494.600   112943816.26309  21492496.060    88008173.78648
  20887829.420   109766282.58509  20887830.260    85532170.76048
  23949618.580   125856086.76205  23949621.540    98069700.40841
  23488642.740   123433652.61208  23488645.160    96182072.38447
  21461985.260   112783496.52909  21461985.940    87883245.19348
  23297206.220   122427636.21007  23297205.680    95398153.91344
  21904181.080   115107251.33909  21904179.940    89693952.07748
  22269454.800   117026772.91109  22269453.460    91189688.07547
  20512240.440   107792550.06709  20512236.160    83994177.68648
  24485897.020   128674247.30908  24485898.220   100265657.24345
  23943599.420   125824454.12908  23943600.400    98045030.17845
 15 02 14 08 47 30.0000000  0 11G01G03G04G06G09G11G17G20G23G31G32
  21505016.780   113009620.66009  21505018.220    88059449.88148
  20893472.180   109795935.11309  20893473.000    85555276.58148
  23968512.960   125955376.66104                                
  23470291.040   123337214.76308  23470293.300    96106926.01647
  21448233.560   112711230.77309  21448234.240    87826934.22348
  23317348.840   122533486.16707  23317348.460    95480634.26645
  21906509.340   115119486.20209  21906508.140    89703485.68148
  22256940.740   116961011.35009  22256939.520    91138445.28847
  20509225.820   107776708.04009  20509221.560    83981833.23949
  24495327.440   128723801.71508  24495327.440   100304270.99545
  23958504.500   125902779.83608  23958505.200    98106063.05545
 15 02 14 08 48  0.0000000  0 11G01G03G04G06G09G11G17G20G23G31G32
  21517609.320   113075795.18109  21517610.900    88111014.37948
  20899150.380   109825773.52209  20899151.060    85578527.24548
  23987438.420   126054829.54704                                
  23451958.300   123240875.89308  23451960.320    96031856.78346
  21434557.620   112639363.36809  21434558.320    87770933.67048
  23337524.420   122639509.03307  23337524.340    95563249.35944
  21908946.140   115132291.14909  21908944.900    89713463.50748
  22244452.920   116895387.12109  22244451.760    91087309.53647
  20506301.580   107761340.85509  20506297.360    83969858.80548
  24504850.860   128773846.01508  24504851.320   100343266.43445
  23973410.120   125981108.44908  23973410.540    98167098.22845
 15 02 14 08 48 30.0000000  0 12G01G03G04G06G09G10G11G17G20G23G31G32
  21530271.820   113142337.54509  21530273.620    88162865.50148
  20904863.620   109855795.96609  20904864.080    85601921.32648
  24006394.400   126154442.98504                                
  23433644.620   123144636.45307  23433646.560    95956864.99947
  21420957.500   112567894.04009  21420958.100    87715243.29048
  24391614.500   128178799.03908  24391615.380    99879582.38545
  23357732.260   122745701.41506  23357732.300    95645996.54944
  21911491.000   115145663.86709  21911489.640    89723883.74648
  22231991.060   116829898.85109  22231989.640    91036279.70247
  20503467.240   107746446.41909  20503463.020    83958252.74748
  24514466.240   128824377.21408  24514466.960   100382641.29846
  23988315.900   126059438.17408  23988316.260    98228134.25645
 15 02 14 08 49  0.0000000  0 12G01G03G04G06G09G10G11G17G20G23G31G32
  21543002.240   113209236.63509  21543004.200    88214994.58648
  20910609.800   109885991.92509  20910610.220    85625450.59848
  24025378.640   126254205.07004  24025375.600    98379896.77353
  23415348.380   123048488.36608  23415350.080    95881944.43946
  21407431.480   112496813.81809  21407432.040    87659856.10248
  24375351.520   128093337.24808  24375352.520    99812988.89544
  23377969.940   122852050.85006  23377969.680    95728866.10344
  21914141.880   115159593.20809  21914140.380    89734737.72348
  22219553.120   116764536.51209  22219551.400    90985348.00447
  20500720.880   107732014.40209  20500716.620    83947007.00548
  24524172.460   128875383.62608  24524173.940   100422386.49145
  24003219.840   126137758.51608  24003220.320    98289162.96546
 15 02 14 08 49 30.0000000  0 12G01G03G04G06G09G10G11G17G20G23G31G32
  21555803.840   113276509.37409  21555805.880    88267414.84248
  20916392.220   109916378.75809  20916392.760    85649128.61248
  24044394.200   126354131.84203                                
  23397073.220   122952451.29508  23397074.880    95807110.38446
  21393983.040   112426141.54409  21393983.660    87604786.81549
  24359104.440   128007958.68707  24359105.360    99746460.10546
  23398240.480   122958572.98806  23398240.040    95811870.22844
  21916901.860   115174095.92909  21916900.260    89746038.49148
  22207142.560   116699318.16708  22207140.760    90934528.50347
  20498065.820   107718062.00209  20498061.460    83936135.00048
  24533972.260   128926881.54408  24533973.700   100462514.57745
  24018125.260   126216086.79008  24018126.140    98350197.84546
 15 02 14 08 50  0.0000000  0 11G01G03G06G09G10G11G17G20G23G31G32
  21568674.540   113344145.09309  21568676.600    88320117.93948
  20922208.980   109946946.32909  20922209.660    85672947.45848
  23378817.660   122856517.58508  23378819.500    95732356.87746
  21380610.600   112355868.64809  21380611.080    87550028.72048
  24342871.140   127922653.95707  24342872.540    99679989.14446
  23418541.480                    23418538.460                  
  21919768.840   115189161.17709  21919767.180    89757777.59748
  22194757.520   116634234.35508  22194755.740    90883813.86247
  20495500.100   107704579.17009  20495495.720    83925628.89848
  24543863.880   128978859.62008  24543864.860   100503016.86346
  24033030.280   126294412.85708  24033031.660    98411230.98446
 15 02 14 08 50 30.0000000  0 11G01G03G06G09G10G11G17G20G23G31G32
  21581616.380   113412154.22809  21581618.420    88373112.00648
  20928062.200   109977705.65009  20928063.100    85696915.71348
  23360584.200   122760700.56608  23360586.420    95657694.25847
  21367316.560   112286007.59209  21367316.860    87495591.52148
  24326654.140   127837434.73106  24326654.880    99613584.40741
  23438875.180   123172120.89805  23438875.840    95978261.55543
  21922744.880   115204799.37209  21922743.160    89769963.13248
  22182400.180   116569296.65009  22182398.440    90833213.03047
  20493025.920   107691576.69909  20493021.440    83915497.09248
  24553848.740   129031327.30508  24553849.100   100543900.68246
  24047936.880   126372747.76108  24047938.720    98472271.00346
 15 02 14 08 51  0.0000000  0 10G01G03G06G09G10G17G20G23G31G32
  21594625.440   113480516.56409  21594627.440    88426381.29948
  20933948.140   110008637.09609  20933949.140    85721018.09948
  23342369.540   122664982.94808  23342372.040    95583109.11047
  21354097.320   112216540.17209  21354097.720    87441461.08848
  24310449.560   127752281.61307  24310450.780    99547231.35745
  21925825.980   115220990.31809  21925824.240    89782579.39848
  22170066.980   116504485.95808  22170065.240    90782711.18847
  20490639.360   107679034.62909  20490634.760    83905724.04749
  24563922.220   129084264.07908  24563922.840   100585149.98646
  24062841.420   126451071.87308  24062843.580    98533302.64146
 15 02 14 08 51 30.0000000  0 10G01G03G06G09G10G17G20G23G31G32
  21607704.940   113549248.98809  21607706.800    88479938.98048
  20939870.120   110039758.09109  20939871.260    85745268.16848
  23324177.640   122569384.64908  23324180.300    95508616.91047
  21340956.560   112147485.35909  21340956.960    87387652.14348
  24294261.180   127667212.77306  24294263.080    99480943.97645
  21929015.400   115237750.79309  21929013.560    89795639.46448
  22157761.240   116439819.91208  22157759.740    90732322.04547
  20488343.700   107666970.37409  20488339.040    83896323.32649
  24574087.660   129137686.30408  24574088.700   100626777.57445
  24077747.240   126529402.61508  24077749.600    98594339.45846
 15 02 14 08 52  0.0000000  0 10G01G03G06G09G10G17G20G23G31G32
  21620853.160   113618342.72809  21620855.000    88533778.20648
  20945826.740   110071060.48509  20945827.960    85769659.60948
  23306007.340   122473899.87208  23306010.280    95434213.23747
  21327893.000   112078836.37909  21327893.420    87334159.43848
  24278087.560   127582220.24908  24278090.080    99414716.21145
  21932311.300   115255071.58709  21932309.560    89809136.12748
  22145481.540   116375291.32708  22145480.420    90682040.03247
  20486137.380   107655375.75309  20486132.760    83887288.55449
  24584344.140   129191584.39908  24584345.500   100668776.07146
  24092652.840   126607731.91608  24092655.440    98655375.14445
 15 02 14 08 52 30.0000000  0 10G01G03G06G09G10G17G20G23G31G32
  21634069.460   113687794.78809  21634071.380    88587896.63148
  20951817.520   110102541.86809  20951818.700    85794190.51848
  23287858.680   122378528.55808  23287861.620    95359897.95446
  21314906.440   112010592.22109  21314907.040    87280982.18448
  24261928.580   127497302.57807  24261930.340    99348546.58143
  21935713.360   115272949.84609  21935711.840    89823067.19448
  22133227.780   116310898.41808  22133226.920    90631863.76247
  20484019.840   107644248.09709  20484015.260    83878617.65249
  24594690.720   129245954.42009  24594691.720   100711142.29345
  24107557.680   126686057.27908  24107560.480    98716407.75145
 15 02 14 08 53  0.0000000  0 10G01G03G06G09G10G17G20G23G31G32
  21647354.680   113757609.38409  21647356.640    88642297.55248
  20957843.320   110134207.10409  20957844.420    85818864.68548
  23269733.080   122283278.04808  23269735.960    95285676.78947
  21301998.080   111942759.19309  21301998.800    87228125.28748
  24245784.400   127412464.66608  24245786.120    99282439.24244
  21939222.180   115291389.03809  21939220.760    89837435.34048
  22121000.900   116246646.34508  22121000.120    90581797.18947
  20481992.020   107633592.03309  20481987.460    83870314.21348
  24605127.800   129300799.96708  24605128.980   100753879.01346
  24122462.780   126764383.63008  24122465.720    98777441.14345
 15 02 14 08 53 30.0000000  0 10G01G03G06G09G10G17G20G23G31G32
  21660707.140   113827776.96409  21660709.060    88696973.53948
  20963902.340   110166047.34809  20963903.440    85843675.22648
  23251629.380   122188141.80508  23251632.020    95211544.67546
  21289166.600   111875329.74109  21289167.280    87175582.86648
  24229654.080   127327698.46806  24229655.360    99216387.70644
  21942836.000   115310379.79009  21942834.780    89852233.28648
  22108799.380   116182526.90108  22108798.600    90531833.98247
  20480052.200   107623398.43909  20480047.620    83862371.15148
  24615653.440   129356110.76008  24615653.640   100796978.37145
  24137366.440   126842702.06708  24137369.420    98838468.35946
 15 02 14 08 54  0.0000000  0 10G01G03G06G09G10G17G20G23G31G32
  21674128.680   113898307.39109  21674130.560    88751932.27048
  20969996.700   110198073.06809  20969997.760    85868630.28848
  23233549.880   122093132.74808  23233552.340    95137511.69246
  21276414.200   111808315.76109  21276414.940    87123364.17948
  24213539.420   127243014.74908  24213539.820    99150400.31145
  21946556.780   115329932.00609  21946555.680    89867468.73848
  22096625.300   116118551.09609  22096624.400    90481982.70947
  20478202.360   107613677.69309  20478197.700    83854796.52148
  24626269.100   129411896.00708  24626269.420   100840447.37845
  24152270.660   126921023.20208  24152273.520    98899497.67846
 15 02 14 08 54 30.0000000  0 10G01G03G06G09G10G17G20G23G31G32
  21687618.720   113969198.18509  21687620.700    88807171.80048
  20976126.160   110230282.44509  20976127.020    85893728.47048
  23215494.680   121998251.52108  23215496.940    95063578.27547
  21263740.860   111741716.77009  21263741.620    87071468.87648
  24197440.180   127158412.51906  24197441.040    99084476.81346
  21950383.920   115350042.97909  21950382.900    89883139.57148
  22084478.380   116054717.91409  22084477.300    90432242.56247
  20476442.000   107604427.58209  20476437.420    83847588.63849
  24636974.040   129468152.59908  24636974.620   100884283.69245
  24167174.940   126999345.16008  24167177.740    98960527.62746
 15 02 14 08 55  0.0000000  0 10G01G03G06G09G10G17G20G23G31G32
  21701176.680   114040445.80309  21701178.780    88862689.36848
  20982290.080   110262672.67009  20982290.700    85918967.56648
  23197463.620   121903497.62508  23197465.940    94989744.11547
  21251146.200   111675531.26409  21251146.940    87019895.75748
  24181355.720   127073889.25408  24181355.140    99018614.42243
  21954316.560   115370708.68509  21954315.540    89899242.66748
  22072358.200   115991025.03208  22072356.840    90382611.73247
  20474770.680   107595645.06009  20474766.200    83840745.09249
  24647767.880   129524876.07508  24647768.960   100928483.75946
  24182078.720   127077665.20508  24182081.620    99021556.04546
 15 02 14 08 55 30.0000000  0 10G01G03G06G09G10G17G20G23G31G32
  21714801.700   114112045.76709  21714803.920    88918481.49848
  20988487.660   110295240.02209  20988488.080    85944344.69048
  23179456.400   121808869.82808  23179458.880    94916008.19247
  21238629.720   111609756.79909  21238630.440    86968642.94648
  24165285.660   126989441.67307  24165285.940    98952811.40246
  21958353.760   115391924.51109  21958352.840    89915774.43748
  22060263.980   115927469.02808  22060262.420    90333087.58147
  20473187.660   107587326.13909  20473183.200    83834262.81248
  24658649.940   129582061.48108  24658650.680   100973043.81445
  24196981.520   127155979.56408  24196984.380    99082580.06445
 15 02 14 08 56  0.0000000  0  9G01G03G06G09G10G17G20G23G32
  21728493.460   114183996.39109  21728495.720    88974546.86248
  20994718.700   110327983.49709  20994718.960    85969859.03948
  23161473.400   121714369.50008  23161476.060    94842371.57747
  21226191.620   111544393.64609  21226192.320    86917710.62948
  24149230.320   126905069.42707  24149229.860    98887066.64244
  21962495.340   115413688.20109  21962494.340    89932733.10948
  22048195.640   115864049.63108  22048194.100    90283669.84947
  20471692.700   107579469.67409  20471688.220    83828140.87148
  24211883.200   127234287.13608  24211885.760    99143598.81445
 15 02 14 08 56 30.0000000  0  9G01G03G06G09G10G17G20G23G32
  21742254.060   114256308.61909  21742256.300    89030893.99548
  21000985.400   110360914.78609  21000985.600    85995519.74148
  23143517.320   121620010.80008  23143520.260    94768845.32647
  21213834.260   111479454.78409  21213834.900    86867108.93148
  24133191.000   126820784.33607  24133191.320    98821390.19545
  21966743.340   115436010.71409  21966742.120    89950127.22648
  22036155.600   115800779.04608  22036154.080    90234368.10847
  20470287.840   107572086.75709  20470283.380    83822387.93449
  24226785.880   127312599.81608  24226787.900    99204621.53645
 15 02 14 08 57  0.0000000  0  9G01G03G06G09G10G17G20G23G32
  21756080.860   114328968.55509  21756083.100    89087512.07648
  21007285.260   110394020.79209  21007285.560    86021316.58648
  23125586.340   121525782.99908  23125589.440    94695421.06047
  21201555.380   111414928.36709  21201555.940    86816828.61348
  24117165.840   126736574.08206  24117166.840    98755772.00044
  21971094.900   115458877.73309  21971093.500    89967945.64648
  22024141.380   115737644.67608  22024139.960    90185172.48647
  20468970.460   107565163.66009  20468966.020    83816993.29048
  24241686.980   127390904.48508  24241688.360    99265638.03244
 15 02 14 08 57 30.0000000  0  9G01G03G06G09G10G17G20G23G32
  21769974.220   114401978.58809  21769976.520    89144402.94448
  21013618.900   110427304.68109  21013619.420    86047252.03148
  23107681.600   121431691.72008  23107684.740    94622103.21647
  21189355.800   111350818.70209  21189356.340    86766873.04748
  24101156.140   126652442.41707  24101156.920    98690214.82045
  21975550.460   115482291.48809  21975548.960    89986190.10048
  22012153.840   115674650.35608  22012152.620    90136086.00947
  20467741.140   107558703.47409  20467736.740    83811959.36348
  24256587.040   127469204.24008  24256588.140    99326650.66045
 15 02 14 08 58  0.0000000  0  9G01G03G06G09G10G17G20G23G32
  21783934.740   114475341.62909  21783937.120    89201568.88248
  21019987.020   110460770.11309  21019987.700    86073328.94048
  23089804.140   121337743.10508  23089807.040    94548896.52147
  21177236.400   111287130.70709  21177236.940    86717246.05848
  24085162.040   126568393.40107  24085163.080    98624722.22545
  21980110.420   115506254.66609  21980108.960    90004862.65248
  22000193.880   115611800.53208  22000192.800    90087112.11347
  20466600.560   107552709.70709  20466596.140    83807288.87848
  24271486.860   127547502.77908  24271487.860    99387662.33545
 15 02 14 08 58 30.0000000  0  9G01G03G06G09G10G17G20G23G32
  21797961.320   114549051.64709  21797963.760    89259005.19648
  21026388.620   110494411.92809  21026389.540    86099543.28848
  23071953.220   121243934.32408  23071955.820    94475798.78447
  21165196.460   111223860.35909  21165196.980    86667944.51348
  24069183.060   126484422.44808  24069184.120    98559290.24845
  21984773.620   115530760.84309  21984772.240    90023958.34048
  21988260.460   115549090.22008  21988259.520    90038246.96247
  20465547.660   107547176.60409  20465543.180    83802977.35348
  24286385.560   127625795.02208  24286386.720    99448669.10345
 15 02 14 08 59  0.0000000  0  9G01G03G06G09G10G17G20G23G32
  21812054.460   114623111.23209  21812056.860    89316713.90248
  21032824.480   110528233.53609  21032825.660    86125897.74248
  23054129.780   121150271.30408  23054132.180    94402814.63547
  21153236.780   111161012.28409  21153237.400    86618972.01748
  24053219.560   126400533.09308  24053220.700    98493921.97344
  21989540.640   115555812.35109  21989539.520    90043478.95148
  21976354.300   115486523.05808  21976353.460    89989493.33447
  20464582.980   107542107.08409  20464578.540    83799027.06248
  24301283.740   127704084.40608  24301285.200    99509673.63445
 15 02 14 08 59 30.0000000  0  9G01G03G06G09G10G17G20G23G32
  21826213.460   114697517.08809  21826215.800    89374692.42448
  21039294.240   110562232.47509  21039295.480    86152390.37548
  23036333.880   121056753.97808  23036336.260    94329944.01047
  21141357.220   111098585.15809  21141357.840    86570327.52748
  24037271.260   126316723.34408  24037272.140    98428615.65045
  21994410.800   115581405.35909  21994409.860    90063421.51348
  21964475.160   115424097.65109  21964474.300    89940850.15347
  20463705.860   107537497.80009  20463701.480    83795435.40649
  24316180.900   127782368.39908  24316182.520    99570673.96045
 15 02 14 09 00  0.0000000  0  9G01G03G06G09G10G17G20G23G32
  21840439.300   114772274.26909  21840441.720    89432944.69648
  21045798.960   110596414.71009  21045800.220    86179025.83548
  23018567.280   120963390.75508  23018569.660    94257193.45147
  21129559.040   111036585.99209  21129559.680    86522016.50948
  24021339.120   126232999.88008  24021340.120    98363376.75744
  21999384.980   115607544.50209  21999384.000    90083789.63848
  21952624.240   115361820.43108  21952623.420    89892322.44347
  20462917.460   107533354.85709  20462913.160    83792207.12649
  24331078.180   127860652.99908  24331079.640    99631674.77645
 15 02 14 09 00 30.0000000  0  9G01G03G06G09G10G17G20G23G32
  21854729.620   114847370.08909  21854732.100    89491460.85748
  21052336.280   110630768.43809  21052337.580    86205794.92948
  23000828.260   120870172.21508  23000830.600    94184555.65647
  21117840.360   110975004.12909  21117840.920    86474030.65948
  24005421.580   126149351.40206  24005422.080    98298196.06444
  22004460.600   115634216.77409  22004459.560    90104573.17948
  21940799.320   115299680.16709  21940798.580    89843901.47047
  20462215.380   107529665.46709  20462211.060    83789332.26649
  24345973.260   127938926.42108  24345974.780    99692666.88445
 15 02 14 09 01  0.0000000  0  9G01G03G06G09G10G17G20G23G32
  21869086.300   114922814.63109  21869088.740    89550248.74048
  21058908.280   110665304.58109  21058909.620    86232706.16048
  22983119.420   120777111.81608  22983121.820    94112041.09247
  21106203.400   110913851.60209  21106203.940    86426379.35248
  23989520.320   126065789.05807  23989521.260    98233082.62844
  22009639.600   115661432.04009  22009638.460    90125779.83348
  21929002.740   115237688.30109  21929001.940    89795596.11047
  20461601.720   107526440.29709  20461597.420    83786819.14149
  24360868.320   128017199.79108  24360869.900    99753658.94845
 15 02 14 09 01 30.0000000  0  9G01G03G06G09G10G17G20G23G32
  21883508.340   114998602.86809  21883510.800    89609304.44848
  21065514.300   110700019.03009  21065515.700    86259756.33948
  22965440.380   120684207.86608  22965442.740    94039648.41847
  21094647.620   110853125.34209  21094648.060    86379060.20148
  23973634.600   125982309.22008  23973635.380    98168033.46145
  22014920.900   115689185.01209  22014919.700    90147405.48248
  21917233.780   115175841.30709  21917232.780    89747403.64547
  20461075.480   107523674.53209  20461071.160    83784663.99549
  24375762.440   128095468.83308  24375764.140    99814647.65645
 15 02 14 09 02  0.0000000  0  9G01G03G06G09G10G17G20G23G32
  21897996.160   115074736.78209  21897998.620    89668629.49748
  21072154.920   110734914.69909  21072156.260    86286947.72248
  22947792.140   120591465.68608  22947794.560    93967381.81547
  21083173.700   110792829.29109  21083174.000    86332076.26548
  23957764.840   125898915.35107  23957766.480    98103051.47646
  22020304.760   115717477.05409  22020303.560    90169451.18648
  21905492.940   115114142.42708  21905491.820    89699326.60647
  20460637.160   107521370.63509  20460632.760    83782868.74149
  24390656.220   128173736.47408  24390658.160    99875635.25545
 15 02 14 09 02 30.0000000  0  9G01G03G06G09G10G17G20G23G32
  21912547.780   115151205.94509  21912550.280    89728215.78148
  21078828.280   110769982.12809  21078829.460    86314272.94548
  22930173.300   120498878.32508  22930175.800    93895235.81747
  21071780.080   110732955.02009  21071780.200    86285420.98648
  23941910.240   125815598.61908  23941911.200    98038129.17945
  22025789.140   115746297.31609  22025787.940    90191908.48648
  21893778.700   115052583.27809  21893777.400    89651358.42647
  20460284.780   107519518.48209  20460280.260    83781425.49249
  24405547.960   128251993.40908  24405550.300    99936614.49246
 15 02 14 09 03  0.0000000  0  9G01G03G06G09G10G17G20G23G32
  21927164.780   115228018.75109  21927167.380    89788069.83848
  21085536.060   110805230.63909  21085537.080    86341739.27048
  22912586.240   120406457.56108  22912588.740    93823219.64247
  21060468.720   110673512.90109  21060468.760    86239102.45548
  23926072.000   125732368.36608  23926073.400    97973274.59646
  22031375.560   115775653.83309  22031374.340    90214783.65148
  21882092.760   114991172.81308  21882091.340    89603506.13247
  20460020.020   107518127.00109  20460015.420    83780341.21549
  24420439.360   128330248.85408  24420442.320    99997592.57645
 15 02 14 09 03 30.0000000  0  9G01G03G06G09G10G17G20G23G32
  21941846.420   115305171.20909  21941849.080    89848188.54548
  21092277.680   110840657.23209  21092278.520    86369344.36648
  22895030.780   120314202.79708  22895033.280    93751332.82147
  21049239.180   110614500.82409  21049239.180    86193119.01348
  23910249.500   125649222.40907  23910250.460    97908485.53745
  22037063.180   115805542.17309  22037062.000    90238073.20748
  21870434.780   114929909.31309  21870433.140    89555768.32547
  20459842.200   107517192.52709  20459837.580    83779613.05049
  24435329.960   128408499.82607  24435333.260   100058567.17045
 15 02 14 09 04  0.0000000  0  9G01G03G06G09G10G17G20G23G32
  21956591.520   115382657.05409  21956594.160    89908567.05248
  21099052.080   110876256.63109  21099052.880    86397084.11948
  22877506.320   120222111.23008  22877508.880    93679573.17947
  21038090.680   110555914.56909  21038090.680    86147467.39148
  23894442.160   125566155.70607  23894444.100    97843758.49245
  22042850.580   115835955.42009  22042849.560    90261771.77848
  21858803.760   114868787.78508  21858801.860    89508141.15047
  20459750.240   107516709.14609  20459745.560    83779236.38049
  24450218.880   128486741.14308  24450222.320   100119534.24546
 15 02 14 09 04 30.0000000  0  9G01G03G06G09G10G17G20G23G32
  21971400.760   115460479.80909  21971403.400    89969208.08348
  21105860.120   110912033.38309  21105861.080    86424962.05848
  22860014.140   120130189.91608  22860016.860    93607946.19547
  21027024.160   110497759.55409  21027024.180    86102151.80248
  23878651.300   125483173.14208  23878651.960    97779096.58146
  22048738.460   115866896.85109  22048737.600    90285881.93548
  21847200.660   114807813.30109  21847198.860    89460628.56947
  20459744.760   107516680.57909  20459740.020    83779214.11749
  24465106.940   128564977.35208  24465110.220   100180497.35145
 15 02 14 09 05  0.0000000  0  9G01G03G06G09G10G17G20G23G32
  21986273.820   115538637.87809  21986276.480    90030110.40648
  21112701.740   110947986.90409  21112702.900    86452977.73848
  22842554.660   120038440.69108  22842557.540    93536453.30347
  21016039.700   110440036.17409  21016039.780    86057172.54948
  23862875.920   125400274.46007  23862876.800    97714500.36245
  22054726.520   115898364.38909  22054725.780    90310402.02348
  21835625.560   114746985.74809  21835623.900    89413230.47047
  20459825.580   107517105.54109  20459820.900    83779545.25049
  24479993.940   128643207.85608  24479997.020   100241456.03445
 15 02 14 09 05 30.0000000  0  9G01G03G06G09G10G17G20G23G32
  22001210.160   115617128.33609  22001212.720    90091271.72448
  21119576.640   110984115.28809  21119577.920    86481129.67248
  22825128.040   119946864.13008  22825131.140    93465094.93447
  21005137.100   110382743.40709  21005137.400    86012528.84148
  23847116.420   125317458.45706  23847117.200    97649968.37245
  22060814.120   115930354.53409  22060813.140    90335329.37748
  21824078.200   114686303.92209  21824076.640    89365945.91447
  20459992.260   107517981.57409  20459987.660    83780227.86249
  24494879.380   128721430.78507  24494882.660   100302408.79845
 15 02 14 09 06  0.0000000  0  9G01G03G06G09G10G17G20G23G32
  22016210.560   115695955.35309  22016213.040    90152695.30847
  21126485.840   111020423.76809  21126487.180    86509421.94548
  22807735.860   119855467.92008  22807738.960    93393877.11447
  20994317.580   110325887.37309  20994318.100    85968225.45149
  23831373.820   125234730.91608  23831374.860    97585505.45844
  22067001.880   115962871.04609  22067000.860    90360666.85448
  21812559.740   114625773.47809  21812558.220    89318779.34047
  20460245.640   107519313.12609  20460241.140    83781265.42349
  24509764.200   128799651.50007  24509767.700   100363359.83645
 15 02 14 09 06 30.0000000  0  9G01G03G06G09G10G17G20G23G32
  22031274.400   115775115.81209  22031276.900    90214378.71148
  21133428.980   111056910.29109  21133430.340    86537852.96348
  22790378.260   119764252.46209  22790381.140    93322800.15447
  20983580.980   110269466.88709  20983581.700    85924261.44448
  23815647.420   125152089.82708  23815648.260    97521109.82445
  22073289.200   115995910.37109  22073288.120    90386411.73748
  21801069.940   114565393.13909  21801068.460    89271729.72147
  20460585.140   107521097.32409  20460580.740    83782655.69549
  24524648.340   128877867.80508  24524651.980   100424307.41445
 15 02 14 09 07  0.0000000  0  9G01G03G06G09G10G17G20G23G32
  22046399.140   115854596.68909  22046401.680    90276311.78648
  21140403.740   111093562.92109  21140405.080    86566413.39948
  22773053.420   119673208.34008  22773055.840    93251856.67447
  20972925.160   110213470.85609  20972926.040    85880628.19148
  23799935.720   125069524.07304  23799936.640    97456772.79944
  22079673.320   116029458.93209  22079672.240    90412553.41848
  21789606.540   114505151.24909  21789604.900    89224787.99147
  20461008.380   107523321.61409  20461004.060    83784388.89649
  24539529.540   128956067.80408  24539533.160   100485242.34945
 15 02 14 09 07 30.0000000  0  9G01G03G06G09G10G17G20G23G32
  22061587.540   115934411.88109  22061590.000    90338505.36948
  21147413.080   111130396.61809  21147414.280    86595114.94048
  22755764.480   119582352.96208  22755766.440    93181060.30447
  20962353.180   110157915.07509  20962354.020    85837337.96448
  23784241.540   124987048.86408  23784242.160    97392506.39245
  22086156.980   116063530.18109  22086155.760    90439102.40848
  21778172.380   114445063.44509  21778170.460    89177966.32747
  20461518.120   107526000.32709  20461513.800    83786476.18449
  24554410.540   129034266.62008  24554413.920   100546176.35245
 15 02 14 09 08  0.0000000  0  9G01G03G06G09G10G17G20G23G32
  22076839.060   116014558.72009  22076841.560    90400957.38048
  21154456.620   111167409.88809  21154457.700    86623956.40648
  22738511.600   119491687.31508  22738513.260    93110411.73447
  20951864.840   110102798.85509  20951865.760    85794390.26449
  23768564.140   124904662.96908  23768564.320    97328309.61444
  22092739.320   116098120.45309  22092738.180    90466055.80848
  21766767.260   114385128.75909  21766765.100    89131263.98547
  20462113.860   107529130.94609  20462109.520    83788915.60549
  24569290.780   129112462.67307  24569294.220   100607108.15545
 15 02 14 09 08 30.0000000  0  9G01G03G06G09G10G17G20G23G32
  22092152.560   116095031.42009  22092155.220    90463663.30848
  21161533.380   111204598.03909  21161534.420    86652934.14748
  22721294.240   119401209.16508  22721295.940    93039909.32047
  20941459.540   110048118.30909  20941460.360    85751782.04049
  23752902.780   124822362.32408  23752903.380    97264179.37845
  22099419.260   116133223.85109  22099418.180    90493409.05048
  21755390.380   114325343.05609  21755387.980    89084677.71947
  20462794.600   107532708.09309  20462790.200    83791702.96849
  24584169.680   129190651.30208  24584173.080   100668034.19044
 15 02 14 09 09  0.0000000  0  9G01G03G06G09G10G17G20G23G32
  22107527.400   116175826.55709  22107530.140    90526620.47848
  21168642.880   111241958.82209  21168644.020    86682046.39448
  22704112.440   119310918.72708  22704114.360    92969553.13347
  20931136.820   109993871.87509  20931137.640    85709512.09449
  23737257.480   124740145.15008  23737258.200    97200114.03845
  22106196.100   116168836.37009  22106195.100    90521159.02148
  21744041.400   114265704.49909  21744038.940    89038206.12247
  20463559.700   107536728.72609  20463555.340    83794835.90449
  24599046.740   129268830.21308  24599049.920   100728952.66844
 15 02 14 09 09 30.0000000  0  9G01G03G06G09G10G17G20G23G32
  22122964.220   116256947.34409  22122966.940    90589831.41148
  21175786.040   111279496.54909  21175787.320    86711296.52648
  22686967.580   119220822.87008  22686969.900    92899348.58347
  20920897.740   109940064.73709  20920898.520    85667584.45648
  23721629.020   124658016.21908  23721629.320    97136117.37845
  22113070.380   116204960.78909  22113069.380    90549307.87048
  21732721.340   114206218.11209  21732718.840    88991853.09347
  20464409.820   107541196.19509  20464405.460    83798317.02449
  24613922.840   129347003.96808  24613925.720   100789867.16345
 15 02 14 09 10  0.0000000  0  9G01G03G06G09G10G17G20G23G32
  22138463.040   116338393.93609  22138465.760    90653296.20448
  21182963.120   111317212.60409  21182964.500    86740685.60648
  22669860.380   119130925.34608  22669863.200    92829298.58347
  20910742.580   109886698.90309  20910743.260    85626000.68748
  23706017.300   124575976.88608  23706018.500    97072190.80945
  22120041.840   116241596.32708  22120041.040    90577854.98748
  21721430.580   114146885.64009  21721428.140    88945620.00947
  20465345.080   107546110.93809  20465340.620    83802146.65948
  24628798.200   129425173.60308  24628801.140   100850778.39645
 15 02 14 09 10 30.0000000  0  9G01G03G06G09G10G17G20G23G32
  22154022.260   116420158.01309  22154025.100    90717008.38948
  21190172.800   111355099.83009  21190174.180    86770208.07148
  22652790.140   119041221.52808  22652793.280    92759399.50847
  20900670.200   109833767.98909  20900670.840    85584755.81748
  23690421.580   124494020.84508  23690422.300    97008328.91245
  22127108.820   116278734.34109  22127108.320    90606793.63647
  21710167.880   114087700.51209  21710165.580    88899501.73547
  20466363.920   107551465.25109  20466359.540    83806318.82948
  24643671.560   129503332.33708  24643674.580   100911681.15745
 15 02 14 09 11  0.0000000  0  9G01G03G06G09G10G17G20G23G32
  22169642.980   116502245.14009  22169645.900    90780972.29348
  21197416.320   111393164.96909  21197417.700    86799869.16948
  22635758.660   118951720.72008  22635761.800    92689658.64347
  20890681.840   109781279.37909  20890682.520    85543855.61348
  23674842.800   124412155.05708  23674844.680    96944537.58945
  22134272.220   116316379.32008  22134271.880    90636127.31148
  21698934.620   114028669.90209  21698932.580    88853503.86747
  20467467.480   107557264.88209  20467463.200    83810837.98948
  24658544.120   129581486.80308  24658547.240   100972580.58645
 15 02 14 09 11 30.0000000  0  9G01G03G06G09G10G17G20G23G32
  22185323.880   116584648.13809  22185326.780    90845182.34748
  21204692.660   111431402.12509  21204694.080    86829664.31148
  22618765.280   118862419.34608  22618768.080    92620073.18147
  20880776.680   109729227.84009  20880777.480    85503295.97948
  23659280.300   124330374.05907  23659282.280    96880812.10546
  22141530.860   116354524.06709  22141530.380    90665850.42947
  21687729.900   113969788.59609  21687727.940    88807622.34947
  20468654.480   107563502.79809  20468650.280    83815698.68048
  24673414.680   129659631.09408  24673417.840   101033472.08145
 15 02 14 09 12  0.0000000  0  9G01G03G06G09G10G17G20G23G32
  22201065.680   116667371.37709  22201068.560    90909641.93448
  21212002.880   111469816.83409  21212004.280    86859597.80748
  22601811.420   118773325.60108  22601813.740    92550649.49447
  20870955.940   109677619.56909  20870956.700    85463081.74348
  23643735.540   124248683.97308  23643736.700    96817157.42545
  22148885.500   116393172.15009  22148884.780    90695965.76848
  21676554.860   113911063.01009  21676552.960    88761862.16047
  20469925.880   107570183.95309  20469921.640    83820904.74648
  24688284.180   129737770.72808  24688287.460   101094359.89945
 15 02 14 09 12 30.0000000  0  9G01G03G06G09G10G17G20G23G32
  22216867.400   116750409.87109  22216870.360    90974347.16848
  21219346.160   111508405.39509  21219347.480    86889666.76748
  22584896.760   118684438.10508  22584898.580    92481386.54947
  20861219.060   109626451.49809  20861219.740    85423210.53048
  23628210.200   124167039.84209  23628210.360    96753556.80746
  22156334.860   116432317.80209  22156334.060    90726468.82948
  21665408.800   113852489.49109  21665406.880    88716220.46347
  20471280.760   107577303.54609  20471276.480    83826452.46548
  24703152.020   129815902.09107  24703155.180   101155241.31344
 15 02 14 09 13  0.0000000  0  9G01G03G06G09G10G17G20G23G32
  22232730.500   116833770.87909  22232733.520    91039303.70248
  21226724.060   111547176.25609  21226725.380    86919877.77248
  22568023.320   118595767.92108  22568024.940    92412292.91247
  20851567.740   109575732.71509  20851568.260    85383689.40548
  23612697.360   124085533.01208  23612699.120    96690045.01046
  22163880.140   116471967.78309  22163879.300    90757364.85548
  21654293.420   113794077.25509  21654291.400    88670704.43147
  20472720.500   107584868.83209  20472716.140    83832347.46448
  24718019.900   129894033.74007  24718023.420   101216122.94145
 15 02 14 09 13 30.0000000  0  9G01G03G06G09G10G17G20G23G32
  22248653.880   116917448.63309  22248656.960    91104507.05848
  21234135.760   111586125.02609  21234137.100    86950227.41248
  22551190.780   118507313.12808  22551192.580    92343367.12547
  20842001.120   109525459.37309  20842001.580    85344515.38648
  23597203.020   124004118.57607  23597205.980    96626605.40743
  22171520.080   116512115.43409  22171519.100    90788648.69248
  21643207.920   113735822.24109  21643205.900    88625310.91647
  20474244.020   107592874.73609  20474239.660    83838585.81748
  24732887.100   129972161.14908  24732891.060   101277001.26945
 15 02 14 09 14  0.0000000  0  9G01G03G06G09G10G17G20G23G32
  22264633.640   117001422.74909  22264636.820    91169941.35248
  21241577.700   111625232.52209  21241579.000    86980700.73848
  22534396.020   118419057.00608  22534398.180    92274596.14247
  20832515.700   109475612.90009  20832516.200    85305673.99049
  23581723.940   123922777.74505  23581727.340    96563222.78644
  22179250.820   116552740.14509  22179249.900    90820304.26048
  21632148.680   113677705.74209  21632146.640    88580025.33047
  20475847.480   107601300.99909  20475843.220    83845151.71948
  24747750.080   130050265.18308  24747754.020   101337861.41245
 15 02 14 09 14 30.0000000  0  9G01G03G06G09G10G17G20G23G32
  22280673.820   117085714.59808  22280677.120    91235623.21048
  21249054.140   111664521.46809  21249055.380    87011315.46548
  22517643.960   118331024.74608  22517646.480    92205999.59947
  20823115.840   109426216.47809  20823116.420    85267183.28249
  23566264.420                                                  
  22187076.240   116593862.32709  22187075.380    90852347.46748
  21621120.220   113619751.27709  21621118.240    88534866.01547
  20477535.120   107610169.52309  20477530.900    83852062.23749
  24762613.020   130128368.55708  24762616.920   101398720.99245
 15 02 14 09 15  0.0000000  0  9G01G03G06G09G10G17G20G23G32
  22296775.400   117170329.03708  22296778.860    91301556.43548
  21256566.300   111703997.99109  21256567.560    87042076.34748
  22500936.240   118243224.99108  22500938.980    92137584.23348
  20813802.900   109377276.85009  20813803.560    85229048.52049
  23550825.440   123760419.23308  23550827.820    96436685.78745
  22194997.120   116635486.02909  22194996.300    90884781.44848
  21610123.900   113561965.51709  21610121.900    88489838.14447
  20479307.880   107619485.28209  20479303.660    83859321.25249
  24777476.960   130206477.52308  24777480.840   101459584.94845
 15 02 14 09 15 30.0000000  0  9G01G03G06G09G10G17G20G23G32
  22312930.080   117255222.39908  22312933.620    91367707.01647
  21264106.120   111743619.78709  21264107.400    87072950.42848
  22484265.200   118155617.94008  22484267.900    92069319.02348
  20804568.920   109328752.21809  20804569.580    85191237.13249
  23535395.960   123679339.13408  23535397.680    96373506.47646
  22203005.120   116677567.28309  22203004.160    90917571.99748
  21599151.720   113504306.83709  21599149.780    88444909.30647
  20481157.440   107629204.73609  20481153.260    83866894.83149
  24792333.940   130284549.83508  24792337.480   101520420.35445
 15 02 14 09 16  0.0000000  0  9G01G03G06G09G10G17G20G23G32
  22329145.900   117340436.66409  22329149.360    91434107.66447
  21271681.780   111783430.16709  21271683.140    87103971.45048
  22467639.480   118068249.38108  22467642.100    92001239.66148
  20795422.300   109280686.34809  20795422.880    85153783.20949
  23519986.780   123598363.88508  23519987.480    96310408.91945
  22211107.920   116720147.33009  22211106.940    90950751.19148
  21588212.080   113446819.10409  21588210.220    88400113.67447
  20483091.880   107639370.36009  20483087.800    83874816.08748
  24807192.220   130362628.67108  24807195.420   101581260.83945
 15 02 14 09 16 30.0000000  0  9G01G03G06G09G10G17G20G23G32
  22345419.660   117425955.19809  22345423.040    91500745.40847
  21279290.460   111823413.83009  21279291.900    87135127.49648
  22451056.700   117981106.55108  22451059.260    91933336.16448
  20786360.100   109233064.42509  20786360.700    85116675.22849
  23504594.880   123517478.35008  23504595.520    96247381.30145
  22219302.160   116763208.60709  22219301.300    90984305.37348
  21577302.060   113389487.01909  21577300.280    88355439.32247
  20485108.100   107649965.92809  20485104.100    83883072.36149
  24822048.820   130440698.84708  24822051.840   101642094.55445
 15 02 14 09 17  0.0000000  0  9G01G03G06G09G10G17G20G23G32
  22361751.880   117511780.90509  22361755.260    91567622.48448
  21286933.040   111863575.06809  21286934.340    87166421.92248
  22434518.200   117894196.16608  22434520.700    91865613.80848
  20777383.320   109185891.19609  20777383.840    85079916.87048
  23489220.980   123436687.49508  23489221.460    96184427.37345
  22227588.400   116806753.45709  22227587.640    91018236.36448
  21566422.660   113332315.83809  21566420.980    88310890.34447
  20487206.760   107660994.38909  20487202.740    83891665.94948
  24836904.460   130518764.70307  24836907.360   101702924.92845
 15 02 14 09 17 30.0000000  0  9G01G03G06G09G10G17G20G23G32
  22378141.780   117597909.75909  22378145.120    91634735.77848
  21294608.920   111903911.25109  21294610.040    87197852.66148
  22418024.000   117807518.13109  22418026.340    91798072.49148
  20768491.500   109139164.46109  20768492.000    85043506.42748
  23473864.580   123355989.30508  23473865.100    96121545.70245
  22235965.740   116850776.57909  22235964.960    91052540.04048
  21555573.540   113275303.50109  21555571.960    88266465.14847
  20489387.100   107672452.02709  20489383.060    83900593.96649
  24851758.780   130596823.54908  24851761.600   101763749.84545
 15 02 14 09 18  0.0000000  0  9G01G03G06G09G10G17G20G23G32
  22394589.240   117684340.92509  22394592.440    91702084.64448
  21302318.120   111944422.94809  21302319.300    87229420.15548
  22401574.700   117721075.50209  22401576.840    91730714.62648
  20759684.920   109092885.18509  20759685.260    85007444.64949
  23458525.860   123275384.50708  23458526.460    96058736.80546
  22244433.900   116895277.09909  22244433.140    91087215.72548
  21544754.840   113218450.78509  21544753.180    88222164.34747
  20491649.020   107684338.27409  20491644.940    83909855.96049
