     2.11           OBSERVATION DATA    G                   RINEX VERSION / TYPE
SPIDER V4,0,0,3554                      2015 04 16 06:03    PGM / RUN BY / DATE 
CABS                                                        MARKER NAME         
CABS                                                        MARKER NUMBER       
                                                            OBSERVER / AGENCY   
462287              LEICA GRX1200PRO    8.10/2.127          REC # / TYPE / VERS 
103298              LEIAT504                                ANT # / TYPE        
  5116912.3402   671231.6412  3737143.4301                  APPROX POSITION XYZ 
        0.0600        0.0000        0.0000                  ANTENNA: DELTA H/E/N
     1     1                                                WAVELENGTH FACT L1/2
     4    C1    L1    P2    L2                              # / TYPES OF OBSERV 
    30.000                                                  INTERVAL            
  2015    02    14    00    00    0.0000000     GPS         TIME OF FIRST OBS   
  2015    02    14    23    59   30.0000000     GPS         TIME OF LAST OBS    
    16                                                      LEAP SECONDS        
    30                                                      # OF SATELLITES     
   G 1   803   803   803   803                              PRN / # OF OBS      
   G 2   931   931   931   931                              PRN / # OF OBS      
   G 3   847   847   847   847                              PRN / # OF OBS      
   G 4   831   831   831   831                              PRN / # OF OBS      
   G 5   617   617   617   617                              PRN / # OF OBS      
   G 6   828   828   828   828                              PRN / # OF OBS      
   G 7   673   673   673   673                              PRN / # OF OBS      
   G 9   807   807   807   807                              PRN / # OF OBS      
   G10   738   738   738   738                              PRN / # OF OBS      
   G11   770   770   770   770                              PRN / # OF OBS      
   G12   804   804   803   803                              PRN / # OF OBS      
   G13   786   786   786   786                              PRN / # OF OBS      
   G14   933   933   933   933                              PRN / # OF OBS      
   G15   695   695   695   695                              PRN / # OF OBS      
   G16   664   664   664   664                              PRN / # OF OBS      
   G17   943   943   943   943                              PRN / # OF OBS      
   G18   907   907   907   907                              PRN / # OF OBS      
   G19   750   750   750   750                              PRN / # OF OBS      
   G20   784   784   784   784                              PRN / # OF OBS      
   G21   738   738   738   738                              PRN / # OF OBS      
   G22   657   657   657   657                              PRN / # OF OBS      
   G23   755   755   755   755                              PRN / # OF OBS      
   G24   816   816   816   816                              PRN / # OF OBS      
   G25   854   854   854   854                              PRN / # OF OBS      
   G27   797   797   797   797                              PRN / # OF OBS      
   G28   877   877   877   877                              PRN / # OF OBS      
   G29   760   760   760   760                              PRN / # OF OBS      
   G30   719   719   719   719                              PRN / # OF OBS      
   G31   870   870   870   870                              PRN / # OF OBS      
   G32   770   770   770   770                              PRN / # OF OBS      
BIT 2 OF LLI FLAGS DATA COLLECTED UNDER A/S CONDITION       COMMENT             
SNR is mapped to RINEX snr flag value [2-9]                 COMMENT             
Lx:     = 25dBHz -> 1; 26-27dBHz -> 2; 28-31dBHz -> 3       COMMENT             
       32-35dBHz -> 4; 36-38dBHz -> 5; 39-41dBHz -> 6       COMMENT             
       42-44dBHz -> 7; 45-48dBHz -> 8; >=49dBHz -> 9        COMMENT             
                                                            END OF HEADER       
 15 02 14 00 00  0.0000000  0  6G16G18G21G25G29G31
  23531766.300   123660268.76206  23531767.460    96358665.59245
  24065850.900   126466920.57606  24065854.480    98545679.97645
  20922744.560   109949854.53708  20922745.300    85675251.18149
  22897563.120   120327628.98107  22897567.900    93761859.00846
  22135418.820   116322640.94708  22135420.680    90641124.97047
  21500659.180   112986744.08308  21500660.240    88041625.56748
 15 02 14 00 00 30.0000000  0  6G16G18G21G25G29G31
  23514602.480   123570071.96906  23514603.620    96288382.38945
  24050602.540   126386788.75805  24050605.680    98483239.73344
  20920567.720   109938414.85308  20920568.420    85666337.14749
  22913193.300   120409765.86407  22913198.160    93825861.75946
  22147958.540   116388537.73608  22147960.400    90692473.10547
  21510987.160   113041018.05208  21510988.240    88083916.96048
 15 02 14 00 01  0.0000000  0  6G16G18G21G25G29G31
  23497449.860   123479934.24607  23497451.060    96218145.21045
  24035356.040   126306666.12106  24035358.840    98420806.63844
  20918476.480   109927424.88408  20918477.120    85657773.54549
  22928872.220   120492158.50607  22928877.100    93890063.80246
  22160514.320   116454518.72708  22160516.160    90743886.84348
  21521403.460   113095756.18308  21521404.560    88126570.03248
 15 02 14 00 01 30.0000000  0  7G16G18G21G25G27G29G31
  23480309.720   123389862.33907  23480311.000    96147959.33145
  24020112.580   126226560.59306  24020115.140    98358386.87445
  20916471.860   109916890.50608  20916472.520    85649564.94949
  22944600.740   120574811.97107  22944605.620    93954469.08346
  24616881.320   129362580.79205  24616885.060   100802031.90244
  22173087.140   116520588.96908  22173088.940    90795370.13747
  21531908.820   113150962.12008  21531909.900    88169587.64048
 15 02 14 00 02  0.0000000  0  7G16G18G21G25G27G29G31
  23463179.500   123299842.48807  23463180.900    96077814.01746
  24004870.120   126146459.54306  24004872.360    98295970.59444
  20914550.880   109906795.83508  20914551.580    85641698.98049
  22960375.720   120657709.64307  22960380.520    94019064.65647
  24602101.300   129284911.61405  24602104.940   100741510.54144
  22185673.820   116586731.97508  22185675.540    90846910.12347
  21542499.780   113206617.96408  21542500.880    88212955.81348
 15 02 14 00 02 30.0000000  0  7G16G18G21G25G27G29G31
  23446062.500   123209892.12706  23446063.920    96007722.84845
  23989631.700   126066381.51006  23989633.780    98233572.24544
  20912716.400   109897155.98208  20912717.140    85634187.41349
  22976199.940   120740866.50207  22976204.640    94083862.18946
  24587338.580   129207333.84805  24587342.220   100681060.39644
  22198277.200   116652962.57408  22198278.780    90898518.35747
  21553179.060   113262737.83308  21553180.140    88256685.57348
 15 02 14 00 03  0.0000000  0  7G16G18G21G25G27G29G31
  23428958.260   123120008.58407  23428959.640    95937683.74245
  23974397.160   125986324.12706  23974399.160    98171189.96144
  20910967.440   109887965.52208  20910968.200    85627026.02349
  22992072.460   120824276.99207  22992077.020    94148857.36046
  24572592.260   129129842.76405  24572596.320   100620677.79245
  22210896.220   116719275.56208  22210897.680    90950190.79347
  21563945.300   113319314.55908  21563946.360    88300771.31748
 15 02 14 00 03 30.0000000  0  7G16G18G21G25G27G29G31
  23411867.000   123030193.09207  23411868.360    95867697.66045
  23959166.940   125906290.10206  23959168.980    98108825.89844
  20909304.040   109879224.79208  20909304.840    85620215.07349
  23007993.200   120907940.58507  23007997.520    94214049.74246
  24557861.760   129052439.75705  24557866.600   100560350.05545
  22223530.920   116785671.15908  22223532.300    91001927.60147
  21574798.100   113376346.18008  21574799.140    88345211.52548
 15 02 14 00 04  0.0000000  0  7G16G18G21G25G27G29G31
  23394788.340   122940443.94407  23394789.640    95797763.26945
  23943940.940   125826278.62206  23943942.960    98046479.38644
  20907725.380   109870929.02508  20907726.160    85613750.84749
  23023961.300   120991852.78207  23023965.280    94279435.85246
  24543148.460   128975119.14105  24543153.280   100500100.29245
  22236180.460   116852144.75108  22236181.820    91053725.19147
  21585736.380   113433827.12108  21585737.420    88390001.85048
 15 02 14 00 04 30.0000000  0  7G16G18G21G25G27G29G31
  23377723.100   122850765.50007  23377724.360    95727883.96644
  23928720.200   125746295.09806  23928722.400    97984154.65544
  20906232.000   109863081.22408  20906232.740    85607635.68549
  23039977.080   121076015.41207  23039980.780    94345017.10246
  24528451.400   128897884.66305  24528456.080   100439917.61345
  22248845.220   116918698.44808  22248846.580    91105585.21347
  21596760.280   113491757.98908  21596761.320    88435142.77248
 15 02 14 00 05  0.0000000  0  7G16G18G21G25G27G29G31
  23360671.660   122761159.56207  23360672.820    95658061.18245
  23913505.400   125666341.94606  23913507.560    97921853.59144
  20904823.840   109855681.17208  20904824.560    85601869.42049
  23056040.320   121160427.75607  23056044.000    94410792.94446
  24513770.580   128820736.53305  24513775.220   100379802.24845
  22261525.020   116985331.60208  22261526.460    91157507.14047
  21607869.400   113550136.75808  21607870.440    88480632.70648
 15 02 14 00 05 30.0000000  0  7G16G18G21G25G27G29G31
  23343633.960   122671625.94407  23343634.980    95588294.71645
  23898296.460   125586420.13706  23898298.640    97859576.99144
  20903500.280   109848725.90708  20903501.020    85596449.73849
  23072150.480   121245087.11007  23072154.320    94476761.25446
  24499105.880   128743672.92505  24499110.580   100319752.74745
  22274219.460   117052041.84108  22274221.020    91209489.13347
  21619062.980   113608959.33708  21619064.000    88526468.46748
 15 02 14 00 06  0.0000000  0  7G16G18G21G25G27G29G31
  23326610.580   122582167.91707  23326611.580    95518587.16545
  23883094.540   125506534.21006  23883096.620    97797328.26944
  20902261.620   109842216.94408  20902262.400    85591377.82549
  23088307.740   121329994.13707  23088311.820    94542922.56146
  24484457.500   128666695.36605  24484462.220   100259770.28245
  22286928.820   117118830.16308  22286930.440    91261531.97147
  21630340.900   113668225.24308  21630341.940    88572649.68648
 15 02 14 00 06 30.0000000  0  7G16G18G21G25G27G29G31
  23309601.780   122492786.49807  23309602.800    95448939.32445
  23867899.740   125426685.64306  23867901.940    97735108.73044
  20901107.640   109836152.86408  20901108.440    85586652.57249
  23104511.800   121415147.27107  23104516.100    94609275.64046
  24469825.320   128589803.24305  24469830.060   100199854.42044
  22299652.740   117185695.04208  22299654.420    91313634.46647
  21641702.640   113727931.55808  21641703.680    88619174.06948
 15 02 14 00 07  0.0000000  0  7G16G18G21G25G27G29G31
  23292607.980   122403483.59407  23292609.040    95379352.67745
  23852712.700   125346877.53306  23852714.900    97672920.67844
  20900038.300   109830533.46508  20900039.100    85582273.82649
  23120762.580   121500545.68007  23120767.040    94675819.85146
  24455209.420   128512996.65105  24455214.200   100140005.16445
  22312391.220   117252636.27508  22312392.940    91365796.44747
  21653147.760   113788076.02308  21653148.800    88666039.87348
 15 02 14 00 07 30.0000000  0  7G16G18G21G25G27G29G31
  23275629.240   122314259.88707  23275630.420    95309827.72045
  23837533.900   125267111.95406  23837536.040    97610765.72044
  20899053.280   109825357.25508  20899054.080    85578240.42449
  23137059.700   121586187.79207  23137064.200    94742553.94646
  24440609.640   128436274.87805  24440614.440   100080222.01845
  22325143.960   117319652.01608  22325145.640    91418016.46847
  21664675.660   113848655.51208  21664676.680    88713244.65248
 15 02 14 00 08  0.0000000  0  7G16G18G21G25G27G29G31
  23258666.120   122225118.01307  23258667.440    95240366.54345
  23822363.780   125187392.36406  23822366.080    97548646.65745
  20898152.600   109820624.30808  20898153.420    85574552.42549
  23153403.120   121672073.67707  23153407.680    94809477.98846
  24426026.260   128359638.93005  24426031.020   100020505.73845
  22337911.060   117386743.26608  22337912.700    91470295.33847
  21676286.140   113909668.94908  21676287.140    88760787.57148
 15 02 14 00 08 30.0000000  0  7G16G18G21G25G27G29G31
  23241718.880   122136059.92107  23241720.380    95170970.64745
  23807202.860   125107721.23606  23807205.220    97486565.31944
  20897336.360   109816334.92708  20897337.200    85571210.06349
  23169792.760   121758202.41807  23169797.300    94876591.26646
  24411459.280   128283088.88605  24411463.900    99960856.39445
  22350692.420   117453909.25208  22350693.940    91522632.44147
  21687978.780   113971114.21008  21687979.800    88808666.97348
 15 02 14 00 09  0.0000000  0  7G16G18G21G25G27G29G31
  23224787.860   122047086.86607  23224789.420    95101641.00646
  23792051.580   125028100.94106  23792054.060    97424523.61045
  20896604.240   109812487.64508  20896605.100    85568212.18949
  23186228.360   121844572.62607  23186232.820    94943892.68946
  24396908.560   128206624.31805  24396913.140    99901273.66945
  22363487.720   117521148.53908  22363489.140    91575026.66647
  21699753.040   114032988.43808  21699754.100    88856880.64548
 15 02 14 00 09 30.0000000  0  7G16G18G21G25G27G29G31
  23207873.480   121958201.34107  23207875.020    95032379.57045
  23776910.560   124948534.46206  23776913.120    97362523.81144
  20895956.360   109809082.91508  20895957.220    85565559.16149
  23202709.920   121931184.11307  23202714.320    95011382.13546
  24382374.220   128130245.92205  24382378.560    99841758.05244
  22376297.100   117588462.21208  22376298.520    91627478.85647
  21711608.640   114095289.96308  21711609.740    88905427.27748
 15 02 14 00 10  0.0000000  0  7G16G18G21G25G27G29G31
  23190976.040   121869404.39707  23190977.380    94963187.16345
  23761780.300   124869024.19906  23761783.020    97300567.85645
  20895392.320   109806118.84908  20895393.200    85563249.50549
  23219237.140   122018035.27407  23219241.480    95079058.34646
  24367856.100   128053953.09305  24367860.360    99782309.14645
  22389120.260   117655848.49608  22389121.720    91679987.63347
  21723544.960   114158015.87908  21723546.120    88954304.60248
 15 02 14 00 10 30.0000000  0  7G16G18G21G25G27G29G31
  23174095.660   121780697.04407  23174096.780    94894064.56245
  23746661.060   124789572.30606  23746663.840    97238657.39145
  20894912.040   109803594.82108  20894912.880    85561282.73949
  23235809.720   122105124.47107  23235814.080    95146920.04145
  24353354.120   127977745.11005  24353358.220    99722926.35344
  22401957.020   117723306.41108  22401958.620    91732552.23247
  21735561.520   114221163.39608  21735562.720    89003510.45248
 15 02 14 00 11  0.0000000  0  7G16G18G21G25G27G29G31
  23157232.720   121692081.27107  23157233.620    94825013.32545
  23731553.540   124710181.27906  23731556.160    97176794.31945
  20894515.200   109801509.36008  20894516.020    85559657.71049
  23252427.480   122192450.72707  23252431.800    95214966.46746
  24338868.420   127901622.09105  24338872.340    99663609.74745
  22414807.280   117790835.23808  22414809.040    91785172.08147
  21747657.840   114284730.00508  21747659.020    89053042.86248
 15 02 14 00 11 30.0000000  0  7G16G18G21G25G27G29G31
  23140387.540   121603559.21307  23140388.380    94756035.11045
  23716458.140   124630854.02806  23716460.620    97114980.96445
  20894201.800   109799862.51908  20894202.640    85558374.46649
  23269090.180   122280013.29407  23269094.500    95283197.02046
  24324398.880   127825584.11605  24324402.880    99604359.42446
  22427671.040   117858434.75908  22427672.900    91837847.00947
  21759833.460   114348713.32308  21759834.600    89102899.97648
 15 02 14 00 12  0.0000000  0  7G16G18G21G25G27G29G31
  23123560.820   121515134.36807  23123561.640    94687132.64645
  23701375.740   124551595.37906  23701377.980    97053221.03745
  20893972.180   109798656.02908  20893973.040    85557434.35149
  23285798.120   122367813.44607  23285802.500    95351612.70546
  24309945.920   127749633.53005  24309950.000    99545177.17045
  22440548.580   117926106.44608  22440550.480    91890578.17047
  21772088.440   114413113.46508  21772089.500    89153081.88948
 15 02 14 00 12 30.0000000  0  7G16G18G21G25G27G29G31
  23106752.660   121426807.04907  23106753.480    94618306.16946
  23686306.420   124472406.59506  23686308.700    96991515.56345
  20893825.920   109797887.55108  20893826.800    85556835.54649
  23302550.760   122455848.47507  23302555.100    95420211.41446
  24295509.260   127673768.69205  24295513.620    99486061.75745
  22453439.500   117993848.42508  22453441.420    91943364.11947
  21784421.960   114477926.33408  21784422.980    89203585.40748
 15 02 14 00 13  0.0000000  0  7G16G18G21G25G27G29G31
  23089963.540   121338579.63607  23089964.300    94549557.53246
  23671250.780   124393290.41206  23671253.240    96929866.65345
  20893762.900   109797556.37008  20893763.760    85556577.48949
  23319347.900   122544117.83707  23319352.300    95488992.70646
  24281089.000   127597989.93505  24281093.480    99427013.40846
  22466343.700   118061660.33308  22466345.600    91996204.55747
  21796833.700   114543150.09508  21796834.680    89254409.09848
 15 02 14 00 13 30.0000000  0  7G16G18G21G25G27G29G31
  23073193.640   121250453.19307  23073194.420    94480887.58646
  23656209.300   124314248.89806  23656211.820    96868275.90445
  20893782.940   109797661.57108  20893783.760    85556659.47249
  23336189.260   122632619.92506  23336193.780    95557955.35446
  24266685.020   127522296.70905  24266689.640    99368031.69445
  22479261.000   118129541.18208  22479262.860    92049098.70847
  21809323.020   114608781.74908  21809324.020    89305550.63548
 15 02 14 00 14  0.0000000  0  7G16G18G21G25G27G29G31
  23056443.280   121162429.73007  23056444.160    94412297.88346
  23641182.700   124235285.08506  23641185.380    96806745.73844
  20893885.960   109798202.55308  20893886.680    85557081.01849
  23353074.640   122721353.83706  23353079.260    95627098.63846
  24252297.280   127446689.13205  24252302.020    99309116.72945
  22492191.360   118197490.79808  22492193.280    92102046.43647
  21821889.480   114674818.80308  21821890.540    89357008.06148
 15 02 14 00 14 30.0000000  0  7G16G18G21G25G27G29G31
  23039712.680   121074510.13807  23039713.720    94343789.11946
  23626171.320   124156400.56006  23626174.000    96745277.31944
  20894071.460   109799177.08608  20894072.140    85557840.39949
  23370003.780   122810317.81206  23370008.460    95696421.19346
  24237925.680   127371166.42405  24237930.480    99250267.89745
  22505134.580   118265507.76508  22505136.500    92155046.64447
  21834532.500   114741258.13008  21834533.580    89408778.95248
 15 02 14 00 15  0.0000000  0  7G16G18G21G25G27G29G31
  23023002.240   120986696.55907  23023003.460    94275362.96846
  23611175.700   124077598.31606  23611178.240    96683873.03745
  20894339.440   109800585.08408  20894340.060    85558937.54449
  23386976.520   122899510.70106  23386981.220    95765922.11346
  24223570.180   127295728.50405  24223575.100    99191485.12246
  22518090.560   118333590.92508  22518092.260    92208098.43847
  21847251.560   114808097.00708  21847252.600    89460861.18248
 15 02 14 00 15 30.0000000  0  7G16G18G21G25G27G29G31
  23006312.280   120898990.54307  23006313.620    94207020.62546
  23596196.260   123998880.94306  23596198.700    96622534.88844
  20894689.660   109802425.51008  20894690.300    85560371.64749
  23403992.820   122988931.54906  23403997.320    95835600.67945
  24209230.840   127220375.49405  24209235.740    99132768.50745
  22531059.240   118401740.72608  22531060.720    92261202.15747
  21860046.240   114875333.40708  21860047.260    89513253.16848
 15 02 14 00 16  0.0000000  0  7G16G18G21G25G27G29G31
  22989643.220   120811394.15907  22989644.620    94138763.71646
  23581233.640   123920251.60506  23581235.820    96561265.31744
  20895122.160   109804698.36008  20895122.800    85562142.70549
  23421052.380   123078579.60107  23421056.600    95905456.27145
  24194907.760   127145107.66805  24194912.620    99074118.32344
  22544040.480   118469956.90108  22544041.860    92314357.58947
  21872916.060   114942964.91508  21872917.120    89565953.02848
 15 02 14 00 16 30.0000000  0  7G16G18G21G25G27G29G31
  22972995.340   120723908.68907  22972996.720    94070593.23546
  23566288.080   123841711.58906  23566290.140    96500065.36045
  20895636.380   109807400.83108  20895637.060    85564248.52849
  23438154.860   123168452.70407  23438158.760    95975487.24945
  24180600.800   127069923.87005  24180605.400    99015533.58644
  22557034.020   118538237.71908  22557035.320    92367563.39447
  21885860.320   115010987.94908  21885861.460    89618957.97348
 15 02 14 00 17  0.0000000  0  7G16G18G21G25G27G29G31
  22956369.320   120636537.88107  22956370.600    94002512.09246
  23551360.480   123763265.95406  23551362.300    96438938.94445
  20896232.840   109810535.41708  20896233.520    85566691.06549
  23455300.400   123258552.24007  23455304.180    96045694.66045
  24166310.340   126994826.58605  24166314.720    98957016.27845
  22570040.080   118606585.03608  22570041.420    92420821.01747
  21898879.120   115079402.75108  21898880.400    89672268.19248
 15 02 14 00 17 30.0000000  0  7G16G18G21G25G27G29G31
  22939765.260   120549282.85107  22939766.540    93934521.17346
  23536451.260   123684916.84707  23536453.040    96377887.74044
  20896911.180   109814100.44608  20896911.920    85569469.02249
  23472488.560   123348876.35907  23472492.440    96116077.06745
  24152036.260   126919815.07206  24152040.520    98898565.79045
  22583058.520   118674997.72008  22583059.940    92474129.57847
  21911971.840   115148205.62808  21911973.160    89725880.80748
 15 02 14 00 18  0.0000000  0  7G16G18G21G25G27G29G31
  22923183.640   120462145.94707  22923184.940    93866622.29746
  23521560.960   123606667.15306  23521562.720    96316913.98445
  20897671.300   109818094.86208  20897672.040    85572581.56249
  23489719.240   123439424.23306  23489723.260    96186633.84846
  24137778.500   126844889.46006  24137782.700    98840182.25546
  22596089.300   118743475.24408  22596090.820    92527488.67547
  21925138.060   115217394.58808  21925139.380    89779794.27248
 15 02 14 00 18 30.0000000  0  7G16G18G21G25G27G29G31
  22906624.960   120375129.84907  22906626.280    93798817.54646
  23506690.280   123528520.67706  23506691.960    96256020.66145
  20898513.140   109822518.74808  20898513.880    85576028.75649
  23506992.280   123530195.75106  23506996.660    96257364.87445
  24123537.160   126770050.76805  24123541.460    98781866.41445
  22609132.560   118812018.64008  22609134.180    92580899.08747
  21938377.420   115286967.88408  21938378.760    89834007.21648
 15 02 14 00 19  0.0000000  0  7G16G18G21G25G27G29G31
  22890089.200   120288234.28207  22890090.500    93731106.73646
  23491839.060   123450477.55906  23491841.000    96195207.90345
  20899436.100   109827368.94308  20899436.820    85579808.13549
  23524307.160   123621187.30306  23524311.940    96328267.35345
  24109311.920   126695296.54905  24109316.320    98723616.42046
  22622187.860   118880624.87208  22622189.480    92634358.46647
  21951689.040   115356920.63308  21951690.320    89888515.83748
 15 02 14 00 19 30.0000000  0  7G16G18G21G25G27G29G31
  22873577.180   120201462.96807  22873578.360    93663492.73146
  23477008.280   123372542.06806  23477010.380    96134478.99045
  20900440.400   109832646.55708  20900441.140    85583920.56749
  23541664.040   123712399.61006  23541669.140    96399341.84946
  24095102.920   126620628.58505  24095107.520    98665433.63046
  22635255.380   118949295.20808  22635257.000    92687867.81547
  21965072.740   115427251.89208  21965073.900    89943319.39148
 15 02 14 00 20  0.0000000  0  7G16G18G21G25G27G29G31
  22857088.860   120114815.83907  22857089.840    93595975.49046
  23462198.200   123294715.49906  23462200.500    96073834.95845
  20901525.540   109838348.99608  20901526.300    85588364.03249
  23559062.540   123803829.88906  23559067.840    96470586.19645
  24080909.920   126546045.13105  24080914.820    98607316.69445
  22648334.660   119018027.55708  22648336.360    92741425.46947
  21978527.640   115497957.50308  21978528.720    89998414.65248
 15 02 14 00 20 30.0000000  0  7G16G18G21G25G27G29G31
  22840624.440   120028294.39407  22840625.300    93528556.18246
  23447409.280   123216999.93906  23447411.600    96013277.39845
  20902691.280   109844475.01708  20902692.060    85593137.56549
  23576502.440   123895476.72206  23576507.820    96541999.28646
  24066733.080   126471546.00905  24066738.020    98549265.47145
  22661425.700   119086821.46808  22661427.380    92795031.09547
  21992053.200   115569034.50108  21992054.200    90053799.30348
 15 02 14 00 21  0.0000000  0  7G16G18G21G25G27G29G31
  22824184.540   119941901.91107  22824185.340    93461237.37246
  23432642.120   123139399.37406  23432644.560    95952809.47145
  20903937.620   109851024.65108  20903938.400    85598241.18549
  23593983.720   123987340.18606  23593988.960    96613581.16746
  24052572.480   126397132.31005  24052577.400    98491280.80646
  22674528.580   119155677.59108  22674530.280    92848685.18647
  22005649.180   115640481.95308  22005650.240    90109472.62048
 15 02 14 00 21 30.0000000  0  7G16G18G21G25G27G29G31
  22807769.380   119855639.87807  22807770.260    93394020.21446
  23417897.300   123061915.91206  23417899.900    95892432.80945
  20905264.200   109857995.94208  20905264.980    85603673.36749
  23611505.880   124079418.38407  23611510.860    96685330.39045
  24038428.080   126322803.28905  24038432.880    98433362.13545
  22687643.060   119224594.44808  22687644.800    92902386.60547
  22019314.900   115712296.13308  22019316.100    90165431.70848
 15 02 14 00 22  0.0000000  0  7G16G18G21G25G27G29G31
  22791379.420   119769510.37808  22791380.440    93326906.34046
  23403175.440   122984552.32006  23403178.000    95832149.52545
  20906671.040   109865388.92508  20906671.820    85609434.14049
  23629068.640   124171710.63606  23629073.500    96757246.40745
  24024299.940   126248559.33005  24024304.660    98375509.73045
  22700769.080   119293571.95208  22700770.860    92956135.28147
  22033049.980   115784474.85908  22033051.340    90221674.86048
 15 02 14 00 22 30.0000000  0  7G16G18G21G25G27G29G31
  22775015.020   119683514.88607  22775016.080    93259896.87646
  23388477.040   122907311.12606  23388479.380    95771961.62544
  20908157.740   109873201.63608  20908158.520    85615521.97149
  23646671.640   124264215.17206  23646676.460    96829327.84045
  24010187.980   126174399.95705  24010192.540    98317723.25145
  22713906.500   119362609.64908  22713908.340    93009930.85247
  22046853.840   115857014.99808  22046855.360    90278199.62748
 15 02 14 00 23  0.0000000  0  7G16G18G21G25G27G29G31
  22758676.800   119597656.95707  22758677.840    93192994.59846
  23373802.820   122830196.40307  23373804.860    95711872.26544
  20909724.600   109881435.67008  20909725.380    85621938.10549
  23664315.100   124356932.70806  23664319.760    96901575.24644
  23996092.440   126100326.96606  23996097.000    98260004.08646
  22727055.620   119431708.74707  22727057.520    93063774.29447
  22060726.460   115929915.95408  22060728.000    90335005.55448
 15 02 14 00 23 30.0000000  0  7G16G18G21G25G27G29G31
  22742364.980   119511937.72007  22742366.020    93126200.39346
  23359153.080   122753210.31707  23359154.780    95651883.13445
  20911371.160   109890088.40108  20911371.940    85628680.50149
  23681998.540   124449860.89806  23682003.240    96973986.80645
  23982013.120   126026339.14106  23982017.680    98202351.27445
  22740216.200   119500868.01107  22740218.160    93117664.60647
  22074667.060   116003173.71808  22074668.500    90392089.50548
 15 02 14 00 24  0.0000000  0  7G16G18G21G25G27G29G31
  22726079.720   119426358.39507  22726080.800    93059515.20747
  23344528.080   122676354.68207  23344529.500    95591995.65145
  20913097.080   109899158.23808  20913097.860    85635747.91149
  23699721.820   124542998.06206  23699726.460    97046561.20143
  23967949.920   125952435.95906  23967954.400    98144764.42446
  22753388.040   119570086.31107  22753389.980    93171600.91147
  22088674.940   116076785.03308  22088676.240    90449448.94748
 15 02 14 00 24 30.0000000  0  7G16G18G21G25G27G29G31
  22709821.500   119340921.60607  22709822.740    92992941.09846
  23329928.340   122599632.69907  23329929.700    95532212.31345
  20914902.300   109908644.77008  20914903.060    85643140.01749
  23717484.860   124636343.57506  23717489.320    97119297.93644
  23953902.940   125878618.01306  23953907.200    98087243.99046
  22766571.160   119639363.98807  22766573.140    93225583.50147
  22102749.680   116150747.75208  22102750.760    90507082.21048
 15 02 14 00 25  0.0000000  0  7G16G18G21G25G27G29G31
  22693590.940   119255629.86607  22693592.240    92926480.00846
  23315354.480   122523047.59607  23315355.920    95472535.65345
  20916786.700   109918547.44508  20916787.480    85650856.39449
  23735287.480   124729896.71706  23735291.840    97192196.46344
  23939872.180   125804885.67505  23939876.260    98029790.26745
  22779765.600   119708701.41707  22779767.660    93279612.63247
  22116890.840   116225059.87908  22116891.780    90564987.74148
 15 02 14 00 25 30.0000000  0  7G16G18G21G25G27G29G31
  22677388.220   119170483.75007  22677389.460    92860132.39647
  23300806.940   122446600.62707  23300808.440    95412966.60544
  20918749.840   109928863.85008  20918750.600    85658895.16149
  23753129.180   124823654.82406  23753133.440    97265254.70045
  23925857.440   125731237.59505  23925861.320    97972402.19046
  22792970.980   119778096.04707  22792973.080    93333686.32747
  22131097.640   116299717.19508  22131098.500    90623162.24948
 15 02 14 00 26  0.0000000  0  7G16G18G21G25G27G29G31
  22661213.800   119085486.15807  22661214.940    92793900.50847
  23286286.300   122370295.36307  23286287.960    95353507.98245
  20920791.660   109939593.79108  20920792.440    85667256.16749
  23771009.880   124917617.82206  23771014.180    97338472.62045
  23911858.860   125657674.75005  23911862.640    97915080.53346
  22806187.480   119847548.97607  22806189.580    93387805.45947
  22145369.840   116374718.15208  22145370.740    90681604.53648
 15 02 14 00 26 30.0000000  0  7G16G18G21G25G27G29G31
  22645068.000   119000639.16707  22645069.100    92727785.96747
  23271793.280   122294134.85407  23271795.180    95294162.15145
  20922912.060   109950736.62908  20922912.800    85675938.90449
  23788929.260   125011784.54206  23788933.780    97411849.22645
  23897876.460   125584197.32005  23897880.240    97857825.44446
  22819415.080   119917060.13407  22819417.140    93441969.95947
  22159706.940   116450060.11608  22159707.960    90740312.54248
 15 02 14 00 27  0.0000000  0  7G16G18G21G25G27G29G31
  22628951.060   118915944.28407  22628952.200    92661789.95247
  23257328.240   122218120.79507  23257330.260    95234930.46445
  20925110.700   109962290.54208  20925111.420    85684941.95949
  23806887.040   125106153.12906  23806891.800    97485383.18145
  23883910.180   125510804.55705  23883914.120    97800636.33746
  22832653.540   119986628.12408  22832655.500    93496178.73847
  22174108.360   116525739.69208  22174109.460    90799283.62148
 15 02 14 00 27 30.0000000  0  7G16G18G21G25G27G29G31
  22612863.560   118831404.20507  22612864.760    92595914.56647
  23242891.800   122142256.66407  23242893.860    95175815.61045
  20927387.480   109974254.99608  20927388.160    85694264.91849
  23824883.220   125200723.07506  23824888.140    97559074.01846
  23869960.180   125437497.20405  23869964.200    97743513.74146
  22845902.840   120056253.08307  22845904.700    93550431.91947
  22188573.640   116601755.04108  22188574.860    90858516.34348
 15 02 14 00 28  0.0000000  0  7G16G18G21G25G27G29G31
  22596805.500   118747018.70908  22596806.760    92530159.63647
  23228484.240   122066543.29307  23228486.140    95116818.19645
  20929741.760   109986626.71108  20929742.420    85703905.22249
  23842917.140   125295490.90806  23842922.080    97632919.05845
  23856025.980   125364273.05305  23856030.280    97686455.98046
  22859162.660   120125933.50807  22859164.460    93604728.30746
  22203101.800   116678100.92208  22203103.120    90918006.62548
 15 02 14 00 28 30.0000000  0  7G16G18G21G25G27G29G31
  22580777.860   118662792.80608  22580779.120    92464529.06447
  23214106.380   121990986.13307  23214108.120    95057942.50845
  20932173.900   109999407.67708  20932174.540    85713864.42449
  23860989.060   125390458.37506  23860993.920    97706919.63245
  23842108.120   125291135.04305  23842112.680    97629465.37446
  22872433.440   120195671.75907  22872435.240    93659069.76947
  22217692.900   116754777.85608  22217694.340    90977754.86748
 15 02 14 00 29  0.0000000  0  7G16G18G21G25G27G29G31
  22564781.060   118578728.73408  22564782.260    92399024.59747
  23199758.700   121915588.03207  23199760.400    94999190.76846
  20934683.740   110012596.97808  20934684.360    85724141.80449
  23879098.580   125485624.45506  23879103.440    97781074.99145
  23828206.800   125218083.37905  23828211.480    97572542.03646
  22885714.980   120265467.28307  22885716.920    93713455.86147
  22232346.540   116831783.45108  22232348.040    91037759.21548
 15 02 14 00 29 30.0000000  0  7G16G18G21G25G27G29G31
  22548814.880   118494825.66308  22548816.020    92333645.58547
  23185441.160   121840348.54407  23185442.940    94940562.64645
  20937270.520   110026190.60908  20937271.120    85734734.25049
  23897245.080   125580984.84306  23897249.800    97855381.75945
  23814321.400   125145115.01006  23814326.000    97515683.59346
  22899006.820   120335316.88807  22899008.960    93767884.09847
  22247061.520   116909111.45608  22247063.040    91098014.77847
 15 02 14 00 30  0.0000000  0  7G16G18G21G25G27G29G31
  22532880.100   118411087.88908  22532881.280    92268395.38447
  23171154.600   121765272.80007  23171156.580    94882062.09545
  20939934.340   110040189.10608  20939934.940    85745642.17249
  23915428.700   125676540.59506  23915433.260    97929840.77045
  23800452.420   125072232.28406  23800456.820    97458891.89846
  22912309.400   120405222.78307  22912311.700    93822356.20447
  22261837.880   116986761.73308  22261839.340    91158521.46947
 15 02 14 00 30 30.0000000  0  7G16G18G21G25G27G29G31
  22516977.140   118327517.27008  22516978.340    92203275.42347
  23156899.660   121690363.46307  23156901.800    94823691.20845
  20942675.000   110054591.60308  20942675.640    85756864.90349
  23933648.900   125772290.34206  23933653.620    98004450.90744
  23786599.640   124999435.00106  23786603.880    97402166.78345
  22925622.620   120475184.23707  22925625.000    93876871.61647
  22276675.020   117064731.21708  22276676.400    91219276.88747
 15 02 14 00 31  0.0000000  0  7G16G18G21G25G27G29G31
  22501106.240   118244115.13308  22501107.400    92138286.75347
  23142676.780   121615622.26807  23142678.980    94765451.35045
  20945492.200   110069396.39908  20945492.880    85768401.10749
  23951905.680   125868232.09005  23951910.660    98079210.70045
  23772762.940   124926722.54406  23772767.060    97345507.76046
  22938946.200   120545200.37507  22938948.700    93931429.61747
  22291572.260   117143016.63708  22291573.640    91280278.49048
 15 02 14 00 31 30.0000000  0  7G16G18G21G25G27G29G31
  22485267.600   118160882.42408  22485268.720    92073430.11047
  23128486.220   121541050.57107  23128488.260    94707343.55746
  20948385.520   110084601.00908  20948386.220    85780248.86149
  23970198.720   125964363.36805  23970203.860    98154118.16144
  23758942.080   124854093.66006  23758946.120    97288913.86446
  22952280.000   120615269.97207  22952282.540    93986029.27447
  22306528.880   117221613.96108  22306530.220    91341523.14048
 15 02 14 00 32  0.0000000  0  7G16G18G21G25G27G29G31
  22469461.760   118077822.20008  22469462.820    92008707.86247
  23114328.640   121466652.14907  23114330.480    94649370.78745
  20951354.880   110100205.14608  20951355.600    85792407.93349
  23988527.960   126060683.71206  23988532.840    98229172.93744
  23745137.300   124781549.24906  23745141.280    97232385.80846
  22965624.080   120685393.35207  22965626.560    94040670.82447
  22321544.480   117300521.37708  22321545.840    91403009.42448
 15 02 14 00 32 30.0000000  0  7G16G18G21G25G27G29G31
  22453689.220   117994937.30008  22453690.300    91944122.24147
  23100204.760   121392430.66407  23100206.400    94591535.90346
  20954400.260   110116208.65708  20954400.980    85804878.21249
  24006893.300   126157192.83806  24006897.920    98304374.84545
  23731348.700   124709090.19506  23731352.700    97175924.23645
  22978978.560   120755571.04207  22978980.920    94095354.69846
  22336618.700   117379736.78508  22336620.040    91464735.70648
 15 02 14 00 33  0.0000000  0  7G16G18G21G25G27G29G31
  22437950.380   117912229.46108  22437951.440    91879674.58047
  23086115.000   121318388.47307  23086116.460    94533840.72045
  20957521.300   110132609.81208  20957522.020    85817658.34349
  24025294.380   126253889.01906  24025298.620    98379722.47444
  23717576.240   124636716.15906  23717580.280    97119528.93145
  22992343.220   120825802.77807  22992345.500    94150080.70146
  22351750.920   117459257.08308  22351752.240    91526699.54947
 15 02 14 00 33 30.0000000  0  7G16G18G21G25G27G29G31
  22422245.560   117829700.20608  22422246.540    91815366.08647
  23072059.660   121244527.23407  23072061.080    94476286.53445
  20960717.580   110149406.24308  20960718.280    85830746.47549
  24043730.660   126350770.26206  24043734.620    98455214.32944
  23703819.840   124564426.41505  23703823.920    97063199.29345
  23005717.960   120896087.50907  23005720.200    94204847.98146
  22366940.540   117539078.79608  22366941.740    91588898.26547
 15 02 14 00 34  0.0000000  0  7G16G18G21G25G27G29G31
  22406575.340   117747352.57908  22406576.260    91751199.10147
  23058039.540   121170850.98207  23058041.120    94418876.49445
  20963989.200   110166598.55108  20963989.860    85844143.08149
  24062202.020   126447836.36306  24062205.800    98530850.22645
  23690079.680   124492222.16405  23690083.780    97006936.26546
  23019103.000   120966426.18007  23019105.200    94259657.32246
  22382187.260   117619200.56708  22382188.360    91651330.78847
 15 02 14 00 34 30.0000000  0  7G16G18G21G25G27G29G31
  22390939.960   117665187.91608  22390940.880    91687174.69947
  23044054.860   121097361.09307  23044056.620    94361611.66645
  20967335.640   110184184.07308  20967336.260    85857846.09149
  24080707.900   126545085.03306  24080711.940    98606628.35445
  23676355.680   124420102.33405  23676359.700    96950739.02546
  23032497.960   121036817.00907  23032500.120    94314507.28046
  22397490.200   117699618.11708  22397491.300    91713993.78447
 15 02 14 00 35  0.0000000  0  7G16G18G21G25G27G29G31
  22375339.900   117583208.94508  22375340.860    91623294.98947
  23030106.320   121024060.99107  23030108.240    94304494.71845
  20970756.840   110202162.55008  20970757.420    85871855.29849
  24099248.300   126642515.82105  24099252.700    98682548.45945
  23662647.980   124348067.83106  23662651.980    96894608.27745
  23045903.160   121107261.08007  23045905.220    94369398.74646
  22412849.080   117780329.58408  22412850.200    91776885.81047
 15 02 14 00 35 30.0000000  0  7G16G18G21G25G27G29G31
  22359775.760   117501418.97408  22359776.780    91559562.55547
  23016194.660   120950954.72507  23016196.680    94247528.81645
  20974252.740   110220533.53908  20974253.300    85886170.35549
  24117822.980   126740128.33106  24117828.100    98758610.09644
  23648956.700   124276119.65906  23648960.700    96838544.80746
  23059318.660   121177759.21807  23059320.620    94424332.33146
  22428263.580   117861333.20808  22428264.760    91840005.49847
 15 02 14 00 36  0.0000000  0  7G16G18G21G25G27G29G31
  22344247.500   117419817.57408  22344248.600    91495977.06547
  23002319.860   120878042.15107  23002321.920    94190713.84045
  20977822.600   110239293.41708  20977823.200    85900788.44349
  24136431.320   126837918.61105  24136437.140    98834810.27145
  23635281.360   124204255.11206  23635285.480    96782546.48646
  23072743.800   121248308.56007  23072745.800    94479305.81446
  22443732.640   117942623.55408  22443733.900    91903348.60447
 15 02 14 00 36 30.0000000  0  7G16G18G21G25G27G29G31
  22328755.760   117338407.90708  22328756.840    91432540.96747
  22988482.700   120805327.30507  22988484.780    94134052.93445
  20981466.440   110258442.10108  20981467.060    85915709.49849
  24155073.620   126935886.53205  24155079.900    98911148.87845
  23621622.180   124132475.50806  23621626.400    96726614.37246
  23086178.800   121318909.83607  23086180.800    94534319.74846
  22459255.940   118024198.94908  22459257.300    91966913.83647
 15 02 14 00 37  0.0000000  0  7G16G18G21G25G27G29G31
  22313300.780   117257191.39208  22313301.840    91369255.37747
  22974683.500   120732811.95107  22974685.560    94077547.48446
  20985183.860   110277977.52508  20985184.540    85930931.90849
  24173749.540   127034029.89705  24173755.880    98987624.23045
  23607978.980   124060779.96906  23607983.260    96670747.74046
  23099623.380   121389562.15007  23099625.480    94589373.45246
  22474832.760   118106055.62208  22474834.180    92030698.22947
 15 02 14 00 37 30.0000000  0  7G16G18G21G25G27G29G31
  22297882.940   117176170.12708  22297883.980    91306121.93647
  22960922.680   120660498.58507  22960924.740    94021199.41146
  20988974.560   110297898.08208  20988975.320    85946454.42649
  24192458.900   127132347.43005  24192464.840    99064235.22544
  23594351.760   123989168.61506  23594356.100    96614946.70846
  23113077.660   121460265.35807  23113079.880    94644466.80947
  22490462.600   118188190.99108  22490464.020    92094699.79447
 15 02 14 00 38  0.0000000  0  7G16G18G21G25G27G29G31
  22282502.680   117095346.44208  22282503.780    91243142.45947
  22947200.760   120588390.01307  22947202.780    93965010.94646
  20992838.400   110318203.05608  20992839.280    85962276.48849
  24211201.260   127230837.87305  24211206.700    99140980.99544
  23580740.580   123917641.56506  23580744.940    96559211.37146
  23126541.600   121531018.95307  23126543.920    94699599.42446
  22506144.940   118270602.25408  22506146.360    92158916.34347
 15 02 14 00 38 30.0000000  0  7G16G18G21G25G27G29G31
  22267160.560   117014723.08308  22267161.660    91180319.07147
  22933518.420   120516489.49607  22933520.320    93908984.59146
  20996775.280   110338891.62908  20996776.180    85978397.45849
  24229976.420   127329500.40406  24229981.320    99217860.83144
  23567145.580   123846199.40606  23567149.920    96503542.18646
  23140015.460   121601824.00607  23140017.740    94754772.14746
  22521879.320   118353287.10008  22521880.680    92223346.06647
 15 02 14 00 39  0.0000000  0  7G16G18G21G25G27G29G31
  22251857.060   116934302.41708  22251858.120    91117653.61747
  22919876.140   120444799.64807  22919878.060    93853122.39046
  21000784.960   110359962.61608  21000785.840    85994816.41049
  24248784.100   127428333.79805  24248788.400    99294873.88344
  23553566.760   123774842.21206  23553571.020    96447939.19046
  23153499.020   121672680.03207  23153501.220    94809984.61346
  22537665.180   118436242.53308  22537666.500    92287986.63847
 15 02 14 00 39 30.0000000  0  7G16G18G21G25G27G29G31
  22236592.660   116854087.36708  22236593.680    91055148.38347
  22906274.660   120373323.99807  22906276.500    93797427.10545
  21004867.240   110381415.09408  21004868.100    86011532.63449
  24267624.100   127527337.26806  24267627.980    99372019.37344
  23540004.220   123703570.71706  23540008.320    96392402.98746
  23166992.340   121743587.52107  23166994.420    94865237.16646
  22553502.200   118519466.62408  22553503.480    92352836.55147
 15 02 14 00 40  0.0000000  0  8G16G18G21G22G25G27G29G31
  22221369.000   116774086.42208  22221369.920    90992809.99347
  22892715.720   120302071.61607  22892717.500    93741905.80745
  21009023.020   110403253.77908  21009023.840    86028549.79749
  24559712.700   129062163.46506  24559717.360   100567929.00345
  24286497.360   127626516.10206  24286501.200    99449301.57745
  23526459.220   123632391.51906  23526463.240    96336938.70446
  23180496.600   121814552.78107  23180498.620    94920534.74146
  22569391.100   118602963.09408  22569392.340    92417898.71547
 15 02 14 00 40 30.0000000  0  8G16G18G21G22G25G27G29G31
  22206181.040   116694273.49608  22206181.920    90930618.11047
  22879194.560   120231017.07507  22879196.260    93686538.66346
  21013246.840   110425450.02908  21013247.640    86045845.57849
  24541619.160   128967078.64505  24541622.460   100493837.63044
  24305398.140   127725840.67305  24305402.300    99526697.27145
  23512926.460   123561276.43806  23512930.360    96281524.39246
  23194006.500   121885547.90807  23194008.520    94975855.58546
  22585325.860   118686700.80808  22585327.140    92483148.85947
 15 02 14 00 41  0.0000000  0  8G16G18G21G22G25G27G29G31
  22191036.100   116614686.34908  22191036.940    90868602.16047
  22865718.380   120160198.42307  22865719.940    93631355.32446
  21017545.220   110448038.06408  21017545.980    86063446.65249
  24523514.000   128871934.75906  24523516.520   100419700.11244
  24324333.120   127825345.14805  24324337.580    99604233.18945
  23499412.660   123490261.12906  23499416.420    96226187.82445
  23207528.740   121956607.96407  23207530.740    95031227.02246
  22601312.720   118770712.39808  22601314.080    92548612.42347
 15 02 14 00 41 30.0000000  0  8G16G18G21G22G25G27G29G31
  22175931.480   116535311.04808  22175932.340    90806751.28047
  22852284.480   120089601.90807  22852286.020    93576345.07245
  21021914.600   110470999.35808  21021915.340    86081338.57649
  24505394.480   128776717.51105  24505396.820   100345505.42545
  24343298.840   127925011.69905  24343303.560    99681895.37945
  23485914.740   123419329.10106  23485918.380    96170916.15546
  23221060.240   122027716.35007  23221062.160    95086636.12146
  22617348.040   118854978.63308  22617349.480    92614274.39847
 15 02 14 00 42  0.0000000  0  8G16G18G21G22G25G27G29G31
  22160867.720   116456150.60708  22160868.640    90745067.82447
  22838893.480   120019230.97107  22838895.020    93521510.58645
  21026355.040   110494333.97208  21026355.760    86099521.40149
  24487261.500   128681430.22806  24487263.940   100271256.15144
  24362295.360   128024839.80505  24362300.340    99759683.46046
  23472432.820   123348481.35706  23472436.440    96115710.14546
  23234601.040   122098873.64007  23234603.100    95142083.33146
  22633431.540   118939497.69908  22633433.000    92680133.39347
 15 02 14 00 42 30.0000000  0  8G16G18G21G22G25G27G29G31
  22145845.360   116377207.85608  22145846.360    90683553.99647
  22825546.040   119949089.01208  22825547.600    93466854.52646
  21030866.420   110518041.54208  21030867.140    86117994.84049
  24469115.780   128586076.42905  24469118.580   100196955.02645
  24381322.640   128124828.79705  24381327.860    99837596.86645
  23458967.140   123277718.61506  23458970.740    96060570.38546
  23248151.340   122170080.66307  23248153.540    95197569.27446
  22649562.720   119024267.16508  22649564.140    92746187.49947
 15 02 14 00 43  0.0000000  0  8G16G18G21G22G25G27G29G31
  22130865.100   116298486.37708  22130866.140    90622212.59247
  22812242.760   119879179.69107  22812244.480    93412379.74346
  21035448.620   110542121.23108  21035449.340    86136758.24249
  24450957.960   128490659.68905  24450960.980   100122604.79945
  24400380.560   128224978.42005  24400385.900    99915635.50445
  23445517.880   123207042.14007  23445521.480    96005497.84246
  23261711.220   122241338.29807  23261713.560    95253094.68646
  22665741.260   119109285.16008  22665742.500    92812435.26747
 15 02 14 00 43 30.0000000  0  8G16G18G21G22G25G27G29G31
  22115927.100   116219986.81708  22115928.140    90561044.10847
  22798983.900   119809504.29507  22798985.760    93358087.23146
  21040101.160   110566570.66708  21040101.900    86155809.75549
  24432788.420   128395180.91506  24432791.540   100048206.21345
  24419468.400   128325285.78805  24419473.840    99993797.03344
  23432084.700   123136450.43206  23432088.360    95950491.34746
  23275280.400   122312644.92807  23275282.840    95308658.26746
  22681966.240   119194547.79008  22681967.400    92878873.65147
 15 02 14 00 44  0.0000000  0  8G16G18G21G22G25G27G29G31
  22101031.900   116141712.19408  22101032.980    90500050.90547
  22785770.100   119740065.88307  22785772.020    93303979.39346
  21044823.900   110591388.82608  21044824.640    86175148.58449
  24414607.700   128299643.27005  24414610.820    99973761.73445
  24438586.200   128425749.98005  24438591.660   100072080.79645
  23418667.760   123065944.15206  23418671.420    95895551.41346
  23288858.960   122384000.95507  23288861.540    95364260.33146
  22698237.240   119280052.42708  22698238.340    92945500.61547
 15 02 14 00 44 30.0000000  0  8G16G18G21G22G25G27G29G31
  22086179.700   116063663.41708  22086180.800    90439233.68447
  22772601.640   119670865.95507  22772603.580    93250057.39446
  21049616.320   110616573.26008  21049617.080    86194772.82249
  24396416.140   128204048.12106  24396419.440    99899272.43645
  24457733.320   128526368.72705  24457738.960   100150484.95744
  23405266.920   122995522.45106  23405270.640    95840677.37746
  23302446.660   122455405.29206  23302449.380    95419900.03146
  22714553.500   119365795.38908  22714554.700    93012313.28747
 15 02 14 00 45  0.0000000  0  8G16G18G21G22G25G27G29G31
  22071370.980   115985842.88908  22071372.060    90378594.32547
  22759479.240   119601907.78407  22759481.080    93196323.77946
  21054478.260   110642122.97708  21054479.020    86214681.69549
  24378214.280   128108398.47406  24378217.540    99824740.63544
  24476909.620   128627140.81106  24476915.360   100229008.63745
  23391882.240   122925185.57206  23391886.000    95785869.44846
  23316043.580   122526858.29606  23316046.380    95475577.64146
  22730914.500   119451773.88308  22730915.920    93079309.49247
 15 02 14 00 45 30.0000000  0  8G16G18G21G22G25G27G29G31
  22056606.120   115908252.66908  22056607.180    90318134.42147
  22746403.240   119533193.20307  22746404.880    93142779.97446
  21059409.300   110668035.93508  21059410.060    86234873.61249
  24360002.320   128012696.20905  24360005.700    99750167.84345
  24496114.880   128728064.41106  24496120.600   100307650.34844
  23378513.660   122854933.23106  23378517.380    95731127.37446
  23329649.640   122598359.44806  23329652.540    95531292.76846
  22747319.720   119537984.60808  22747321.320    93146486.66447
 15 02 14 00 46  0.0000000  0  8G16G18G21G22G25G27G29G31
  22041885.600   115830895.95308  22041886.760    90257856.47147
  22733374.340   119464725.69308  22733375.780    93089428.71746
  21064409.460   110694311.97208  21064410.200    86255348.45049
  24341781.280   127916944.52106  24341784.360    99675556.46944
  24515348.940   128829138.87006  24515354.480   100386409.61745
  23365161.340   122784766.28206  23365165.020    95676451.84247
  23343264.980   122669909.17906  23343267.980    95587045.73346
  22763768.880   119624425.50908  22763770.560    93213843.18447
 15 02 14 00 46 30.0000000  0  8G16G18G21G22G25G27G29G31
  22027210.040   115753775.49108  22027211.240    90197762.61747
  22720393.120   119396508.62507  22720394.360    93036272.57646
  21069478.480   110720949.87008  21069479.220    86276105.25649
  24323551.400   127821146.84306  24323554.180    99600909.28444
  24534611.560   128930363.32806  24534616.740   100465285.76744
  23351825.360   122714685.32906  23351829.080    95621843.30746
  23356889.620   122741508.30906  23356892.820    95642837.18946
  22780261.520   119711094.17608  22780263.080    93281377.18547
 15 02 14 00 47  0.0000000  0  8G16G18G21G22G25G27G29G31
  22012579.420   115676891.01708  22012580.620    90137852.64947
  22707459.500   119328541.96907  22707460.600    92983311.56046
  21074615.540   110747945.44708  21074616.300    86297140.77749
  24305312.700   127725303.23006  24305315.440    99526226.29245
  24553901.980   129031733.81906  24553906.920   100544275.67643
  23338505.280   122644687.90407  23338509.020    95567299.88246
  23370523.220   122813154.02607  23370526.500    95698664.96546
  22796796.560   119797985.51008  22796797.940    93349084.69247
 15 02 14 00 47 30.0000000  0  8G16G18G21G22G25G27G29G31
  21997994.220   115600245.10508  21997995.360    90078128.57047
  22694574.040   119260828.91407  22694575.200    92930548.14646
  21079820.600   110775298.38808  21079821.380    86318454.75249
  24287065.780   127629416.79206  24287068.480    99451509.87746
  24573220.040   129133249.62505  24573224.560   100623378.83645
  23325201.260   122574774.95207  23325205.020    95512822.27546
  23384166.080   122884846.79806  23384169.240    95754529.41046
  22813373.560   119885097.21908  22813374.800    93416963.91047
 15 02 14 00 48  0.0000000  0  8G16G18G21G22G25G27G29G31
  21983455.300   115523842.40008  21983456.380    90018594.00247
  22681737.660   119193373.69707  22681738.980    92877985.62946
  21085093.720   110803008.90208  21085094.520    86340047.36349
  24268811.400   127533491.73206  24268814.100    99376763.37045
  24592565.720   129234910.88206  24592570.080   100702595.34044
  23311913.620   122504947.99007  23311917.320    95458411.68246
  23397818.260   122956588.24607  23397821.420    95810431.77146
  22829992.120   119972427.62308  22829993.260    93485013.54047
 15 02 14 00 48 30.0000000  0  8G16G18G21G22G25G27G29G31
  21968962.980   115447684.81008  21968964.000    89959250.43047
  22668950.860   119126178.96107  22668952.400    92825626.11046
  21090434.600   110831075.50508  21090435.440    86361917.44749
  24250550.120   127437530.65706  24250553.120    99301988.82745
  24611938.720   129336716.21605  24611943.000   100781924.10144
  23298642.340   122435207.25307  23298646.060    95404068.28746
  23411479.840   123028378.50207  23411482.960    95866372.19746
  22846651.660   120059974.10508  22846652.800    93553231.55347
 15 02 14 00 49  0.0000000  0  8G16G18G21G22G25G27G29G31
  21954517.460   115371773.26808  21954518.460    89900098.58447
  22656213.880   119059245.97708  22656215.660    92773470.56246
  21095842.840   110859495.74608  21095843.620    86384063.09349
  24232282.240   127341534.76706  24232285.280    99227187.10945
  24631338.420   129438662.94506  24631342.860   100861363.03945
  23285387.300   122365551.64507  23285391.000    95349791.21346
  23425150.420   123100216.10807  23425153.380    95922349.53746
  22863351.560   120147732.87408  22863352.720    93621614.98447
 15 02 14 00 49 30.0000000  0  8G16G18G21G22G25G27G29G31
  21940119.420   115296111.39608  21940120.440    89841141.29747
  22643527.480   118992578.44008  22643529.320    92721521.84246
  21101318.260   110888268.95408  21101318.980    86406483.77949
  24214008.540   127245507.93005  24214011.820    99152361.28545
  24650764.940   129540750.61505  24650769.640   100940911.78645
  23272148.680   122295982.23207  23272152.420    95295581.31446
  23438830.160   123172102.22107  23438832.900    95978364.66946
  22880091.360   120235701.70308  22880092.680    93690162.09547
 15 02 14 00 50  0.0000000  0  8G16G18G21G22G25G27G29G31
  21925769.140   115220700.31108  21925770.140    89782379.41847
  22630891.940   118926177.60908  22630893.620    92669780.96146
  21106860.300   110917392.30308  21106860.980    86429177.29849
  24195729.440   127149451.31706  24195732.380    99077512.22945
  24670217.760   129642976.53305  24670222.660   101020568.26845
  23258926.200   122226497.86507  23258930.060    95241437.69146
  23452518.760   123244035.49306  23452521.400    96034416.53046
  22896870.380   120323876.53408  22896871.840    93758869.73347
 15 02 14 00 50 30.0000000  0  8G16G18G21G22G25G27G29G31
  21911467.220   115145543.43208  21911468.240    89723815.62147
  22618307.740   118860046.60308  22618309.180    92618250.31546
  21112469.000   110946866.02808  21112469.660    86452143.84149
  24177445.420   127053368.41506  24177448.280    99002642.72145
  24689696.740   129745340.30405  24689701.840   101100332.18845
  23245720.140   122157099.76707  23245724.140    95187361.27846
  23466216.380   123316016.92006  23466219.060    96090505.91946
  22913688.320   120412255.35008  22913689.800    93827736.31046
 15 02 14 00 51  0.0000000  0  8G16G18G21G22G25G27G29G31
  21897213.960   115070641.92908  21897214.960    89665450.81847
  22605775.360   118794188.13908  22605776.600    92566932.06046
  21118143.840   110976687.18508  21118144.460    86475381.10749
  24159156.900   126957261.41206  24159159.480    98927754.39145
  24709201.380   129847839.56904  24709206.880   101180201.64545
  23232530.400   122087787.22307  23232534.480    95133351.53447
  23479922.920   123388045.35207  23479925.540    96146631.93146
  22930544.480   120500834.75608  22930545.880    93896759.18946
 15 02 14 00 51 30.0000000  0  8G16G18G21G22G25G27G29G31
  21883009.480   114995997.00708  21883010.520    89607285.95547
  22593294.900   118728603.10207  22593296.080    92515826.86846
  21123884.280   111006853.32008  21123884.900    86498887.18349
  24140864.200   126861131.62906  24140866.320    98852848.29645
  24728731.480   129950471.81505  24728737.220   101260174.73943
  23219356.700   122018559.18307  23219360.840    95079407.60946
  23493638.180   123460119.87206  23493640.640    96202793.88046
  22947438.000   120589610.53008  22947439.300    93965935.08246
 15 02 14 00 52  0.0000000  0  8G16G18G21G22G25G27G29G31
  21868854.360   114921611.03608  21868855.380    89549322.87047
  22580866.880   118663294.14107  22580868.220    92464936.78746
  21129690.040   111037362.96008  21129690.680    86522660.92949
  24122567.520   126764981.56406  24122569.380    98777926.38245
  24748286.780   130053235.54105  24748292.560   101340250.27045
  23206199.140   121949415.83307  23206203.280    95025529.69146
  23507362.280   123532240.43607  23507364.580    96258991.67746
  22964368.360   120678579.76508  22964369.500    94035261.72046
 15 02 14 00 52 30.0000000  0  8G16G18G21G22G25G27G29G31
  21854749.200   114847487.78608  21854750.200    89491564.50747
  22568492.140   118598265.17707  22568493.640    92414264.88546
  21135561.120   111068215.96208  21135561.780    86546702.22749
  24104267.540   126668815.10106  24104269.320    98702991.70545
  24767867.240   130156130.56505  24767872.820   101420428.11744
  23193057.880   121880358.52106  23193062.060    94971718.79846
  23521095.560   123604408.27107  23521097.540    96315226.34845
  22981335.180   120767740.91408  22981336.260    94104737.91547
 15 02 14 00 53  0.0000000  0  8G16G18G21G22G25G27G29G31
  21840694.400   114773629.20308  21840695.380    89434012.36347
  22556171.100   118533518.41808  22556172.780    92363812.86946
  21141497.300   111099410.86608  21141497.940    86571009.94349
