     2.11           OBSERVATION DATA    G                   RINEX VERSION / TYPE
SPIDER V4,0,0,3554                      2015 03 13 00:48    PGM / RUN BY / DATE 
CKHR                                                        MARKER NAME         
CKHR                                                        MARKER NUMBER       
                                                            OBSERVER / AGENCY   
496547              LEICA GRX1200+GNSS  8.10/4.007          REC # / TYPE / VERS 
10301042            LEIAR25         NONE                    ANT # / TYPE        
  5141838.0877   498328.5776  3730203.3049                  APPROX POSITION XYZ 
        0.0720        0.0000        0.0000                  ANTENNA: DELTA H/E/N
     1     1                                                WAVELENGTH FACT L1/2
     4    C1    L1    P2    L2                              # / TYPES OF OBSERV 
    30.000                                                  INTERVAL            
  2015    02    14    00    00    0.0000000     GPS         TIME OF FIRST OBS   
  2015    02    14    08    21   30.0000000     GPS         TIME OF LAST OBS    
    16                                                      LEAP SECONDS        
    21                                                      # OF SATELLITES     
   G 1   351   351   351   351                              PRN / # OF OBS      
   G 3   235   234   234   234                              PRN / # OF OBS      
   G 4   509   509   508   508                              PRN / # OF OBS      
   G 6     7     7     6     6                              PRN / # OF OBS      
   G 9   122   122   122   122                              PRN / # OF OBS      
   G11   415   415   415   415                              PRN / # OF OBS      
   G14   227   227   227   227                              PRN / # OF OBS      
   G16   599   599   599   599                              PRN / # OF OBS      
   G17   181   181   181   181                              PRN / # OF OBS      
   G18   550   550   550   550                              PRN / # OF OBS      
   G19   539   539   539   539                              PRN / # OF OBS      
   G20    99    99    99    99                              PRN / # OF OBS      
   G21   430   430   430   430                              PRN / # OF OBS      
   G22   522   522   522   522                              PRN / # OF OBS      
   G23   181   181   181   181                              PRN / # OF OBS      
   G25   103   103   103   103                              PRN / # OF OBS      
   G27   602   602   602   602                              PRN / # OF OBS      
   G28    73    73    73    73                              PRN / # OF OBS      
   G29   167   167   167   167                              PRN / # OF OBS      
   G31   361   361   361   361                              PRN / # OF OBS      
   G32   406   406   406   406                              PRN / # OF OBS      
BIT 2 OF LLI FLAGS DATA COLLECTED UNDER A/S CONDITION       COMMENT             
SNR is mapped to RINEX snr flag value [2-9]                 COMMENT             
Lx:     = 25dBHz -> 1; 26-27dBHz -> 2; 28-31dBHz -> 3       COMMENT             
       32-35dBHz -> 4; 36-38dBHz -> 5; 39-41dBHz -> 6       COMMENT             
       42-44dBHz -> 7; 45-48dBHz -> 8; >=49dBHz -> 9        COMMENT             
                                                            END OF HEADER       
 15 02 14 00 00  0.0000000  0  7G16G18G21G25G27G29G31
  23428864.880   123119525.30508  23428861.240    95937276.29146
  24122728.120   126765821.47408  24122727.000    98778573.19844
  20937033.880   110025101.13508  20937029.780    85733927.99348
  23017306.140   120956898.40908  23017306.720    94252181.78747
  24488312.440   128686944.34408  24488312.960   100275543.48845
  22264925.940   117003246.53009  22264922.960    91171452.87448
  21406600.260   112492457.04409  21406596.480    87656456.67048
 15 02 14 00 00 30.0000000  0  7G16G18G21G25G27G29G31
  23412044.940   123031135.83708  23412041.320    95868401.40846
  24107817.960   126687469.00808  24107816.800    98717519.48444
  20935141.740   110015158.18208  20935137.660    85726180.24448
  23032837.120   121038513.94409  23032837.460    94315778.30647
  24473616.520   128609716.54608  24473617.560   100215366.01545
  22277920.680   117071535.01209  22277918.080    91224664.64148
  21416859.020   112546366.59309  21416855.140    87698464.09848
 15 02 14 00 01  0.0000000  0  7G16G18G21G25G27G29G31
  23395236.640   122942807.38308  23395232.960    95799574.06546
  24092908.920   126609122.01808  24092907.820    98656470.05645
  20933336.720   110005672.85608  20933332.660    85718789.09148
  23048415.320   121120377.28108  23048415.360    94379567.89547
  24458939.780   128532589.77508  24458940.780   100155267.33546
  22290929.900   117139899.51009  22290927.540    91277935.66848
  21427207.380   112600747.27609  21427203.440    87740838.64748
 15 02 14 00 01 30.0000000  0  7G16G18G21G25G27G29G31
  23378439.280   122854536.81808  23378435.600    95730791.81746
  24078000.700   126530778.72708  24077999.700    98595423.46145
  20931617.980   109996641.23709  20931613.980    85711751.47048
  23064039.740   121202483.72908  23064039.860    94443546.91247
  24444281.660   128455560.33808  24444282.180   100095244.41645
  22303952.720   117208335.26209  22303950.340    91331262.21648
  21437644.200   112655593.03509  21437640.120    87783575.58248
 15 02 14 00 02  0.0000000  0  7G16G18G21G25G27G29G31
  23361654.340   122766331.48408  23361650.700    95662060.42146
  24063094.800   126452447.52308  24063093.600    98534386.29445
  20929986.660   109988068.64508  20929982.660    85705071.54348
  23079711.260   121284837.94909  23079711.340    94507719.00147
  24429643.020   128378633.65508  24429642.960   100035301.57546
  22316990.040   117276846.96109  22316987.700    91384647.93948
  21448170.080   112710907.18909  21448165.920    87826677.51048
 15 02 14 00 02 30.0000000  0  7G16G18G21G25G27G29G31
  23344881.320   122678188.50808  23344877.700    95593377.58546
  24048190.860   126374126.75608  24048189.800    98473357.27044
  20928441.740   109979949.93609  20928437.720    85698745.27048
  23095428.860   121367434.72508  23095429.000    94572080.14647
  24415023.140   128301805.31708  24415022.600    99975435.35645
  22330040.900   117345429.06809  22330038.400    91438088.52248
  21458783.900   112766683.68409  21458779.740    87870139.69348
 15 02 14 00 03  0.0000000  0  7G16G18G21G25G27G29G31
  23328120.320   122590109.21908  23328116.700    95524744.39346
  24033289.220   126295818.07708  24033287.700    98412337.64345
  20926982.940   109972283.74809  20926978.840    85692771.63748
  23111192.340   121450272.72708  23111192.640    94636629.18147
  24400421.800   128225074.60008  24400421.640    99915645.28345
  22343104.840   117414080.48409  22343102.300    91491583.09648
  21469485.120   112822919.46609  21469481.040    87913959.77448
 15 02 14 00 03 30.0000000  0  7G16G18G21G25G27G29G31
  23311372.200   122502097.48309  23311368.540    95456163.83246
  24018390.840   126217526.99808  24018389.340    98351331.73145
  20925610.840   109965073.14609  20925606.680    85687152.99248
  23127002.160   121533354.13808  23127002.600    94701367.92146
  24385839.580   128148444.57708  24385839.840    99855933.64245
  22356182.540   117482803.99809  22356179.880    91545133.87748
  21480273.860   112879615.37409  21480270.040    87958138.39148
 15 02 14 00 04  0.0000000  0  7G16G18G21G25G27G29G31
  23294636.640   122414151.73208  23294632.960    95387634.66946
  24003495.600   126139252.78508  24003493.960    98290338.95045
  20924324.600   109958313.53309  20924320.400    85681885.76448
  23142857.560   121616674.70209  23142857.960    94766293.01646
  24371275.940   128071911.86408  24371276.360    99796297.81345
  22369273.080   117551595.17709  22369270.440    91598737.37648
  21491149.100   112936766.05709  21491145.620    88002671.37148
 15 02 14 00 04 30.0000000  0  7G16G18G21G25G27G29G31
  23277914.880   122326278.30508  23277911.320    95319161.88846
  23988604.840   126061002.90808  23988603.280    98229365.15945
  20923125.160   109952009.96909  20923120.900    85676973.89948
  23158759.220   121700238.43608  23158759.460    94831407.58646
  24356731.700   127995481.20708  24356731.980    99736741.49646
  22382377.320   117620458.15009  22382374.940    91652396.79448
  21502111.440   112994374.19709  21502108.180    88047560.81948
 15 02 14 00 05  0.0000000  0  7G16G18G21G25G27G29G31
  23261206.380   122238474.21209  23261202.780    95250743.13846
  23973718.380   125982775.13108  23973716.920    98168408.55845
  20922011.460   109946157.50409  20922007.200    85672413.54348
  23174706.140   121784039.93008  23174706.480    94896707.43346
  24342205.860   127919148.02308  24342205.660    99677261.12546
  22395494.180   117689387.45409  22395491.620    91706107.93648
  21513159.660   113052433.12709  21513156.540    88092801.53348
 15 02 14 00 05 30.0000000  0  7G16G18G21G25G27G29G31
  23244512.060   122150744.77309  23244508.400    95182382.54546
  23958837.380   125904575.92008  23958835.900    98107474.20645
  20920984.080   109940758.73809  20920979.880    85668206.71948
  23190698.920   121868082.13808  23190699.300    94962194.85646
  24327699.400   127842916.14808  24327698.880    99617859.70145
  22408624.340   117758386.24009  22408621.920    91759873.20448
  21524294.020   113110944.36809  21524290.920    88138394.69148
 15 02 14 00 06  0.0000000  0  7G16G18G21G25G27G29G31
  23227831.620   122063088.26508  23227827.920    95114078.78046
  23943961.840   125826404.90808  23943960.260    98046561.83245
  20920042.320   109935810.24208  20920038.240    85664350.75248
  23206736.720   121952360.90208  23206736.740    95027866.62447
  24313211.520   127766782.12908  24313210.960    99558534.58645
  22421766.760   117827450.55709  22421764.260    91813689.53448
  21535513.480   113169902.59509  21535510.420    88184336.14848
 15 02 14 00 06 30.0000000  0  7G16G18G21G25G27G29G31
  23211165.440   121975507.07108  23211161.600    95045833.72546
  23929092.200   125748264.96708  23929090.340    97985673.67045
  20919186.300   109931312.10209  20919182.220    85660845.71848
  23222819.500   122036876.23208  23222819.460    95093722.67846
  24298742.440   127690746.87408  24298742.140    99499286.35846
  22434921.700   117896580.20209  22434919.280    91867556.79248
  21546817.720   113229306.36709  21546814.660    88230624.79248
 15 02 14 00 07  0.0000000  0  7G16G18G21G25G27G29G31
  23194514.300   121888005.01008  23194510.520    94977650.30546
  23914229.500   125670161.17708  23914227.540    97924813.69145
  20918416.300   109927266.00608  20918412.240    85657692.92448
  23238947.440   122121629.20708  23238947.780    95159763.93747
  24284292.560   127614812.30008  24284292.240    99440116.62546
  22448089.300   117965776.96909  22448087.000    91921476.31248
  21558206.720   113289155.43809  21558203.540    88277260.41948
 15 02 14 00 07 30.0000000  0  7G16G18G21G25G27G29G31
  23177878.260   121800582.08009  23177874.460    94909528.55746
  23899373.980   125592095.00008  23899371.940    97863982.98844
  20917731.920   109923669.87509  20917727.940    85654890.75048
  23255120.200   122206617.79808  23255120.780    95225988.79246
  24269861.540   127538977.21907  24269861.340    99381024.41046
  22461269.220   118035038.36009  22461266.900    91975446.22748
  21569679.740   113349446.13109  21569676.400    88324240.15848
 15 02 14 00 08  0.0000000  0  7G16G18G21G25G27G29G31
  23161257.380   121713238.41108  23161253.480    94841468.54146
  23884525.800   125514067.35608  23884523.880    97803182.33445
  20917132.760   109920521.30209  20917128.840    85652437.31548
  23271337.300   122291839.65608  23271337.800    95292395.41947
  24255449.180   127463240.13508  24255449.160    99322008.56146
  22474461.220   118104362.82809  22474458.900    92029465.27448
  21581236.120   113410174.94209  21581232.580    88371561.29148
 15 02 14 00 08 30.0000000  0  7G16G18G21G25G27G29G31
  23144652.800   121625980.40509  23144648.880    94773475.32046
  23869686.340   125436085.31208  23869684.080    97742417.16945
  20916619.760   109917825.15409  20916615.820    85650336.43048
  23287599.580   122377298.50908  23287600.000    95358986.71746
  24241056.180   127387605.57108  24241056.240    99263072.63346
  22487665.980   118173754.07909  22487663.460    92083536.37747
  21592876.240   113471344.35709  21592872.640    88419225.75548
 15 02 14 00 09  0.0000000  0  7G16G18G21G25G27G29G31
  23128063.720   121538803.95208  23128059.780    94705545.61046
  23854854.960   125358145.96608  23854852.760    97681685.30145
  20916191.600   109915574.64309  20916187.540    85648582.79348
  23303905.740   122462987.77208  23303906.000    95425757.54246
  24226681.700   127312067.97208  24226681.860    99204212.18046
  22500882.120   118243205.32409  22500879.520    92137654.22048
  21604598.620   113532946.27909  21604595.000    88467227.24948
 15 02 14 00 09 30.0000000  0  7G16G18G21G25G27G29G31
  23111491.100   121451714.33308  23111487.140    94637683.57846
  23840032.740   125280255.13908  23840030.480    97620991.21045
  20915848.840   109913773.07509  20915844.700    85647178.99148
  23320256.300   122548910.11908  23320256.280    95492710.01846
  24212326.360   127236630.74008  24212326.480    99145429.96646
  22514110.460   118312720.46709  22514107.880    92191821.85048
  21616403.560   113594981.95109  21616399.940    88515566.72648
 15 02 14 00 10  0.0000000  0  7G16G18G21G25G27G29G31
  23094934.660   121364710.13709  23094930.880    94569888.12746
  23825219.740   125202412.74008  23825217.580    97560334.86845
  20915590.620   109912416.15909  20915586.440    85646121.64948
  23336650.460   122635061.71208  23336650.600    95559841.08046
  24197989.580   127161290.89908  24197989.800    99086723.65646
  22527350.160   118382295.28509  22527347.560    92246035.96948
  21628290.040   113657446.08009  21628286.420    88564240.05248
 15 02 14 00 10 30.0000000  0  7G16G18G21G25G27G29G31
  23078395.460   121277796.33509  23078391.760    94502163.11546
  23810417.160   125124624.99908  23810414.980    97499721.14645
  20915417.580   109911507.28208  20915413.500    85645413.45448
  23353088.660   122721444.93108  23353089.240    95627152.67347
  24183672.040   127086051.78408  24183672.520    99028095.83746
  22540601.780   118451932.76309  22540599.040    92300298.91047
  21640258.420   113720340.00809  21640254.680    88613248.29448
 15 02 14 00 11  0.0000000  0  7G16G18G21G25G27G29G31
  23061873.360   121190972.39209  23061869.800    94434508.09346
  23795625.020   125046891.96208  23795622.840    97439150.02345
  20915329.020   109911042.47708  20915325.040    85645051.26448
  23369570.280   122808056.51008  23369570.740    95694642.17646
  24169373.160   127010910.91008  24169373.700    98969544.55845
  22553864.820   118521629.68109  22553861.760    92354608.18047
  21652307.780   113783658.76909  21652303.780    88662587.56548
 15 02 14 00 11 30.0000000  0  7G16G18G21G25G27G29G31
  23045369.200   121104242.63508  23045365.720    94366926.47646
  23780844.400   124969218.78308  23780842.040    97378625.55045
  20915325.500   109911024.12408  20915321.520    85645036.97348
  23386095.720   122894897.93608  23386096.040    95762310.81446
  24155093.520   126935870.82208  24155094.280    98911071.83346
  22567139.480   118591388.11909  22567136.420    92408965.37947
  21664438.000   113847402.34109  21664433.820    88712257.86148
 15 02 14 00 12  0.0000000  0  7G16G18G21G25G27G29G31
  23028882.640   121017604.81509  23028879.000    94299416.47646
  23766074.980   124891604.58208  23766072.240    97318147.02145
  20915406.240   109911448.15808  20915402.180    85645367.39448
  23402663.960   122981964.92708  23402664.540    95830155.19246
  24140832.440   126860928.05708  24140832.880    98852674.88046
  22580424.800   118661203.72009  22580422.000    92463367.09647
  21676648.000   113911565.14709  21676643.700    88762254.81748
 15 02 14 00 12 30.0000000  0  7G16G18G21G25G27G29G31
  23012414.720   120931064.90109  23012410.880    94231982.79246
  23751318.100   124814056.35408  23751315.100    97257719.90645
  20915571.760   109912318.03908  20915567.680    85646045.23648
  23419275.760   123069260.59908  23419276.580    95898177.78346
  24126590.560   126786086.68008  24126590.840    98794356.95446
  22593721.860   118731080.27309  22593719.220    92517816.34448
  21688938.140   113976148.89209  21688933.720    88812579.79748
 15 02 14 00 13  0.0000000  0  7G16G18G21G25G27G29G31
  22995965.160   120844622.03009  22995961.300    94164624.72646
  23736573.780   124736573.68908  23736570.340    97197343.85245
  20915821.360   109913629.87809  20915817.300    85647067.45648
  23435930.280   123156781.36308  23435931.160    95966375.75246
  24112367.320   126711343.88207  24112367.500    98736115.83047
  22607029.840   118801014.23809  22607027.180    92572310.33947
  21701307.380   114041148.64109  21701302.840    88863228.93448
 15 02 14 00 13 30.0000000  0  7G16G18G21G25G27G29G31
  22979534.740   120758279.77409  22979530.960    94097345.03446
  23721842.500   124659161.06508  23721839.160    97137022.41144
  20916155.440   109915385.22809  20916151.360    85648435.26348
  23452627.880   123244528.12708  23452628.660    96034749.84046
  24098163.000   126636701.49707  24098163.300    98677953.06447
  22620348.980   118871007.15909  22620346.400    92626850.24447
  21713755.500   114106563.92709  21713751.000    88914201.86148
 15 02 14 00 14  0.0000000  0  7G16G18G21G25G27G29G31
  22963123.220   120672036.66509  22963119.520    94030142.62646
  23707124.460   124581818.23808  23707121.340    97076755.32945
  20916573.160   109917580.17209  20916568.980    85650145.61948
  23469367.760   123332496.78208  23469368.360    96103296.83546
  24083977.380   126562156.52308  24083977.700    98619866.10746
  22633678.800   118941055.38109  22633676.300    92681433.26048
  21726281.360   114172388.96609  21726277.140    88965494.08148
 15 02 14 00 14 30.0000000  0  7G16G18G21G25G27G29G31
  22946731.260   120585896.52008  22946727.580    93963020.42946
  23692420.520   124504549.75008  23692417.700    97016546.18145
  20917074.640   109920215.40708  20917070.400    85652199.05948
  23486150.240   123420688.51908  23486150.900    96172017.64946
  24069810.960   126487711.00008  24069811.140    98561856.64246
  22647019.320   119011160.48109  22647016.880    92736060.56847
  21738884.980   114238623.64809  21738881.220    89017105.51648
 15 02 14 00 15  0.0000000  0  7G16G18G21G25G27G29G31
  22930358.700   120499858.85408  22930355.120    93895978.10446
  23677730.860   124427356.07408  23677728.140    96956395.32245
  20917659.360   109923288.28308  20917655.160    85654593.51748
  23502974.480   123509099.82408  23502975.140    96240909.55346
  24055663.100   126413362.35108  24055663.000    98503922.62346
  22660370.140   119081318.65509  22660367.500    92790729.27347
  21751565.580   114305262.78009  21751562.260    89069032.09548
 15 02 14 00 15 30.0000000  0  7G16G18G21G25G27G29G31
  22914006.440   120413927.52109  22914002.920    93829018.63246
  23663056.480   124350242.11808  23663054.140    96896306.59045
  20918327.560   109926800.09708  20918323.500    85657330.00148
  23519840.580   123597732.16608  23519841.300    96309973.66446
  24041534.180   126339112.94607  24041533.800    98446065.92447
  22673731.460   119151532.66609  22673728.840    92845441.44047
  21764323.220   114372306.66409  21764320.280    89121274.07548
 15 02 14 00 16  0.0000000  0  7G16G18G21G25G27G29G31
  22897675.200   120328106.51209  22897671.660    93762145.12946
  23648398.240   124273212.98808  23648395.840    96836283.94345
  20919079.660   109930752.84008  20919075.680    85660410.07148
  23536748.940   123686586.74408  23536749.520    96379210.99646
  24027424.320   126264964.95707  24027423.900    98388288.38147
  22687103.720   119221804.20109  22687101.220    92900198.44947
  21777157.900   114439754.98409  21777155.220    89173831.19948
 15 02 14 00 16 30.0000000  0  7G16G18G21G25G27G29G31
  22881364.860   120242395.33609  22881361.360    93695357.20746
  23633756.320   124196268.34408  23633753.720    96776327.12246
  20919914.820   109935142.00108  20919910.920    85663830.20048
  23553699.040   123775659.92408  23553699.380    96448618.67446
  24013333.080   126190915.68508  24013332.900    98330587.80746
  22700486.300   119292129.82109  22700483.560    92954997.64047
  21790068.780   114507602.50509  21790066.180    89226699.37748
 15 02 14 00 17  0.0000000  0  7G16G18G21G25G27G29G31
  22865075.520   120156794.16808  22865072.000    93628654.98747
  23619130.660   124119409.64808  23619127.940    96716437.31645
  20920832.860   109939966.56009  20920829.000    85667589.59948
  23570690.420   123864949.65608  23570690.680    96518195.04646
  23999260.520   126116964.18308  23999260.400    98272963.25845
  22713878.760   119362507.79908  22713876.200    93009837.60047
  21803055.280   114575845.97709  21803052.520    89279876.08248
 15 02 14 00 17 30.0000000  0  7G16G18G21G25G27G29G31
  22848807.980   120071307.69808  22848804.440    93562042.16946
  23604522.480   124042642.73208  23604519.700    96656619.01345
  20921834.200   109945228.46608  20921830.320    85671689.80248
  23587723.420   123954457.76108  23587723.700    96587941.55146
  23985207.200   126043113.23808  23985207.060    98215417.04446
  22727281.620   119432940.59309  22727279.140    93064720.26447
  21816117.320   114644485.42709  21816114.200    89333361.35748
 15 02 14 00 18  0.0000000  0  7G16G18G21G25G27G29G31
  22832562.440   119985937.21308  22832558.980    93495519.73647
  23589932.000   123965969.48608  23589928.960    96596873.67245
  20922918.400   109950925.62408  20922914.480    85676129.14348
  23604797.740   124044182.44108  23604797.980    96657856.87346
  23971172.760   125969361.82408  23971172.440    98157948.44146
  22740694.680   119503426.64109  22740692.040    93119644.44947
  21829254.220   114713517.86409  21829250.680    89387152.83648
 15 02 14 00 18 30.0000000  0  7G16G18G21G25G27G29G31
  22816339.060   119900683.14909  22816335.580    93429088.00046
  23575359.480   123889391.45908  23575356.500    96537202.55145
  20924085.040   109957055.92708  20924081.060    85680906.01048
  23621912.740   124134121.52708  23621913.040    96727939.26346
  23957157.020   125895708.86808  23957156.940    98100556.57846
  22754117.680   119573964.73809  22754115.180    93174609.16948
  21842465.100   114782939.37909  21842461.160    89441247.50048
 15 02 14 00 19  0.0000000  0  7G16G18G21G25G27G29G31
  22800138.120   119815546.53009  22800134.580    93362747.77547
  23560805.360   123812910.21408  23560802.400    96477606.79345
  20925333.700   109963617.59308  20925329.720    85686018.99648
  23639067.880   124224272.85908  23639068.500    96798187.02946
  23943159.740   125822153.29008  23943159.800    98043240.58346
  22767550.420   119644553.19909  22767548.000    93229613.13048
  21855749.200   114852746.56109  21855744.980    89495642.68248
 15 02 14 00 19 30.0000000  0  7G16G18G21G25G27G29G31
  22783961.140   119730535.47209  22783957.560    93296505.40447
  23546271.300   123736534.49008  23546268.540    96418093.30146
  20926665.460   109970616.13908  20926661.440    85691472.42148
  23656264.400   124314641.71508  23656264.760    96868604.31746
  23929182.180   125748701.30808  23929182.260    97986005.27646
  22780993.660   119715197.66309  22780991.080    93284660.74647
  21869107.200   114922942.94909  21869102.900    89550341.14848
 15 02 14 00 20  0.0000000  0  7G16G18G21G25G27G29G31
  22767806.400   119645641.19309  22767802.760    93230354.02546
  23531755.960   123660256.87308  23531753.360    96358656.26445
  20928078.180   109978040.37408  20928074.140    85697257.54548
  23673500.200   124405216.73608  23673500.240    96939182.24246
  23915222.400   125675342.53108  23915222.320    97928842.66646
  22794445.480   119785887.38809  22794442.820    93339743.63547
  21882536.660   114993515.78109  21882532.460    89605332.94548
 15 02 14 00 20 30.0000000  0  7G16G18G21G25G27G29G31
  22751675.580   119560872.80709  22751671.920    93164300.74547
  23517261.400   123584087.20408  23517258.720    96299303.32945
  20929573.100   109985896.68408  20929569.160    85703379.35348
  23690776.360   124496004.34708  23690776.500    97009925.76146
  23901281.920   125602084.40208  23901281.660    97871758.44146
  22807907.240   119856629.61909  22807904.620    93394867.42247
  21896038.540   115064469.83209  21896034.600    89660621.80648
 15 02 14 00 21  0.0000000  0  7G16G18G21G25G27G29G31
  22735568.140   119476227.34709  22735564.380    93098343.25246
  23502787.060   123508023.19309  23502784.180    96240032.70645
  20931149.080   109994178.86208  20931145.240    85709832.99848
  23708092.040   124586998.32708  23708092.140    97080830.14946
  23887359.660   125528921.88308  23887359.320    97814748.71446
  22821377.980   119927418.65709  22821375.160    93450027.69947
  21909611.500   115135797.94209  21909607.940    89716202.13348
 15 02 14 00 21 30.0000000  0  7G16G18G21G25G27G29G31
  22719485.640   119391712.94209  22719481.820    93032487.88047
  23488334.620   123432073.71808  23488331.600    96180851.34245
  20932807.100   110002891.68109  20932803.300    85716622.23148
  23725447.900   124678203.76808  23725448.200    97151899.27946
  23873456.620   125455860.76708  23873456.260    97757818.03846
  22834858.660   119998259.80909  22834855.860    93505228.55447
  21923256.180   115207503.24009  21923253.080    89772076.38948
 15 02 14 00 22  0.0000000  0  7G16G18G21G25G27G29G31
  22703427.680   119307327.59909  22703423.840    92966733.06647
  23473903.620   123356237.48408  23473900.580    96121758.22645
  20934546.360   110012031.17308  20934542.500    85723743.92148
  23742843.160   124769615.86508  23742843.700    97223129.46546
  23859572.240   125382897.61608  23859571.820    97700963.70246
  22848348.380   120069148.87109  22848345.740    93560466.75847
  21936971.460   115279579.52509  21936968.800    89828239.71848
 15 02 14 00 22 30.0000000  0  7G16G18G21G25G27G29G31
  22687395.320   119223077.17009  22687391.500    92901083.37847
  23459495.400   123280521.46508  23459492.480    96062758.76045
  20936367.320   110021599.73409  20936363.280    85731199.94048
  23760278.120   124861237.56308  23760278.740    97294522.97045
  23845707.180   125310036.30309  23845706.740    97644188.63646
  22861847.960   120140089.76109  22861845.260    93615745.37347
  21950757.760   115352028.14509  21950755.360    89884693.16148
 15 02 14 00 23  0.0000000  0  7G16G18G21G25G27G29G31
  22671388.320   119138960.10109  22671384.600    92835537.61247
  23445109.700   123204924.76608  23445106.800    96003852.27045
  20938269.240   110031593.95509  20938265.080    85738987.65348
  23777752.120   124953064.52608  23777753.100    97366076.37446
  23831860.820   125237273.56808  23831860.480    97587490.38545
  22875356.720   120211078.64809  22875354.140    93671061.38347
  21964614.040   115424843.48809  21964611.720    89941432.37948
 15 02 14 00 23 30.0000000  0  7G16G18G21G25G27G29G31
  22655407.260   119054979.09309  22655403.520    92770097.88347
  23430747.220   123129451.10808  23430744.460    95945041.68345
  20940251.920   110042012.81109  20940247.740    85747106.25148
  23795265.160   125045096.13808  23795266.120    97437789.32046
  23818033.020   125164609.57006  23818033.040    97530869.17446
  22888874.540   120282115.89409  22888872.260    93726415.01047
  21978539.880   115498023.27309  21978537.420    89998455.58048
 15 02 14 00 24  0.0000000  0  7G16G18G21G25G27G29G31
  22639451.980   118971133.46509  22639448.180    92704763.62647
  23416408.220   123054100.43408  23416405.600    95886326.91546
  20942314.740   110052852.82009  20942310.500    85755553.01948
  23812816.520   125137328.87908  23812816.960    97509659.01146
  23804223.700   125092042.30508  23804224.160    97474323.40246
  22902401.160   120353198.52309  22902398.780    93781804.03847
  21992534.280   115571562.37809  21992531.580    90055758.76248
 15 02 14 00 24 30.0000000  0  7G16G18G21G25G27G29G31
  22623523.200   118887427.17709  22623519.360    92639537.95947
  23402093.720   122978877.43908  23402091.060    95827711.62345
  20944457.880   110064115.02808  20944453.660    85764328.77448
  23830406.440   125229763.72008  23830406.780    97581686.11946
  23790433.300   125019573.58108  23790433.620    97417854.25746
  22915936.700   120424328.21308  22915933.760    93837229.78147
  22006596.980   115645460.15609  22006593.920    90113341.43048
 15 02 14 00 25  0.0000000  0  7G16G18G21G25G27G29G31
  22607621.360   118803862.79809  22607617.540    92574422.86347
  23387804.240   122903785.35008  23387801.560    95769198.34245
  20946681.240   110075798.86909  20946677.080    85773433.07348
  23848034.560   125322400.06908  23848034.920    97653870.29346
  23776661.920   124947203.89509  23776661.980    97361462.33046
  22929481.140   120495505.38309  22929478.400    93892692.44547
  22020727.540   115719714.71609  22020724.120    90171202.10248
 15 02 14 00 25 30.0000000  0  7G16G18G21G25G27G29G31
  22591746.600   118720440.97809  22591742.940    92509418.85447
  23373539.980   122828825.64508  23373537.100    95710788.22745
  20948984.380   110087902.13308  20948980.300    85782864.18648
  23865700.400   125415235.58808  23865701.020    97726209.59846
  23762909.240   124874931.99108  23762908.960    97305146.51246
  22943034.400   120566727.66209  22943031.940    93948190.28247
  22034925.260   115794322.06809  22034921.400    90229337.66448
 15 02 14 00 26  0.0000000  0  7G16G18G21G25G27G29G31
  22575899.320   118637163.27209  22575895.760    92444527.13947
  23359301.380   122754000.61108  23359298.560    95652483.04746
  20951367.020   110100423.32908  20951362.980    85792620.96548
  23883403.920   125508268.86308  23883405.000    97798703.01546
  23749175.120   124802757.56308  23749174.640    97248906.73947
  22956596.120   120637994.77108  22956593.720    94003723.09647
  22049189.620   115869279.37609  22049185.280    90287745.93748
 15 02 14 00 26 30.0000000  0  7G16G18G21G25G27G29G31
  22560080.220   118554033.09709  22560076.680    92379750.38947
  23345089.140   122679314.63608  23345086.240    95594286.21645
  20953829.320   110113363.16308  20953825.320    85802703.95648
  23901145.420   125601500.28608  23901146.720    97871350.84946
  23735459.620   124730682.02108  23735459.060    97192744.06547
  22970166.340   120709308.03809  22970164.180    94059291.82847
  22063520.280   115944585.42409  22063515.560    90346425.94648
 15 02 14 00 27  0.0000000  0  7G16G18G21G25G27G29G31
  22544289.820   118471053.81109  22544286.220    92315091.20947
  23330903.920   122604771.42208  23330900.900    95536200.60745
  20956371.300   110126721.73708  20956367.360    85813113.24048
  23918924.660   125694929.94308  23918925.720    97944153.14446
  23721763.080   124658706.74308  23721762.320    97136659.45846
  22983745.760   120780667.87309  22983743.560    94114896.89447
  22077916.880   116020238.80909  22077911.940    90405376.62048
 15 02 14 00 27 30.0000000  0  7G16G18G21G25G27G29G31
  22528527.560   118388222.22909  22528523.820    92250547.12547
  23316745.280   122530368.56708  23316742.540    95478224.39946
  20958991.800   110140492.66008  20958987.920    85823843.83848
  23936740.460   125788551.68208  23936740.740    98017105.16546
  23708084.640   124586826.63108  23708083.820    97080648.94847
  22997332.940   120852068.63108  22997330.720    94170533.81247
  22092377.960   116096231.90609  22092372.980    90464592.00548
 15 02 14 00 28  0.0000000  0  7G16G18G21G25G27G29G31
  22512794.840   118305546.37709  22512791.120    92186124.39447
  23302615.080   122456115.20508  23302612.560    95420364.68046
  20961691.700   110154680.97708  20961687.860    85834899.66948
  23954593.680   125882370.37108  23954593.820    98090210.57345
  23694425.360   124515047.50008  23694424.640    97024717.23347
  23010929.120   120923517.13109  23010926.880    94226207.90447
  22106904.080   116172567.83609  22106899.180    90524074.52648
 15 02 14 00 28 30.0000000  0  7G16G18G21G25G27G29G31
  22497091.260   118223023.55709  22497087.480    92121820.90447
  23288513.060   122382009.18908  23288510.680    95362619.73645
  20964469.980   110169280.95009  20964466.080    85846276.27648
  23972483.060   125976380.21508  23972483.460    98163464.92246
  23680784.420   124443364.80708  23680784.000    96968860.64847
  23024533.560   120995007.90009  23024530.980    94281914.99147
  22121493.940   116249239.46109  22121489.240    90583818.63248
 15 02 14 00 29  0.0000000  0  7G16G18G21G25G27G29G31
  22481417.940   118140659.67309  22481414.100    92057641.26047
  23274440.360   122308057.02708  23274438.020    95304994.73046
  20967327.200   110184295.41909  20967323.220    85857975.87948
  23990409.360   126070583.99108  23990410.080    98236870.40046
  23667162.680   124371782.54508  23667162.400    96913082.26746
  23038146.600   121066544.19008  23038143.860    94337657.51847
  22136147.880   116326248.19609  22136143.360    90643825.42248
 15 02 14 00 29 30.0000000  0  7G16G18G21G25G27G29G31
  22465774.220   118058451.30609  22465770.400    91993582.79747
  23260396.460   122234255.78708  23260393.980    95247487.30346
  20970262.000   110199717.82108  20970258.000    85869993.33548
  24008371.340   126164974.88808  24008371.720    98310421.74645
  23653559.000   124300294.95008  23653558.820    96857377.67447
  23051767.020   121138120.21708  23051764.340    94393431.00747
  22150864.300   116403585.27609  22150860.000    90704088.06848
 15 02 14 00 30  0.0000000  0  7G16G18G21G25G27G29G31
  22450161.600   117976406.27409  22450157.820    91929651.60947
  23246383.100   122160614.20608  23246380.560    95190104.30846
  20973275.180   110215552.20508  20973271.180    85882331.81948
  24026369.900   126259557.73608  24026370.520    98384122.62246
  23639974.440   124228907.91608  23639974.440    96801751.53046
  23065396.180   121209741.68709  23065393.600    94449239.91547
  22165643.840   116481254.18509  22165639.840    90764609.28148
 15 02 14 00 30 30.0000000  0  7G16G18G21G25G27G29G31
  22434579.320   117894520.96109  22434575.600    91865844.88047
  23232399.680   122087129.55009  23232396.960    95132843.57446
  20976365.520   110231792.36608  20976361.580    85894986.49348
  24044403.720   126354325.73708  24044404.260    98457967.80346
  23626408.060   124157616.05508  23626408.000    96746199.38446
  23079032.780   121281402.55108  23079030.180    94505079.51546
  22180484.900   116559246.50709  22180481.160    90825382.49348
 15 02 14 00 31  0.0000000  0  7G16G18G21G25G27G29G31
  22419028.620   117812801.72809  22419024.960    91802167.57047
  23218447.300   122013808.56308  23218444.500    95075710.37246
  20979533.700   110248441.60108  20979529.820    85907959.92448
  24062473.500   126449282.08408  24062473.960    98531959.75146
  23612860.680   124086423.60408  23612860.460    96690724.72847
  23092677.440   121353106.96308  23092675.160    94560953.02447
  22195387.880   116637564.05909  22195384.500    90886409.14048
 15 02 14 00 31 30.0000000  0  7G16G18G21G25G27G29G31
  22403510.220   117731252.20909  22403506.600    91738622.50047
  23204526.700   121940655.45308  23204523.740    95018707.98446
  20982779.760   110265500.18908  20982775.960    85921252.33548
  24080579.020   126544427.25808  24080579.340    98606098.79245
  23599332.420   124015332.00008  23599332.200    96635328.77746
  23106331.000   121424856.36909  23106328.880    94616861.63147
  22210352.580   116716205.60209  22210349.520    90947688.24248
 15 02 14 00 32  0.0000000  0  7G16G18G21G25G27G29G31
  22388023.020   117649866.60209  22388019.400    91675205.16147
  23190636.960   121867665.12808  23190633.980    94961832.41646
  20986102.020   110282958.98608  20986098.220    85934856.60548
  24098718.860   126639752.00308  24098718.980    98680377.76645
  23585821.840   123944333.47808  23585821.640    96580005.25347
  23119991.660   121496642.32909  23119989.320    94672798.74747
  22225377.040   116795160.57609  22225374.220    91009211.58248
 15 02 14 00 32 30.0000000  0  7G16G18G21G25G27G29G31
  22372568.860   117568654.50909  22372565.160    91611923.01647
  23176780.200   121794848.10109  23176777.200    94905091.91946
  20989501.700   110300824.65108  20989497.920    85948777.90648
  24116894.040   126735262.83508  24116894.320    98754801.77246
  23572330.480   123873435.63408  23572330.260    96524760.19346
  23133660.460   121568472.15308  23133657.900    94728770.01446
  22240462.180   116874433.71309  22240459.560    91070982.84448
 15 02 14 00 33  0.0000000  0  7G16G18G21G25G27G29G31
  22357147.980   117487617.62409  22357144.300    91548777.41247
  23162956.840   121722206.74408  23162953.900    94848488.28746
  20992978.420   110319095.47108  20992974.740    85963014.90948
  24135104.220   126830958.31908  24135104.040    98829369.67746
  23558858.160   123802638.05708  23558857.800    96469593.32147
  23147337.500   121640345.50709  23147335.080    94784775.19047
  22255607.420   116954021.99009  22255604.920    91132999.67048
 15 02 14 00 33 30.0000000  0  7G16G18G21G25G27G29G31
  22341759.660   117406751.63509  22341756.000    91485764.95947
  23149166.300   121649736.91809  23149163.420    94792018.32746
  20996530.700   110337763.23308  20996527.080    85977561.21948
  24153348.020   126926830.61608  24153348.020    98904075.26745
  23545403.640   123731934.35308  23545403.240    96414499.49146
  23161021.740   121712255.47809  23161019.200    94840808.91147
  22270810.960   117033916.17009  22270808.460    91195254.85148
 15 02 14 00 34  0.0000000  0  7G16G18G21G25G27G29G31
  22326405.620   117326065.34009  22326401.920    91422892.52547
  23135410.380   121577448.52408  23135407.480    94735689.73346
  21000159.800   110356834.38208  21000156.200    85992421.85048
  24171626.420   127022885.52208  24171627.060    98978923.17746
  23531968.160   123661331.38608  23531967.860    96359484.22547
  23174714.180   121784208.82708  23174711.260    94896876.41446
  22286073.580   117114120.74409  22286071.000    91257751.90148
 15 02 14 00 34 30.0000000  0  7G16G18G21G25G27G29G31
  22311086.200   117245560.76909  22311082.340    91360161.69947
  23121689.320   121505343.63009  23121686.160    94679504.14446
  21003865.340   110376306.94808  21003861.720    86007595.28248
  24189939.440   127119121.47008  24189939.880    99053912.23546
  23518551.760   123590828.84408  23518551.780    96304547.28447
  23188414.360   121856204.62008  23188411.360    94952976.98246
  22301394.540   117194632.21009  22301391.820    91320488.09048
 15 02 14 00 35  0.0000000  0  7G16G18G21G25G27G29G31
  22295800.160   117165231.82909  22295796.220    91297567.72247
  23108002.120   121433417.00308  23107999.240    94623457.46346
  21007645.560   110396171.90408  21007641.840    86023074.46948
  24208285.340   127215529.38208  24208285.900    99129035.23445
  23505153.120   123520418.99408  23505153.260    96249682.45546
  23202121.180   121928235.09208  23202118.100    95009104.62646
  22316771.940   117275439.99709  22316768.980    91383455.17248
 15 02 14 00 35 30.0000000  0  7G16G18G21G25G27G29G31
  22280549.220   117085087.78709  22280545.240    91235117.83447
  23094350.660   121361678.63009  23094348.040    94567557.44446
  21011501.520   110416434.79008  21011497.720    86038863.74348
  24226665.000   127312115.04208  24226666.020    99204296.73846
  23491773.480   123450108.67708  23491773.480    96194895.24246
  23215835.880   122000306.97308  23215833.040    95065264.52747
  22332206.560   117356548.34509  22332203.360    91446656.46048
 15 02 14 00 36  0.0000000  0  7G16G18G21G25G27G29G31
  22265333.800   117005130.42909  22265329.900    91172813.41147
  23080735.460   121290130.62309  23080732.960    94511805.78746
  21015432.920   110437094.20808  21015429.040    86054961.98948
  24245078.220   127408876.69508  24245078.740    99279695.41545
  23478412.760   123379897.45908  23478412.620    96140185.21347
  23229558.180   122072419.75208  23229556.180    95121456.22347
  22347697.760   117437954.16809  22347694.380    91510089.54448
 15 02 14 00 36 30.0000000  0  7G16G18G21G25G27G29G31
  22250153.520   116925357.41609  22250149.660    91110652.62247
  23067156.280   121218771.64008  23067153.560    94456201.39946
  21019438.740   110458144.66308  21019434.780    86071364.94548
  24263524.120   127505808.98008  24263524.760    99355227.00445
  23465070.140   123309781.18208  23465069.820    96085549.21047
  23243287.600   122144568.68808  23243286.040    95177676.12647
  22363244.260   117519650.38609  22363240.700    91573748.91048
 15 02 14 00 37  0.0000000  0  7G16G18G21G25G27G29G31
  22235009.460   116845774.53109  22235005.600    91048640.00047
  23053614.220   121147607.83709  23053611.400    94400749.13046
  21023519.400   110479588.42208  21023515.360    86088074.38148
  24282002.780   127602914.20108  24282003.480    99430893.37946
  23451746.300   123239763.33608  23451745.720    96030989.90946
  23257024.740   122216757.22309  23257022.860    95233926.94547
  22378846.100   117601637.62409  22378842.400    91637635.04548
 15 02 14 00 37 30.0000000  0  7G16G18G21G25G27G29G31
  22219901.760   116766382.77409  22219897.880    90986776.29247
  23040109.600   121076640.71408  23040106.820    94345450.09446
  21027674.360   110501422.86008  21027670.260    86105088.22348
  24300513.740   127700190.07308  24300513.940    99506692.68245
  23438440.920   123169843.02608  23438440.280    95976506.57947
  23270769.420   122288984.12009  23270767.180    95290207.60547
  22394502.660   117683912.32709  22394498.820    91701745.17948
 15 02 14 00 38  0.0000000  0  7G16G18G21G25G27G29G31
  22204830.400   116687182.43709  22204826.540    90925061.75447
  23026642.580   121005871.09608  23026639.780    94290304.93346
  21031903.140   110523645.21508  21031899.020    86122404.34648
  24319056.660   127797633.35508  24319056.840    99582622.51046
  23425153.740   123100018.35308  23425153.140    95922097.76247
  23284520.800   122361246.93808  23284518.560    95346516.23347
  22410212.980   117766469.74109  22410209.040    91766075.60048
 15 02 14 00 38 30.0000000  0  7G16G18G21G25G27G29G31
  22189797.220   116608183.45209  22189793.480    90863504.10947
  23013215.120   120935309.41709  23013212.320    94235321.85046
  21036207.060   110546261.93109  21036202.860    86140027.76548
  24337632.460   127895250.80708  24337633.140    99658687.96946
  23411886.160   123030297.03108  23411885.640    95867769.51047
  23298280.560   122433553.89308  23298278.220    95402859.24947
  22425977.920   117849314.84409  22425973.940    91830630.19648
 15 02 14 00 39  0.0000000  0  7G16G18G21G25G27G29G31
  22174801.180   116529379.41309  22174797.540    90802098.36947
  22999826.100   120864949.69208  22999823.160    94180496.10246
  21040584.180   110569263.03209  21040579.800    86157950.70348
  24356239.640   127993032.29008  24356240.260    99734881.30645
  23398636.560   122960670.46708  23398636.160    95813515.09247
  23312046.840   122505895.80908  23312044.340    95459229.51846
  22441795.360   117932435.93709  22441791.380    91895399.84348
 15 02 14 00 39 30.0000000  0  7G16G18G21G25G27G29G31
  22159843.760   116450777.88509  22159840.120    90740850.42747
  22986477.040   120794800.08209  22986474.120    94125834.10946
  21045035.120   110592652.30409  21045030.620    86176176.11648
  24374878.780   128090982.02808  24374880.120    99811205.67946
  23385406.000   122891144.14909  23385405.780    95759338.77046
  23325820.460   122578277.90808  23325818.040    95515631.12146
  22457665.780   118015835.79909  22457661.940    91960386.72248
 15 02 14 00 40  0.0000000  0  8G16G18G21G22G25G27G29G31
  22144923.920   116372373.81009  22144920.300    90679756.35247
  22973167.220   120724856.18009  22973164.160    94071332.38846
  21049558.220   110616420.92709  21049553.640    86194697.12748
  24553180.800   129027837.62308  24553180.940   100541173.16945
  24393548.440   128189091.76907  24393549.380    99887654.79945
  23372193.340   122821711.05008  23372193.100    95705235.03846
  23339600.480   122650692.92509  23339598.200    95572058.36246
  22473587.420   118099504.68909  22473583.640    92025583.24048
 15 02 14 00 40 30.0000000  0  8G16G18G21G22G25G27G29G31
  22130042.180   116294169.95909  22130038.600    90618818.29047
  22959897.200   120655121.52809  22959894.000    94016993.71646
  21054153.460   110640569.16009  21054148.900    86213513.92248
  24535379.940   128934295.06508  24535380.400   100468283.66845
  24412248.740   128287360.77208  24412249.920    99964228.01446
  23358998.540   122752371.75308  23358998.180    95651204.48147
  23353387.160   122723141.80008  23353384.900    95628512.00247
  22489559.800   118183440.41509  22489556.060    92090987.66848
 15 02 14 00 41  0.0000000  0  8G16G18G21G22G25G27G29G31
  22115200.580   116216176.98709  22115197.040    90558044.55547
  22946669.000   120585607.07809  22946665.540    93962826.63345
  21058822.260   110665104.12508  21058817.760    86232632.08248
  24517565.080   128840679.84208  24517565.440   100395337.49745
  24430980.600   128385796.53908  24430981.600   100040931.12245
  23345823.240   122683135.04208  23345822.880    95597253.84647
  23367181.900   122795632.62309  23367179.360    95684998.34846
  22505583.940   118267648.59809  22505580.320    92156604.40248
 15 02 14 00 41 30.0000000  0  8G16G18G21G22G25G27G29G31
  22100398.760   116138392.88209  22100395.200    90497433.56647
  22933482.280   120516311.03008  22933478.880    93908829.75546
  21063563.360   110690019.24608  21063558.980    86252046.46548
  24499735.880   128746989.64108  24499736.060   100322332.83845
  24449742.960   128484393.00908  24449743.600   100117759.53445
  23332666.540   122613996.32708  23332666.240    95543379.54747
  23380983.760   122868160.66509  23380981.100    95741513.66447
  22521658.540   118352122.00909  22521654.980    92222427.80448
 15 02 14 00 42  0.0000000  0  8G16G18G21G22G25G27G29G31
  22085636.320   116060815.37909  22085632.700    90436983.56347
  22920336.820   120447231.69209  22920333.460    93855001.71646
  21068375.800   110715309.35108  21068371.540    86271753.04448
  24481892.040   128653222.52708  24481891.960   100249268.20545
  24468534.760   128583144.67708  24468535.340   100194708.77945
  23319527.660   122544951.22508  23319527.260    95489578.18147
  23394791.780   122940721.26808  23394789.060    95798054.36647
  22537782.320   118436853.62209  22537778.780    92288452.40748
 15 02 14 00 42 30.0000000  0  8G16G18G21G22G25G27G29G31
  22070914.980   115983453.53509  22070911.260    90376701.60347
  22907234.460   120378378.70109  22907231.380    93801350.05746
  21073260.700   110740980.31309  21073256.600    86291756.39348
  24464035.540   128559388.37208  24464035.160   100176151.31045
  24487357.120   128682057.18207  24487357.680   100271783.40246
  23306407.960   122476006.83909  23306407.440    95435855.31046
  23408607.180   123013321.55608  23408604.260    95854625.96946
  22553956.060   118521847.32309  22553952.480    92354681.23448
 15 02 14 00 43  0.0000000  0  8G16G18G21G22G25G27G29G31
  22056234.360   115906305.79909  22056230.600    90316586.48447
  22894174.960   120309750.65209  22894171.920    93747873.67046
  21078216.980   110767026.18108  21078213.000    86312051.88148
  24446166.080   128465485.56508  24446165.560   100102980.88445
  24506209.240   128781125.25608  24506209.920   100348979.23745
  23293306.640   122407159.21608  23293306.100    95382207.81947
  23422429.040   123085957.25808  23422426.300    95911225.19247
  22570178.360   118607096.17709  22570174.780    92421108.88648
 15 02 14 00 43 30.0000000  0  8G16G18G21G22G25G27G29G31
  22041595.320   115829376.85409  22041591.500    90256641.85147
  22881159.320   120241352.92809  22881156.420    93694576.75546
  21083244.980   110793448.68908  21083241.040    86332640.85448
  24428284.540   128371519.27208  24428283.860   100029760.98345
  24525091.080   128880350.30708  24525091.660   100426297.36545
  23280224.220   122338411.01808  23280223.720    95328637.83646
  23436258.100   123158630.93508  23436255.820    95967853.96847
  22586449.120   118692600.44109  22586445.680    92487735.55547
 15 02 14 00 44  0.0000000  0  8G16G18G21G22G25G27G29G31
  22026997.380   115752663.98809  22026993.440    90196865.58847
  22868187.040   120173182.95009  22868184.180    93641457.30247
  21088343.340   110820241.04308  21088339.440    86353518.01748
  24410390.280   128277486.86008  24410389.520    99956489.52745
  24544001.860   128979725.61308  24544002.400   100503732.64645
  23267159.820   122269757.15408  23267159.300    95275141.31147
  23450093.600   123231337.13408  23450091.620    96024508.12847
  22602766.840   118778351.80309  22602763.640    92554554.75947
 15 02 14 00 44 30.0000000  0  8G16G18G21G22G25G27G29G31
  22012441.820   115676173.83609  22012437.740    90137262.86447
  22855259.520   120105247.97209  22855256.700    93588520.98646
  21093512.760   110847406.58109  21093508.800    86374685.96948
  24392484.760   128183395.53408  24392483.820    99883172.10846
  24562941.660   129079254.98408  24562941.800   100581287.92244
  23254114.340   122201202.39208  23254113.620    95221722.08348
  23463936.180   123304080.66408  23463934.420    96081191.35346
  22619132.040   118864352.36809  22619129.000    92621568.15447
 15 02 14 00 45  0.0000000  0  8G16G18G21G22G25G27G29G31
  21997928.660   115599906.84909  21997924.600    90077834.04948
  22842376.920   120037549.40209  22842374.020    93535768.88446
  21098752.680   110874942.35509  21098748.660    86396142.42848
  24374568.300   128089246.38508  24374567.120    99809809.63245
  24581910.200   129178935.20107  24581910.700   100658960.73645
  23241087.400   122132745.25208  23241086.620    95168378.90647
  23477785.600   123376859.92008  23477783.920    96137902.40147
  22635543.840   118950597.52209  22635540.880    92688772.14348
 15 02 14 00 45 30.0000000  0  8G16G18G21G22G25G27G29G31
  21983457.920   115523863.18309  21983454.060    90018579.26348
  22829539.260   119970087.28609  22829536.160    93483201.02346
  21104062.300   110902844.52508  21104058.220    86417884.37748
  24356640.880   127995039.41908  24356639.700    99736402.12945
  24600906.700   129278762.87108  24600907.080   100736748.45344
  23228078.640   122064383.53609  23228077.840    95115110.01847
  23491641.600   123449672.50108  23491639.840    96194639.42447
  22652001.280   119037082.12909  22651998.340    92756162.70747
 15 02 14 00 46  0.0000000  0  8G16G18G21G22G25G27G29G31
  21969030.700   115448048.00409  21969027.000    89959502.50647
  22816747.600   119902867.02109  22816744.520    93430821.62146
  21109441.960   110931114.82109  21109437.860    86439913.18448
  24338703.620   127900779.88708  24338702.280    99662953.59346
  24619931.760   129378739.21108  24619932.400   100814652.04645
  23215088.540   121996119.91408  23215087.720    95061917.63047
  23505504.360   123522520.87408  23505502.600    96251404.33546
  22668504.320   119123806.13909  22668501.300    92823739.82347
 15 02 14 00 46 30.0000000  0  8G16G18G21G22G25G27G29G31
  21954647.440   115372463.38309  21954643.740    89900605.39148
  22804002.440   119835891.40809  22803999.420    93378632.86446
  21114891.260   110959751.40408  21114887.240    86462227.40248
  24320756.900   127806470.64808  24320755.460    99589466.30646
  24638984.820   129478862.98408  24638986.040   100892670.39645
  23202116.980   121927954.43908  23202116.300    95008801.69447
  23519373.880   123595405.08708  23519371.800    96308197.19346
  22685052.400   119210766.53709  22685049.240    92891501.13547
 15 02 14 00 47  0.0000000  0  8G16G18G21G22G25G27G29G31
  21940308.460   115297111.40909  21940304.720    89841889.57348
  22791304.380   119769162.86709  22791301.360    93326636.59946
  21120409.980   110988752.46309  21120405.980    86484825.63648
  24302800.980   127712114.01608  24302799.420    99515942.10945
  24658065.540   129579132.59207  24658066.260   100970802.55345
  23189164.140   121859887.03908  23189163.460    94955762.21147
  23533250.100   123668324.80508  23533247.440    96365017.73045
  22701645.040   119297960.64809  22701641.760    92959444.56947
 15 02 14 00 47 30.0000000  0  8G16G18G21G22G25G27G29G31
  21926013.860   115221992.91809  21926010.200    89783355.69047
  22778653.660   119702682.88809  22778650.640    93274834.04246
  21125997.740   111018115.98009  21125993.640    86507706.30048
  24284836.520   127617711.59708  24284834.800    99442382.14345
  24677173.580   129679545.81808  24677174.760   101049046.53245
  23176229.820   121791916.93109  23176229.120    94902798.48546
  23547132.860   123741278.91008  23547130.220    96421865.03946
  22718281.380   119385384.56609  22718278.140    93027567.05847
 15 02 14 00 48  0.0000000  0  8G16G18G21G22G25G27G29G31
  21911764.220   115147110.89909  21911760.640    89725006.06648
  22766050.720   119636454.04609  22766047.780    93223227.17146
  21131654.220   111047840.53909  21131650.020    86530868.28848
  24266863.900   127523265.86708  24266861.780    99368788.40945
  24696308.480   129780101.21308  24696309.580   101127401.30844
  23163314.040   121724043.97809  23163313.400    94849910.48447
  23561022.100   123814267.27408  23561019.880    96478738.99347
  22734960.880   119473034.98409  22734957.680    93095866.05047
 15 02 14 00 48 30.0000000  0  8G16G18G21G22G25G27G29G31
  21897559.900   115072466.69009  21897556.320    89666841.74248
  22753495.980   119570478.55209  22753493.260    93171817.72846
  21137379.000   111077924.05909  21137374.680    86554309.99848
  24248883.520   127428779.02308  24248880.940    99295162.61045
  24715470.240   129880796.95008  24715471.780   101205865.41446
  23150416.660   121656267.79408  23150416.020    94797097.89747
  23574917.860   123887289.40508  23574915.580    96535639.31446
  22751682.920   119560908.81509  22751679.700    93164339.12247
 15 02 14 00 49  0.0000000  0  8G16G18G21G22G25G27G29G31
  21883401.440   114998063.08209  21883397.820    89608864.91048
  22740990.080   119504759.62509  22740987.240    93120608.17446
  21143171.920   111108365.99308  21143167.580    86578030.99648
  24230895.700   127334254.05908  24230893.260    99221507.17545
  24734658.660   129981632.38008  24734660.260   101284438.37444
  23137537.840   121588589.19308  23137537.140    94744361.37247
  23588820.160   123960345.86808  23588817.780    96592566.41146
  22768447.060   119649004.16609  22768443.860    93232984.81847
 15 02 14 00 49 30.0000000  0  8G16G18G21G22G25G27G29G31
  21869289.220   114923902.58409  21869285.580    89551077.52048
  22728533.520   119439299.83709  22728530.640    93069600.56246
  21149032.680   111139164.57109  21149028.300    86602029.89048
  24212901.140   127239693.83408  24212898.780    99147824.23545
  24753873.380   130082606.06607  24753874.320   101363119.09544
  23124677.620   121521008.18908  23124676.900    94691700.85447
  23602728.680   124033436.82608  23602726.600    96649520.34046
  22785252.660   119737317.79409  22785249.440    93301800.58847
 15 02 14 00 50  0.0000000  0  8G16G18G21G22G25G27G29G31
  21855224.160   114849990.02709  21855220.460    89493483.31948
  22716127.300   119374104.26709  22716124.320    93018798.83346
  21154961.420   111170320.72309  21154957.100    86626307.40948
  24194900.960   127145103.40608  24194898.540    99074117.71546
  24773114.500   130183719.17307  24773115.620   101441908.39645
  23111836.420   121453527.28608  23111835.780    94639118.37847
  23616644.020   124106564.64408  23616642.420    96706502.96746
  22802099.720   119825849.43109  22802096.480    93370786.22447
 15 02 14 00 50 30.0000000  0  8G16G18G21G22G25G27G29G31
  21841205.380   114776320.66209  21841201.580    89436078.63448
  22703770.440   119309167.90209  22703767.100    92968199.08246
  21160956.680   111201826.48908  21160952.460    86650857.36948
  24176894.160   127050478.00808  24176891.560    99000383.93545
  24792380.800   130284963.13308  24792381.580   101520799.72844
  23099012.880   121386139.62508  23099012.300    94586608.54547
  23630565.400   124179722.00509  23630563.940    96763508.68046
  22818986.380   119914588.91409  22818983.100    93439933.82847
 15 02 14 00 51  0.0000000  0  8G16G18G21G22G25G27G29G31
  21827234.280   114702902.21209  21827230.480    89378869.45447
  22691464.580   119244500.07409  22691461.180    92917808.58746
  21167019.180   111233685.52508  21167015.000    86675682.59448
  24158882.500   126955826.54008  24158879.520    98926629.80545
  24811672.600   130386342.55007  24811673.280   101599796.53245
  23086208.080   121318850.98708  23086207.660    94534175.86347
  23644493.780   124252914.45709  23644492.060    96820541.75647
  22835913.260   120003539.48809  22835909.920    93509245.92347
 15 02 14 00 51 30.0000000  0  7G16G18G21G22G27G29G31
  21813310.920   114629734.89709  21813307.200    89321855.97248
  22679209.720   119180100.73109  22679206.460    92867627.32046
  21173148.240   111265894.38609  21173144.240    86700780.40848
  24140865.860   126861149.31708  24140862.400    98852855.63445
  23073421.820   121251659.37608  23073421.440    94481818.75747
  23658428.520   124326140.13408  23658426.740    96877600.70047
  22852879.340   120092696.02109  22852875.900    93578718.50747
 15 02 14 00 52  0.0000000  0  7G16G18G21G22G27G29G31
  21799436.020   114556822.01809  21799432.320    89265040.74848
  22667006.720   119115973.61409  22667003.480    92817658.12446
  21179343.800   111298452.59709  21179340.000    86726150.44248
  24122844.960   126766449.88908  24122841.300    98779064.11745
  23060654.320   121184565.86808  23060653.880    94429538.16147
  23672369.620   124399400.02108  23672367.820    96934686.27147
  22869884.260   120182056.62409  22869880.840    93648350.10147
 15 02 14 00 52 30.0000000  0  7G16G18G21G22G27G29G31
  21785610.000   114484165.85309  21785606.300    89208425.56348
  22654855.940   119052121.02409  22654852.820    92767902.90347
  21185605.500   111331358.47308  21185601.860    86751791.37848
  24104820.300   126671730.66308  24104816.560    98705257.14545
  23047905.580   121117570.40909  23047905.080    94377333.92447
  23686316.880   124472693.81908  23686315.140    96991798.23546
  22886927.360   120271618.33609  22886924.040    93718138.39647
 15 02 14 00 53  0.0000000  0  7G16G18G21G22G27G29G31
  21771832.960   114411767.12709  21771829.360    89152010.98648
  22642757.620   118988544.17209  22642754.460    92718362.48647
  21191932.920   111364609.37608  21191929.280    86777701.17548
  24086791.900   126576992.80208  24086788.460    98631435.73045
  23035175.300   121050671.77108  23035174.660    94325205.12747
  23700270.380   124546020.02008  23700268.420    97048935.51446
  22904007.800   120361376.87409  22904004.620    93788080.05947
 15 02 14 00 53 30.0000000  0  7G16G18G21G22G27G29G31
  21758105.540   114339629.06909  21758101.960    89095799.52248
  22630712.340   118925246.36609  22630709.240    92669039.56346
  21198325.920   111398204.65009  21198322.200    86803879.30648
  24068760.720   126482240.26608  24068757.560    98557602.83745
  23022463.600   120983870.93509  23022462.960    94273152.57147
  23714230.240   124619380.15708  23714227.880    97106099.27245
