     2.11           OBSERVATION DATA    G                   RINEX VERSION / TYPE
SPIDER V4,0,0,3554                      2015 03 13 00:54    PGM / RUN BY / DATE 
EMHD                                                        MARKER NAME         
EMHD                                                        MARKER NUMBER       
                                                            OBSERVER / AGENCY   
462397              LEICA GRX1200PRO    8.20/2.127          REC # / TYPE / VERS 
103297              LEIAT504                                ANT # / TYPE        
  5146535.6892   265261.6083  3747697.6292                  APPROX POSITION XYZ 
        0.0470        0.0000        0.0000                  ANTENNA: DELTA H/E/N
     1     1                                                WAVELENGTH FACT L1/2
     4    C1    L1    P2    L2                              # / TYPES OF OBSERV 
    30.000                                                  INTERVAL            
  2015    02    14    00    00    0.0000000     GPS         TIME OF FIRST OBS   
  2015    02    14    20    00    0.0000000     GPS         TIME OF LAST OBS    
    16                                                      LEAP SECONDS        
    30                                                      # OF SATELLITES     
   G 1   804   804   803   803                              PRN / # OF OBS      
   G 2   633   633   633   633                              PRN / # OF OBS      
   G 3   830   830   830   830                              PRN / # OF OBS      
   G 4   834   834   833   833                              PRN / # OF OBS      
   G 5   663   663   663   663                              PRN / # OF OBS      
   G 6   707   707   707   707                              PRN / # OF OBS      
   G 7   649   649   649   649                              PRN / # OF OBS      
   G 9   773   773   773   773                              PRN / # OF OBS      
   G10   768   768   768   768                              PRN / # OF OBS      
   G11   776   776   776   776                              PRN / # OF OBS      
   G12   462   462   461   461                              PRN / # OF OBS      
   G13   800   800   800   800                              PRN / # OF OBS      
   G14   564   564   563   563                              PRN / # OF OBS      
   G15   713   713   713   713                              PRN / # OF OBS      
   G16   591   591   591   591                              PRN / # OF OBS      
   G17   928   928   928   928                              PRN / # OF OBS      
   G18   882   882   882   882                              PRN / # OF OBS      
   G19   765   765   765   765                              PRN / # OF OBS      
   G20   792   792   792   792                              PRN / # OF OBS      
   G21   399   399   399   399                              PRN / # OF OBS      
   G22   756   756   756   756                              PRN / # OF OBS      
   G23   733   733   733   733                              PRN / # OF OBS      
   G24   574   574   574   574                              PRN / # OF OBS      
   G25   367   367   367   367                              PRN / # OF OBS      
   G27   788   788   788   788                              PRN / # OF OBS      
   G28   868   868   868   868                              PRN / # OF OBS      
   G29   279   279   279   279                              PRN / # OF OBS      
   G30   682   682   682   682                              PRN / # OF OBS      
   G31   390   390   390   390                              PRN / # OF OBS      
   G32   744   744   744   744                              PRN / # OF OBS      
BIT 2 OF LLI FLAGS DATA COLLECTED UNDER A/S CONDITION       COMMENT             
SNR is mapped to RINEX snr flag value [2-9]                 COMMENT             
Lx:     = 25dBHz -> 1; 26-27dBHz -> 2; 28-31dBHz -> 3       COMMENT             
       32-35dBHz -> 4; 36-38dBHz -> 5; 39-41dBHz -> 6       COMMENT             
       42-44dBHz -> 7; 45-48dBHz -> 8; >=49dBHz -> 9        COMMENT             
                                                            END OF HEADER       
 15 02 14 00 00  0.0000000  0  7G16G18G21G25G27G29G31
  23254948.060   122205580.81105  23254945.720    95225119.67646
  24257285.880   127472907.40304  24257286.220    99329544.41744
  20978635.560   110243476.75107  20978633.520    85904002.58649
  23209459.900   121966527.34805  23209462.140    95038858.16345
  24263829.940   127507287.73704  24263832.440    99356340.77644
  22412150.780   117776642.76406  22412149.860    91774000.82247
  21317449.440   112023948.89407  21317447.740    87291377.73648
 15 02 14 00 00 30.0000000  0  7G16G18G21G25G27G29G31
  23238594.520   122119642.91705  23238592.380    95158155.11445
  24242730.080   127396417.92904  24242730.540    99269942.37145
  20976861.680   110234155.08007  20976859.660    85896738.95449
  23225042.700   122048415.54405  23225044.980    95102667.13045
  24249135.140   127430067.34204  24249137.660    99296169.10344
  22425797.120   117848354.94906  22425796.220    91829880.43447
  21327854.320   112078626.75507  21327852.620    87333983.84148
 15 02 14 00 01  0.0000000  0  7G16G18G21G25G27G29G31
  23222253.220   122033769.34205  23222251.240    95091240.66546
  24228172.460   127319919.18204  24228172.920    99210333.22644
  20975175.680   110225295.18207  20975173.680    85889835.14249
  23240668.940   122130531.70805  23240671.140    95166653.73546
  24234462.520   127352963.02404  24234465.320    99236087.87645
  22439455.980   117920132.49606  22439455.000    91885811.00247
  21338348.680   112133775.04507  21338347.000    87376956.51548
 15 02 14 00 01 30.0000000  0  7G16G18G21G25G27G29G31
  23205924.420   121947960.87405  23205922.360    95024376.94445
  24213613.680   127243413.32004  24213614.340    99150718.44245
  20973577.600   110216897.23607  20973575.580    85883291.29449
  23256338.440   122212875.38405  23256340.600    95230817.61846
  24219812.260   127275974.98304  24219815.080    99176097.25245
  22453127.120   117991974.57406  22453126.160    91941791.82447
  21348932.220   112189391.77308  21348930.520    87420294.20548
 15 02 14 00 02  0.0000000  0  7G16G18G21G25G27G29G31
  23189608.980   121862223.03705  23189606.960    94957568.26645
  24199054.620   127166906.87704  24199055.380    99091103.22945
  20972068.100   110208964.79207  20972066.040    85877110.18149
  23272051.740   122295449.39305  23272053.900    95295160.96946
  24205184.900   127199107.03604  24205187.560    99116200.19546
  22466811.060   118063883.99906  22466810.200    91997825.10947
  21359605.280   112245478.55608  21359603.540    87463998.17448
 15 02 14 00 02 30.0000000  0  7G16G18G21G25G27G29G31
  23173305.920   121776549.66805  23173303.900    94890809.81746
  24184495.040   127090395.13404  24184495.040    99031483.79044
  20970645.600   110201489.63007  20970643.560    85871285.38549
  23287807.380   122378245.55105  23287809.580    95359677.44745
  24190578.900   127122351.49904  24190581.260    99056390.75445
  22480506.120   118135852.03806  22480505.320    92053904.08647
  21370365.980   112302026.19307  21370364.220    87508061.25148
 15 02 14 00 03  0.0000000  0  7G16G18G21G25G27G29G31
  23157016.880   121690950.31405  23157014.980    94824109.04445
  24169936.260   127013887.89804  24169935.960    98971867.97845
  20969311.420   110194478.66907  20969309.460    85865822.30149
  23303606.580   122461270.74705  23303608.880    95424372.39145
  24175995.680   127045716.06304  24175997.540    98996674.89144
  22494213.700   118207885.68606  22494212.900    92110034.17547
  21381215.360   112359039.96207  21381213.580    87552487.55448
 15 02 14 00 03 30.0000000  0  7G16G18G21G25G27G29G31
  23140741.960   121605425.51505  23140740.140    94757466.35045
  24155378.320   126937387.41204  24155378.140    98912257.37645
  20968065.560   110187931.71407  20968063.640    85860720.78049
  23319449.180   122544523.97705  23319451.400    95489244.99146
  24161435.240   126969200.49004  24161437.240    98937052.43446
  22507933.640   118279984.38406  22507932.860    92166214.95247
  21392152.960   112416517.43807  21392151.140    87597275.17348
 15 02 14 00 04  0.0000000  0  7G16G18G21G25G27G29G31
  23124480.660   121519972.19805  23124478.900    94690879.36546
  24140821.460   126860891.46804  24140821.120    98852650.32945
  20966906.920   110181842.87607  20966904.960    85855976.24149
  23335334.200   122627999.78005  23335336.180    95554291.06545
  24146896.720   126892800.17504  24146898.520    98877519.76045
  22521664.800   118352142.21906  22521664.040    92222441.81847
  21403177.540   112474451.94407  21403175.740    87642418.93048
 15 02 14 00 04 30.0000000  0  7G16G18G21G25G27G29G31
  23108233.720   121434594.36505  23108231.980    94624351.19346
  24126266.500   126784405.42804  24126266.520    98793050.96544
  20965835.980   110176214.94307  20965834.000    85851590.84949
  23351261.800   122711699.83505  23351263.680    95619511.86745
  24132380.640   126816517.45204  24132382.220    98818078.71644
  22535407.560   118424360.93706  22535406.720    92278716.13847
  21414289.160   112532843.96207  21414287.420    87687919.18748
 15 02 14 00 05  0.0000000  0  7G16G18G21G25G27G29G31
  23092001.460   121349293.31305  23091999.700    94557882.87345
  24111713.680   126707931.13804  24111714.400    98733460.74445
  20964852.620   110171047.41407  20964850.620    85847564.20349
  23367231.920   122795623.26405  23367233.860    95684906.73246
  24117887.020   126740352.30004  24117889.000    98758729.30746
  22549161.660   118496639.39906  22549160.860    92335036.99747
  21425487.380   112591691.25207  21425485.740    87733774.20248
 15 02 14 00 05 30.0000000  0  7G16G18G21G25G27G29G31
  23075783.960   121264069.19506  23075782.080    94491474.47446
  24097163.680   126631470.13604  24097164.060    98673880.85945
  20963956.380   110166337.83307  20963954.400    85843894.40649
  23383244.200   122879767.97205  23383246.100    95750474.01646
  24103415.360   126664303.30604  24103417.340    98699470.40946
  22562926.780   118568975.51406  22562925.900    92391402.78447
  21436771.580   112650990.23407  21436769.980    87779981.18548
 15 02 14 00 06  0.0000000  0  7G16G18G21G25G27G29G31
  23059582.400   121178929.44006  23059580.560    94425131.85345
  24082617.440   126555031.24904  24082617.920    98614318.24643
  20963148.440   110162092.02707  20963146.460    85840585.99049
  23399299.460   122964139.06705  23399301.540    95816217.70446
  24088966.800   126588376.43804  24088968.880    98640306.67646
  22576703.900   118641374.51906  22576702.960    92447817.57747
  21448142.500   112710744.88507  21448140.920    87826543.23448
 15 02 14 00 06 30.0000000  0  7G16G18G21G25G27G29G31
  23043395.800   121093868.76705  23043394.080    94358850.83146
  24068074.840   126478609.67804  24068075.200    98554769.06345
  20962427.380   110158302.51907  20962425.380    85837633.13649
  23415396.220   123048729.03405  23415398.540    95882131.93946
  24074540.160   126512564.96904  24074542.460    98581232.87346
  22590491.500   118713828.53606  22590490.400    92504275.24847
  21459598.460   112770946.23207  21459596.900    87873453.35248
 15 02 14 00 07  0.0000000  0  7G16G18G21G25G27G29G31
  23027225.060   121008891.88705  23027223.540    94292635.09946
  24053536.700   126402211.43104  24053536.780    98495238.10344
  20961793.640   110154972.02407  20961791.600    85835037.95249
  23431535.240   123133540.02805  23431537.560    95948218.41646
  24060136.080   126436871.83404  24060138.680    98522251.25945
  22604290.060   118786340.20306  22604288.820    92560777.82547
  21471139.620   112831595.00707  21471138.040    87920712.12348
 15 02 14 00 07 30.0000000  0  7G16G18G21G25G27G29G31
  23011070.040   120923997.48805  23011068.620    94226483.64446
  24039002.940   126325836.77604  24039003.160    98435725.51945
  20961246.600   110152097.29907  20961244.500    85832797.91249
  23447715.820   123218568.91105  23447718.060    96014474.65445
  24045754.340   126361294.67104  24045756.900    98463360.01045
  22618098.840   118858905.73706  22618097.600    92617322.37947
  21482764.960   112892686.41507  21482763.380    87968315.80648
 15 02 14 00 08  0.0000000  0  7G16G18G21G25G27G29G31
  22994931.600   120839189.11706  22994930.140    94160399.20146
  24024474.620   126249490.20004  24024474.640    98376234.75545
  20960786.460   110149679.43407  20960784.340    85830913.86749
  23463938.000   123303816.83705  23463940.260    96080901.59146
  24031394.880   126285835.43104  24031397.440    98404560.64945
  22631918.220   118931526.96906  22631917.000    92673910.33847
  21494474.520   112954220.45307  21494472.920    88016264.38648
 15 02 14 00 08 30.0000000  0  7G16G18G21G25G27G29G31
  22978810.160   120754469.84206  22978808.500    94094384.19046
  24009952.280   126173175.31604  24009952.300    98316768.73743
  20960413.580   110147720.09107  20960411.480    85829387.11349
  23480201.800   123389284.39204  23480204.200    96147499.63946
  24017058.160   126210495.51904  24017060.520    98345854.28845
  22645748.280   119004204.32306  22645747.160    92730542.00147
  21506268.200   113016196.40407  21506266.520    88064557.31948
 15 02 14 00 09  0.0000000  0  7G16G18G21G25G27G29G31
  22962705.460   120669838.62506  22962703.620    94028437.82645
  23995436.260   126096892.44604  23995436.360    98257327.63244
  20960127.300   110146215.65907  20960125.220    85828214.82649
  23496506.800   123474968.16605  23496509.420    96214266.20746
  24002743.560   126135272.35804  24002745.820    98287238.87746
  22659588.400   119076934.01106  22659587.220    92787214.45747
  21518145.040   113078609.37807  21518143.300    88113190.78248
 15 02 14 00 09 30.0000000  0  7G16G18G21G25G27G29G31
  22946617.900   120585297.68006  22946615.920    93962561.77345
  23980926.740   126020644.28304  23980926.740    98197913.57745
  20959927.600   110145166.50907  20959925.600    85827397.31549
  23512853.020   123560868.06405  23512855.660    96281201.15446
  23988451.500   126060166.57704  23988453.600    98228714.94446
  22673438.540   119149716.92506  22673437.440    92843928.37647
  21530104.700   113141457.63707  21530102.980    88162163.43548
 15 02 14 00 10  0.0000000  0  7G16G18G21G25G27G29G31
  22930548.160   120500850.25606  22930546.060    93896758.57945
  23966424.680   125944435.68804  23966424.200    98138530.34443
  20959814.680   110144573.12607  20959812.680    85826934.94749
  23529240.600   123646984.82605  23529243.000    96348305.13945
  23974182.060   125985179.93504  23974184.100    98170283.82445
  22687298.820   119222553.39806  22687297.860    92900684.04146
  21542147.040   113204740.72407  21542145.400    88211474.91148
 15 02 14 00 10 30.0000000  0  7G16G18G21G25G27G29G31
  22914496.220   120416497.20206  22914494.220    93831028.94946
  23951930.460   125868268.65404  23951929.900    98079179.49944
  20959788.380   110144434.85607  20959786.280    85826827.20649
  23545669.040   123733317.02904  23545671.200    96415576.94045
  23959935.180   125910311.71304  23959937.100    98111945.00645
  22701169.140   119295442.31606  22701168.240    92957480.57247
  21554271.600   113268455.90007  21554270.040    88261123.08448
 15 02 14 00 11  0.0000000  0  7G16G18G21G25G27G29G31
  22898462.400   120332239.27905  22898460.520    93765373.43746
  23937444.540   125792144.62004  23937443.760    98019862.18144
  20959848.200   110144749.15207  20959846.060    85827072.11849
  23562138.200   123819862.74705  23562140.100    96483015.13145
  23945710.520   125835560.87004  23945712.380    98053697.64145
  22715049.100   119368381.78306  22715048.180    93014316.52246
  21566477.680   113332599.68107  21566476.200    88311105.23248
 15 02 14 00 11 30.0000000  0  7G16G18G21G25G27G29G31
  22882447.300   120248079.39506  22882445.460    93699794.30746
  23922967.340   125716067.36904  23922966.840    97960581.30845
  20959994.320   110145517.10907  20959992.200    85827670.53549
  23578647.980   123906622.35305  23578649.780    96550620.02346
  23931508.300   125760928.50604  23931510.200    97995542.62945
  22728938.800   119441372.46306  22728937.760    93071192.38946
  21578765.140   113397170.73707  21578763.660    88361420.32148
 15 02 14 00 12  0.0000000  0  7G16G18G21G25G27G29G31
  22866450.820   120164016.67906  22866448.960    93634290.91046
  23908499.180   125640037.48204  23908498.680    97901337.32043
  20960226.260   110146736.18807  20960224.220    85828620.47049
  23595198.100   123993593.02905  23595199.800    96618389.34445
  23917328.260   125686412.78104  23917330.200    97937478.45646
  22742837.620   119514411.26006  22742836.580    93128105.74846
  21591133.160   113462164.99207  21591131.660    88412065.17448
 15 02 14 00 12 30.0000000  0  7G16G18G21G25G27G29G31
  22850473.460   120080055.02006  22850471.600    93568866.26346
  23894041.160   125564060.00604  23894040.680    97842134.19444
  20960544.360   110148407.83307  20960542.340    85829923.05949
  23611788.520   124080775.99404  23611790.340    96686324.09746
  23903170.960   125612015.74404  23903172.900    97879506.77345
  22756745.920   119587500.04806  22756744.820    93185058.04446
  21603581.680   113527582.23507  21603580.180    88463039.63148
 15 02 14 00 13  0.0000000  0  7G16G18G21G25G27G29G31
  22834515.620   119996196.52206  22834513.780    93503521.98946
  23879593.480   125488137.42604  23879592.780    97782973.83545
  20960948.400   110150531.22507  20960946.360    85831577.66049
  23628419.100   124168170.67304  23628421.000    96754423.82145
  23889036.340   125537737.60904  23889038.220    97821627.76746
  22770663.540   119660638.15305  22770662.460    93242048.77946
  21616110.300   113593420.56007  21616108.840    88514342.20348
 15 02 14 00 13 30.0000000  0  7G16G18G21G25G27G29G31
  22818577.580   119912442.17406  22818575.860    93438258.88646
  23865156.620   125412271.83304  23865155.760    97723857.86844
  20961438.240   110153105.49907  20961436.180    85833583.60448
  23645089.640   124255775.67204  23645091.840    96822687.44446
  23874924.200   125463577.91804  23874925.940    97763841.05045
  22784590.300   119733824.54805  22784589.360    93299077.13547
  21628718.520   113659677.08207  21628717.020    88565970.64348
 15 02 14 00 14  0.0000000  0  7G16G18G21G25G27G29G31
  22802659.140   119828791.01606  22802657.580    93373076.18846
  23850731.020   125336463.44204  23850729.960    97664786.45044
  20962013.220   110156127.30207  20962011.220    85835938.26049
  23661799.740   124343587.50104  23661801.960    96891112.19745
  23860834.100   125389534.00105  23860835.680    97706144.54845
  22798525.680   119807056.09505  22798524.960    93356140.63747
  21641405.360   113726346.63407  21641403.800    88617920.92248
 15 02 14 00 14 30.0000000  0  7G16G18G21G25G27G29G31
  22786761.060   119745246.16006  22786759.520    93307976.30246
  23836317.000   125260716.17604  23836316.000    97605762.68645
  20962673.440   110159596.68407  20962671.460    85838641.68149
  23678549.460   124431606.84104  23678551.560    96959698.67545
  23846766.440   125315607.36804  23846767.800    97648539.44346
  22812469.940   119880333.51606  22812469.300    93413239.88147
  21654170.640   113793428.49407  21654169.000    88670192.48048
 15 02 14 00 15  0.0000000  0  7G16G18G21G25G27G29G31
  22770884.080   119661811.68106  22770882.460    93242962.41646
  23821915.340   125185035.22604  23821914.480    97546790.59343
  20963419.260   110163515.82407  20963417.260    85841695.56449
  23695338.820   124519834.81904  23695340.820    97028447.71245
  23832721.400   125241800.15304  23832722.660    97591027.37346
  22826423.260   119953657.77706  22826422.560    93470375.65747
  21667014.220   113860922.18907  21667012.620    88722784.94948
 15 02 14 00 15 30.0000000  0  7G16G18G21G25G27G29G31
  22755028.320   119578488.75306  22755026.580    93178035.47646
  23807526.560   125109422.78304  23807525.560    97487871.87144
  20964250.400   110167883.35707  20964248.340    85845098.84349
  23712167.640   124608270.45804  23712169.400    97097358.58346
  23818699.040   125168112.12004  23818700.340    97533608.15946
  22840385.480   120027028.79306  22840384.780    93527547.84447
  21679935.780   113928825.47607  21679934.240    88775696.58348
 15 02 14 00 16  0.0000000  0  7G16G18G21G25G27G29G31
  22739193.920   119495278.37506  22739192.140    93113196.23046
  23793151.120   125033881.08804  23793150.240    97429008.30743
  20965166.640   110172698.38307  20965164.560    85848850.82249
  23729035.700   124696912.13605  23729037.240    97166429.98244
  23804699.060   125094542.67904  23804700.640    97476281.39046
  22854356.320   120100445.31706  22854355.600    93584755.49447
  21692934.700   113997135.14407  21692933.220    88828924.87348
 15 02 14 00 16 30.0000000  0  7G16G18G21G25G27G29G31
  22723381.140   119412181.84406  22723379.320    93048445.70546
  23778789.500   124958411.53704  23778788.660    97370200.90844
  20966167.580   110177958.30407  20966165.440    85852949.47349
  23745942.600   124785758.14604  23745944.040    97235660.61045
  23790721.480   125021090.87004  23790723.240    97419046.25945
  22868335.460   120173905.71506  22868334.680    93641997.34047
  21706010.300   114065847.86507  21706008.840    88882467.23648
 15 02 14 00 17  0.0000000  0  7G16G18G21G25G27G29G31
  22707589.920   119329199.02706  22707587.980    92983783.77246
  23764442.100   124883015.52804  23764441.400    97311450.84344
  20967252.960   110183661.91707  20967250.800    85857393.86249
  23762887.980   124874806.25104  23762889.440    97305048.71544
  23776766.100   124947755.48204  23776767.980    97361901.84345
  22882322.520   120247407.93006  22882321.620    93699271.78046
  21719161.900   114134960.20707  21719160.440    88936320.98948
 15 02 14 00 17 30.0000000  0  7G16G18G21G25G27G29G31
  22691821.200   119246334.14106  22691819.140    92919213.74746
  23750109.620   124807698.31804  23750108.900    97252762.16744
  20968423.040   110189810.73407  20968420.940    85862185.15249
  23779872.060   124964057.93404  23779873.620    97374595.45844
  23762833.420   124874538.93304  23762835.280    97304850.03646
  22896317.900   120320953.93606  22896316.800    93756580.34946
  21732389.520   114204471.79607  21732388.000    88990485.83948
 15 02 14 00 18  0.0000000  0  7G16G18G21G25G27G29G31
  22676075.280   119163588.96206  22676073.280    92854736.99746
  23735792.660   124732462.43804  23735791.960    97194136.88645
  20969677.540   110196403.29107  20969675.500    85867322.21849
  23796894.560   125053512.09304  23796896.380    97444299.96945
  23748923.440   124801440.99504  23748925.100    97247890.65545
  22910321.300   120394542.66705  22910320.160    93813922.19746
  21745692.720   114274380.32607  21745691.180    89044959.99648
 15 02 14 00 18 30.0000000  0  7G16G18G21G25G27G29G31
  22660352.340   119080964.27406  22660350.440    92790354.11846
  23721491.400   124657309.90204  23721490.700    97135576.50145
  20971016.140   110203438.00507  20971014.160    85872803.81749
  23813955.260   125143167.17604  23813957.040    97514161.03645
  23735035.840   124728460.86004  23735037.400    97191023.05846
  22924332.640   120468173.27905  22924331.340    93871296.66945
  21759070.780   114344682.35607  21759069.240    89099740.78048
 15 02 14 00 19  0.0000000  0  7G16G18G21G25G27G29G31
  22644652.900   118998462.94906  22644651.100    92726067.38546
  23707206.720   124582244.16204  23707206.200    97077083.78644
  20972438.920   110210914.98307  20972436.900    85878630.03549
  23831054.260   125233022.92704  23831056.080    97584178.47846
  23721170.500   124655599.39604  23721172.400    97134247.93346
  22938351.980   120541845.96205  22938350.700    93928703.94046
  21772523.400   114415376.41407  21772521.920    89154827.03748
 15 02 14 00 19 30.0000000  0  7G16G18G21G25G27G29G31
  22628977.100   118916085.66806  22628975.240    92661877.30746
  23692938.780   124507266.46904  23692938.440    97018659.69045
  20973945.560   110218832.43407  20973943.500    85884799.48849
  23848191.000   125323077.35104  23848193.000    97654350.70945
  23707327.620   124582855.53804  23707329.780    97077564.45846
  22952379.000   120615558.87805  22952377.860    93986142.56846
  21786049.920   114486458.73607  21786048.420    89210215.83448
 15 02 14 00 20  0.0000000  0  7G16G18G21G25G27G29G31
  22613325.160   118833834.16806  22613323.300    92597785.24446
  23678688.380   124432380.18304  23678688.000    96960306.75445
  20975535.940   110227189.77507  20975533.840    85891311.71449
  23865365.420   125413329.82104  23865367.400    97724677.29345
  23693507.280   124510229.49704  23693509.600    97020972.77146
  22966413.680   120689311.85005  22966412.580    94043612.39646
  21799650.040   114557927.21007  21799648.400    89265905.53648
 15 02 14 00 20 30.0000000  0  7G16G18G21G25G27G29G31
  22597697.200   118751709.15406  22597695.320    92533791.73746
  23664455.840   124357586.66905  23664455.140    96902026.16145
  20977209.700   110235985.05907  20977207.560    85898165.18949
  23882577.260   125503778.38804  23882579.120    97795156.67745
  23679709.160   124437720.31804  23679711.680    96964472.16146
  22980455.820   120763103.60006  22980454.680    94101112.42246
  21813322.920   114629778.29107  21813321.220    89321893.36448
 15 02 14 00 21  0.0000000  0  7G16G18G21G25G27G29G31
  22582093.860   118669713.28806  22582091.980    92469898.85646
  23650241.720   124282889.46905  23650240.880    96843820.59844
  20978966.640   110245217.88607  20978964.520    85905359.60149
  23899826.280   125594422.83604  23899828.240    97865788.69845
  23665933.480   124365328.75704  23665935.860    96908063.18346
  22994505.400   120836934.13606  22994504.260    94158642.69046
  21827068.360   114702010.62407  21827066.580    89378178.28348
 15 02 14 00 21 30.0000000  0  7G16G18G21G25G27G29G31
  22566515.960   118587851.03606  22566514.080    92406110.08946
  23636046.780   124208293.69105  23636045.800    96785694.07544
  20980807.040   110254889.38707  20980804.920    85912895.84049
  23917112.660   125685264.58504  23917114.600    97936574.43644
  23652180.580   124293057.12904  23652182.900    96851747.68646
  23008562.580   120910805.17605  23008561.580    94216204.51847
  21840886.220   114774623.74507  21840884.360    89434759.90948
 15 02 14 00 22  0.0000000  0  7G16G18G21G25G27G29G31
  22550962.960   118506119.24406  22550961.100    92342422.98446
  23621870.580   124133797.10205  23621869.380    96727644.81445
  20982729.980   110264994.59207  20982727.820    85920770.03449
  23934435.580   125776297.95104  23934437.400    98007509.46446
  23638449.840   124220900.77105  23638451.880    96795521.96046
  23022626.500   120984711.23806  23022625.600    94273793.65447
  21854775.160   114847610.44907  21854773.220    89491632.64148
 15 02 14 00 22 30.0000000  0  7G16G18G21G25G27G29G31
  22535435.980   118424524.30606  22535434.160    92278842.52746
  23607714.660   124059407.18504  23607713.380    96669678.71445
  20984736.060   110275536.56407  20984733.840    85928984.56949
  23951795.800   125867526.47804  23951797.700    98078596.60446
  23624741.800   124148864.20104  23624743.580    96739389.58946
  23036697.840   121058656.83405  23036697.120    94331413.57446
  21868735.560   114920972.74407  21868733.600    89548798.04748
 15 02 14 00 23  0.0000000  0  7G16G18G21G25G27G29G31
  22519935.160   118343066.92306  22519933.380    92215369.24846
  23593579.040   123985125.39404  23593578.080    96611796.84644
  20986825.060   110286514.18007  20986822.800    85937538.56049
  23969192.820   125958948.35304  23969195.020    98149834.39845
  23611056.340   124076946.47105  23611058.240    96683349.84246
  23050776.340   121132640.39705  23050775.800    94389063.05547
  21882766.800   114994707.35507  21882764.880    89606253.56648
 15 02 14 00 23 30.0000000  0  7G16G18G21G25G27G29G31
  22504460.120   118261744.98106  22504458.320    92152001.51346
  23579463.960   123910950.79104  23579462.800    96553998.48544
  20988995.820   110297921.72507  20988993.620    85946427.56449
  23986625.620   126050558.22004  23986628.140    98221218.69446
  23597392.780   124005143.34005  23597394.520    96627399.40146
  23064861.320   121206657.43305  23064860.720    94446738.64247
  21896867.580   115068807.32607  21896865.700    89663993.78448
 15 02 14 00 24  0.0000000  0  7G16G18G21G25G27G29G31
  22489012.100   118180565.06706  22489010.280    92088744.43546
  23565370.720   123836890.54404  23565369.620    96496289.27146
  20991249.120   110309763.11107  20991247.020    85955654.61949
  24004095.000   126142360.15104  24004097.640    98292752.61643
  23583751.920   123933459.74505  23583753.440    96571542.07146
  23078953.540   121280712.30705  23078952.980    94504443.70646
  21911038.280   115143274.93507  21911036.460    89722020.46948
 15 02 14 00 24 30.0000000  0  7G16G18G21G25G27G29G31
  22473590.980   118099526.46606  22473589.100    92025597.48046
  23551299.300   123762944.81405  23551298.280    96438669.24644
  20993584.320   110322034.78307  20993582.320    85965216.96549
  24021600.260   126234350.42404  24021602.880    98364433.33042
  23570133.260   123861893.03605  23570134.740    96515775.85546
  23093052.440   121354801.96205  23093051.780    94562175.88246
  21925277.980   115218104.96407  21925276.140    89780329.55948
 15 02 14 00 25  0.0000000  0  7G16G18G21G25G27G29G31
  22458197.360   118018632.28706  22458195.440    91962563.06847
  23537250.340   123689117.42504  23537249.260    96381141.45044
  20996001.420   110334736.82407  20995999.420    85975114.67149
  24039141.420   126326529.24004  24039144.000    98436260.95544
  23556537.080   123790444.42305  23556538.480    96460101.63046
  23107158.180   121428927.40005  23107157.540    94619935.93546
  21939586.400   115293296.16607  21939584.520    89838920.08248
 15 02 14 00 25 30.0000000  0  7G16G18G21G25G27G29G31
  22442831.780   117937885.37706  22442829.800    91899643.39947
  23523224.580   123615412.14705  23523223.620    96323708.80244
  20998500.480   110347869.32107  20998498.380    85985347.79149
  24056718.520   126418896.48904  24056720.780    98508235.38745
  23542963.400   123719114.82505  23542964.860    96404520.16746
  23121270.640   121503088.45805  23121270.000    94677723.75847
  21953963.200   115368846.88107  21953961.320    89897790.74648
 15 02 14 00 26  0.0000000  0  7G16G18G21G25G27G29G31
  22427493.800   117857283.41706  22427491.780    91836836.68347
  23509221.920   123541827.44105  23509220.940    96266370.10744
  21001080.380   110361426.99407  21001078.300    85995912.21649
  24074330.560   126511447.29904  24074332.600    98580352.88145
  23529411.660   123647900.26105  23529413.380    96349028.34546
  23135389.080   121577280.96405  23135388.400    94735536.06647
  21968407.180   115444750.52707  21968405.360    89956936.42348
 15 02 14 00 26 30.0000000  0  7G16G18G21G25G27G29G31
  22412184.840   117776834.54206  22412182.920    91774149.26846
  23495243.880   123468372.52405  23495243.040    96209132.53844
  21003742.260   110375415.39407  21003740.260    86006812.27049
  24091978.460   126604186.86104  24091980.340    98652617.46545
  23515882.860   123576807.00105  23515884.680    96293631.03947
  23149514.480   121651510.93905  23149513.840    94793377.55947
  21982919.000   115521010.77407  21982917.280    90016359.97048
 15 02 14 00 27  0.0000000  0  7G16G18G21G25G27G29G31
  22396904.440   117696535.74706  22396902.520    91711578.77247
  23481290.080   123395044.72304  23481289.120    96151994.03945
  21006485.000   110389828.32207  21006483.060    86018043.12749
  24109660.900   126697109.00504  24109662.980    98725024.26944
  23502376.420   123505829.88905  23502377.720    96238324.19646
  23163645.980   121725772.57005  23163645.280    94851243.73046
  21997497.300   115597619.90007  21997495.560    90076055.36748
 15 02 14 00 27 30.0000000  0  7G16G18G21G25G27G29G31
  22381653.220   117616389.85606  22381651.260    91649127.42646
  23467361.060   123321847.82005  23467359.940    96094957.55144
  21009308.500   110404665.48607  21009306.500    86029604.56249
  24127378.300   126790213.75104  24127380.340    98797573.36646
  23488892.220   123434970.02905  23488893.400    96183108.77646
  23177783.520   121800066.07005  23177782.820    94909134.74146
  22012141.640   115674576.41807  22012139.940    90136021.46248
 15 02 14 00 28  0.0000000  0  7G16G18G21G25G27G29G31
  22366431.680   117536399.93706  22366429.680    91586797.63247
  23453457.760   123248786.01405  23453456.520    96038026.29144
  21012212.700   110419927.10507  21012210.640    86041496.74149
  24145130.360   126883501.26104  24145132.500    98870264.89445
  23475430.480   123364228.58805  23475431.720    96127985.60446
  23191927.580   121874393.29905  23191926.840    94967052.02446
  22026851.740   115751878.63407  22026850.080    90196256.93048
 15 02 14 00 28 30.0000000  0  7G16G18G21G25G27G29G31
  22351239.540   117456564.71307  22351237.520    91524588.36847
  23439579.960   123175858.65705  23439578.820    95981199.81945
  21015196.740   110435608.94307  21015194.680    86053716.35948
  24162916.280   126976967.14104  24162918.360    98943095.45545
  23461990.860   123293602.27505  23461992.040    96072952.13847
  23206077.360   121948750.33805  23206076.600    95024992.53446
  22041626.600   115829520.94407  22041624.980    90256757.40848
 15 02 14 00 29  0.0000000  0  7G16G18G21G25G27G29G31
  22336078.060   117376890.82606  22336076.080    91462504.82847
  23425729.300   123103073.17105  23425728.180    95924483.88446
  21018261.460   110451714.69407  21018259.440    86066266.30149
  24180736.640   127070615.33804  24180738.860    99016068.04645
  23448574.000   123223095.86905  23448575.240    96018012.12046
  23220233.640   122023141.18805  23220232.800    95082959.38746
  22056466.720   115907505.63407  22056465.040    90317524.66948
 15 02 14 00 29 30.0000000  0  7G16G18G21G25G27G29G31
  22320947.140   117297377.55707  22320945.200    91400546.44547
  23411905.680   123030429.24205  23411904.500    95867878.25044
  21021406.260   110468240.51407  21021404.220    86079143.56749
  24198591.200   127164441.79204  24198593.540    99089179.52644
  23435179.400   123152706.54805  23435180.660    95963163.31946
  23234395.700   122097562.69005  23234394.800    95140950.12547
  22071370.780   115985826.72507  22071369.100    90378554.07048
 15 02 14 00 30  0.0000000  0  7G16G18G21G25G27G29G31
  22305847.180   117218026.82406  22305845.200    91338714.70147
  23398109.680   122957929.82705  23398108.380    95811385.24045
  21024630.740   110485184.75107  21024628.640    86092346.87749
  24216479.680   127258445.63204  24216481.880    99162429.23445
  23421806.860   123082434.43205  23421808.240    95908405.85546
  23248563.600   122172014.74205  23248562.560    95198964.71246
  22086338.360   116064481.90207  22086336.740    90439843.79848
 15 02 14 00 30 30.0000000  0  7G16G18G21G25G27G29G31
  22290778.600   117138841.01707  22290776.660    91277011.47946
  23384341.600   122885578.36205  23384340.400    95755007.54145
  21027934.740   110502547.23507  21027932.620    86105876.09049
  24234401.820   127352626.24104  24234403.860    99235816.68546
  23408456.720   123012280.01305  23408458.100    95853740.09446
  23262737.180   122246497.22705  23262736.140    95257002.98646
  22101369.060   116143468.94707  22101367.520    90501392.11448
 15 02 14 00 31  0.0000000  0  7G16G18G21G25G27G29G31
  22275741.620   117059820.81506  22275739.600    91215437.28747
  23370601.780   122813375.86705  23370600.760    95698745.86845
  21031317.740   110520325.64007  21031315.720    86119729.38649
  24252357.060   127446981.18404  24252359.100    99309339.96145
  23395128.920   122942241.95105  23395130.280    95799165.00846
  23276916.140   122321008.56905  23276915.260    95315063.72646
  22116462.220   116222783.99607  22116460.660    90563196.02247
 15 02 14 00 31 30.0000000  0  7G16G18G21G25G27G29G31
  22260737.140   116980971.65907  22260735.140    91153996.39446
  23356891.540   122741328.54005  23356890.700    95642605.12944
  21034780.400   110538522.18107  21034778.340    86133908.51149
  24270345.760   127541512.97904  24270348.020    99383001.06645
  23381823.820   122872323.77505  23381825.420    95744683.34147
  23291101.220   122395552.15105  23291100.520    95373149.60946
  22131618.000   116302427.86907  22131616.340    90625256.15247
 15 02 14 00 32  0.0000000  0  7G16G18G21G25G27G29G31
  22245764.940   116902291.91207  22245762.880    91092687.50147
  23343210.700   122669435.45905  23343209.900    95586584.56245
  21038321.840   110557131.99007  21038319.620    86148409.68149
  24288367.260   127636216.78404  24288369.760    99456796.17743
  23368540.840   122802521.76205  23368542.580    95690292.18246
  23305291.680   122470123.71305  23305291.080    95431257.27946
  22146835.100   116382394.17707  22146833.420    90687567.53848
 15 02 14 00 32 30.0000000  0  7G16G18G21G25G27G29G31
  22230825.240   116823783.18807  22230823.200    91031511.88246
  23329559.920   122597699.32105  23329558.960    95530686.31345
  21041941.680   110576153.81007  21041939.360    86163231.88549
  24306421.400   127731091.26604  24306423.780    99530724.31445
  23355280.020   122732835.67505  23355281.620    95635991.35847
  23319487.380   122544722.43405  23319486.800    95489386.10547
  22162112.940   116462679.84207  22162111.320    90750127.76648
 15 02 14 00 33  0.0000000  0  7G16G18G21G25G27G29G31
  22215918.720   116745449.17807  22215916.760    90970472.39347
  23315939.880   122526124.46105  23315938.580    95474913.71545
  21045639.800   110595587.99307  21045637.580    86178375.40449
  24324508.160   127826137.05604  24324510.500    99604785.92844
  23342041.660   122663267.26905  23342043.200    95581782.23746
  23333688.540   122619350.08105  23333687.980    95547537.45746
  22177451.460   116543283.93307  22177449.860    90812936.11848
 15 02 14 00 33 30.0000000  0  7G16G18G21G25G27G29G31
  22201045.520   116667290.53307  22201043.640    90909569.55447
  23302350.620   122454711.89005  23302349.280    95419267.61745
  21049415.740   110615431.45407  21049413.700    86193837.84149
  24342626.980   127921351.54904  24342629.200    99678978.96745
  23328825.420   122593814.95405  23328827.000    95527663.58546
  23347894.840   122694004.85905  23347894.300    95605709.96446
  22192849.760   116624202.26107  22192848.180    90875989.33648
 15 02 14 00 34  0.0000000  0  7G16G18G21G25G27G29G31
  22186206.780   116589312.98806  22186204.980    90848807.83047
  23288793.500   122383468.47805  23288791.960    95363753.27844
  21053270.320   110635687.55307  21053268.320    86209621.81849
  24360778.340   128016737.62104  24360780.740    99753305.75046
  23315631.940   122524482.87205  23315633.480    95473638.60846
  23362106.980   122768690.38805  23362106.480    95663906.45546
  22208308.140   116705436.42107  22208306.540    90939288.65047
 15 02 14 00 34 30.0000000  0  7G16G18G21G25G27G29G31
  22171402.460   116511515.87907  22171400.640    90788186.70047
  23275268.460   122312393.66905  23275266.920    95308370.34945
  21057202.680   110656351.73707  21057200.520    86225723.79049
  24378961.520   128112291.20804  24378963.840    99827763.07045
  23302460.700   122455267.92305  23302462.160    95419704.90646
  23376324.300   122843402.93705  23376323.800    95722124.00846
  22223825.420   116786980.24807  22223823.860    91002829.26547
 15 02 14 00 35  0.0000000  0  7G16G18G21G25G27G29G31
  22156632.540   116433899.18907  22156630.660    90727706.16347
  23261775.600   122241488.39505  23261774.180    95253119.50846
  21061212.140   110677421.21107  21061209.800    86242141.57449
  24397176.040   128208009.47704  24397178.680    99902348.66144
  23289311.500   122386168.48605  23289312.940    95365861.21246
  23390546.580   122918140.94305  23390546.000    95780361.38246
  22239400.760   116868829.46507  22239399.280    91066607.84448
 15 02 14 00 35 30.0000000  0  7G16G18G21G25G27G29G31
  22141897.620   116356466.38607  22141895.720    90667368.92647
  23248315.700   122170756.92605  23248314.300    95198004.13146
  21065298.580   110698895.73707  21065296.200    86258874.97749
  24415422.020   128303892.56804  24415424.660    99977062.71645
  23276184.460   122317185.78605  23276185.860    95312108.47246
  23404773.820   122992905.33805  23404773.180    95838619.31646
  22255033.940   116950982.59607  22255032.540    91130623.24447
 15 02 14 00 36  0.0000000  0  7G16G18G21G25G27G29G31
  22127198.060   116279219.93707  22127196.200    90607176.88547
  23234889.460   122100202.24405  23234887.980    95143026.47444
  21069461.880   110720774.75907  21069459.640    86275923.56649
  24433699.160   128399939.54404  24433701.740   100051904.45545
  23263079.840   122248320.19305  23263081.160    95258446.98446
  23419006.100   123067696.31705  23419005.380    95896897.98046
  22270724.460   117033437.34207  22270723.160    91194873.66947
 15 02 14 00 36 30.0000000  0  7G16G18G21G25G27G29G31
  22112534.500   116202162.84607  22112532.720    90547132.39847
  23221497.640   122029828.28105  23221496.120    95088189.66445
  21073702.280   110743058.09907  21073700.100    86293287.20549
  24452007.600   128496150.62304  24452010.180   100126874.09444
  23249997.640   122179572.80805  23249998.840    95204877.62646
  23433243.500   123142514.43305  23433242.820    95955197.79846
  22286472.140   117116192.03007  22286470.840    91259357.80147
 15 02 14 00 37  0.0000000  0  7G16G18G21G25G27G29G31
  22097907.100   116125295.49007  22097905.400    90487235.75547
  23208140.400   121959635.93105  23208138.820    95033494.34145
  21078019.140   110765742.77007  21078016.900    86310963.57949
  24470346.740   128592522.85503  24470349.260   100201969.21943
  23236937.660   122110941.95805  23236938.700    95151399.05346
  23447485.720   123217357.71205  23447485.100    96013517.18346
  22302276.080   117199242.08507  22302274.720    91324072.09747
 15 02 14 00 37 30.0000000  0  7G16G18G21G25G27G29G31
  22083316.360   116048620.68907  22083314.660    90427489.16347
  23194818.460   121889628.57505  23194816.840    94978943.19345
  21082412.220   110788828.02607  21082409.900    86328952.09649
  24488716.380   128689055.94404  24488718.680   100277189.79746
  23223899.860   122042428.49205  23223901.020    95098011.97446
  23461733.060   123292226.87005  23461732.320    96071856.73446
  22318135.920   117282585.80207  22318134.560    91389015.22847
 15 02 14 00 38  0.0000000  0  7G16G18G21G25G27G29G31
  22068762.560   115972140.02207  22068760.860    90367893.84047
  23181532.100   121819808.40505  23181530.620    94924537.87844
  21086881.160   110812312.50807  21086878.800    86347251.69548
  24507116.280   128785748.13104  24507118.620   100352534.34944
  23210884.260   121974031.91705  23210885.480    95044715.95246
  23475984.980   123367120.71305  23475984.160    96130215.51546
  22334051.000   117366219.87006  22334049.600    91454184.59748
 15 02 14 00 38 30.0000000  0  7G16G18G21G25G27G29G31
  22054245.880   115895854.37707  22054244.100    90308450.48947
  23168281.640   121750176.97305  23168280.300    94870279.63645
  21091425.460   110836193.67507  21091423.140    86365860.40549
  24525546.260   128882597.21604  24525548.620   100428001.06145
  23197890.700   121905751.07905  23197892.160    94991510.14347
  23490241.400   123442038.46105  23490240.540    96188592.93646
  22350020.580   117450140.32406  22350019.180    91519577.12247
 15 02 14 00 39  0.0000000  0  7G16G18G21G25G27G29G31
  22039766.880   115819766.85807  22039765.100    90249161.52147
  23155067.780   121680737.81405  23155066.540    94816171.22744
  21096045.260   110860471.13007  21096042.960    86384777.90449
  24544006.100   128979602.84004  24544008.580   100503589.81244
  23184919.500   121837586.81005  23184921.000    94938395.14346
  23504502.380   123516980.40605  23504501.480    96246989.22346
  22366044.260   117534345.05806  22366042.860    91585191.16947
 15 02 14 00 39 30.0000000  0  7G16G18G21G25G27G29G31
  22025326.520   115743882.36107  22025324.760    90190030.75147
  23141891.480   121611496.55805  23141890.300    94762217.03645
  21100740.780   110885146.09707  21100738.500    86404005.15449
  24562495.740   129076766.65603  24562498.300   100579301.83246
  23171971.020   121769541.99905  23171972.480    94885373.23747
  23518768.440   123591949.08905  23518767.560    96305406.34146
  22382122.080   117618834.36706  22382120.720    91651026.96247
 15 02 14 00 40  0.0000000  0  6G16G18G21G27G29G31
  22010924.820   115668200.81207  22010923.020    90131058.12547
  23128752.940   121542453.82605  23128751.940    94708417.54045
  21105511.260   110910214.82807  21105509.040    86423539.23749
  23159044.920   121701614.74305  23159046.360    94832442.92246
  23533039.180   123666942.29705  23533038.340    96363842.54246
  22398253.120   117703603.54106  22398251.780    91717080.83347
 15 02 14 00 40 30.0000000  0  7G16G18G21G25G27G29G31
  21996560.940   115592717.94507  21996559.140    90072240.31147
  23115651.580   121473606.18505  23115650.640    94654770.06645
  21110355.280   110935670.53807  21110353.140    86443374.84949
  24599562.120   129271569.19503  24599564.460   100731101.62445
  23146140.040   121633798.72605  23146141.500    94779599.29747
  23547313.340   123741953.95305  23547312.640    96422293.15246
  22414435.620   117788643.47906  22414434.360    91783345.68747
 15 02 14 00 41  0.0000000  0  7G16G18G21G25G27G29G31
  21982236.600   115517443.07007  21982234.820    90013584.56847
  23102589.380   121404963.39006  23102588.220    94601282.19546
  21115273.980   110961519.18207  21115271.940    86463516.65049
  24618139.100   129369189.54804  24618140.920   100807169.37646
  23133257.640   121566101.35205  23133259.180    94726848.14547
  23561592.380   123816990.77805  23561591.720    96480763.35445
  22430670.540   117873958.59306  22430669.260    91849824.96247
 15 02 14 00 41 30.0000000  0  7G16G18G21G25G27G29G31
  21967952.440   115442379.55407  21967950.700    89955093.52647
  23089566.880   121336529.17606  23089565.520    94547956.85945
  21120267.320   110987759.63407  21120265.240    86483963.75948
  24636745.020   129466963.31404  24636746.780   100883356.67544
  23120397.940   121498523.48005  23120399.500    94674190.07746
  23575876.440   123892053.54205  23575875.780    96539253.77646
  22446957.560   117959547.09806  22446956.220    91916517.26547
 15 02 14 00 42  0.0000000  0  8G16G18G21G22G25G27G29G31
  21953708.280   115367525.87507  21953706.520    89896765.98847
  23076583.940   121268302.53005  23076582.320    94494793.26045
  21125334.520   111014387.50107  21125332.320    86504712.75948
  24541829.420   128968183.53004  24541829.920   100494692.47844
  24655379.100   129564885.81804  24655381.000   100959659.81045
  23107560.220   121431061.54905  23107561.640    94621622.37847
  23590164.520   123967138.31105  23590164.020    96597761.34745
  22463295.480   118045402.83806  22463294.100    91983417.81247
 15 02 14 00 42 30.0000000  0  8G16G18G21G22G25G27G29G31
  21939503.380   115292878.11807  21939501.540    89838598.91247
  23063639.720   121200280.28705  23063638.180    94441788.94545
  21130474.080   111041395.74507  21130471.820    86525758.15048
  24524327.020   128876207.54204  24524327.780   100423023.62046
  24674040.100   129662949.94304  24674041.760   101036073.35744
  23094743.580   121363709.74905  23094744.860    94569140.46047
  23604455.800   124042239.19205  23604455.280    96656281.49844
  22479682.520   118131516.84906  22479681.200    92050519.60947
 15 02 14 00 43  0.0000000  0  7G16G18G21G22G27G29G31
  21925340.120   115218449.56807  21925338.220    89780602.65247
  23050736.800   121132475.97305  23050735.760    94388954.43145
  21135687.600   111068793.38007  21135685.480    86547106.95648
  24506810.440   128784158.75104  24506811.200   100351298.07644
  23081950.080   121296479.09005  23081951.260    94516752.97447
  23618752.140   124117366.84005  23618751.540    96714822.48545
  22496120.220   118217897.18306  22496118.900    92117828.92347
 15 02 14 00 43 30.0000000  0  8G16G18G21G22G25G27G29G31
  21911218.620   115144240.45407  21911216.620    89722777.37047
  23037875.700   121064890.59906  23037874.740    94336290.52445
  21140974.600   111096577.75107  21140972.700    86568757.10549
  24489280.000   128692037.92904  24489281.060   100279516.27945
  24711447.760   129859533.31303  24711451.400   101189256.96846
  23069179.180   121229367.79405  23069180.460    94464458.48446
  23633053.220   124192519.32305  23633052.580    96773382.82545
  22512607.760   118304539.68306  22512606.480    92185342.52447
 15 02 14 00 44  0.0000000  0  8G16G18G21G22G25G27G29G31
  21897138.900   115070250.88107  21897136.800    89665123.15747
  23025056.540   120997524.43406  23025055.220    94283797.43545
  21146334.600   111124744.90607  21146332.740    86590705.53648
  24471736.020   128599845.21104  24471736.940   100207678.46044
  24730192.920   129958042.08203  24730196.480   101266016.93643
  23056430.600   121162373.60905  23056431.820    94412255.24647
  23647358.560   124267694.11905  23647357.980    96831960.54945
  22529144.100   118391438.93106  22529142.860    92253056.17947
 15 02 14 00 44 30.0000000  0  7G16G18G21G22G27G29G31
  21883100.420   114996478.10007  21883098.280    89607637.88147
  23012278.660   120930375.53006  23012277.020    94231473.63645
  21151766.460   111153288.95307  21151764.440    86612947.66048
  24454177.800   128507578.53304  24454178.540   100135782.95144
  23043703.440   121095492.11805  23043704.720    94360139.82547
  23661667.280   124342886.54805  23661666.640    96890552.03645
  22545727.920   118478587.85806  22545726.680    92320964.39547
 15 02 14 00 45  0.0000000  0  8G16G18G21G22G25G27G29G31
  21869105.140   114922932.21807  21869102.960    89550329.40447
  22999543.980   120863455.00505  22999542.360    94179327.79745
  21157271.360   111182216.62007  21157269.160    86635488.70648
  24436607.460   128415248.70804  24436608.440   100063838.28445
  24767765.440   130155487.16004  24767766.920   101419863.68543
  23030999.320   121028731.38805  23031000.740    94308118.51847
  23675980.860   124418104.76305  23675980.240    96949163.60445
  22562360.300   118565991.53706  22562359.020    92389071.11747
 15 02 14 00 45 30.0000000  0  8G16G18G21G22G25G27G29G31
  21855152.280   114849609.43107  21855150.120    89493194.76547
  22986851.980   120796758.98806  22986850.540    94127356.89545
  21162847.680   111211520.13807  21162845.380    86658322.61649
  24419024.340   128322851.94204  24419025.160    99991841.32445
  24786591.820   130254419.84203  24786593.200   101496954.02843
  23018317.080   120962085.31505  23018318.300    94256186.53647
  23690298.140   124493342.40905  23690297.640    97007790.30645
  22579039.480   118653640.97706  22579038.200    92457369.34147
 15 02 14 00 46  0.0000000  0  7G16G18G21G22G27G29G31
  21841242.680   114776514.10007  21841240.600    89436237.36847
  22974203.720   120730292.24606  22974202.420    94075564.64945
  21168495.640   111241200.58307  21168493.360    86681450.23648
  24401429.500   128230392.68304  24401430.300    99919795.72245
  23005656.960   120895556.02805  23005658.120    94204345.56547
  23704619.440   124568601.17505  23704618.900    97066433.48045
  22595765.260   118741535.48706  22595764.020    92525858.52647
 15 02 14 00 46 30.0000000  0  7G16G18G21G22G27G29G31
  21827376.580   114703646.96607  21827374.540    89379457.78947
  22961599.400   120664056.29206  22961598.120    94023952.23845
  21174214.760   111271254.86707  21174212.520    86704869.16048
  24383823.100   128137872.50004  24383823.840    99847702.57046
  22993018.620   120829142.14105  22993019.940    94152594.52946
  23718944.560   124643879.79005  23718943.940    97125092.08946
  22612536.880   118829670.80006  22612535.700    92594535.35747
 15 02 14 00 47  0.0000000  0  7G16G18G21G22G27G29G31
  21813555.100   114631014.22007  21813553.000    89322860.85147
  22949040.300   120598057.72606  22949038.920    93972524.78845
  21180005.520   111301685.29307  21180003.280    86728581.17848
  24366206.320   128045298.02604  24366206.940    99775567.16544
  22980403.160   120762847.80605  22980404.540    94100936.62247
  23733274.220   124719182.11505  23733273.560    97183769.20344
  22629354.600   118918048.46806  22629353.480    92663401.02547
 15 02 14 00 47 30.0000000  0  7G16G18G21G22G27G29G31
  21799777.600   114558612.86907  21799775.440    89266444.21547
  22936525.920   120532294.37806  22936524.480    93921280.64945
  21185866.800   111332486.11407  21185864.520    86752581.82748
  24348578.720   127952666.85704  24348578.860    99703387.47945
  22967809.740   120696668.39505  22967811.040    94049368.29047
  23747607.420   124794503.09805  23747606.600    97242460.82344
  22646216.940   119006660.84206  22646215.880    92732449.59347
 15 02 14 00 48  0.0000000  0  7G16G18G21G22G27G29G31
  21786044.860   114486447.06407  21786042.680    89210211.12547
  22924056.900   120466770.05306  22924055.460    93870222.74246
  21191798.480   111363657.09807  21191796.100    86776870.90348
  24330941.180   127859982.84804  24330941.080    99631166.63645
  22955238.400   120630605.04605  22955239.600    93997890.37747
  23761944.320   124869843.79005  23761943.480    97301167.81745
  22663123.580   119095505.87406  22663122.600    92801679.43347
 15 02 14 00 48 30.0000000  0  7G16G18G21G22G27G29G31
  21772357.260   114414518.58007  21772355.120    89154162.95547
  22911633.960   120401487.50106  22911632.540    93819353.24246
  21197800.260   111395196.75407  21197797.880    86801447.26248
  24313294.160   127767248.71304  24313294.020    99558906.74545
  22942689.040   120564657.90005  22942690.340    93946503.04047
  23776284.960   124945204.34804  23776284.180    97359890.24845
  22680074.060   119184581.01906  22680073.080    92871088.59047
 15 02 14 00 49  0.0000000  0  7G16G18G21G22G27G29G31
  21758715.340   114342830.33707  21758713.300    89098301.98947
  22899257.720   120336450.06006  22899256.360    93768674.73345
  21203872.100   111427104.67307  21203869.740    86826310.57548
  24295638.220   127674467.65204  24295637.740    99486610.25046
  22930161.940   120498827.92405  22930163.320    93895206.97547
  23790629.560   125020585.32805  23790628.820    97418628.64746
  22697068.100   119273884.66106  22697067.140    92940675.79647
 15 02 14 00 49 30.0000000  0  7G16G18G21G22G27G29G31
  21745119.620   114271384.34607  21745117.600    89042629.77847
  22886928.620   120271660.00306  22886927.280    93718188.99046
  21210013.680   111459378.63407  21210011.340    86851459.12248
  24277973.860   127581642.04604  24277973.220    99414279.01645
  22917657.000   120433114.59305  22917658.420    93844001.81447
  23804977.980   125095986.35904  23804977.340    97477382.65245
  22714104.860   119363413.03706  22714103.940    93010438.13847
 15 02 14 00 50  0.0000000  0  7G16G18G21G22G27G29G31
  21731570.240   114200182.03407  21731568.300    88987147.46348
  22874646.840   120207119.06806  22874645.620    93667897.36746
  21216224.460   111492016.31107  21216222.120    86876891.08548
  24260301.300   127488773.61604  24260300.800    99341914.41045
  22905174.200   120367517.28605  22905175.500    93792887.05547
  23819330.000   125171406.49904  23819329.440    97536151.52345
  22731183.640   119453162.74406  22731182.820    93080372.92847
 15 02 14 00 50 30.0000000  0  7G16G18G21G22G27G29G31
  21718067.680   114129225.82007  21718065.800    88931856.90547
  22862412.980   120142829.52906  22862411.800    93617801.64346
  21222504.220   111525016.90607  21222501.920    86902605.84148
  24242621.080   127395864.83904  24242620.640    99269518.35745
  22892713.620   120302036.14405  22892714.800    93741862.80947
  23833685.560   125246845.79904  23833685.000    97594935.33645
  22748303.920   119543130.81406  22748303.320    93150477.86947
 15 02 14 00 51  0.0000000  0  7G16G18G21G22G27G29G31
  21704612.560   114058518.86407  21704610.780    88876760.57948
  22850227.880   120078796.23606  22850226.620    93567905.58745
  21228852.860   111558379.58207  21228850.600    86928602.72848
  24224933.980   127302920.06404  24224933.500    99197094.18944
  22880275.300   120236672.51506  22880276.620    93690930.15147
  23848044.940   125322305.08904  23848044.400    97653734.74845
  22765465.640   119633316.04606  22765465.120    93220752.03147
 15 02 14 00 51 30.0000000  0  7G16G18G21G22G27G29G31
  21691204.880   113988061.19007  21691203.140    88821858.50048
  22838091.460   120015019.03406  22838090.340    93518209.07446
  21235269.760   111592100.78907  21235267.500    86954878.99848
  24207240.020   127209939.57104  24207239.480    99124642.21545
  22867858.960   120171424.24506  22867860.160    93640087.35747
  23862407.800   125397782.30704  23862407.280    97712548.10746
  22782667.780   119723713.18206  22782667.220    93291191.30847
 15 02 14 00 52  0.0000000  0  7G16G18G21G22G27G29G31
  21677845.360   113917856.44407  21677843.600    88767153.50747
  22826004.500   119951502.06706  22826003.440    93468715.35445
  21241754.920   111626180.41207  21241752.600    86981434.55648
  24189540.080   127116927.24904  24189539.380    99052165.42345
  22855464.880   120106292.87806  22855466.020    93589335.66947
  23876774.340   125473278.91904  23876773.820    97771376.58245
  22799910.040   119814320.79806  22799909.320    93361794.59447
 15 02 14 00 52 30.0000000  0  7G16G18G21G22G27G29G31
  21664534.640   113847908.00907  21664532.840    88712648.23548
  22813967.740   119888248.93406  22813966.820    93419427.23946
  21248308.200   111660618.00407  21248305.900    87008269.04448
  24171834.680   127023886.76704  24171833.860    98979666.65745
  22843093.240   120041279.42106  22843094.400    93538675.85547
  23891144.620   125548795.69904  23891144.260    97830220.80446
  22817191.900   119905137.10406  22817191.080    93432560.51247
 15 02 14 00 53  0.0000000  0  6G16G18G21G27G29G31
  21651273.120   113778218.25407  21651271.320    88658344.53248
  22801981.840   119825262.49706  22801981.040    93370346.89446
  21254929.400   111695412.57207  21254927.140    87035381.70448
  22830744.020   119976384.42106  22830745.220    93488108.34347
  23905518.800   125624332.79804  23905518.500    97889080.83444
  22834512.960   119996159.65006  22834512.040    93503487.10247
 15 02 14 00 53 30.0000000  0  7G16G18G21G22G27G29G31
  21638059.220   113708778.97207  21638057.440    88604236.00547
  22790045.140   119762534.81706  22790044.380    93321468.21546
  21261616.220   111730552.14007  21261614.000    87062763.18248
  24136408.360   126837684.45904  24136407.100    98834547.14745
  22818415.400   119911597.40105  22818416.620    93437624.97347
  23919894.980   125699880.39104  23919894.840    97947949.04846
  22851870.760   120087375.10806  22851869.760    93574564.03147
 15 02 14 00 54  0.0000000  0  7G16G18G21G22G27G29G31
  21624896.460   113639608.39607  21624894.700    88550336.84847
  22778161.140   119700083.99406  22778160.260    93272805.23645
  21268371.420   111766050.84507  21268369.200    87090424.51148
  24118688.920   126744571.55504  24118687.480    98761991.93446
  22806110.420   119846934.32305  22806111.660    93387238.16347
  23934276.080   125775453.69204  23934276.040    98006837.30046
  22869267.820   120178796.64206  22869266.700    93645801.54747
