     2.11           OBSERVATION DATA    M                   RINEX VERSION / TYPE
SPIDER V4,0,0,3554                      2015 03 24 05:49    PGM / RUN BY / DATE 
CNAJ                                                        MARKER NAME         
CNAJ                                                        MARKER NUMBER       
                                                            OBSERVER / AGENCY   
496642              LEICA GRX1200+GNSS  8.10/4.007          REC # / TYPE / VERS 
10321018            LEIAR25         NONE                    ANT # / TYPE        
  5206098.7325   612081.0247  3621806.3029                  APPROX POSITION XYZ 
        0.0720        0.0000        0.0000                  ANTENNA: DELTA H/E/N
     1     1                                                WAVELENGTH FACT L1/2
     4    C1    L1    P2    L2                              # / TYPES OF OBSERV 
    30.000                                                  INTERVAL            
  2015    01    14    00    00    0.0000000     GPS         TIME OF FIRST OBS   
  2015    01    14    23    59   30.0000000     GPS         TIME OF LAST OBS    
    16                                                      LEAP SECONDS        
    54                                                      # OF SATELLITES     
   G 1   812   812   812   812                              PRN / # OF OBS      
   G 2   941   941   941   941                              PRN / # OF OBS      
   G 3   849   849   848   848                              PRN / # OF OBS      
   G 4   844   844   844   844                              PRN / # OF OBS      
   G 5   654   654   654   654                              PRN / # OF OBS      
   G 6   785   784   776   776                              PRN / # OF OBS      
   G 7   668   668   667   667                              PRN / # OF OBS      
   G 9   808   808   806   806                              PRN / # OF OBS      
   G10   761   761   761   761                              PRN / # OF OBS      
   G11   782   782   782   782                              PRN / # OF OBS      
   G12   841   841   840   840                              PRN / # OF OBS      
   G13   793   793   793   793                              PRN / # OF OBS      
   G14   949   949   948   948                              PRN / # OF OBS      
   G15   705   705   705   705                              PRN / # OF OBS      
   G16   665   665   664   664                              PRN / # OF OBS      
   G17   938   938   938   938                              PRN / # OF OBS      
   G18   905   903   901   900                              PRN / # OF OBS      
   G19   759   759   759   759                              PRN / # OF OBS      
   G20   848   848   847   847                              PRN / # OF OBS      
   G21   742   742   741   741                              PRN / # OF OBS      
   G22   656   656   655   655                              PRN / # OF OBS      
   G23   756   756   756   756                              PRN / # OF OBS      
   G24   838   838   838   838                              PRN / # OF OBS      
   G25   862   862   862   862                              PRN / # OF OBS      
   G27   804   804   804   804                              PRN / # OF OBS      
   G28   863   861   858   857                              PRN / # OF OBS      
   G29   784   783   779   779                              PRN / # OF OBS      
   G30   691   690   682   682                              PRN / # OF OBS      
   G31   846   846   841   841                              PRN / # OF OBS      
   G32   772   768   759   759                              PRN / # OF OBS      
   R 1   926   926   913   911                              PRN / # OF OBS      
   R 2   920   920   914   914                              PRN / # OF OBS      
   R 3   844   844   835   827                              PRN / # OF OBS      
   R 4   684   684   682   682                              PRN / # OF OBS      
   R 5   773   773   769   769                              PRN / # OF OBS      
   R 6   758   757   753   753                              PRN / # OF OBS      
   R 7   664   664   664   663                              PRN / # OF OBS      
   R 8   864   864   853   845                              PRN / # OF OBS      
   R 9   588   588   525   521                              PRN / # OF OBS      
   R10   663   663   614   614                              PRN / # OF OBS      
   R11   856   856   814   809                              PRN / # OF OBS      
   R12   884   884   884   884                              PRN / # OF OBS      
   R13   748   748   745   745                              PRN / # OF OBS      
   R14   790   790   755   752                              PRN / # OF OBS      
   R15   821   821   809   809                              PRN / # OF OBS      
   R16   765   765   754   754                              PRN / # OF OBS      
   R17   768   768   764   763                              PRN / # OF OBS      
   R18   673   673   673   672                              PRN / # OF OBS      
   R19   576   576   567   566                              PRN / # OF OBS      
   R20   776   776   764   763                              PRN / # OF OBS      
   R21   585   585   574   508                              PRN / # OF OBS      
   R22   914   914   907   902                              PRN / # OF OBS      
   R23   776   776   772   767                              PRN / # OF OBS      
   R24   878   878   865   864                              PRN / # OF OBS      
BIT 2 OF LLI FLAGS DATA COLLECTED UNDER A/S CONDITION       COMMENT             
SNR is mapped to RINEX snr flag value [2-9]                 COMMENT             
Lx:     = 25dBHz -> 1; 26-27dBHz -> 2; 28-31dBHz -> 3       COMMENT             
       32-35dBHz -> 4; 36-38dBHz -> 5; 39-41dBHz -> 6       COMMENT             
       42-44dBHz -> 7; 45-48dBHz -> 8; >=49dBHz -> 9        COMMENT             
                                                            END OF HEADER       
 15 01 14 00 00  0.0000000  0 14G02G12G14G21G24G25G29G31R11R12R13R21
                                R22R23
  23771299.440   124919038.39408  23771294.480    97339509.76245
  22703270.960   119306709.75109  22703269.320    92966357.82247
  22873287.100   120199937.70008  22873282.220    93662260.22344
  23802270.020   125081811.88307  23802266.820    97466328.40744
  24153875.800   126929557.49007  24153877.960    98906184.11444
  20760101.460   109095081.46909  20760100.180    85009189.20247
  20085358.840   105549388.37009  20085356.860    82246263.66348
  22115055.840   116215400.49009  22115050.520    90557454.26646
  21924942.440   117160289.79508  21924945.920    91124713.20205
  19220220.260   102670999.94206  19220225.460    79855236.85608
  21585897.060   115267489.46507  21585897.180    89652481.17506
  23610226.240   126343199.48307  23610227.380    98267004.66605
  19686012.460   105085388.27108  19686012.620    81733141.24707
  20169565.900   107893621.67108  20169567.300    83917234.54307
 15 01 14 00 00 30.0000000  0 13G02G12G14G21G24G25G29G31R11R12R13R22
                                R23
  23782886.200   124979927.93108  23782881.340    97386956.18045
  22714893.920   119367786.55809  22714891.960    93013950.12347
  22885023.080   120261609.89508  22885018.460    93710316.49844
  23784323.380   124987502.90407  23784320.100    97392841.01843
  24174181.540   127036266.33507  24174184.040    98989333.74244
  20762556.240   109107980.49009  20762555.080    85019240.39348
  20086352.540   105554609.04509  20086350.340    82250331.72848
  22101057.020   116141835.15909  22101051.660    90500130.65846
  21942466.800   117253934.73708  21942470.480    91197548.15105
  19219077.860   102664896.58906  19219082.920    79850489.81008
  21566662.180   115164775.87507  21566662.480    89572592.86406
  19698324.720   105151111.50809  19698324.780    81784259.32807
  20157848.220   107830941.65608  20157849.520    83868483.44307
 15 01 14 00 01  0.0000000  0 13G02G12G14G21G24G25G29G31R11R12R13R22
                                R23
  23794546.020   125041202.18807  23794541.560    97434702.39046
  22726541.320   119428992.37209  22726539.120    93061642.93247
  22896822.900   120323618.88508  22896819.040    93758635.17544
  23766394.400   124893286.66107  23766391.020    97319425.88042
  24194512.600   127143107.17908  24194515.020    99072586.23344
  20765053.300   109121102.36609  20765052.260    85029465.23147
  20087427.980   105560258.13509  20087425.540    82254733.61648
  22087119.340   116068591.13409  22087114.140    90443057.41346
  21960064.200   117347970.50808  21960068.040    91270687.07604
  19218051.960   102659415.88407  19218056.900    79846227.04308
  21547463.240   115062253.58407  21547463.560    89492853.31006
  19710737.340   105217370.36209  19710737.360    81835794.01107
  20146245.600   107768878.92108  20146247.100    83820212.45407
 15 01 14 00 01 30.0000000  0 13G02G12G14G21G24G25G29G31R11R12R13R22
                                R23
  23806278.720   125102859.74508  23806274.580    97482747.27046
  22738213.220   119490327.41409  22738210.780    93109436.44747
  22908686.100   120385962.07408  22908683.280    93807214.25745
  23748483.600   124799165.73007  23748480.480    97246085.01243
  24214868.560   127250078.23908  24214870.800    99155940.20244
  20767592.780   109134448.08009  20767591.920    85039864.47547
  20088584.960   105566335.38109  20088582.220    82259469.13248
  22073243.280   115995671.36609  22073238.340    90386236.83947
  21977734.600   117442396.61508  21977738.300    91344129.60304
  19217143.080   102654560.19307  19217147.840    79842450.38208
  21528300.840   114959926.14008  21528301.180    89413265.31006
  19723249.760   105284161.81509  19723249.840    81887742.92807
  20134758.780   107707434.75508  20134760.460    83772422.54707
 15 01 14 00 02  0.0000000  0 13G02G12G14G21G24G25G29G31R11R12R13R22
                                R23
  23818083.000   125164892.92408  23818078.940    97531084.84545
  22749908.600   119551786.48609  22749906.060    93157326.59447
  22920611.240   120448631.13608  22920609.400    93856047.25845
  23730590.480   124705136.69807  23730587.260    97172815.71643
  24235248.020   127357171.94408  24235249.980    99239389.76045
  20770173.680   109148012.04909  20770173.080    85050433.77948
  20089821.840   105572833.19309  20089818.740    82264532.36048
  22059428.080   115923071.94508  22059423.460    90329665.89847
  21995476.420   117537204.71308  21995479.820    91417869.20604
  19216350.380   102650324.93306  19216354.920    79839156.27708
  21509174.260   114857790.36208  21509174.520    89333826.38207
  19735860.080   105351475.83708  19735860.260    81940098.26507
  20123386.900   107646604.11408  20123388.800    83725109.84307
 15 01 14 00 02 30.0000000  0 13G02G12G14G21G24G25G29G31R11R12R13R22
                                R23
  23829959.600   125227305.96607  23829955.540    97579718.39245
  22761628.600   119613375.74609  22761626.020    93205318.20846
  22932598.820   120511628.52308  22932597.760    93905136.11445
  23712716.600   124611208.14907  23712713.360    97099624.76244
  24255651.580   127464392.11507  24255653.220    99322937.83944
  20772797.420   109161800.86309  20772796.980    85061178.29748
  20091139.400   105579756.06109  20091136.020    82269926.80348
  22045675.320   115850801.51808  22045671.100    90273351.31447
  22013290.680   117632399.51408  22013293.340    91491909.60503
  19215675.460   102646718.66507  19215679.760    79836351.41007
  21490085.380   114755856.45807  21490085.740    89254544.47806
  19748568.760   105419315.29509  19748569.100    81992862.27107
  20112131.380   107586394.70908  20112133.420    83678280.31608
 15 01 14 00 03  0.0000000  0 13G02G12G14G21G24G25G29G31R11R12R13R22
                                R23
  23841907.380   125290092.67607  23841903.220    97628643.10946
  22773372.460   119675090.71209  22773369.940    93253407.78446
  22944647.580   120574947.27308  22944647.080    93954475.37745
  23694861.420   124517378.09007  23694858.440    97026510.54944
  24276077.940   127571732.78007  24276079.380    99406579.79545
  20775463.180   109175810.60109  20775462.920    85072094.96347
  20092536.500   105587098.51009  20092533.100    82275648.19248
  22031984.680   115778858.13308  22031980.880    90217291.58746
  22031176.420   117727975.33108  22031178.300    91566246.36103
  19215117.840   102643738.50907  19215121.880    79834033.52107
  21471033.820   114654123.00707  21471034.340    89175418.49606
  19761374.320   105487671.78409  19761374.840    82046028.43207
  20100991.320   107526802.84708  20100993.500    83631931.11508
 15 01 14 00 03 30.0000000  0 13G02G12G14G21G24G25G29G31R11R12R13R22
                                R23
  23853926.420   125353252.98407  23853921.980    97677858.94245
  22785140.500   119736933.49308  22785138.080    93301596.95845
  22956757.320   120638586.15707  22956757.060    94004064.08946
  23677025.660   124423650.29207  23677022.880    96953475.99742
  24296526.900   127679192.52207  24296528.320    99490314.52444
  20778171.300   109190043.19209  20778171.300    85083185.28648
  20094013.400   105594860.67209  20094009.960    82281696.62848
  22018357.020   115707245.80708  22018353.500    90161489.80946
  22049133.400   117823931.61808  22049134.720    91640879.04603
  19214678.020   102641387.75007  19214681.860    79832205.15908
  21452020.480   114552595.20907  21452021.380    89096452.47406
  19774276.440   105556543.16809  19774277.120    82099595.06807
  20089967.120   107467830.70908  20089969.300    83586063.90708
 15 01 14 00 04  0.0000000  0 13G02G12G14G21G24G25G29G31R11R12R13R22
                                R23
  23866016.260   125416784.61808  23866011.620    97727364.11545
  22796932.720   119798903.99808  22796930.580    93349885.63945
  22968927.300   120702541.70207  22968927.120    94053899.52945
  23659209.900   124330027.27107  23659207.000    96880523.02243
  24316998.080   127786769.28107  24316999.520    99574140.46742
  20780921.720   109204498.89608  20780922.180    85094449.45848
  20095569.860   105603040.98709  20095566.400    82288070.88948
  22004792.760   115635966.13509  22004789.400    90105947.23346
  22067161.140   117920266.57108  22067162.120    91715806.24203
  19214356.180   102639667.94507  19214359.900    79830867.53307
  21433046.100   114451276.17007  21433047.200    89017648.78506
  19787274.240   105625925.61608  19787275.300    82153559.18007
  20079058.920   107409479.34908  20079061.000    83540679.53708
 15 01 14 00 04 30.0000000  0 13G02G12G14G21G24G25G29G31R11R12R13R22
                                R23
  23878176.660   125480686.56908  23878171.700    97777157.84845
  22808749.300   119861002.82008  22808747.260    93398274.32544
  22981157.260   120766812.24107  22981157.160    94103980.43745
  23641414.600   124236512.33807  23641412.120    96807654.34442
  24337491.300   127894461.92907  24337493.180    99658056.74243
  20783714.800   109219179.07408  20783715.800    85105888.55648
  20097205.760   105611638.95809  20097202.440    82294770.61548
  21991292.640   115565022.61809  21991289.300    90050666.61346
  22085259.520   118016979.35108  22085260.660    91791027.28903
  19214152.580   102638581.75807  19214156.560    79830022.71907
  21414111.760   114350170.26507  21414112.740    88939010.86305
  19800367.000   105695816.30708  19800368.740    82207918.58707
  20068266.920   107351750.07908  20068269.080    83495779.00608
 15 01 14 00 05  0.0000000  0 13G02G12G14G21G24G25G29G31R11R12R13R22
                                R23
  23890406.720   125544953.96308  23890401.360    97827236.33745
  22820589.620   119923227.15708  22820587.920    93446760.82744
  22993446.160   120831391.53007  22993445.940    94154301.95444
  23623639.500   124143104.37707  23623636.740    96734868.93643
  24358005.920   128002265.56608  24358007.480    99742059.47243
  20786550.180   109234081.01708  20786551.600    85117500.45848
  20098920.240   105620649.95108  20098917.140    82301792.15548
  21977856.540   115494414.62709  21977853.080    89995647.41346
  22103427.720   118114065.20508  22103428.940    91866538.48203
  19214067.020   102638127.39406  19214071.460    79829669.32407
  21395217.560   114249277.80707  21395218.080    88860538.93705
  19813553.400   105766208.49508  19813556.040    82262668.04007
  20057590.880   107294640.75808  20057593.360    83451360.66208
 15 01 14 00 05 30.0000000  0 13G02G12G14G21G24G25G29G31R11R12R13R22
                                R23
  23902706.700   125609588.71408  23902700.860    97877601.10445
  22832454.100   119985580.25707  22832452.800    93495347.62645
  23005794.060   120896280.55307  23005793.760    94204864.80244
  23605885.920   124049810.05607  23605883.280    96662172.14543
  24378542.020   128110181.62308  24378543.220    99826149.85144
  20789428.700   109249209.06908  20789430.520    85129288.53648
  20100713.920   105630076.74108  20100711.080    82309137.69648
  21964485.560   115424148.33609  21964481.880    89940894.48446
  22121666.200   118211526.09908  22121667.000    91942341.38903
  19214100.900   102638310.80507  19214105.800    79829811.97807
  21376364.800   114148605.89507  21376365.220    88782238.56105
  19826833.660   105837101.90208  19826837.060    82317807.32907
  20047031.720   107238156.19809  20047034.540    83407428.24508
 15 01 14 00 06  0.0000000  0 14G02G12G14G21G24G25G29G31R11R12R13R22
                                R23R24
  23915076.520   125674591.49508  23915070.380    97928252.64845
  22844343.780   120048065.91906  22844343.420    93544037.75845
  23018200.860   120961478.48507  23018200.540    94255668.37045
  23588154.740   123956633.78707  23588152.520    96589567.30243
  24399099.480   128218210.43108  24399100.540    99910328.00743
  20792351.000   109264566.00908  20792352.940    85141254.97848
  20102587.100   105639920.01409  20102584.400    82316807.77648
  21951180.500   115354228.19709  21951176.460    89886411.28846
  22139975.220   118309362.86108  22139975.580    92018436.67503
  19214255.180   102639135.79307  19214260.120    79830453.63507
  21357554.700   114048160.72208  21357555.120    88704114.53306
  19840207.860   105908495.42208  19840211.520    82373335.60407
  20036590.020   107182299.85509  20036593.180    83363984.46008
  23649709.920   126465614.08206                                
 15 01 14 00 06 30.0000000  0 14G02G12G14G21G24G25G29G31R11R12R13R22
                                R23R24
  23927515.500   125739958.40607  23927509.380    97979187.91345
  22856258.540   120110682.06007  22856259.320    93592829.49745
  23030665.580   121026980.52307  23030665.340    94306708.91545
  23570446.260   123863576.84907  23570444.620    96517055.48044
  24419677.580   128326348.31707  24419678.300    99994591.13544
  20795316.780   109280150.61808  20795318.580    85153398.81948
  20104539.180   105650176.80509  20104536.500    82324800.10648
  21937941.420   115284654.93309  21937937.020    89832198.36746
  22158353.860   118407571.91007  22158354.220    92094821.48503
  19214529.820   102640602.33907  19214534.520    79831594.28807
  21338787.520   113947943.81008  21338788.180    88626168.04006
  19853674.920   105980383.62208  19853678.180    82429248.64007
  20026265.520   107127070.45309  20026269.000    83321028.29608
  23627598.720   126347379.43106  23627598.520    98270209.94603
 15 01 14 00 07  0.0000000  0 14G02G12G14G21G24G25G29G31R11R12R13R22
                                R23R24
  23940023.000   125805684.93108  23940016.740    98030403.39445
  22868198.120   120173425.71507  22868199.440    93641720.61245
  23043186.980   121092781.34207  23043187.020    94357982.24844
  23552760.360   123770638.70407  23552759.180    96444636.24144
  24440275.460   128434590.26007  24440276.000   100078935.39044
  20798325.540   109295960.64409  20798327.080    85165718.30248
  20106569.120   105660842.76909  20106566.440    82333111.25148
  21924768.240   115215428.13809  21924763.320    89778255.42246
  22176801.340   118506148.77307  22176802.180    92171492.38303
  19214924.440   102642708.96107  19214928.780    79833232.76607
  21320063.320   113847955.62708  21320064.160    88548399.45606
  19867233.560   106052759.96808  19867235.940    82485541.34607
  20016057.980   107072466.33109  20016061.600    83278558.45008
  23605528.900   126229365.04105  23605528.420    98178421.11303
 15 01 14 00 07 30.0000000  0 14G02G12G14G21G24G25G29G31R11R12R13R22
                                R23R24
  23952599.460   125871773.34008  23952593.100    98081900.88045
  22880163.320   120236301.40507  22880164.700    93690714.64445
  23055765.200   121158881.86906  23055765.860    94409489.15245
  23535098.340   123677825.69607  23535097.640    96372314.52144
  24460893.320   128542938.28206  24460893.800   100163362.27544
  20801378.080   109312000.48908  20801379.340    85178216.87648
  20108677.420   105671920.95109  20108674.740    82341743.62548
  21911662.200   115146554.40909  21911656.620    89724587.58346
  22195317.840   118605095.76807  22195320.020    92248451.13303
  19215439.940   102645461.54207  19215443.980    79835373.66007
  21301383.440   113748204.04108  21301384.580    88470814.89907
  19880883.640   106125624.60608  19880885.000    82542213.83506
  20005968.200   107018491.69909  20005971.620    83236578.19808
  23583501.160   126111576.71904  23583501.660    98086808.18304
 15 01 14 00 08  0.0000000  0 14G02G12G14G21G24G25G29G31R11R12R13R22
                                R23R24
  23965243.240   125938216.13008  23965237.040    98133674.50345
  22892152.940   120299303.76008  22892153.920    93739807.34346
  23068398.600   121225273.35906  23068399.940    94461222.78045
  23517459.560   123585134.64007  23517459.120    96300087.81045
  24481529.640   128651384.79407  24481530.360   100247865.81143
  20804473.320   109328265.10008  20804474.400    85190890.57448
  20110862.440   105683403.77908  20110859.800    82350691.29648
  21898622.660   115078030.30409  21898616.460    89671192.17946
  22213902.020   118704405.35607  22213905.860    92325691.87704
  19216075.480   102648855.83707  19216079.400    79838013.64007
  21282747.420   113648686.95308  21282748.880    88393412.71907
  19894623.320   106198968.09808  19894624.080    82599258.77106
  19995995.140   106965141.63309  19995998.280    83195083.72508
  23561514.940   125994011.48304  23561517.160    97995368.77005
 15 01 14 00 08 30.0000000  0 13G02G12G14G21G24G25G29G31R11R12R13R22
                                R23
  23977954.840   126005016.25707  23977948.920    98185726.55245
  22904167.780   120362437.53808  22904168.160    93789002.47446
  23081087.820   121291958.38806  23081089.840    94513185.05244
  23499845.580   123492572.92607  23499845.200    96227961.88244
  24502185.520   128759932.48608  24502186.100   100332448.30544
  20807612.240   109344759.96008  20807613.240    85203743.70648
  20113124.920   105695295.10008  20113122.500    82359957.27048
  21885651.100   115009863.32709  21885644.480    89618075.03946
  22232554.760   118804080.93207  22232559.960    92403217.30404
  19216832.400   102652898.60607  19216836.240    79841158.00407
  21264156.760   113549412.86708  21264158.420    88316199.56407
  19908452.920   106272791.79908  19908453.360    82656677.21806
  19986139.880   106912422.12109  19986142.600    83154079.68908
 15 01 14 00 09  0.0000000  0 14G02G12G14G21G24G25G29G31R11R12R13R22
                                R23R24
  23990733.140   126072167.50707  23990727.680    98238052.20745
  22916206.960   120425698.91108  22916206.660    93838297.04846
  23093831.560   121358928.81706  23093833.940    94565369.79645
  23482255.920   123400138.58907  23482255.040    96155935.17244
  24522859.660   128868574.92408  24522859.640   100417104.66443
  20810794.180   109361481.12808  20810795.080    85216773.17348
  20115463.880   105707589.20008  20115461.800    82369537.08448
  21872746.960   114942051.00609  21872740.280    89565234.28246
  22251274.860   118904115.92207  22251280.920    92481022.26304
  19217710.160   102657586.77508  19217713.860    79844804.34507
  21245611.300   113450380.78008  21245613.180    88239174.63207
  19922371.060   106347087.52508  19922371.160    82714462.80606
  19976401.700   106860329.28009  19976404.020    83113563.06808
  23517670.000   125759550.21604  23517678.200    97813015.14805
 15 01 14 00 09 30.0000000  0 14G02G12G14G21G24G25G29G31R11R12R13R22
                                R23R24
  24003578.380   126139670.87607  24003573.500    98290652.23145
  22928270.760   120489090.90308  22928269.820    93887693.37146
  23106630.080   121426184.95206  23106632.400    94617777.12345
  23464691.540   123307836.97907  23464690.380    96084011.89744
  24543552.000   128977312.89808  24543551.440   100501835.45343
  20814019.860   109378432.08308  20814020.640    85229981.69347
  20117879.740   105720287.28408  20117878.020    82379431.68948
  21859911.220   114874598.55909  21859904.840    89512673.95646
  22270062.460   119004511.56407  22270068.740    92559107.75104
  19218709.760   102662924.76308  19218713.080    79848956.10507
  21227112.360   113351597.35207  21227114.580    88162343.11107
  19936377.560   106421854.33008  19936377.320    82772614.76106
  19966781.280   106808866.50909  19966783.340    83073536.48708
  23495815.320   125642677.87304  23495822.240    97722114.64705
 15 01 14 00 10  0.0000000  0 14G02G12G14G21G24G25G29G31R11R12R13R22
                                R23R24
  24016490.800   126207526.93608  24016486.460    98343527.09245
  22940359.740   120552615.99408  22940358.180    93937193.46146
  23119483.120   121493726.34406  23119485.160    94670406.82044
  23447153.340   123215673.25007  23447151.980    96012196.06544
  24564262.600   129086146.95008  24564262.280   100586641.05244
  20817289.820   109395615.83909  20817290.540    85243371.62148
  20120373.020   105733390.43908  20120371.320    82389641.92548
  21847144.780   114807511.01809  21847138.920    89460397.98746
  22288917.920   119105269.03007  22288924.220    92637474.61503
  19219831.800   102668916.63708  19219834.640    79853616.45007
  21208661.020   113253068.70408  21208663.720    88085709.74707
  19950472.220   106497091.21508  19950471.840    82831132.33606
  19957279.200   106758037.13409  19957281.180    83034002.56208
  23474005.420   125526044.29006  23474011.000    97631399.83606
 15 01 14 00 10 30.0000000  0 14G02G12G14G21G24G25G29G31R11R12R13R22
                                R23R24
  24029469.500   126275731.16707  24029465.600    98396673.25845
  22952473.320   120616272.20708  22952471.420    93986795.67546
  23132389.440   121561547.49607  23132390.920    94723254.43044
  23429641.220   123123647.27306  23429639.580    95940487.54744
  24584990.600   129195072.50808  24584990.740   100671517.94944
  20820603.740   109413030.48509  20820604.460    85256941.45847
  20122942.960   105746894.91808  20122940.980    82400164.89448
  21834447.680   114740788.26109  21834442.420    89408406.26947
  22307840.220   119206383.35307  22307846.160    92716119.07703
  19221075.980   102675561.01808  19221078.360    79858784.30807
  21190257.560   113154795.69508  21190260.620    88009275.22107
  19964653.720   106572791.91808  19964653.420    82890010.63606
  19947895.000   106707839.05109  19947897.100    82994959.65008
  23452239.660   125409649.62405  23452244.600    97540870.84405
 15 01 14 00 11  0.0000000  0 14G02G12G14G21G24G25G29G31R11R12R13R22
                                R23R24
  24042514.040   126344281.81207  24042510.600    98450089.34945
  22964611.780   120680059.31208  22964609.560    94036499.90946
  23145348.480   121629645.17507  23145349.220    94776317.51544
  23412155.520   123031761.61206  23412154.260    95868888.40244
  24605735.640   129304087.46508  24605736.060   100756464.44744
  20823961.800   109430676.38709  20823962.420    85270691.50648
  20125589.100   105760799.41408  20125586.820    82410999.54948
  21821820.420   114674432.59709  21821815.660    89356700.59246
  22326829.120   119307852.81307  22326834.240    92795039.76802
  19222442.480   102682859.60608  19222444.560    79864460.98307
  21171902.880   113056782.51908  21171906.020    87933042.75406
  19978921.220   106648952.60708  19978921.240    82949246.68606
  19938628.940   106658272.86709  19938631.140    82956408.20508
  23430518.160   125293495.85403  23430523.020    97450529.24005
 15 01 14 00 11 30.0000000  0 13G02G12G14G21G24G25G29G31R11R12R13R22
                                R23
  24055624.200   126413177.62607  24055621.200    98503774.43345
  22976775.080   120743978.17908  22976772.640    94086306.81746
  23158359.820   121698017.60307  23158359.820    94829594.71043
  23394696.900   122940018.93006  23394696.440    95797400.67144
  24626497.340   129413190.49807  24626497.700   100841479.61044
  20827364.160   109448554.78009  20827364.620    85284622.71348
  20128311.120   105775102.98408  20128308.600    82422145.18948
  21809263.660   114608447.02709  21809259.240    89305283.30846
  22345884.260   119409676.41106  22345888.340    92874235.91602
  19223931.720   102690814.30308  19223933.760    79870647.97807
  21153597.700   112959032.83008  21153600.360    87857015.20306
  19993274.100   106725570.22908  19993274.620    83008838.13206
  19929481.280   106609339.72309  19929483.320    82918349.13508
 15 01 14 00 12  0.0000000  0 14G02G12G14G21G24G25G29G31R11R12R13R22
                                R23R24
  24068798.560   126482411.22607  24068796.000    98557722.70945
  22988962.540   120808024.07908  22988959.960    94136212.71546
  23171421.900   121766656.11507  23171420.780    94883079.28344
  23377265.060   122848416.70907  23377265.340    95726022.36344
  24647274.440   129522374.37807  24647274.760   100926557.73844
  20830809.900   109466660.93309  20830810.140    85298731.40448
  20131107.580   105789798.73608  20131105.040    82433596.42248
  21796776.820   114542828.71809  21796772.480    89254152.18047
  22365004.060   119511846.76606  22365007.060    92953701.74402
  19225542.860   102699421.21808  19225545.160    79877342.23107
  21135341.640   112861545.23908  21135343.640    87781191.49805
  20007710.700   106802635.39808  20007711.600    83068777.68306
  19920451.100   106561034.85208  19920453.000    82880778.70908
  23387212.000   125061924.69705  23387215.920    97270408.37005
 15 01 14 00 12 30.0000000  0 14G02G12G14G21G24G25G29G31R11R12R13R22
                                R23R24
  24082038.040   126551986.73407  24082035.800    98611937.41645
  23001175.240   120872202.38508  23001172.520    94186221.77445
  23184535.280   121835563.64807  23184532.920    94936773.47444
  23359861.820   122756963.08807  23359862.520    95654759.85245
  24668067.780   129631642.76208  24668068.160   101011701.70245
  20834300.140   109485001.23809  20834300.240    85313022.53048
  20133979.380   105804891.19008  20133977.140    82445356.76748
  21784361.360   114477585.52209  21784356.920    89203313.34246
  22384189.260   119614367.88405  22384191.320    93033440.37903
  19227277.340   102708687.48708  19227279.920    79884549.31607
  21117136.280   112764329.26908  21117137.560    87705579.03605
  20022231.780   106880150.64608  20022232.760    83129067.28106
  19911539.520   106513364.62208  19911541.220    82843701.89207
  23365628.600   124946505.57406  23365631.840    97180638.10505
 15 01 14 00 13  0.0000000  0 14G02G12G14G21G24G25G29G31R11R12R13R22
                                R23R24
  24095341.440   126621898.05207  24095339.340    98666413.76545
  23013412.580   120936510.07208  23013409.680    94236331.66045
  23197698.420   121904733.06808  23197694.960    94990671.72244
  23342486.800   122665656.47807  23342487.240    95583611.86344
  24688876.180   129740989.18008  24688876.460   101096906.48045
  20837834.240   109503572.16309  20837834.320    85327493.37548
  20136925.600   105820374.93608  20136923.900    82457422.01848
  21772017.000   114412715.85609  21772012.200    89152765.56946
  22403438.800   119717233.78106  22403440.320    93113447.15202
  19229134.680   102718610.14908  19229137.520    79892266.92707
  21098981.540   112667384.28208  21098982.720    87630177.35506
  20036835.960   106958108.00808  20036836.660    83189700.76006
  19902745.900   106466325.33008  19902747.200    82807115.80107
  23344091.540   124831334.46807  23344094.220    97091060.72805
 15 01 14 00 13 30.0000000  0 14G02G12G14G21G24G25G29G31R11R12R13R22
                                R23R24
  24108709.020   126692145.83907  24108706.860    98721152.30345
  23025675.120   121000949.60308  23025672.180    94286544.27546
  23210911.200   121974164.17808  23210906.980    95044773.86744
  23325140.780   122574502.17307  23325140.900    95512582.60644
  24709699.640   129850414.65508  24709699.500   101182172.86444
  20841412.740   109522376.82209  20841412.900    85342146.35148
  20139946.520   105836250.91908  20139945.440    82469792.90348
  21759744.740   114348224.86009  21759739.500    89102512.84346
  22422753.140   119820445.35006  22422754.400    93193722.81502
  19231115.820   102729193.20608  19231118.800    79900498.17707
  21080878.720   112570716.66608  21080880.440    87554991.43507
  20051522.980   107036506.22109  20051523.200    83250677.11806
  19894070.660   106419919.93708  19894071.860    82771022.75707
  23322601.540   124716416.08207  23322603.700    97001679.91406
 15 01 14 00 14  0.0000000  0 14G02G12G14G21G24G25G29G31R11R12R13R22
                                R23R24
  24122140.000   126762725.57707  24122137.560    98776149.52045
  23037962.340   121065518.72308  23037959.560    94336857.84945
  23224172.620   122043851.62708  23224167.980    95099075.78344
  23307823.760   122483500.22507  23307823.460    95441672.03844
  24730537.180   129959914.38808  24730536.020   101267497.15644
  20845035.260   109541413.31109  20845035.600    85356979.96948
  20143041.380   105852515.23208  20143040.720    82482466.37448
  21747544.440   114284112.07909  21747538.880    89052554.84846
  22442131.140   119923998.17305  22442133.000    93274263.88903
  19233220.340   102740435.45708  19233223.660    79909242.14207
  21062828.080   112474327.84308  21062830.720    87480022.37307
  20066291.560   107115338.98409  20066291.220    83311991.47506
  19885513.620   106374146.31108  19885514.980    82735421.07307
  23301158.560   124601750.28407  23301160.380    96912495.55105
 15 01 14 00 14 30.0000000  0 14G02G12G14G21G24G25G29G31R11R12R13R22
                                R23R24
  24135634.620   126833639.01507  24135631.840    98831406.74645
  23050275.000   121130220.97908  23050272.320    94387275.21645
  23237482.580   122113795.27408  23237477.980    95153577.30644
  23290536.820   122392656.33007  23290536.320    95370884.64044
  24751389.040   130069489.85208  24751386.700   101352880.48343
  20848702.600   109560685.59909  20848703.100    85371997.33448
  20146210.520   105869169.75108  20146210.220    82495443.91548
  21735417.220   114220383.51209  21735411.480    89002896.23546
  22461573.140   120027893.43106  22461576.440    93355071.26003
  19235449.080   102752341.66208  19235452.720    79918502.51307
  21044830.820   112378224.56807  21044834.220    87405275.41507
  20081141.540   107194606.40709  20081140.500    83373643.91306
  19877075.520   106329008.12008  19877076.960    82700313.62908
  23279763.500   124487342.81507  23279765.240    96823512.13305
 15 01 14 00 15  0.0000000  0 14G02G12G14G21G24G25G29G31R11R12R13R22
                                R23R24
  24149192.120   126904882.63207  24149189.020    98886921.25745
  23062612.560   121195055.32308  23062610.220    94437795.47044
  23250840.480   122183991.39908  23250836.140    95208275.57744
  23273280.280   122301971.68007  23273279.300    95300221.31845
  24772254.580   130179137.94608  24772252.980   101438320.38643
  20852414.720   109580193.02709  20852415.300    85387197.91348
  20149453.360   105886212.00708  20149453.320    82508723.59348
  21723363.200   114157039.98009  21723357.260    88953537.64446
  22481079.360   120132128.44207  22481083.560    93436142.88904
  19237802.040   102764911.51608  19237806.000    79928279.05807
  21026887.520   112282409.63907  21026891.440    87330752.72407
  20096071.780   107274303.10209  20096070.200    83435630.22506
  19868756.020   106284504.78208  19868757.720    82665699.94808
  23258416.800   124373194.77506  23258418.380    96734730.40104
 15 01 14 00 15 30.0000000  0 14G02G12G14G21G24G25G29G31R11R12R13R22
                                R23R24
  24162812.220   126976455.77307  24162808.780    98942692.51345
  23074975.680   121260023.38208  23074973.180    94488419.93744
  23264245.960   122254438.15307  23264242.240    95263169.13744
  23256054.880   122211450.06807  23256053.680    95229685.05245
  24793133.640   130288857.66107  24793133.500   101523816.05344
  20856171.960   109599937.51709  20856172.580    85402583.22148
  20152769.840   105903641.49908  20152770.040    82522305.01348
  21711383.040   114094085.28309  21711377.000    88904482.05546
  22500649.220   120236702.32207  22500653.740    93517478.09003
  19240279.720   102778147.66608  19240283.860    79938573.83507
  21008999.180   112186887.96407  21009003.320    87256458.11908
  20111081.820   107354427.01808  20111080.280    83497948.82906
  19860555.100   106240637.64508  19860557.400    82631581.10308
  23237119.240   124259310.06506  23237120.320    96646153.54104
 15 01 14 00 16  0.0000000  0 13G02G12G14G21G25G29G31R11R12R13R22R23
                                R24
  24176495.120   127048359.06507  24176491.160    98998721.04045
  23087364.580   121325126.82408  23087361.600    94539149.91644
  23277698.740   122325134.76507  23277695.780    95318257.38245
  23238861.420   122121096.26008  23238860.080    95159279.52945
  20859974.780   109619921.84409  20859975.520    85418155.41248
  20156160.180   105921459.16708  20156160.540    82536188.90048
  21699477.600   114031523.98609  21699471.740    88855733.00046
  22520282.740   120341615.26608  22520286.820    93599077.03103
  19242882.920   102792053.84808  19242887.040    79949389.74607
  20991167.000   112091665.69208  20991171.220    87182396.39107
  20126171.220   107434976.46908  20126170.100    83560598.38306
  19852473.660   106197409.48208  19852476.460    82597959.22808
  23215871.960   124145693.26205  23215872.500    96557785.03304
 15 01 14 00 16 30.0000000  0 13G02G12G14G21G25G29G31R11R12R13R22R23
                                R24
  24190239.580   127120586.10707  24190235.160    99055001.83744
  23099778.600   121390362.30608  23099775.020    94589982.80443
  23291197.460   122396074.10206  23291195.680    95373534.76944
  23221699.620   122030908.41908  23221697.780    95089003.33245
  20863822.560   109640142.31409  20863823.320    85433911.61448
  20159623.500   105939659.57508  20159623.880    82550371.03248
  21687646.680   113969354.07609  21687641.220    88807288.91946
  22539978.680   120446861.09807  22539981.800    93680934.90702
  19245611.000   102806626.31608  19245614.900    79960723.87107
  20973390.960   111996742.21608  20973395.040    87108567.03507
  20141338.560   107515943.50408  20141337.880    83623572.70606
  19844511.240   106154816.01308  19844514.220    82564830.99508
  23194674.220   124032342.19805  23194674.760    96469623.20304
 15 01 14 00 17  0.0000000  0 13G02G12G14G21G25G29G31R11R12R13R22R23
                                R24
  24204045.900   127193138.33507  24204040.900    99111536.04544
  23112218.620   121455734.44308  23112214.200    94640922.14844
  23304742.000   122467256.90205  23304741.680    95429001.82745
  23204570.460   121940892.58108  23204568.380    95018861.15745
  20867716.100   109660603.05209  20867716.800    85449855.03248
  20163160.260   105958244.47808  20163160.400    82564852.75248
  21675891.580   113907581.31509  21675886.580    88759154.30246
  22559737.060   120552441.51507  22559739.400    93763053.01303
  19248464.800   102821869.91108  19248468.400    79972579.98007
  20955672.300   111902124.72208  20955676.020    87034975.66307
  20156583.920   107597328.04208  20156583.400    83686871.76505
  19836668.560   106112861.37208  19836671.420    82532199.61608
  23173527.340   123919263.03605  23173528.420    96381672.89105
 15 01 14 00 17 30.0000000  0 13G02G12G14G21G25G29G31R11R12R13R22R23
                                R24
  24217912.820   127266009.08907  24217907.580    99168318.43544
  23124683.360   121521237.48008  23124678.680    94691963.50044
  23318331.160   122538674.72105  23318332.380    95484651.98344
  23187473.400   121851046.11508  23187471.140    94948850.96944
  20871654.520   109681299.60409  20871655.040    85465982.21247
  20166769.120   105977207.23408  20166768.880    82579628.92248
  21664211.820   113846203.18909  21664207.380    88711327.20747
  22579556.640   120658349.54608  22579558.120    93845425.98402
  19251443.420   102837780.54208  19251446.920    79984954.90907
  20938010.700   111807811.73808  20938013.900    86961621.15407
  20171905.940   107679121.14508  20171905.220    83750488.60205
  19828944.400   106071540.13408  19828947.000    82500060.89408
  23152430.920   123806452.88005  23152432.640    96293931.80805
 15 01 14 00 18  0.0000000  0 13G02G12G14G21G25G29G31R11R12R13R22R23
                                R24
  24231839.900   127339195.28007  24231834.480    99225346.64444
  23137172.640   121586870.33208  23137168.420    94743105.98744
  23331965.100   122610323.66105  23331967.000    95540482.26945
  23170408.840   121761370.57908  23170406.200    94878973.94944
  20875637.660   109702231.53509  20875637.920    85482292.79347
  20170449.560   105996545.54708  20170448.860    82594697.72648
  21652607.560   113785220.82309  21652603.600    88663808.49047
  22599436.620   120764581.55707  22599437.600    93928050.86703
  19254546.700   102854358.24607  19254550.360    79997848.67107
  20920406.720   111713806.45808  20920409.200    86888505.94206
  20187303.840   107761317.93008  20187302.940    83814419.43205
  19821338.500   106030851.78308  19821340.920    82468414.41508
  23131385.080   123693912.67905  23131387.400    96206400.72405
 15 01 14 00 18 30.0000000  0 13G02G12G14G21G25G29G31R11R12R13R22R23
                                R24
  24245826.120   127412692.12507  24245820.720    99282616.89645
  23149686.200   121652631.28108  23149682.780    94794348.27845
  23345642.700   122682197.93707  23345644.200    95596488.14944
  23153376.620   121671865.86408  23153373.540    94809230.04344
  20879665.280   109723396.79209  20879665.260    85498785.19747
  20174200.660   106016254.91708  20174199.500    82610055.66548
  21641078.600   113724633.73509  21641074.960    88616597.78747
  22619376.040   120871133.54007  22619376.960    94010924.57002
  19257774.500   102871601.45607  19257778.460    80011260.04607
  20902860.580   111620109.90108  20902862.060    86815630.82805
  20202776.520   107843912.20508  20202775.600    83878659.43406
  19813850.180   105990793.77408  19813852.760    82437258.21808
  23110389.980   123581642.77506  23110392.500    96119079.83105
 15 01 14 00 19  0.0000000  0 13G02G12G14G21G25G29G31R11R12R13R22R23
                                R24
  24259872.900   127486507.23507  24259867.420    99340135.15644
  23162225.820   121718529.74108  23162222.800    94845697.72044
  23359364.800   122754304.32307  23359365.520    95652674.92745
  23136379.120   121582543.70608  23136375.720    94739628.36844
  20883739.280   109744805.47009  20883739.080    85515467.27047
  20178024.020   106036343.87509  20178022.420    82625709.39648
  21629627.100   113664453.86709  21629623.620    88569704.39448
  22639376.700   120978012.59607  22639377.320    94094052.73203
  19261128.820   102889520.62507  19261133.080    80025197.16907
  20885374.660   111526735.44708  20885375.040    86743006.21705
  20218324.880   107926909.84608  20218324.560    83943213.14906
  19806481.400   105951375.76008  19806484.140    82406599.79508
  23089447.780   123469654.65607  23089450.100    96031978.09604
 15 01 14 00 19 30.0000000  0 13G02G12G14G21G25G29G31R11R12R13R22R23
                                R24
  24273979.120   127560634.85508  24273973.800    99397896.92744
  23174790.980   121784562.10408  23174788.560    94897151.53045
  23373129.820   122826635.96407  23373129.780    95709037.23045
  23119416.000   121493402.87308  23119412.740    94670168.00544
  20887859.020   109766454.36109  20887858.760    85532336.52347
  20181918.540   106056806.80109  20181916.520    82641654.53248
  21618252.740   113604679.78809  21618249.300    88523127.20647
  22659437.800   121085213.29108  22659438.660    94177431.06303
  19264609.420   102908112.94308  19264613.680    80039657.85007
  20867948.740   111433682.81607  20867948.940    86670631.94806
  20233947.280   108010303.19808  20233947.980    84008074.61807
  19799231.580   105912594.17508  19799234.400    82376436.38008
  23068558.140   123357946.70207  23068559.740    95945094.24803
 15 01 14 00 20  0.0000000  0 13G02G12G14G21G25G29G31R11R12R13R22R23
                                R24
  24288143.820   127635070.39607  24288138.660    99455898.60244
  23187381.220   121850726.29108  23187379.360    94948707.96945
  23386936.620   122899187.60308  23386935.880    95765570.93245
  23102487.420   121404443.23408  23102484.320    94600848.80844
  20892024.140   109788341.63909  20892023.740    85549391.52847
  20185883.380   106077639.72709  20185881.040    82657887.97148
  21606955.400   113545311.24809  21606951.960    88476866.01848
  22679558.520   121192730.84108  22679559.900    94261055.83203
  19268215.980   102927376.87808  19268220.060    80054640.90307
  20850583.180   111340953.29607  20850583.980    86598508.99406
  20249642.600   108094086.21608  20249644.440    84073239.15407
  19792100.280   105874446.48908  19792103.200    82346765.98708
  23047720.820   123246518.68307                                
 15 01 14 00 20 30.0000000  0 13G02G12G14G21G25G29G31R11R12R13R22R23
                                R24
  24302367.760   127709818.08907  24302362.600    99514143.52544
  23199998.060   121917028.48508  23199996.000    95000372.02445
  23400785.660   122971961.99408  23400784.380    95822278.24545
  23085595.020   121315673.73207  23085592.220    94531677.81744
  20896235.900   109810473.97009  20896235.340    85566637.50547
  20189919.380   106098847.34009  20189916.840    82674413.38148
  21595736.700   113486356.75309  21595733.320    88430927.47148
  22699739.420   121300569.66908  22699741.740    94344930.50204
  19271949.600   102947319.31508  19271953.420    80070151.68108
  20833280.160   111248557.29107  20833281.720    86526645.47206
  20265411.340   108178261.24008  20265414.200    84138708.58207
  19785088.460   105836938.47508  19785091.480    82317593.09508
  23026937.400   123135379.19807                                
 15 01 14 00 21  0.0000000  0 13G02G12G14G21G25G29G31R11R12R13R22R23
                                R24
  24316649.500   127784869.51208  24316644.300    99572625.12544
  23212639.940   121983462.47008  23212637.720    95052138.75044
  23414675.180   123044949.69608  23414673.620    95879151.74245
  23068738.000   121227090.12208  23068735.680    94462651.66845
  20900493.100   109832845.52609  20900492.460    85584069.88447
  20194025.120   106120421.97209  20194022.420    82691224.76648
  21584595.820   113427811.59609  21584592.500    88385307.88048
  22719978.720   121408720.96308  22719981.760    94429048.13104
  19275809.140   102967934.90408  19275812.760    80086186.01507
  20816039.180   111156492.04908  20816041.180    86455039.19006
  20281251.800   108262818.21608  20281255.280    84204475.07707
  19778195.040   105800064.11808  19778198.120    82288913.06408
  23006206.920   123024524.09606                                
 15 01 14 00 21 30.0000000  0 13G02G12G14G21G25G29G31R11R12R13R22R23
                                R24
  24330988.740   127860222.89808  24330983.520    99631342.04744
  23225307.220   122050028.24308  23225304.880    95104008.16945
  23428604.640   123118148.00808  23428602.960    95936189.36145
  23051917.020   121138695.23108  23051914.840    94393772.56944
  20904795.860   109855457.05309  20904795.400    85601689.24147
  20198200.300   106142361.85309  20198197.380    82708320.77148
  21573533.340   113369678.62809  21573530.140    88340009.48248
  22740275.920   121517182.62308  22740279.340    94513407.16504
  19279794.680   102989224.26808  19279798.160    80102744.39707
  20798860.940   111064761.30207  20798863.160    86383693.08007
  20297163.340   108347753.70608  20297166.960    84270535.99607
  19771420.220   105763823.36108  19771423.180    82260725.83508
  22985529.920   122913955.78106  22985532.460    95599764.15804
 15 01 14 00 22  0.0000000  0 13G02G12G14G21G25G29G31R11R12R13R22R23
                                R24
  24345385.660   127935879.47008  24345380.340    99690295.21243
  23238000.120   122116729.94608  23237997.960    95155983.46044
  23442574.140   123191557.29808  23442572.340    95993391.39345
  23035133.020   121050494.62108  23035130.900    94325044.87445
  20909144.980   109878312.53109  20909144.700    85619498.69547
  20202445.180   106164668.77409  20202442.120    82725702.77348
  21562550.440   113311963.70809  21562547.260    88295036.83847
  22760631.420   121625956.37208  22760634.840    94598008.92604
  19283907.040   103011191.56708  19283910.280    80119830.05507
  20781746.820   110973372.56808  20781749.240    86312612.96807
  20313145.900   108433067.28408  20313149.100    84336890.97207
  19764764.580   105728219.80908  19764767.340    82233034.21208
  22964907.420   122803679.68405  22964910.620    95513994.00204
 15 01 14 00 22 30.0000000  0 13G02G12G14G21G25G29G31R11R12R13R22R23
                                R24
  24359839.520   128011835.24508  24359834.120    99749481.55544
  23250718.660   122183566.06708  23250716.000    95208063.54344
  23456582.720   123265172.61507  23456580.900    96050753.96145
  23018386.160   120962489.31508  23018383.860    94256469.33345
  20913540.200   109901410.66409  20913540.100    85637497.22147
  20206759.160   106187339.29409  20206755.920    82743368.11648
  21551647.000   113254666.58509  21551643.880    88250389.75647
  22781044.280   121735037.61308  22781047.660    94682849.85604
  19288146.160   103033835.92908  19288149.260    80137442.32407
  20764697.120   110882327.49908  20764699.620    86241800.17207
  20329198.180   108518752.96009  20329200.600    84403535.38607
  19758227.600   105693251.08808  19758230.140    82205836.34408
  22944339.720   122693696.09906  22944343.220    95428451.37804
 15 01 14 00 23  0.0000000  0 13G02G12G14G21G25G29G31R11R12R13R22R23
                                R24
  24374349.800   128088087.73107  24374344.460    99808899.02944
  23263462.560   122250535.77907  23263459.220    95260247.73644
  23470629.800   123338990.51107  23470627.920    96108274.38744
  23001676.620   120874680.34908  23001674.240    94188046.80445
  20917981.640   109924751.48209  20917981.640    85655684.85347
  20211141.900   106210371.47109  20211138.500    82761315.28148
  21540823.440   113197789.15509  21540820.320    88206069.70947
  22801514.160   121844424.58307  22801517.240    94767928.60604
  19292512.100   103057157.28108  19292514.960    80155581.14308
  20747712.500   110791629.51908  20747714.900    86171257.32507
  20345319.420   108604806.92009  20345320.960    84470466.24207
  19751809.200   105658916.49708  19751811.440    82179131.68808
  22923827.320   122584007.01907  22923830.820    95343137.76705
 15 01 14 00 23 30.0000000  0 13G02G12G14G21G25G29G31R11R12R13R22R23
                                R24
  24388916.340   128164636.11707  24388911.020    99868547.06044
  23276232.360   122317640.79308  23276228.780    95312537.34144
  23484715.020   123413009.00907  23484712.720    96165951.10944
  22985005.160   120787071.52508  22985002.640    94119780.21645
  20922469.640   109948336.67509  20922469.660    85674062.90547
  20215593.300   106233764.75309  20215589.820    82779543.81648
  21530080.420   113141334.92409  21530077.200    88162079.42247
  22822040.900   121954115.62707  22822043.380    94853243.80104
  19297005.160   103081157.49808  19297007.700    80174247.96407
  20730793.700   110701283.85408  20730796.020    86100988.50207
  20361508.940   108691226.39609  20361509.800    84537681.38407
  19745509.560   105625217.34208  19745511.500    82152921.25408
  22903370.560   122474615.36407  22903373.860    95258055.45305
 15 01 14 00 24  0.0000000  0 13G02G12G14G21G25G29G31R11R12R13R22R23
                                R24
  24403538.920   128241478.89207  24403533.740    99928424.52744
  23289027.880   122384881.84108  23289024.200    95364932.92644
  23498837.820   123487225.88106  23498835.080    96223782.41943
  22968372.360   120699666.12008  22968369.780    94051672.14344
  20927004.360   109972167.55409  20927004.400    85692632.40147
  20220113.260   106257518.55109  20220109.800    82798053.27348
  21519418.540   113085306.67409  21519414.980    88118421.06147
  22842624.540   122064109.47608  22842626.560    94938794.54204
  19301625.580   103105837.99608  19301627.920    80193443.90108
  20713941.600   110611294.75108  20713943.700    86030997.00707
  20377766.200   108778008.75108  20377766.760    84605178.74407
  19739328.680   105592153.74808  19739330.460    82127205.15908
  22882969.980   122365524.30607  22882972.960    95173206.95104
 15 01 14 00 24 30.0000000  0 13G02G12G14G21G25G29G31R11R12R13R22R23
                                R24
  24418216.600   128318610.91008  24418211.360    99988527.37644
  23301848.760   122452255.79408  23301843.900    95417432.17344
  23512996.880   123561634.47106  23512993.320    96281763.17142
  22951778.060   120612463.43908  22951775.420    93983722.03045
  20931585.400   109996241.42109  20931585.360    85711391.24847
  20224700.880   106281627.89709  20224697.620    82816839.77548
  21508837.640   113029703.47709  21508833.460    88075093.91147
  22863264.200   122174400.51308  22863265.960    95024576.44404
  19306372.720   103131195.92508  19306375.020    80213166.72807
  20697156.420   110521662.71408  20697158.020    85961283.23206
  20394089.780   108865146.78508  20394090.520    84672952.74306
  19733265.960   105559722.24708  19733267.600    82101980.67908
  22862625.320   122256732.52807  22862627.700    95088591.16804
 15 01 14 00 25  0.0000000  0 13G02G12G14G21G25G29G31R11R12R13R22R23
                                R24
  24432949.580   128396033.33708  24432944.060   100048856.50744
  23314695.460   122519766.02107  23314690.360    95470037.56544
  23527192.460   123636235.33805  23527188.420    96339893.71743
  22935223.580   120525469.36708  22935220.460    93915934.44844
  20936213.500   110020562.03509  20936213.260    85730342.36547
  20229356.540   106306094.29909  20229353.420    82835904.49548
  21498338.700   112974530.33409  21498333.640    88032101.84447
  22883960.000   122284990.02308  22883961.780    95110590.51404
  19311247.220   103157235.13408  19311249.680    80233419.43007
  20680439.560   110432395.23808  20680440.420    85891852.97906
  20410479.600   108952640.04308  20410480.900    84741003.01306
  19727321.960   105527926.03408  19727323.520    82077250.32708
  22842337.680   122148245.39208  22842339.520    95004212.38104
 15 01 14 00 25 30.0000000  0 13G02G12G14G21G25G29G31R11R12R13R22R23
                                R24
  24447737.400   128473743.54907  24447731.240   100109409.91844
  23327568.100   122587412.15108  23327562.860    95522748.83544
  23541423.720   123711024.60405  23541420.260    96398171.10444
  22918709.040   120438684.92608  22918705.240    93848310.21644
  20940888.580   110045129.28109  20940888.160    85749485.64747
  20234079.840   106330915.63109  20234076.820    82855245.79148
  21487921.920   112919788.80609  21487916.060    87989446.11247
  22904711.040   122395874.81808  22904713.100    95196834.23705
  19316249.200   103183955.52408  19316251.780    80254201.95507
  20663791.440   110343495.09408  20663791.520    85822708.42205
  20426935.180   109040483.90508  20426937.080    84809325.99206
  19721496.460   105496764.09608  19721498.060    82053013.29308
  22822107.340   122040064.55707  22822108.580    94920071.82004
 15 01 14 00 26  0.0000000  0 13G02G12G14G21G25G29G31R11R12R13R22R23
                                R24
  24462579.660   128551739.49207  24462572.740   100170185.92544
  23340466.880   122655194.60108  23340461.340    95575566.35444
  23555690.380   123785999.78706  23555688.440    96456593.31843
  22902235.120   120352113.34308  22902230.760    93780851.85244
  20945610.820   110069944.45509  20945610.220    85768822.12847
  20238870.600   106356090.88809  20238867.540    82874862.87248
  21477587.820   112865481.91909  21477581.340    87947129.04247
  22925516.980   122507053.55408  22925519.580    95283306.54505
  19321378.940   103211358.46208  19321381.540    80275515.34307
  20647212.960   110254966.95208  20647212.480    85753853.18205
  20443456.280   109128675.58208  20443458.340    84877919.51306
  19715789.500   105466236.57508  19715791.400    82029269.69308
  22801934.780   121932192.68507  22801935.620    94836171.55804
 15 01 14 00 26 30.0000000  0 13G02G12G14G21G25G29G31R11R12R13R22R23
                                R24
  24477475.060   128630014.55407  24477467.340   100231179.45744
  23353390.700   122723109.57108  23353384.960    95628487.11244
  23569990.940   123861153.17405  23569990.180    96515154.34044
  22885801.380   120265752.43408  22885796.680    93713557.63844
  20950379.360   110095003.35109  20950378.620    85788348.52247
  20243727.480   106381613.61509  20243724.480    82894750.71548
  21467335.860   112811606.86209  21467329.200    87905148.47247
  22946376.340   122618519.41408  22946379.720    95370002.18504
  19326635.580   103239439.17108  19326638.240    80297355.88607
  20630704.040   110166809.88208  20630703.540    85685286.56806
  20460041.340   109217206.75509  20460043.240    84946777.09406
  19710200.060   105436338.36708  19710202.500    82006015.56208
  22781819.400   121824626.96707  22781820.100    94752509.43904
 15 01 14 00 27  0.0000000  0 13G02G12G14G21G25G29G31R11R12R13R22R23
                                R24
  24492424.000   128708570.73107  24492415.620   100292391.98544
  23366340.420   122791159.86308  23366334.140    95681513.37144
  23584325.740   123936485.17405  23584325.980    96573854.56344
  22869408.880   120179607.99308  22869404.100    93646432.11645
  20955195.080   110120309.88709  20955194.060    85808067.88647
  20248650.660   106407485.63109  20248647.820    82914910.72848
  21457167.060   112758169.12609  21457160.500    87863508.67847
  22967289.360   122730273.19308  22967293.480    95456921.74304
  19332019.960   103268201.72808  19332022.440    80319726.75307
  20614265.920   110079030.97708  20614265.840    85617014.09606
  20476690.160   109306077.05309  20476691.820    85015898.43907
  19704728.700   105407072.57508  19704731.820    81983253.30208
  22761762.200   121717372.86507  22761763.140    94669089.70404
 15 01 14 00 27 30.0000000  0 13G02G12G14G21G25G29G31R11R12R13R22R23
                                R24
  24507425.520   128787403.03107  24507416.400   100353819.73744
  23379315.420   122859343.65908  23379309.660    95734643.59544
  23598693.880   124011990.39906  23598694.320    96632689.74344
