     2.11           OBSERVATION DATA    G                   RINEX VERSION / TYPE
SPIDER V4,0,0,3554                      2015 03 16 00:53    PGM / RUN BY / DATE 
ADCK                                                        MARKER NAME         
ADCK                                                        MARKER NUMBER       
                                                            OBSERVER / AGENCY   
496498              LEICA GRX1200+GNSS  8.20/4.007          REC # / TYPE / VERS 
                    LEIAR25         NONE                    ANT # / TYPE        
  5227539.7664   314968.1794  3630496.8998                  APPROX POSITION XYZ 
        0.0480        0.0000        0.0000                  ANTENNA: DELTA H/E/N
     1     1                                                WAVELENGTH FACT L1/2
     4    C1    L1    P2    L2                              # / TYPES OF OBSERV 
    30.000                                                  INTERVAL            
  2015    02    17    12    03    0.0000000     GPS         TIME OF FIRST OBS   
  2015    02    17    23    59   30.0000000     GPS         TIME OF LAST OBS    
    16                                                      LEAP SECONDS        
    24                                                      # OF SATELLITES     
   G 2   669   668   668   668                              PRN / # OF OBS      
   G 5   575   575   575   575                              PRN / # OF OBS      
   G 6   299   299   299   299                              PRN / # OF OBS      
   G 7   285   285   285   285                              PRN / # OF OBS      
   G 9   200   200   200   200                              PRN / # OF OBS      
   G10   360   360   360   360                              PRN / # OF OBS      
   G12   824   824   824   824                              PRN / # OF OBS      
   G13   792   792   792   792                              PRN / # OF OBS      
   G14   507   506   506   506                              PRN / # OF OBS      
   G15   723   723   723   723                              PRN / # OF OBS      
   G16   103   103   103   103                              PRN / # OF OBS      
   G17   421   421   421   421                              PRN / # OF OBS      
   G18   415   415   414   414                              PRN / # OF OBS      
   G20   253   253   253   253                              PRN / # OF OBS      
   G21   298   298   297   297                              PRN / # OF OBS      
   G22    87    86    86    86                              PRN / # OF OBS      
   G23    12    12    12    12                              PRN / # OF OBS      
   G24   839   839   839   839                              PRN / # OF OBS      
   G25   755   754   754   754                              PRN / # OF OBS      
   G27    55    55    55    55                              PRN / # OF OBS      
   G28   587   587   586   586                              PRN / # OF OBS      
   G29   603   602   602   602                              PRN / # OF OBS      
   G30   445   445   445   445                              PRN / # OF OBS      
   G31   405   405   405   405                              PRN / # OF OBS      
BIT 2 OF LLI FLAGS DATA COLLECTED UNDER A/S CONDITION       COMMENT             
SNR is mapped to RINEX snr flag value [2-9]                 COMMENT             
Lx:     = 25dBHz -> 1; 26-27dBHz -> 2; 28-31dBHz -> 3       COMMENT             
       32-35dBHz -> 4; 36-38dBHz -> 5; 39-41dBHz -> 6       COMMENT             
       42-44dBHz -> 7; 45-48dBHz -> 8; >=49dBHz -> 9        COMMENT             
                                                            END OF HEADER       
 15 02 17 12 03  0.0000000  0 10G02G05G06G07G09G10G13G20G23G30
  21536490.440   113175015.84909  21536491.000    88188324.19048
  23116943.520   121480374.31108  23116948.240    94660032.76847
  21926225.140   115223062.36809  21926232.800    89784224.12848
  20645554.100   108493113.41709  20645555.800    84540094.34949
  22131936.860   116304097.62509  22131942.620    90626583.79948
  20191318.580   106106088.75509  20191320.700    82680075.79148
  24407701.220   128263345.04208  24407709.640    99945463.88644
  20626727.140   108394172.12409  20626729.440    84462993.73748
  24432221.340   128392150.79108  24432229.160   100045843.36746
  20503349.800   107745833.29509  20503354.340    83957813.16849
 15 02 17 12 03 30.0000000  0 10G02G05G06G07G09G10G13G20G23G30
  21535582.520   113170244.86309  21535583.140    88184606.50448
  23100096.380   121391842.12909  23100101.140    94591046.74247
  21941819.520   115305011.10109  21941827.200    89848080.09048
  20650853.800   108520963.31109  20650855.520    84561795.49748
  22143452.000   116364610.07309  22143457.800    90673736.23548
  20192071.380   106110044.85109  20192073.540    82683158.42748
  24392977.740   128185972.42508  24392986.000    99885173.64045
  20635204.420   108438720.60509  20635206.760    84497706.75748
  24446534.060   128467363.73008  24446541.860   100104450.63446
  20496427.200   107709454.77609  20496431.700    83929466.30149
 15 02 17 12 04  0.0000000  0 10G02G05G06G07G09G10G13G20G23G30
  21534783.760   113166047.49809  21534784.420    88181335.79748
  23083268.800   121303412.83809  23083273.600    94522140.89447
  21957479.660   115387305.28509  21957487.460    89912205.23348
  20656247.640   108549307.65609  20656249.300    84583881.94348
  22154985.440   116425218.33309  22154991.260    90720963.35148
  20192905.720   106114429.42709  20192907.900    82686574.95748
  24378274.940   128108708.13508  24378282.980    99824967.79645
  20643760.360   108483682.23109  20643762.720    84532741.71548
  24460848.920   128542587.50608  24460856.620   100163066.32946
  20489606.980   107673614.25709  20489611.440    83901538.65749
 15 02 17 12 04 30.0000000  0 10G02G05G06G07G09G10G13G20G23G30
  21534093.900   113162422.20909  21534094.580    88178510.84948
  23066460.860   121215086.62809  23066465.660    94453315.35747
  21973204.740   115469940.72809  21973212.660    89976596.27748
  20661735.020   108578143.56409  20661736.660    84606351.41448
  22166536.800   116485920.64109  22166542.640    90768263.73948
  20193821.580   106119242.15409  20193823.680    82690325.09548
  24363592.460   128031550.81408  24363600.300    99764845.29445
  20652394.660   108529055.39509  20652396.980    84568097.33348
  24475165.600   128617820.69308  24475173.220   100221689.36545
  20482888.980   107638311.12909  20482893.460    83874029.74249
 15 02 17 12 05  0.0000000  0 10G02G05G06G07G09G10G13G20G23G30
  21533513.860   113159373.97109  21533514.560    88176135.55648
  23049673.900   121126870.86509  23049678.680    94384575.89247
  21988995.240   115552919.77509  21989003.240    90041255.07348
  20667316.660   108607474.91809  20667318.280    84629206.94749
  22178106.960   116546721.63509  22178112.820    90815641.02548
  20194820.020   106124488.96209  20194822.120    82694413.49048
  24348931.260   127954505.49408  24348938.940    99704810.07144
  20661108.180   108574844.87609  20661110.500    84603777.36248
  24489485.020   128693068.25308  24489492.560   100280323.60845
  20476274.340   107603551.33109  20476278.880    83846944.20849
 15 02 17 12 05 30.0000000  0 10G02G05G06G07G09G10G13G20G23G30
  21533042.700   113156897.68809  21533043.420    88174205.93748
  23032907.300   121038762.35509  23032912.140    94315919.99047
  22004849.600   115636234.42909  22004857.680    90106175.37448
  20672991.360   108637295.25509  20672992.940    84652443.50649
  22189694.820   116607615.69809  22189700.700    90863090.82648
  20195900.260   106130165.52809  20195902.380    82698836.74348
  24334290.420   127877567.42908  24334298.000    99644858.43344
  20669899.920   108621045.24609  20669902.220    84639777.55148
  24503806.200   128768325.21108  24503813.720   100338965.16845
  20469762.260   107569330.37509  20469766.860    83820278.54249
 15 02 17 12 06  0.0000000  0 10G02G05G06G07G09G10G13G20G23G30
  21532680.840   113154996.02509  21532681.600    88172724.09148
  23016161.980   120950765.64609  23016166.860    94247351.21147
  22020767.860   115719884.80609  22020776.000    90171357.29048
  20678759.340   108667605.84809  20678760.940    84676062.10049
  22201300.840   116668605.31909  22201306.740    90910615.10448
  20197062.960   106136275.34709  20197065.060    82703597.62148
  24319670.480   127800739.45108  24319678.000    99584992.58144
  20678770.440   108667659.67309  20678772.740    84676100.39748
  24518129.660   128843594.50608  24518137.060   100397616.38644
  20463353.420   107535651.89309  20463358.040    83794035.58549
 15 02 17 12 06 30.0000000  0 10G02G05G06G07G09G10G13G20G23G30
  21532427.820   113153666.39509  21532428.620    88171687.98248
  22999437.840   120862880.29309  22999442.720    94178869.19247
  22036749.020   115803865.59909  22036757.180    90236796.66248
  20684619.900   108698402.93909  20684621.520    84700059.78448
  22212924.480   116729687.61809  22212930.400    90958211.59648
  20198307.880   106142817.18609  20198309.960    82708695.13148
  24305071.160   127724019.65108  24305078.380    99525211.03144
  20687719.160   108714685.17509  20687721.460    84712743.56048
  24532454.920   128918873.31408  24532462.240   100456274.99144
  20457047.520   107502514.15209  20457052.120    83768213.98349
 15 02 17 12 07  0.0000000  0 10G02G05G06G07G09G10G13G20G23G30
  21532283.940   113152910.28509  21532284.780    88171098.77048
  22982735.600   120775109.87409  22982740.460    94110476.72747
  22052792.780   115888175.32509  22052800.980    90302492.35448
  20690573.020   108729686.38809  20690574.660    84724436.45749
  22224565.980   116790863.57009  22224571.900    91005881.07048
  20199635.400   106149793.16909  20199637.500    82714130.92948
  24290492.620   127647409.42908  24290499.860    99465514.86344
  20696746.340   108762123.04709  20696748.660    84749708.04648
  24546782.220   128994163.15108  24546789.300   100514942.23344
  20450844.940   107469919.24809  20450849.480    83742815.37149
 15 02 17 12 07 30.0000000  0 10G02G05G06G07G09G10G13G20G23G30
  21532248.920   113152725.89709  21532249.720    88170955.04348
  22966055.300   120687454.70009  22966060.100    94042174.05547
  22068898.380   115972809.93409  22068906.640    90368441.19548
  20696618.140   108761453.52709  20696619.800    84749190.02949
  22236224.980   116852131.42709  22236230.860    91053622.15148
  20201045.400   106157202.48809  20201047.440    82719904.38848
  24275934.640   127570907.53708  24275941.940    99405903.11344
  20705851.760   108809971.82209  20705854.060    84786992.71348
  24561111.320   129069462.54907  24561118.540   100573616.88344
  20444745.560   107437866.46909  20444750.040    83717839.18849
 15 02 17 12 08  0.0000000  0 10G02G05G06G07G09G10G13G20G23G30
  21532323.140   113153115.70209  21532323.920    88171258.75148
  22949397.820   120599919.18809  22949402.520    93973964.63147
  22085065.700   116057768.96209  22085074.000    90434642.82848
  20702755.500   108793705.32409  20702757.220    84774321.26149
  22247901.880   116913493.23309  22247907.680    91101436.43548
  20202538.500   106165048.58509  20202540.480    82726018.19648
  24261397.720   127494516.34508  24261405.120    99346377.64644
  20715035.800   108858233.50209  20715038.040    84824599.12948
  24575442.740   129144774.24107  24575450.040   100632301.09044
  20438749.900   107406358.92109  20438754.340    83693287.86049
 15 02 17 12 08 30.0000000  0 10G02G05G06G07G09G10G13G20G23G30
  21532506.100   113154077.07909  21532506.880    88172007.81548
  22932763.100   120512503.11609  22932767.720    93905848.27347
  22101293.760   116143047.11809  22101302.120    90501093.12248
  20708984.280   108826437.61309  20708986.020    84799826.90649
  22259596.120   116974946.11409  22259601.800    91149321.69048
  20204114.380   106173329.78009  20204116.420    82732471.03948
  24246881.440   127418233.65707  24246888.880    99286936.69944
  20724297.860   108906905.29709  20724300.080    84862525.11348
  24589776.000   129220095.66508  24589783.500   100690992.86744
  20432857.640   107375394.74409  20432862.060    83669159.92849
 15 02 17 12 09  0.0000000  0  9G02G05G06G07G09G10G13G20G30
  21532799.480   113155618.69609  21532800.280    88173209.02048
  22916153.220   120425217.46309  22916157.720    93837833.53847
  22117583.660   116228650.45209  22117592.080    90567796.81148
  20715305.900   108859657.90609  20715307.700    84825712.81149
  22271309.300   117036498.64409  22271314.860    91197284.60048
  20205774.880   106182055.63709  20205776.940    82739270.37348
  24232387.420   127342068.22907  24232395.080    99227587.12544
  20733639.620   108955996.05909  20733641.880    84900777.56148
  20427070.560   107344983.44909  20427075.000    83645462.81749
 15 02 17 12 09 30.0000000  0  9G02G05G06G07G09G10G13G20G30
  21533199.860   113157722.47609  21533200.640    88174848.27948
  22899565.140   120338046.38509  22899569.560    93769908.08847
  22133931.560   116314558.40109  22133940.020    90634737.86448
  20721716.740   108893347.12409  20721718.560    84851964.12148
  22283037.940   117098132.71109  22283043.480    91245311.05048
  20207516.760   106191209.24709  20207518.840    82746403.02248
  24217912.400   127266002.57807  24217920.200    99168315.30945
  20743057.620   109005487.72309  20743059.940    84939342.40148
  20421385.440   107315107.89509  20421389.860    83622183.17049
 15 02 17 12 10  0.0000000  0  9G02G05G06G07G09G10G13G20G30
  21533709.300   113160399.28109  21533710.080    88176934.04448
  22883001.220   120251002.86009  22883005.700    93702082.03947
  22150338.960   116400779.25709  22150347.480    90701922.73048
  20728218.600   108927514.84209  20728220.520    84878588.28249
  22294784.060   117159859.09909  22294789.720    91293409.43148
  20209342.360   106200802.71609  20209344.480    82753878.41348
  24203458.520   127190048.27707  24203466.520    99109130.24745
  20752554.020   109055391.23709  20752556.360    84978228.16248
  20415804.500   107285779.80209  20415808.900    83599330.10949
 15 02 17 12 10 30.0000000  0  9G02G05G06G07G09G10G13G20G30
  21534327.300   113163646.43609  21534328.020    88179464.23748
  22866461.560   120164086.93309  22866466.120    93634355.41447
  22166804.980   116487307.95709  22166813.560    90769347.48248
  20734810.760   108962157.08609  20734812.780    84905582.21249
  22306547.220   117221675.26109  22306553.080    91341577.78148
  20211251.340   106210834.41109  20211253.480    82761695.28748
  24189025.500   127114203.14108  24189033.660    99050030.26244
  20762128.360   109105704.14809  20762130.660    85017432.93148
  20410327.440   107256997.54909  20410331.820    83576902.38249
 15 02 17 12 11  0.0000000  0  9G02G05G06G07G09G10G13G20G30
  21535053.300   113167461.12409  21535053.960    88182436.66048
  22849946.000   120077297.76609  22849950.620    93566727.57547
  22183328.520   116574138.87109  22183337.120    90837007.71948
  20741492.380   108997269.56509  20741494.500    84932942.55749
  22318326.900   117283578.07909  22318332.980    91389813.64748
  20213243.320   106221302.14209  20213245.440    82769851.93248
  24174612.820   127038464.37708  24174620.780    98991013.16645
  20771780.020   109156423.36409  20771782.320    85056954.29748
  20404953.800   107228758.83309  20404958.140    83554898.18549
 15 02 17 12 11 30.0000000  0  9G02G05G06G07G09G10G13G20G30
  21535887.720   113171845.72009  21535888.340    88185853.17348
  22833455.560   119990640.42809  22833460.220    93499202.46147
  22199909.580   116661272.00209  22199918.220    90904903.44448
  20748263.700   109032853.56709  20748265.960    84960670.32848
  22330123.580   117345570.10009  22330129.840    91438119.03648
  20215318.960   106232209.53809  20215321.120    82778351.16948
  24160221.060   126962835.05808  24160228.900    98932081.33845
  20781509.460   109207551.35709  20781511.760    85096794.18048
  20399684.260   107201067.02209  20399688.580    83533320.15249
 15 02 17 12 12  0.0000000  0  9G02G05G06G07G09G10G13G20G30
  21536830.320   113176798.90709  21536830.980    88189712.74448
  22816990.460   119904116.01209  22816995.080    93431780.92247
  22216547.460   116748703.55009  22216556.080    90973031.70548
  20755124.360   109068907.01209  20755126.740    84988763.89548
  22341937.020   117407650.05509  22341943.500    91486492.94948
  20217478.260   106243556.61309  20217480.440    82787193.02348
  24145850.060   126887314.46208  24145857.740    98873234.22345
  20791316.440   109259086.90409  20791318.740    85136951.64148
  20394518.680   107173921.70009  20394523.020    83512167.96449
 15 02 17 12 12 30.0000000  0  9G02G05G06G07G09G10G13G20G30
  21537881.400   113182322.13509  21537882.080    88194016.49948
  22800551.380   119817728.21309  22800555.960    93364465.83447
  22233241.900   116836432.38109  22233250.540    91041391.61248
  20762074.400   109105430.17109  20762076.880    85017223.47348
  22353767.500   117469819.33909  22353774.080    91534936.46548
  20219721.680   106255345.68309  20219723.900    82796379.28148
  24131500.060   126811904.35608  24131507.660    98814473.21245
  20801201.160   109311031.12209  20801203.480    85177427.54048
  20389457.480   107147325.04909  20389461.820    83491443.30649
 15 02 17 12 13  0.0000000  0  9G02G05G06G07G09G10G13G20G30
  21539040.220   113188411.47109  21539040.900    88198761.38748
  22784138.020   119731475.41609  22784142.480    93297255.94848
  22249991.720   116924452.18909  22250000.340    91109978.24848
  20769112.760   109142417.37609  20769115.300    85046044.65948
  22365614.260   117532074.25509  22365620.960    91583446.70748
  20222048.640   106267573.80109  20222050.860    82805907.66648
  24117170.420   126736601.48708  24117177.800    98755795.76845
  20811163.020   109363380.69709  20811165.380    85218219.30648
  20384500.080   107121274.08309  20384504.480    83471143.86349
 15 02 17 12 13 30.0000000  0  9G02G05G06G07G09G10G13G20G30
  21540307.100   113195068.82309  21540307.840    88203948.87248
  22767751.280   119645362.45109  22767755.660    93230155.01248
  22266796.800   117012762.38509  22266805.420    91178791.15848
  20776239.640   109179869.37009  20776242.200    85075228.00848
  22377477.760   117594416.75609  22377484.440    91632025.18548
  20224459.760   106280244.04909  20224461.920    82815780.56648
  24102861.580   126661408.22008  24102868.820    98697203.74345
  20821202.360   109416137.37809  20821204.760    85259328.28548
  20379647.040   107095771.51609  20379651.520    83451271.73549
 15 02 17 12 14  0.0000000  0 10G02G05G06G07G09G10G13G20G28G30
  21541681.580   113202291.44409  21541682.320    88209576.83548
  22751391.120   119559389.21909  22751395.420    93163162.96948
  22283656.160   117101357.94009  22283664.800    91247826.42048
  20783454.360   109217782.72409  20783456.860    85104770.86749
  22389357.500   117656844.37009  22389364.060    91680669.97948
  20226954.720   106293354.98209  20226956.900    82825996.86348
  24088573.220   126586322.68108  24088580.420    98638695.63545
  20831318.720   109469298.87709  20831321.180    85300752.71048
  24307277.320   127735606.22407                                
  20374898.020   107070815.56009  20374902.560    83431825.54849
 15 02 17 12 14 30.0000000  0 10G02G05G06G07G09G10G13G20G28G30
  21543161.260   113210066.86809  21543161.980    88215635.54848
  22735055.680   119473546.02809  22735059.940    93096272.26648
  22300567.060   117190224.28409  22300575.720    91317072.68648
  20790754.380   109256144.10709  20790756.820    85134662.84048
  22401251.120   117719345.16309  22401257.540    91729371.79448
  20229531.460   106306895.74209  20229533.660    82836548.08648
  24074303.100   126511333.20708  24074310.160    98580262.39344
  20841509.780   109522852.83309  20841512.300    85342482.94648
  24290741.580   127648709.16507  24290764.520    99466606.69044
  20370250.900   107046394.94809  20370255.460    83412796.51649
 15 02 17 12 15  0.0000000  0 10G02G05G06G07G09G10G13G20G28G30
  21544751.980   113218425.92609  21544752.720    88222149.03248
  22718751.240   119387865.84109  22718755.480    93029508.57148
  22317534.820   117279389.37609  22317543.520    91386551.73248
  20798145.260   109294982.82909  20798147.560    85164926.76348
  22413164.480   117781949.68809  22413170.760    91778154.43048
  20232195.920   106320897.73909  20232198.220    82847458.71148
  24060057.040   126436470.53408  24060064.000    98521927.95144
  20851781.320   109576829.70909  20851783.880    85384542.73548
  24274200.960   127561789.36507  24274223.840    99398877.93643
  20365711.620   107022540.85009  20365716.140    83394208.91949
 15 02 17 12 15 30.0000000  0 10G02G05G06G07G09G10G13G20G28G30
  21546449.840   113227348.16709  21546450.640    88229101.37148
  22702474.380   119302330.94009  22702478.660    92962858.09348
  22334555.080   117368830.36709  22334563.780    91456245.76248
  20805622.800   109334276.88109  20805625.000    85195545.49448
  22425093.720   117844637.74509  22425099.880    91827002.14948
  20234944.460   106335341.52709  20234946.840    82858713.59748
  24045831.400   126361715.17908  24045838.400    98463677.11845
  20862129.460   109631209.30009  20862132.060    85426916.32948
  24257652.600   127474830.02108  24257675.540    99331118.33644
  20361276.400   106999233.69009  20361280.940    83376047.51649
 15 02 17 12 16  0.0000000  0 10G02G05G06G07G09G10G13G20G28G30
  21548254.680   113236832.61609  21548255.560    88236491.78848
  22686225.440   119216942.97509  22686229.800    92896322.11148
  22351627.260   117458544.15609  22351635.980    91526152.35348
  20813186.600   109374024.43809  20813188.700    85226517.59648
  22437038.780   117907408.80709  22437044.860    91875914.53648
  20237777.160   106350227.44509  20237779.560    82870312.98948
  24031626.160   126287066.75908  24031633.260    98405509.60444
  20872554.080   109685990.88509  20872556.740    85469603.16248
  24241097.060   127387833.46008  24241120.060    99263329.82244
  20356945.280   106976473.53809  20356949.840    83358312.34949
 15 02 17 12 16 30.0000000  0 10G02G05G06G07G09G10G13G20G28G30
  21550167.120   113246882.57709  21550168.060    88244322.87248
  22670005.640   119131708.35209  22670010.060    92829905.61547
  22368751.560   117548532.00309  22368760.360    91596272.50648
  20820837.180   109414228.17109  20820839.240    85257845.16148
  22449000.420   117970266.85109  22449006.480    91924894.70948
  20240695.000   106365560.71409  20240697.380    82882260.97048
  24017442.080   126212529.69308  24017449.240    98347428.83344
  20883055.960   109741178.23709  20883058.660    85512606.19348
  24224535.800   127300807.12208  24224558.700    99195518.11043
  20352719.100   106954264.86409  20352723.660    83341006.92249
 15 02 17 12 17  0.0000000  0 10G02G05G06G07G09G10G13G20G28G30
  21552186.320   113257493.53909  21552187.340    88252591.08948
  22653814.660   119046625.03709  22653819.120    92763607.01848
  22385926.640   117638786.79109  22385935.540    91666600.65648
  20828573.420   109454881.99709  20828575.400    85289523.44848
  22460977.700   118033207.31409  22460983.840    91973939.08748
  20243697.200   106381337.30509  20243699.560    82894554.38548
  24003278.460   126138099.82008  24003285.580    98289431.59044
  20893634.160   109796766.50209  20893636.880    85555921.61248
  24207968.540   127213749.82408  24207991.180    99127682.30744
  20348597.100   106932603.65609  20348601.640    83324128.08549
 15 02 17 12 17 30.0000000  0 10G02G05G06G07G09G10G13G20G28G30
  21554312.720   113268667.82309  21554313.780    88261298.26348
  22637653.540   118961698.24609  22637658.000    92697430.38248
  22403152.560   117729308.70209  22403161.580    91737136.95648
  20836395.600   109495987.68609  20836397.600    85321553.82648
  22472971.220   118096233.08009  22472977.480    92023049.93348
  20246784.480   106397560.90309  20246786.840    82907196.11648
  23989135.800   126063780.30708  23989143.000    98231520.36144
  20904289.200   109852758.56609  20904291.920    85599551.68548
  24191396.400   127126667.07607  24191418.880    99059826.70144
  20344579.900   106911493.34209  20344584.440    83307678.52149
 15 02 17 12 18  0.0000000  0 10G02G05G06G07G09G10G13G20G28G30
  21556545.700   113280402.01509  21556546.780    88270441.72048
  22621522.100   118876927.29009  22621526.580    92631375.19048
  22420428.180   117820092.07609  22420437.360    91807876.99148
  20844302.840   109537540.39709  20844304.840    85353932.53549
  22484980.420   118159341.21409  22484986.740    92072224.96848
  20249956.380   106414229.22409  20249958.720    82920184.39248
  23975013.700   125989568.74608  23975021.000    98173693.25545
  20915020.400   109909151.10309  20915023.160    85643493.82148
  24174819.380   127039559.01207  24174841.780    98991951.36844
  20340667.080   106890931.31909  20340671.580    83291656.19849
 15 02 17 12 18 30.0000000  0 10G02G05G06G07G09G10G13G20G28G30
  21558885.300   113292696.72709  21558886.440    88280021.93848
  22605421.020   118792315.87709  22605425.500    92565444.32648
  22437753.300   117911135.32609  22437762.600    91878819.53648
  20852295.120   109579539.95209  20852297.120    85386659.42648
  22497005.500   118222532.74509  22497011.820    92121464.99348
  20253213.300   106431344.46209  20253215.700    82933520.91048
  23960912.460   125915466.38508  23960919.760    98115951.24745
  20925828.000   109965945.08009  20925830.780    85687748.76848
  24158238.420   126952430.12708  24158260.720    98924059.83244
  20336858.900   106870919.12409  20336863.340    83276062.31549
 15 02 17 12 19  0.0000000  0 10G02G05G06G07G09G10G13G20G28G30
  21561331.140   113305549.67509  21561332.380    88290037.14948
  22589350.440   118707864.47209  22589354.860    92499638.13648
  22455127.020   118002434.01809  22455136.440    91949961.11848
  20860371.760   109621982.86109  20860373.800    85419731.78148
  22509046.100   118285805.95509  22509052.440    92170768.65848
  20256555.040   106448905.52109  20256557.540    82947204.81848
  23946831.760   125841471.83108  23946838.980    98058293.27045
  20936711.620   110023138.49809  20936714.440    85732314.97348
  24141653.780   126865282.18508  24141676.020    98856153.45745
  20333155.100   106851455.42709  20333159.480    83260895.83649
 15 02 17 12 19 30.0000000  0 10G02G05G06G07G09G10G13G20G28G30
  21563883.340   113318961.31909  21563884.640    88300487.69348
  22573310.980   118623576.57509  22573315.260    92433959.35448
  22472549.060   118093986.45309  22472558.540    92021300.42347
  20868532.700   109664869.06109  20868534.840    85453149.54848
  22521102.400   118349161.83709  22521108.840    92220136.74148
  20259982.020   106466914.13109  20259984.500    82961237.46048
  23932771.920   125767586.50508  23932778.940    98000720.40145
  20947671.380   110080732.03909  20947674.260    85777192.96148
  24125066.400   126778119.49708  24125088.440    98788235.57544
  20329555.920   106832541.62909  20329560.260    83246157.84549
 15 02 17 12 20  0.0000000  0 10G02G05G06G07G09G10G13G20G28G30
  21566541.740   113332930.86609  21566543.040    88311372.97548
  22557302.980   118539454.10909  22557307.180    92368409.48548
  22490018.820   118185789.53709  22490028.340    92092835.03648
  20876777.640   109708196.64909  20876779.860    85486911.25548
  22533174.320   118412599.92609  22533180.880    92269568.88948
  20263494.260   106485370.73509  20263496.700    82975619.19648
  23918732.840   125693810.29708  23918739.760    97943232.57245
  20958707.100   110138724.78209  20958710.040    85822382.01948
  24108476.720   126690944.47508  24108498.560    98720308.07444
  20326061.380   106814177.63209  20326065.660    83231848.26949
 15 02 17 12 20 30.0000000  0 10G02G05G06G07G09G10G13G20G28G30
  21569306.060   113347457.08709  21569307.380    88322692.02648
  22541326.720   118455498.70609  22541330.920    92302989.79548
  22507535.660   118277839.91709  22507545.180    92164562.35748
  20885106.020   109751962.78709  20885108.320    85521014.67948
  22545261.800   118476119.74709  22545268.400    92319064.72648
  20267091.760   106504275.47609  20267094.180    82990350.12848
  23904714.460   125620143.06308  23904721.340    97885829.69545
  20969818.640   110197115.81109  20969821.560    85867881.43348
  24091885.180   126603759.58008  24091906.720    98652372.86244
  20322671.400   106796363.18809  20322675.640    83217966.91749
 15 02 17 12 21  0.0000000  0 10G02G05G06G07G09G10G13G20G28G30
  21572176.180   113362539.16809  21572177.500    88334444.20948
  22525382.640   118371712.35009  22525386.800    92237701.81548
  22525098.960   118370134.39209  22525108.460    92236479.88048
  20893517.520   109796165.70709  20893519.920    85555458.45149
  22557364.720   118539720.75809  22557371.320    92368623.82348
  20270774.500   106523628.24709  20270776.880    83005430.17548
  23890716.620   125546584.22808  23890723.480    97828511.28545
  20981005.860   110255904.51609  20981008.740    85913690.72748
  24075292.240   126516567.32708  24075313.440    98584431.90644
  20319385.960   106779098.03409  20319390.140    83204513.58149
 15 02 17 12 21 30.0000000  0 10G02G05G06G07G09G10G13G20G28G30
  21575151.720   113378175.14509  21575153.060    88346627.99348
  22509471.080   118288097.08409  22509475.240    92172547.14648
  22542708.040   118462669.65409  22542717.560    92308585.01547
  20902011.760   109840803.22609  20902014.220    85590240.86648
  22569483.000   118603402.36309  22569489.540    92418245.72648
  20274542.580   106543429.43909  20274544.940    83020859.64148
  23876739.420   125473133.75908  23876746.140    97771277.31345
  20992268.580   110315089.84709  20992271.400    85959809.07648
  24058698.460   126429370.65008  24058719.280    98516487.45644
  20316204.980   106762381.89509  20316209.140    83191488.04149
 15 02 17 12 22  0.0000000  0 10G02G05G06G07G09G10G13G20G28G30
  21578232.640   113394365.04709  21578234.020    88359243.40148
  22493592.520   118204655.25809  22493596.720    92107527.62648
  22560362.520   118555443.35909  22560372.040    92380875.94847
  20910588.520   109885874.12309  20910591.000    85625360.98048
  22581616.720   118667164.98209  22581623.320    92467930.74448
  20278396.200   106563680.10209  20278398.540    83036639.34748
  23862782.900   125399792.28508  23862789.540    97714128.27245
  21003606.760   110374671.75409  21003609.560    86006236.44748
  24042104.440   126342172.74308  24042125.020    98448541.99944
  20313128.620   106746215.43009  20313132.740    83178890.80949
 15 02 17 12 22 30.0000000  0 10G02G05G06G07G09G10G13G20G28G30
  21581418.660   113411107.36409  21581420.080    88372289.26248
  22477747.360   118121388.82709  22477751.560    92042644.77448
  22578061.660   118648451.92209  22578071.220    92453349.88047
  20919247.320   109931376.02509  20919249.760    85660816.94248
  22593765.740   118731007.76709  22593772.420    92517678.23647
  20282335.320   106584379.96009  20282337.620    83052769.07248
  23848846.960   125326559.17208  23848853.560    97657063.65545
  21015020.160   110434649.06409  21015022.980    86052971.92748
  24025510.660   126254976.12008  24025531.020    98380597.51544
  20310156.720   106730597.97209  20310160.840    83166721.37849
 15 02 17 12 23  0.0000000  0 10G02G05G06G07G09G10G13G20G28G30
  21584709.540   113428400.67709  21584710.940    88385764.47248
  22461935.900   118038299.37009  22461940.020    91977899.82048
  22595804.800   118741691.78508  22595814.440    92526004.04047
  20927987.780   109977307.01309  20927990.180    85696607.25548
  22605929.920   118794929.92609  22605936.560    92567487.57648
  20286359.780   106605528.48009  20286362.080    83069248.39948
  23834931.540   125253433.99208  23834938.200    97600083.15545
  21026508.520   110495020.49309  21026511.360    86100014.51548
  24008917.720   126167783.58608  24008937.820    98312656.18844
  20307289.180   106715528.93409  20307293.280    83154979.27949
 15 02 17 12 23 30.0000000  0 10G02G05G06G07G09G10G13G20G28G30
  21588105.440   113446245.87609  21588106.840    88399669.72448
  22446158.940   117955391.01409  22446162.980    91913295.98348
  22613591.780   118835161.96308  22613601.540    92598837.66547
  20936809.740   110023666.45009  20936812.140    85732731.43048
  22618109.500   118858933.26609  22618116.080    92617360.19747
  20290470.040   106627128.03609  20290472.400    83086079.18848
  23821037.020   125180418.74508  23821043.700    97543188.32345
  21038072.160   110555787.40009  21038075.000    86147365.27448
  23992326.440   126080599.79208  23992346.400    98244721.65044
  20304526.360   106701010.25109  20304530.420    83143666.03049
 15 02 17 12 24  0.0000000  0 10G02G05G06G07G09G10G13G20G28G30
  21591605.700   113464639.48809  21591607.100    88414002.30248
  22430416.360   117872663.46609  22430420.340    91848833.03848
  22631421.560   118928857.00708  22631431.380    92671846.49948
  20945712.540   110070450.32809  20945714.880    85769186.34148
  22630303.980   118923015.07009  22630310.520    92667293.95648
  20294665.860   106649176.92009  20294668.180    83103260.10148
  23807162.900   125107511.00308  23807169.640    97486377.25545
  21049710.440   110616946.78509  21049713.280    86195021.84948
  23975736.980   125993425.22208  23975756.640    98176794.26445
  20301867.760   106687039.37909  20301871.820    83132779.64049
 15 02 17 12 24 30.0000000  0 10G02G05G06G07G09G10G13G20G28G30
  21595210.260   113483581.19809  21595211.680    88428761.97848
  22414708.780   117790119.66809  22414712.680    91784513.26748
  22649293.700   119022774.66208  22649303.640    92745028.80347
  20954695.900   110117657.45709  20954698.140    85805971.06348
  22642513.420   118987175.90009  22642520.020    92717289.28947
  20298947.380   106671676.21209  20298949.660    83120791.98048
  23793309.380   125034711.66008  23793316.180    97429650.65245
  21061423.380   110678498.65009  21061426.320    86242984.25848
  23959150.000   125906263.61708  23959169.560    98108876.96345
  20299313.540   106673616.87609  20299317.580    83122320.55749
 15 02 17 12 25  0.0000000  0 10G02G05G06G07G09G10G13G20G28G30
  21598919.040   113503070.37709  21598920.440    88443948.26148
  22399036.620   117707762.13509  22399040.480    91720338.64348
  22667207.720   119116912.25308  22667217.740    92818382.48147
  20963759.500   110165286.32909  20963761.700    85843084.41348
  22654737.920   119051415.81909  22654744.580    92767346.26247
  20303314.740   106694626.57109  20303317.000    83138675.34848
  23779476.520   124962020.79308  23779483.320    97373008.59845
  21073210.900   110740442.38909  21073213.920    86291252.02048
  23942566.180   125819118.22108  23942585.660    98040972.27944
  20296863.700   106660742.96409  20296867.740    83112288.94749
 15 02 17 12 25 30.0000000  0 10G02G05G06G07G09G10G13G20G28G30
  21602731.640   113523105.17609  21602733.020    88459559.70148
  22383400.160   117625592.26709  22383404.000    91656310.25148
  22685162.900   119211266.12808  22685172.960    92891904.68947
  20972902.780   110213334.14909  20972904.940    85880524.21148
  22666977.340   119115733.95609  22666984.080    92817464.17847
  20307767.840   106718027.56209  20307770.100    83156909.84948
  23765664.260   124889438.00908  23765671.020    97316450.76945
  21085072.820   110802776.82909  21085075.880    86339824.22548
  23925985.960   125731991.32508  23926005.040    97973081.96345
  20294518.120   106648416.83409  20294522.120    83102684.18149
 15 02 17 12 26  0.0000000  0 10G02G05G06G07G09G10G13G20G28G30
  21606647.820   113543684.18209  21606649.160    88475595.18948
  22367799.680   117543611.62409  22367803.580    91592429.30448
  22703158.580   119305832.74908  22703168.680    92965592.67447
  20982125.360   110261798.75809  20982127.500    85918288.77848
  22679231.500   119180129.61009  22679238.320    92867642.49348
  20312306.640   106741878.95409  20312308.920    83175495.30448
  23751872.560   124816962.85408  23751879.300    97259976.78645
  21097008.800   110865500.37509  21097011.860    86388699.61548
  23909409.740   125644885.42608  23909428.460    97905208.00844
  20292276.680   106636637.75409  20292280.640    83093505.68549
 15 02 17 12 26 30.0000000  0 10G02G05G06G07G09G10G13G20G28G30
  21610667.180   113564805.61709  21610668.560    88492053.36448
  22352235.600   117461822.39409  22352239.580    91528697.52748
  22721194.100   119400608.75308  22721204.240    93039443.81748
  20991426.720   110310677.71409  20991428.900    85956376.21648
  22691500.280   119244602.24508  22691507.200    92917880.80248
  20316931.140   106766180.71509  20316933.420    83194431.71448
  23738101.320   124744594.82808  23738107.940    97203586.31545
  21109018.680   110928612.26609  21109021.700    86437877.62648
  23892838.020   125557803.21408  23892856.500    97837352.55445
  20290139.180   106625405.16309  20290143.140    83084753.03949
 15 02 17 12 27  0.0000000  0 10G02G05G06G07G09G10G13G20G28G30
  21614790.180   113586471.58709  21614791.560    88508935.84848
  22336709.000   117380230.03409  22336713.060    91465119.14848
  22739269.560   119495594.64608  22739279.720    93113458.49047
  21000807.260   110359972.74709  21000809.500    85994787.88048
  22703784.280   119309155.16908  22703791.320    92968181.66547
  20321642.060   106790936.46009  20321644.300    83213721.86948
  23724351.220   124672337.76408  23724357.680    97147282.27345
  21121102.980   110992115.34209  21121106.000    86487360.45448
  23876271.980   125470751.21508  23876290.240    97769520.61045
  20288106.260   106614722.33509  20288110.240    83076428.78249
 15 02 17 12 27 30.0000000  0 10G02G05G06G07G09G10G13G20G28G30
  21619015.920   113608677.58809  21619017.280    88526239.14048
  22321219.580   117298833.20509  22321223.720    91401693.14048
  22757383.660   119590783.81208  22757393.940    93187631.56947
  21010265.820   110409677.78709  21010268.100    86033519.03048
  22716082.900   119373784.53809  22716089.920    93018542.10147
  20326438.700   106816142.76009  20326440.920    83233363.11448
  23710621.540   124600188.01608  23710627.900    97091061.86845
  21133260.880   111056005.13809  21133263.880    86537144.61948
  23859711.600   125383728.72408  23859729.660    97701711.67745
  20286177.240   106604585.42709  20286181.240    83068529.92449
 15 02 17 12 28  0.0000000  0 10G02G05G06G07G09G10G13G20G28G30
  21623344.440   113631423.56009  21623345.760    88543963.18148
  22305768.040   117217635.47109  22305772.220    91338422.26648
  22775536.140   119686174.49808  22775546.520    93261961.66547
  21019802.280   110459792.50909  21019804.680    86072569.41048
  22728396.280   119438491.49208  22728403.280    93068962.98447
  20331321.400   106841801.29909  20331323.580    83253356.74948
  23696912.480   124528146.50908  23696918.780    97034925.77045
  21145492.420   111120282.01009  21145495.460    86587230.39548
  23843157.600   125296740.07008  23843175.520    97633929.15144
  20284352.320   106594995.40009  20284356.300    83061057.20649
 15 02 17 12 28 30.0000000  0 10G02G05G06G07G09G10G13G20G28G30
  21627775.220   113654707.09509  21627776.540    88562106.10648
  22290354.580   117136637.81209  22290358.720    91275307.29548
  22793726.120   119781762.44308  22793736.580    93336445.46447
  21029416.080   110510313.70009  21029418.600    86111936.53048
  22740724.200   119503274.57108  22740731.200    93119443.18847
  20336289.940   106867910.97109  20336292.120    83273701.92248
  23683223.760   124456212.12108  23683229.920    96978873.15445
  21157797.260   111184943.97009  21157800.340    86637616.23848
  23826610.260   125209786.56908  23826628.060    97566174.02245
  20282631.160   106585950.70809  20282635.100    83054009.42949
 15 02 17 12 29  0.0000000  0 10G02G05G06G07G09G10G13G20G28G30
  21632308.120   113678527.24409  21632309.460    88580667.16648
  22274979.760   117055842.87909  22274983.820    91212350.28548
  22811953.180   119877545.15708  22811963.680    93411081.02447
  21039106.960   110561239.82309  21039109.620    86151619.17948
  22753066.700   119568134.12908  22753073.840    93169982.98347
  20341344.420   106894472.40909  20341346.620    83294399.11348
  23669555.500   124384385.41608  23669561.600    96922904.41345
  21170175.320   111249990.85209  21170178.440    86688302.01348
  23810070.360   125122872.50708  23810087.960    97498449.62345
  20281013.780   106577451.51609  20281017.740    83047386.71749
 15 02 17 12 29 30.0000000  0 10G02G05G06G07G09G10G13G20G28G30
  21636943.120   113702883.97609  21636944.480    88599646.36048
  22259644.120   116975253.65009  22259648.140    91149553.56648
  22830216.900   119973520.38208  22830227.460    93485866.60047
  21048874.660   110612569.59309  21048877.360    86191616.36948
  22765423.800   119633070.75708  22765431.100    93220582.83048
  20346485.020   106921486.63609  20346487.340    83315449.13048
  23655907.820   124312666.79908  23655913.960    96867019.89446
  21182626.560   111315422.15009  21182629.660    86739287.34248
  23793538.640   125036001.17408  23793556.040    97430758.55845
  20279500.300   106569498.26409  20279504.260    83041189.41749
 15 02 17 12 30  0.0000000  0 10G02G05G06G07G09G10G13G20G28G30
  21641679.700   113727774.66709  21641681.100    88619041.61048
  22244347.880   116894871.42909  22244351.840    91086918.15048
  22848516.520   120069684.22308  22848527.100    93560799.13547
  21058718.700   110664300.14609  21058721.400    86231925.86548
  22777795.360   119698083.39708  22777802.680    93271241.90747
  20351711.700   106948953.15909  20351714.080    83336851.57848
  23642280.700   124241056.37308  23642286.780    96811219.66045
  21195150.660   111381236.32209  21195153.760    86790571.00648
  23777015.420   124949174.69108  23777032.660    97363102.43445
  20278090.420   106562089.68409  20278094.440    83035416.53049
 15 02 17 12 30 30.0000000  0 10G02G05G06G07G09G10G13G20G28G30
  21646517.280   113753196.16309  21646518.740    88638850.47648
  22229091.100   116814696.52209  22229095.000    91024444.26448
  22866851.080   120166031.80608  22866861.700    93635874.83647
  21068638.340   110716427.68309  21068640.960    86272544.70148
  22790181.040   119763170.05108  22790188.260    93321958.65247
  20357024.100   106976870.10409  20357026.520    83358604.99948
  23628673.660   124169551.67508  23628679.860    96755501.78746
  21207747.120   111447430.95009  21207750.280    86842151.11548
  23760501.000   124862394.39308  23760518.000    97295482.30345
  20276783.760   106555223.53609  20276787.840    83030066.29949
 15 02 17 12 31  0.0000000  0 10G02G05G06G07G09G10G13G20G28G30
  21651456.180   113779150.01409  21651457.680    88659074.17648
  22213874.800   116734734.48109  22213878.660    90962136.25348
  22885220.620   120262563.08708  22885231.360    93711093.68747
  21078633.760   110768953.33709  21078636.320    86313473.76948
  22802581.400   119828333.50008  22802588.520    93372735.24847
  20362422.780   107005240.46909  20362425.260    83380711.75448
  23615087.260   124098155.46808  23615093.540    96699868.46145
  21220416.320   111514007.85409  21220419.580    86894029.11548
  23743996.540   124775666.05808  23744013.220    97227902.68945
  20275580.800   106548902.38209  20275584.980    83025140.75149
 15 02 17 12 31 30.0000000  0 10G02G05G06G07G09G10G13G20G28G30
  21656496.040   113805634.14709  21656497.540    88679711.07548
  22198699.260   116654986.68209  22198703.040    90899995.17548
  22903624.420   120359274.24008  22903635.220    93786452.68947
  21088704.300   110821874.00309  21088706.820    86354710.63548
  22814996.180   119893572.79508  22815003.280    93423570.93747
  20367907.620   107034063.70309  20367910.180    83403171.38648
  23601521.380   124026867.33108  23601527.760    96644319.33745
  21233157.940   111580965.33509  21233161.280    86946203.66348
  23727502.280   124688991.48408  23727518.720    97160364.98345
  20274481.320   106543124.94409  20274485.560    83020638.86849
 15 02 17 12 32  0.0000000  0 10G02G05G06G07G09G10G13G20G28G30
  21661636.520   113832647.15809  21661638.000    88700760.09248
  22183564.840   116575455.13109  22183568.640    90838022.61148
  22922061.880   120456162.30408  22922072.740    93861949.54847
  21098849.640   110875187.89409  21098852.160    86396253.91448
  22827425.320   119958887.88808  22827432.520    93474465.69048
  20373478.680   107063340.01509  20373481.340    83425984.06448
  23587976.080   123955687.10508  23587982.600    96588854.30646
  21245971.880   111648302.69009  21245975.260    86998674.21448
  23711018.960   124602374.53208  23711035.200    97092872.21445
  20273485.260   106537890.86009  20273489.540    83016560.37549
 15 02 17 12 32 30.0000000  0 10G02G05G06G07G09G10G13G20G28G30
  21666877.360   113860187.57709  21666878.840    88722220.08148
  22168472.000   116496142.12909  22168475.780    90776220.33848
  22940532.400   120553224.26508  22940543.380    93937581.89447
  21109069.420   110928892.92409  21109071.900    86438101.96848
  22839868.780   120024278.59308  22839876.180    93525419.34647
  20379135.980   107093069.41609  20379138.680    83449149.80148
  23574451.440   123884615.11308  23574458.000    96533473.60045
  21258857.920   111716018.84809  21258861.340    87051439.93948
  23694547.020   124515817.68108  23694563.060    97025426.25445
  20272592.540   106533199.65109  20272596.820    83012904.89549
 15 02 17 12 33  0.0000000  0 10G02G05G06G07G09G10G13G20G28G30
  21672218.160   113888253.45509  21672219.700    88744089.52148
  22153421.020   116417049.06009  22153424.780    90714589.45948
  22959035.300   120650456.37308  22959046.380    94013346.81747
  21119363.100   110982985.97609  21119365.460    86480252.38348
  22852326.460   120089744.08608  22852334.000    93576431.29147
  20384879.400   107123251.35009  20384882.140    83472668.15648
  23560947.300   123813650.67208  23560953.780    96478176.73045
  21271815.820   111784112.33909  21271819.220    87104499.68648
  23678087.000   124429323.46508  23678102.880    96958029.09745
  20271802.900   106529050.07009  20271807.180    83009671.45849
 15 02 17 12 33 30.0000000  0 10G02G05G06G07G09G10G13G20G28G30
  21677658.360   113916841.90109  21677659.940    88766366.16148
  22138412.200   116338177.45209  22138415.960    90653131.13948
  22977569.780   120747854.53808  22977581.000    94089241.13347
  21129730.040   111037464.36609  21129732.340    86522703.05048
  22864798.140   120155283.12008  22864805.740    93627500.54747
  20390708.800   107153884.78309  20390711.520    83496538.32148
  23547463.380   123742792.38608  23547469.780    96422962.57345
  21284845.200   111852581.54109  21284848.600    87157852.19448
  23661639.220   124342893.44708  23661654.860    96890681.94945
  20271116.080   106525440.55109  20271120.320    83006858.84249
 15 02 17 12 34  0.0000000  0 10G02G05G06G07G09G10G13G20G28G30
  21683198.120   113945953.43909  21683199.780    88789050.40248
  22123446.320   116259531.64009  22123450.120    90591848.78448
  22996135.720   120845417.81808  22996147.040    94165264.10447
  21140170.240   111092327.82009  21140172.480    86565453.77548
  22877284.300   120220897.69508  22877291.800    93678628.67547
  20396624.540   107184971.91009  20396627.240    83520762.02348
  23534000.140   123672042.73008  23534006.360    96367833.06145
  21297946.080   111921426.54709  21297949.460    87211497.53748
  23645204.660   124256532.98308  23645220.100    96823388.99545
  20270532.260   106522372.62009  20270536.480    83004468.24449
 15 02 17 12 34 30.0000000  0 10G02G05G06G07G09G10G13G20G28G30
  21688836.720   113975584.17209  21688838.420    88812139.20948
  22108523.300   116181111.02109  22108527.060    90530741.89648
  23014732.060   120943140.62908  23014743.440    94241411.37447
  21150682.820   111147571.94209  21150685.120    86608501.10848
  22889784.380   120286585.09209  22889791.720    93729813.52847
  20402626.120   107216510.19709  20402628.800    83545337.26948
  23520557.000   123601398.74408  23520563.040    96312785.88545
  21311117.940   111990644.54209  21311121.340    87265433.51448
  23628783.380   124170242.57808  23628798.620    96756150.60845
  20270050.920   106519843.16109  20270055.160    83002497.23149
 15 02 17 12 35  0.0000000  0 10G02G05G06G07G09G10G13G20G28G30
  21694574.280   114005734.77809  21694575.960    88835633.11648
  22093644.000   116102920.31309  22093647.700    90469814.17048
  23033358.580   121041022.22508  23033370.060    94317682.36347
  21161267.760   111203196.72609  21161270.140    86651845.05748
  22902298.740   120352347.41008  22902306.040    93781056.77847
  20408713.960   107248501.67609  20408716.600    83570265.66348
  23507134.400   123530862.68108  23507140.300    96257822.83645
  21324360.860   112060236.25709  21324364.300    87319660.71148
  23612376.360   124084026.94508  23612391.320    96688970.46345
  20269672.380   106517853.80709  20269676.600    83000947.08549
 15 02 17 12 35 30.0000000  0 10G02G05G06G07G09G10G13G20G28G30
  21700410.140   114036402.13509  21700411.840    88859529.68248
  22078808.680   116024960.52709  22078812.320    90409066.36748
  23052014.500   121139058.27508  23052026.080    94394073.71147
  21171924.500   111259198.89909  21171927.080    86695483.06848
  22914827.020   120418183.26108  22914834.320    93832357.31947
  20414887.820   107280945.22709  20414890.420    83595546.32148
  23493732.180   123460433.53208  23493738.000    96202943.08145
  21337674.600   112130199.75809  21337678.020    87374177.59848
  23595984.060   123997888.60308  23595998.820    96621850.55345
  20269396.260   106516402.70009  20269400.480    82999816.35449
 15 02 17 12 36  0.0000000  0 10G02G05G06G07G09G10G13G20G28G30
  21706343.960   114067584.12809  21706345.620    88883827.26548
  22064017.560   115947232.89809  22064021.180    90348499.46748
  23070699.040   121237244.64808  23070710.680    94470582.19247
  21182652.460   111315575.21609  21182655.140    86739412.61948
  22927369.040   120484091.44608  22927376.400    93883714.22347
  20421147.480   107313839.58109  20421150.060    83621178.25148
  23480350.020   123390110.00808  23480355.820    96148145.64845
  21351058.860   112200533.89309  21351062.280    87428983.29548
  23579606.800   123911829.14408  23579621.420    96554792.08045
  20269222.160   106515488.06909  20269226.480    82999103.65949
 15 02 17 12 36 30.0000000  0 10G02G05G06G07G09G10G13G20G28G30
  21712375.880   114099281.81909  21712377.580    88908526.67748
  22049271.620   115869742.59209  22049275.240    90288117.49448
  23089412.240   121335581.61908  23089424.000    94547208.00147
  21193451.940   111372327.07409  21193454.780    86783634.79148
  22939925.440   120550075.12408  22939932.800    93935129.95347
  20427493.560   107347188.21509  20427496.120    83647164.16148
  23466988.560   123319895.41408  23466994.300    96093433.07345
  21364513.880   112271239.71009  21364517.300    87484078.61248
  23563245.820   123825854.92708  23563260.260    96487799.99646
  20269150.660   106515112.59909  20269155.080    82998811.09149
 15 02 17 12 37  0.0000000  0 10G02G05G06G07G09G10G13G20G28G30
  21718505.280   114131491.88409  21718506.980    88933625.33248
  22034570.980   115792490.44909  22034574.620    90227921.10348
  23108153.160   121434064.54408  23108165.060    94623947.53947
  21204322.180   111429450.53909  21204325.020    86828146.53548
  22952495.820   120616132.53608  22952503.280    93986603.14347
  20433925.760   107380989.50209  20433928.320    83673502.78748
  23453647.500   123249787.97608  23453653.160    96038803.99645
  21378039.080   112342314.51609  21378042.520    87539461.44948
  23546901.380   123739967.42608  23546915.660    96420875.45945
  20269181.340   106515273.90209  20269185.780    82998936.80249
 15 02 17 12 37 30.0000000  0 10G02G05G06G07G09G10G13G20G28G30
  21724732.040   114164213.49409  21724733.800    88959122.58948
  22019916.140   115715479.11809  22019919.780    90167912.37048
  23126921.360   121532690.66708  23126933.340    94700798.65747
  21215262.920   111486944.02209  21215265.780    86872946.59848
  22965080.200   120682263.89408  22965087.800    94038133.95047
  20440444.100   107415243.46509  20440446.700    83700194.15448
  23440326.860   123179788.11508  23440332.540    95984258.74345
  21391634.420   112413758.07209  21391637.900    87595131.62548
  23530574.060   123654169.67608  23530588.000    96354020.82545
  20269314.100   106515971.65309  20269318.540    82999480.52649
 15 02 17 12 38  0.0000000  0 10G02G05G06G07G09G10G13G20G28G30
  21731055.360   114197442.36309  21731057.160    88985015.10148
  22005307.100   115638708.74409  22005310.760    90108091.38948
  23145715.840   121631454.80908  23145727.940    94777757.31447
  21226273.240   111544802.82709  21226275.960    86918031.34248
  22977678.200   120748466.89908  22977685.900    94089720.58747
  20447048.160   107449947.75109  20447050.740    83727236.41848
  23427026.300   123109893.68208  23427032.020    95929795.63445
  21405299.280   112485566.85409  21405302.760    87651086.39148
  23514263.980   123568462.63308  23514277.680    96287236.86646
  20269548.420   106517202.87909  20269552.820    83000439.95049
 15 02 17 12 38 30.0000000  0 10G02G05G06G07G09G10G13G20G28G30
  21737475.280   114231178.84809  21737477.160    89011303.16248
  21990744.720   115562183.34609  21990748.360    90048461.29348
  23164536.380   121730355.91408  23164548.600    94854822.68047
  21237353.020   111603026.93809  21237355.760    86963400.72848
  22990290.200   120814743.43508  22990298.020    94141364.52247
  20453738.280   107485104.33809  20453740.820    83754631.12448
  23413746.180   123040106.66108  23413751.940    95875416.23545
  21419033.900   112557742.36209  21419037.420    87707326.91248
  23497972.120   123482851.17108  23497985.560    96220527.36445
  20269884.460   106518968.88609  20269888.860    83001816.09649
 15 02 17 12 39  0.0000000  0 10G02G05G06G07G09G10G13G20G28G30
  21743991.420   114265421.09009  21743993.400    89037985.32048
  21976229.380   115485905.24809  21976233.020    89989023.89848
  23183382.420   121829390.85208  23183394.760    94931992.30747
  21248501.920   111661614.18609  21248504.540    87009053.08648
  23002916.160   120881093.27708  23002924.100    94193065.57647
  20460514.420   107520713.07509  20460516.900    83782378.14748
  23400486.400   122970426.70608  23400492.200    95821120.25945
  21432837.920   112630282.61209  21432841.500    87763851.64848
  23481699.040   123397338.37008  23481712.360    96153894.70345
  20270322.100   106521268.74709  20270326.480    83003608.22949
 15 02 17 12 39 30.0000000  0 10G02G05G06G07G09G10G13G20G28G30
  21750603.240   114300166.09109  21750605.300    89065059.24148
  21961761.300   115409875.49409  21961764.980    89929780.02048
  23202253.140   121928555.41008  23202265.640    95009262.94347
  21259719.280   111720561.36409  21259721.880    87054985.90948
  23015555.900   120947515.14408  23015563.860    94244822.75847
  20467376.360   107556772.35409  20467378.760    83810476.24548
  23387246.880   122900852.90808  23387252.660    95766907.00246
  21446710.920   112703185.42409  21446714.600    87820658.90648
  23465445.100   123311926.02208  23465458.160    96087340.30045
  20270860.960   106524100.49609  20270865.320    83005814.82549
 15 02 17 12 40  0.0000000  0 10G02G05G06G07G09G10G13G20G28G30
  21757310.420   114335412.20009  21757312.540    89092523.62548
  21947341.000   115334096.59509  21947344.620    89870731.59148
  23221147.980   122027846.60708  23221160.560    95086632.23747
  21271004.720   111779866.16509  21271007.220    87101197.40048
  23028209.420   121014008.99708  23028217.340    94296636.03847
  20474324.100   107593282.51709  20474326.460    83838925.67348
  23374027.480   122831384.98408  23374033.280    95712776.24046
  21460652.780   112776449.89109  21460656.520    87877747.95848
  23449210.900   123226617.22908  23449223.760    96020866.54846
  20271500.880   106527463.35609  20271505.220    83008435.26749
 15 02 17 12 40 30.0000000  0 10G02G05G06G07G09G10G13G20G28G30
  21764112.800   114371158.44409  21764114.940    89120377.73048
  21932968.960   115258571.28909  21932972.520    89811880.77448
  23240066.480   122127262.25908  23240079.180    95164098.52047
  21282357.980   111839527.50009  21282360.420    87147686.72548
  23040876.760   121080575.53508  23040884.660    94348505.96747
  20481357.680   107630243.95809  20481360.060    83867726.75248
  23360828.420   122762023.96808  23360834.340    95658728.79146
  21474663.420   112850075.75809  21474667.220    87935118.62948
  23432997.080   123141415.46008  23433009.720    95954476.16846
  20272241.880   106531357.32209  20272246.180    83011469.57149
 15 02 17 12 41  0.0000000  0 10G02G05G06G07G09G10G13G20G28G30
  21771009.960   114407402.65209  21771012.060    89148619.86848
  21918645.640   115183301.88909  21918649.140    89753229.36848
  23259008.100   122226799.18308  23259020.900    95241659.29447
  21293778.580   111899543.06609  21293781.000    87194452.06848
  23053557.860   121147214.57108  23053565.760    94400432.38747
  20488477.020   107667656.44209  20488479.500    83896879.28848
  23347649.700   122692769.95008  23347655.740    95604764.70346
  21488742.660   112924062.03809  21488746.460    87992770.13948
  23416804.260   123056323.97908  23416816.700    95888171.70746
  20273083.740   106535781.42309  20273088.020    83014916.96349
 15 02 17 12 41 30.0000000  0 10G02G05G06G07G09G10G13G20G28G30
  21778001.220   114444141.22309  21778003.240    89177247.21148
  21904371.160   115108289.01909  21904374.600    89694777.84148
  23277971.920   122326452.67008  23277984.800    95319310.86847
  21305265.760   111959908.72009  21305268.200    87241490.20348
  23066252.460   121213924.26708  23066260.320    94452413.84347
  20495681.800   107705517.84009  20495684.320    83926381.61648
  23334490.960   122623620.77708  23334497.020    95550882.30045
  21502889.820   112998405.30809  21502893.600    88050699.80748
  23400632.740   122971344.31708  23400645.020    95821954.32145
  20274025.940   106540733.02309  20274030.240    83018775.38349
 15 02 17 12 42  0.0000000  0 10G02G05G06G07G09G10G13G20G28G30
  21785086.560   114481374.12909  21785088.460    89206259.75748
  21890146.160   115033536.34509  21890149.600    89636529.07348
  23296957.600   122426221.24008  23296970.600    95397052.11947
  21316819.400   112020623.80209  21316821.980    87288800.62248
  23078960.740   121280706.08208  23078968.600    94504451.50347
  20502972.300   107743829.65509  20502974.880    83956234.93848
  23321352.520   122554578.12708  23321358.500    95497082.91546
  21517105.040   113073106.10009  21517108.820    88108908.07348
  23384483.300   122886480.62608  23384495.400    95755827.30445
  20275068.680   106546212.83209  20275072.960    83023045.38949
 15 02 17 12 42 30.0000000  0 10G02G05G06G07G09G10G13G20G28G30
  21792266.020   114519101.72909  21792267.840    89235657.77648
  21875971.600   114959048.61809  21875975.000    89578486.76048
  23315965.060   122526104.18208  23315978.200    95474882.47147
  21328439.620   112081688.55209  21328442.200    87336383.52148
  23091683.180   121347562.27008  23091690.980    94556547.10647
  20510348.920   107782594.09509  20510351.560    83986440.94348
  23308234.780   122485644.18008  23308240.720    95443368.24346
  21531388.500   113148165.64509  21531392.320    88167395.88448
