     2.11           OBSERVATION DATA    G                   RINEX VERSION / TYPE
SPIDER V4,0,0,3554                      2015 03 16 01:05    PGM / RUN BY / DATE 
ADJF                                                        MARKER NAME         
ADJF                                                        MARKER NUMBER       
                                                            OBSERVER / AGENCY   
496631              LEICA GRX1200+GNSS  8.20/4.007          REC # / TYPE / VERS 
103293              LEIAT504                                ANT # / TYPE        
  5273000.2084   285396.0090  3566759.2257                  APPROX POSITION XYZ 
        0.0480        0.0000        0.0000                  ANTENNA: DELTA H/E/N
     1     1                                                WAVELENGTH FACT L1/2
     4    C1    L1    P2    L2                              # / TYPES OF OBSERV 
    30.000                                                  INTERVAL            
  2015    02    17    00    00    0.0000000     GPS         TIME OF FIRST OBS   
  2015    02    17    23    59   30.0000000     GPS         TIME OF LAST OBS    
    16                                                      LEAP SECONDS        
    30                                                      # OF SATELLITES     
   G 1   835   834   834   834                              PRN / # OF OBS      
   G 2   932   931   931   931                              PRN / # OF OBS      
   G 3   853   853   852   852                              PRN / # OF OBS      
   G 4   852   852   852   852                              PRN / # OF OBS      
   G 5   668   668   668   668                              PRN / # OF OBS      
   G 6   759   759   759   759                              PRN / # OF OBS      
   G 7   656   656   656   656                              PRN / # OF OBS      
   G 9   799   799   799   799                              PRN / # OF OBS      
   G10   781   780   780   780                              PRN / # OF OBS      
   G11   798   798   798   798                              PRN / # OF OBS      
   G12   827   827   827   827                              PRN / # OF OBS      
   G13   822   822   822   822                              PRN / # OF OBS      
   G14   936   936   936   936                              PRN / # OF OBS      
   G15   726   725   725   725                              PRN / # OF OBS      
   G16   688   688   688   688                              PRN / # OF OBS      
   G17   935   935   935   935                              PRN / # OF OBS      
   G18   930   930   930   930                              PRN / # OF OBS      
   G19   779   779   779   779                              PRN / # OF OBS      
   G20   820   820   820   820                              PRN / # OF OBS      
   G21   727   726   726   726                              PRN / # OF OBS      
   G22   724   724   724   724                              PRN / # OF OBS      
   G23   741   741   740   740                              PRN / # OF OBS      
   G24   845   845   844   844                              PRN / # OF OBS      
   G25   872   872   872   872                              PRN / # OF OBS      
   G27   831   831   831   831                              PRN / # OF OBS      
   G28   897   896   896   895                              PRN / # OF OBS      
   G29   767   767   767   767                              PRN / # OF OBS      
   G30   703   703   702   702                              PRN / # OF OBS      
   G31   811   811   811   811                              PRN / # OF OBS      
   G32   756   756   756   756                              PRN / # OF OBS      
BIT 2 OF LLI FLAGS DATA COLLECTED UNDER A/S CONDITION       COMMENT             
SNR is mapped to RINEX snr flag value [2-9]                 COMMENT             
Lx:     = 25dBHz -> 1; 26-27dBHz -> 2; 28-31dBHz -> 3       COMMENT             
       32-35dBHz -> 4; 36-38dBHz -> 5; 39-41dBHz -> 6       COMMENT             
       42-44dBHz -> 7; 45-48dBHz -> 8; >=49dBHz -> 9        COMMENT             
                                                            END OF HEADER       
 15 02 17 00 00  0.0000000  0  7G16G18G21G25G27G29G31
  23011096.040   120924127.52908  23011094.040    94226586.45346
  23724485.700   124673063.03007  23724485.340    97147860.15645
  20942912.640   110055753.59109  20942909.980    85757723.19449
  23484976.260   123414372.56207  23484977.800    96167045.55146
  23920473.300   125702954.17207  23920475.180    97950373.45746
  22856132.220   120109778.04908  22856130.940    93592025.47947
  21483767.620   112897952.23709  21483765.800    87972417.95649
 15 02 17 00 00 30.0000000  0  7G16G18G21G25G27G29G31
  22995075.420   120839938.62108  22995073.380    94160984.72346
  23710486.660   124599498.48207  23710486.200    97090537.26745
  20944195.960   110062497.26309  20944193.220    85762978.01349
  23500944.340   123498285.15507  23500945.580    96232431.97546
  23906991.040   125632104.54907  23906993.000    97895166.01046
  22869717.120   120181166.94708  22869715.780    93647653.17547
  21495422.220   112959197.57009  21495420.420    88020141.57049
 15 02 17 00 01  0.0000000  0  7G16G18G21G25G27G29G31
  22979070.120   120755830.46808  22979067.940    94095445.91646
  23696501.140   124526004.74307  23696500.580    97033269.54344
  20945564.220   110069687.43909  20945561.440    85768580.76049
  23516955.480   123582423.39908  23516956.440    96297994.22546
  23893531.140   125561372.60407  23893533.080    97840050.27246
  22883308.020   120252587.38208  22883306.620    93703305.43847
  21507159.660   113020878.17909  21507157.860    88068204.35949
 15 02 17 00 01 30.0000000  0  7G16G18G21G25G27G29G31
  22963080.360   120671803.84308  22963078.140    94029970.63946
  23682529.520   124452584.01807  23682528.800    96976058.68345
  20947017.100   110077322.25909  20947014.260    85774529.97749
  23533009.200   123666785.66307  23533010.360    96363731.00546
  23880093.400   125490757.27407  23880095.480    97785025.38946
  22896904.600   120324037.92108  22896903.240    93758981.15647
  21518979.340   113082990.90809  21518977.480    88116603.86049
 15 02 17 00 02  0.0000000  0  7G16G18G21G25G27G29G31
  22947106.660   120587861.01508  22947104.280    93964560.65146
  23668572.360   124379240.03407  23668572.000    96918907.66445
  20948554.480   110085401.30109  20948551.640    85780825.34449
  23549105.300   123751371.87307  23549106.800    96429642.29646
  23866678.020   125420259.19007  23866680.000    97730091.87646
  22910506.920   120395518.58808  22910505.620    93814680.35447
  21530880.960   113145534.00209  21530879.040    88165338.72249
 15 02 17 00 02 30.0000000  0  7G16G18G21G25G27G29G31
  22931148.680   120504001.14108  22931146.460    93899215.32346
  23654630.000   124305972.69007  23654629.900    96861816.34045
  20950175.980   110093922.33809  20950173.120    85787465.12649
  23565243.420   123836178.92507  23565245.100    96495725.69946
  23853284.480   125349875.89807  23853286.400    97675247.80446
  22924114.560   120467026.85308  22924113.340    93870401.06047
  21542863.600   113208502.95909  21542861.700    88214405.41749
 15 02 17 00 03  0.0000000  0  7G16G18G21G25G27G29G31
  22915206.920   120420227.01808  22915204.840    93833936.81546
  23640703.100   124232785.60407  23640702.780    96804787.55044
  20951881.340   110102884.26809  20951878.500    85794448.45449
  23581423.660   123921206.99107  23581425.480    96561981.29645
  23839913.080   125279608.33307  23839914.760    97620493.90046
  22937727.360   120538562.79408  22937726.280    93926143.31047
  21554927.100   113271896.74809  21554925.180    88263803.14849
 15 02 17 00 03 30.0000000  0  7G16G18G21G25G27G29G31
  22899281.920   120336540.79108  22899279.860    93768726.78846
  23626791.880   124159682.08307  23626791.280    96747823.88045
  20953670.620   110112287.26009  20953667.820    85801775.46749
  23597645.940   124006455.74507  23597647.740    96628408.87845
  23826563.740   125209456.76007  23826565.220    97565830.35146
  22951345.460   120610126.57408  22951344.340    93981907.25847
  21567071.060   113335713.45709  21567069.100    88313530.43249
 15 02 17 00 04  0.0000000  0  7G16G18G21G25G27G29G31
  22883373.800   120252942.97508  22883371.660    93703585.63946
  23612896.800   124086663.57207  23612896.020    96690926.42745
  20955543.440   110122129.28009  20955540.700    85809444.57749
  23613909.840   124091923.03307  23613911.620    96695006.74446
  23813236.180   125139419.76807  23813237.600    97511256.09846
  22964968.600   120681716.44308  22964967.360    94037691.54847
  21579294.740   113399949.17709  21579292.740    88363584.21048
 15 02 17 00 04 30.0000000  0  7G16G18G21G25G27G29G31
  22867482.860   120169435.45108  22867480.600    93638514.86146
  23599018.600   124013733.25207  23599017.820    96634097.71345
  20957499.700   110132409.81909  20957497.020    85817455.39749
  23630215.320   124177608.75607  23630217.240    96761774.80746
  23799930.400   125069497.94207  23799931.960    97456771.62846
  22978596.700   120753332.33408  22978595.440    94093496.11347
  21591597.880   113464602.49009  21591595.860    88413963.39148
 15 02 17 00 05  0.0000000  0  7G16G18G21G25G27G29G31
  22851609.620   120086020.91708  22851607.360    93573516.52746
  23585157.840   123940894.46907  23585157.180    96577340.31245
  20959539.380   110143128.48509  20959536.700    85825807.61549
  23646562.340   124263512.86807  23646564.380    96828713.03146
  23786646.560   124999691.95107  23786648.380    97402377.41946
  22992229.800   120824974.70008  22992228.620    94149321.29847
  21603980.180   113529671.74009  21603978.180    88464666.67848
 15 02 17 00 05 30.0000000  0  7G16G18G21G25G27G29G31
  22835754.400   120002701.24708  22835752.180    93508592.12346
  23571315.160   123868150.34307  23571314.580    96520656.67345
  20961662.340   110154284.75509  20961659.680    85834500.82049
  23662950.880   124349634.90707  23662952.840    96895821.07646
  23773384.820   124930001.99807  23773386.880    97348073.61146
  23005867.900   120896643.59708  23005866.840    94205167.15947
  21616441.240   113595154.90309  21616439.200    88515692.49049
 15 02 17 00 06  0.0000000  0  7G16G18G21G25G27G29G31
  22819917.220   119919476.46208  22819915.080    93443741.65846
  23557490.560   123795501.46107  23557489.800    96464047.24545
  20963868.040   110165875.72609  20963865.380    85843532.74849
  23679380.380   124435971.85007  23679382.000    96963096.59446
  23760144.820   124860425.76207  23760146.880    97293858.42146
  23019510.600   120968336.20608  23019509.440    94261031.49547
  21628980.220   113661047.50309  21628978.120    88567037.34548
 15 02 17 00 06 30.0000000  0  7G16G18G21G25G27G29G31
  22804098.480   119836348.55408  22804096.320    93378966.67546
  23543684.520   123722951.08807  23543683.640    96407514.58144
  20966156.280   110177900.43209  20966153.620    85852902.65749
  23695850.740   124522523.55607  23695852.180    97030539.47345
  23746926.720   124790964.00707  23746928.700    97239732.42846
  23033157.900   121040052.98908  23033156.640    94316914.67847
  21641596.800   113727348.00509  21641594.660    88618700.05248
 15 02 17 00 07  0.0000000  0  7G16G18G21G25G27G29G31
  22788299.060   119753322.01208  22788296.800    93314270.67746
  23529898.340   123650504.90407  23529897.280    96351063.07445
  20968527.440   110190360.97809  20968524.780    85862612.17149
  23712362.160   124609291.86607  23712363.840    97098151.08546
  23733730.880   124721619.16607  23733732.700    97185697.54646
  23046810.180   121111795.80008  23046808.860    94372818.13047
  21654291.020   113794056.76809  21654288.940    88670680.86948
 15 02 17 00 07 30.0000000  0  7G16G18G21G25G27G29G31
  22772518.100   119670392.45208  22772515.880    93249650.26746
  23516131.360   123578158.73807  23516130.440    96294689.52945
  20970980.220   110203250.35309  20970977.540    85872655.85449
  23728913.480   124696269.62407  23728915.320    97165925.94046
  23720556.040   124652384.85207  23720557.680    97131748.77646
  23060466.140   121183558.09908  23060464.940    94428736.77647
  21667061.240   113861164.84009  21667059.180    88722972.85548
 15 02 17 00 08  0.0000000  0  7G16G18G21G25G27G29G31
  22756757.320   119587568.90808  22756755.060    93185112.45046
  23502385.440   123505923.13107  23502384.440    96238402.11945
  20973515.740   110216574.70309  20973513.060    85883038.46749
  23745505.960   124783463.42907  23745507.960    97233869.12046
  23707403.520   124583268.39707  23707405.120    97077891.83846
  23074127.160   121255346.88908  23074125.940    94484676.06046
  21679908.400   113928677.33409  21679906.420    88775579.95648
 15 02 17 00 08 30.0000000  0  7G16G18G21G25G27G29G31
  22741016.240   119504848.76108  22741013.860    93120655.20246
  23488660.120   123433796.15907  23488658.920    96182199.34445
  20976132.960   110230328.31609  20976130.280    85893755.57849
  23762138.420   124870867.80707  23762140.320    97301976.40145
  23694272.460   124514265.06507  23694274.100    97024123.05346
  23087792.200   121327157.23008  23087790.920    94540632.14347
  21692831.220   113996587.22009  21692829.300    88828496.71948
 15 02 17 00 09  0.0000000  0  7G16G18G21G25G27G29G31
  22725295.600   119422236.46608  22725293.160    93056282.00346
  23474956.500   123361783.50407  23474955.260    96126085.67145
  20978832.200   110244513.14609  20978829.560    85904808.69949
  23778811.320   124958484.97907  23778813.120    97370249.49846
  23681163.460   124445377.79807  23681165.320    96970444.74946
  23101461.880   121398991.59208  23101460.480    94596606.96446
  21705829.800   114064895.11109  21705827.880    88881723.62348
 15 02 17 00 09 30.0000000  0  7G16G18G21G25G27G29G31
  22709595.220   119339730.17108  22709592.740    92991991.38746
  23461274.460   123289884.30907  23461273.120    96070060.38845
  20981612.620   110259124.38109  20981609.980    85916194.08449
  23795523.840   125046310.26907  23795525.820    97438684.74846
  23668075.940   124376602.86307  23668077.900    96916853.95046
  23115135.360   121470846.17708  23115134.080    94652597.50847
  21718902.940   114133594.90209  21718901.020    88935255.90348
 15 02 17 00 10  0.0000000  0  7G16G18G21G25G27G29G31
  22693915.500   119257332.77308  22693913.120    92927785.63946
  23447614.800   123218102.19307  23447613.080    96014126.31645
  20984474.220   110274162.20109  20984471.560    85927911.86849
  23812276.100   125134343.87107  23812278.260    97507282.32546
  23655010.100   124307941.02707  23655011.980    96863351.26147
  23128812.620   121542720.83208  23128811.500    94708603.70347
  21732050.400   114202685.30209  21732048.520    88989092.54348
 15 02 17 00 10 30.0000000  0  7G16G18G21G25G27G29G31
  22678257.320   119175048.47408  22678254.980    92863668.02846
  23433978.200   123146441.97507  23433976.480    95958287.24945
  20987417.180   110289627.57309  20987414.520    85939962.82049
  23829068.160   125222586.97607  23829070.220    97576043.14946
  23641966.180   124239394.30507  23641968.040    96809938.29446
  23142494.220   121614618.07808  23142493.060    94764627.49046
  21745272.100   114272165.76209  21745270.240    89043233.13148
 15 02 17 00 11  0.0000000  0  7G16G18G21G25G27G29G31
  22662620.320   119092875.79708  22662617.980    92799637.38346
  23420364.760   123074903.29908  23420363.500    95902542.90245
  20990440.700   110305516.13609  20990438.000    85952343.52349
  23845899.420   125311035.63407  23845901.580    97644964.14046
  23628943.620   124170959.62307  23628945.320    96756612.60346
  23156179.380   121686534.09708  23156178.300    94820665.93146
  21758567.060   114342031.04909  21758565.160    89097673.58448
 15 02 17 00 11 30.0000000  0  7G16G18G21G25G27G29G31
  22647005.320   119010818.54708  22647002.940    92735696.67747
  23406775.420   123003490.77507  23406774.140    95846896.83445
  20993544.940   110321829.04909  20993542.260    85965054.89149
  23862770.140   125399691.11207  23862771.920    97714046.30645
  23615942.680   124102638.99607  23615944.140    96703375.79446
  23169868.580   121758471.43908  23169867.520    94876720.96847
  21771935.100   114412280.56509  21771933.200    89152413.43448
 15 02 17 00 12  0.0000000  0  7G16G18G21G25G27G29G31
  22631412.800   118928879.32708  22631410.440    92671847.95346
  23393210.720   122932207.79208  23393209.320    95791351.70545
  20996729.860   110338566.05509  20996727.200    85978096.72149
  23879680.160   125488553.28907  23879681.780    97783289.54445
  23602963.440   124034433.05007  23602964.840    96650228.35346
  23183561.840   121830429.84108  23183560.760    94932792.42346
  21785376.000   114482912.64009  21785374.040    89207451.38648
 15 02 17 00 12 30.0000000  0  7G16G18G21G25G27G29G31
  22615842.580   118847057.40608  22615840.240    92608090.61947
  23379670.760   122861055.28707  23379669.260    95735908.24346
  20999994.720   110355723.03909  20999992.040    85991465.80349
  23896628.680   125577618.72007  23896630.680    97852691.08346
  23590005.400   123966339.17507  23590006.900    96597168.25846
  23197258.600   121902406.48808  23197257.540    94988878.08547
  21798888.700   114553922.27909  21798886.760    89262783.53748
 15 02 17 00 13  0.0000000  0  7G16G18G21G25G27G29G31
  22600295.520   118765357.45308  22600293.280    92544428.32946
  23366156.520   122790037.80007  23366155.120    95680570.00545
  21003339.820   110373301.54809  21003337.100    86005163.34949
  23913616.160   125666888.82907  23913618.280    97922252.17646
  23577069.160   123898359.68707  23577070.780    96544197.30247
  23210959.160   121974403.19007  23210958.120    95044979.38547
  21812473.220   114625309.36409  21812471.320    89318409.80248
 15 02 17 00 13 30.0000000  0  7G16G18G21G25G27G29G31
  22584771.500   118683778.34008  22584769.280    92480860.19946
  23352668.040   122719155.53808  23352666.760    95625337.12145
  21006764.480   110391298.25509  21006761.780    86019186.75949
  23930642.080   125756360.25907  23930644.080    97991970.13345
  23564154.380   123830491.95707  23564156.020    96491313.41847
  23224663.080   122046417.67608  23224661.960    95101094.54646
  21826128.640   114697068.92509  21826126.820    89374326.30048
 15 02 17 00 14  0.0000000  0  7G16G18G21G25G27G29G31
  22569270.980   118602322.60808  22569268.720    92417388.21746
  23339205.940   122648411.96908  23339204.680    95570212.33645
  21010268.560   110409712.40409  21010265.880    86033535.45949
  23947706.260   125846032.49707  23947707.980    98061844.59845
  23551260.980   123762736.33607  23551262.620    96438516.90246
  23238370.400   122118449.76608  23238369.200    95157223.41346
  21839854.580   114769198.98509  21839852.780    89430531.51748
 15 02 17 00 14 30.0000000  0  7G16G18G21G25G27G29G31
  22553794.640   118520994.02608  22553792.340    92354015.30446
  23325771.140   122577811.60307  23325769.940    95515199.10845
  21013852.140   110428544.15709  21013849.440    86048209.56049
  23964808.580   125935906.40507  23964810.520    98131876.17146
  23538389.180   123695094.43107  23538390.680    96385808.99046
  23252081.280   122190500.91907  23252079.820    95213367.15246
  21853650.860   114841698.62609  21853649.020    89487024.71548
 15 02 17 00 15  0.0000000  0  7G16G18G21G25G27G29G31
  22538342.380   118439791.68408  22538339.980    92290740.76247
  23312363.540   122507354.06808  23312362.320    95460297.17445
  21017514.440   110447789.61909  21017511.700    86063206.03049
  23981948.780   126025978.28007  23981950.980    98202061.96845
  23525538.400   123627563.53107  23525539.780    96333187.56946
  23265795.320   122262568.31008  23265793.860    95269523.53646
  21867516.480   114914562.77009  21867514.680    89543801.92148
 15 02 17 00 15 30.0000000  0  7G16G18G21G25G27G29G31
  22522915.140   118358720.84108  22522912.740    92227568.69247
  23298984.180   122437045.31708  23298982.860    95405511.17146
  21021255.960   110467451.35509  21021253.200    86078526.86949
  23999127.100   126116250.62007  23999129.380    98272404.01845
  23512709.340   123560146.90707  23512710.520    96280655.19646
  23279513.020   122334654.79807  23279511.680    95325694.79646
  21881451.560   114987792.02809  21881449.820    89600863.65648
 15 02 17 00 16  0.0000000  0  7G16G18G21G25G27G29G31
  22507512.320   118277778.78508  22507509.980    92164496.96547
  23285632.840   122366884.11208  23285631.560    95350840.18045
  21025075.560   110487523.43109  21025072.780    86094167.45449
  24016342.640   126206717.96307  24016344.860    98342897.99445
  23499901.220   123492839.99007  23499902.160    96228208.29046
  23293233.440   122406755.78707  23293232.180    95381877.34447
  21895454.820   115061379.50609  21895453.120    89658204.51148
 15 02 17 00 16 30.0000000  0  7G16G18G21G25G27G29G31
  22492134.980   118196970.66808  22492132.760    92101529.61747
  23272310.760   122296876.19008  23272309.380    95296288.58946
  21028973.620   110508007.90009  21028970.840    86110129.38749
  24033595.680   126297382.41207  24033597.560    98413545.58845
  23487114.620   123425645.70408  23487115.320    96175849.14546
  23306957.040   122478873.98307  23306955.800    95438073.30947
  21909526.380   115135325.88809  21909524.620    89715825.03148
 15 02 17 00 17  0.0000000  0  7G16G18G21G25G27G29G31
  22476783.440   118116297.74608  22476781.240    92038667.61147
  23259018.140   122227023.00907  23259016.740    95241857.58645
  21032949.720   110528902.49209  21032946.960    86126410.89649
  24050885.680   126388242.15406  24050887.380    98484345.33246
  23474349.340   123358563.06908  23474349.920    96123576.99746
  23320683.720   122551008.18908  23320682.400    95494281.75046
  21923665.500   115209627.38109  21923663.740    89773722.25848
 15 02 17 00 17 30.0000000  0  7G16G18G21G25G27G29G31
  22461458.400   118035764.01508  22461456.120    91975914.05447
  23245755.980   122157330.09208  23245754.600    95187551.45845
  21037004.040   110550208.15309  21037001.280    86143012.71049
  24068213.100   126479298.60507  24068215.100    98555298.37446
  23461605.660   123291594.40207  23461606.460    96071393.65147
  23334413.900   122623160.74108  23334412.540    95550504.48546
  21937872.260   115284284.16109  21937870.460    89831896.33248
 15 02 17 00 18  0.0000000  0  7G16G18G21G25G27G29G31
  22446159.600   117955368.25708  22446157.340    91913268.00747
  23232524.040   122087796.63707  23232522.800    95133369.59345
  21041135.760   110571920.56709  21041133.000    86159931.47449
  24085577.320   126570547.41907  24085579.620    98626401.27846
  23448882.840   123224736.29407  23448884.160    96019296.48347
  23348146.900   122695328.05307  23348145.680    95606738.73446
  21952145.420   115359289.96309  21952143.660    89890342.37048
 15 02 17 00 18 30.0000000  0  7G16G18G21G25G27G29G31
  22430887.860   117875114.88008  22430885.620    91850732.92047
  23219323.520   122018427.87008  23219322.180    95079316.04745
  21045345.160   110594041.12309  21045342.380    86177168.27449
  24102978.360   126661990.19706  24102980.660    98697655.31545
  23436181.260   123157991.07207  23436183.160    95967287.30347
  23361883.200   122767512.32707  23361881.940    95662986.19146
  21966485.060   115434644.95409  21966483.340    89949060.48548
 15 02 17 00 19  0.0000000  0  7G16G18G21G25G27G29G31
  22415643.000   117795002.50808  22415640.740    91788307.69547
  23206154.280   121949223.32808  23206152.860    95025390.47046
  21049631.280   110616564.92309  21049628.500    86194719.28449
  24120415.400   126753622.56006  24120417.760    98769057.13245
  23423500.640   123091355.48307  23423502.880    95915363.53146
  23375621.880   122839709.73807  23375620.720    95719243.88346
  21980890.000   115510343.27809  21980888.280    90008046.14548
 15 02 17 00 19 30.0000000  0  7G16G18G21G25G27G29G31
  22400425.520   117715034.21008  22400423.260    91725994.73447
  23193016.960   121880186.52108  23193015.540    94971595.58745
  21053994.120   110639491.85709  21053991.360    86212584.43849
  24137888.580   126845444.51007  24137890.580    98840606.63645
  23410841.280   123024830.36707  23410843.360    95863525.82847
  23389363.220   122911921.47907  23389362.320    95775512.71946
  21995359.880   115586382.97309  21995358.160    90067297.80348
 15 02 17 00 20  0.0000000  0  7G16G18G21G25G27G29G31
  22385235.300   117635209.01808  22385233.060    91663793.30047
  23179911.580   121811317.45008  23179910.380    94917931.42046
  21058432.880   110662817.69609  21058430.100    86230760.42249
  24155397.300   126937452.14607  24155399.160    98912300.89346
  23398202.600   122958412.77808  23398204.060    95811771.86046
  23403106.780   122984144.46407  23403105.880    95831790.33346
  22009893.720   115662758.61309  22009892.040    90126811.16348
 15 02 17 00 20 30.0000000  0  7G16G18G21G25G27G29G31
  22370074.280   117555537.21508  22370071.940    91601711.37547
  23166840.220   121742627.04208  23166839.180    94864406.46046
  21062948.880   110686549.51209  21062946.100    86249252.74949
  24172942.540   127029652.94906  24172944.660    98984145.59745
  23385585.940   122892111.01007  23385586.920    95760108.16146
  23416854.180   123056386.77707  23416853.180    95888083.02346
  22024492.680   115739476.29509  22024491.040    90186591.09448
 15 02 17 00 21  0.0000000  0  7G16G18G21G25G27G29G31
  22354941.740   117476015.11008  22354939.360    91539746.09047
  23153802.320   121674112.27608  23153801.200    94811018.35945
  21067540.800   110710680.13009  21067538.020    86268055.83649
  24190522.960   127122039.91706  24190525.360    99056135.35945
  23372990.060   122825918.97707  23372990.940    95708529.97646
  23430603.940   123128642.14307  23430602.860    95944385.87546
  22039155.060   115816527.39409  22039153.440    90246630.85748
 15 02 17 00 21 30.0000000  0  7G16G18G21G25G27G29G31
  22339838.220   117396645.67908  22339835.900    91477899.79147
  23140798.520   121605776.88308  23140797.100    94757770.04446
  21072208.620   110735209.63009  21072205.840    86287169.73249
  24208139.060   127214613.22107  24208141.180    99128270.38245
  23360415.160   122759837.89907  23360416.220    95657038.25647
  23444356.360   123200911.60007  23444355.300    96000699.71446
  22053880.600   115893910.31909  22053878.980    90306929.18548
 15 02 17 00 22  0.0000000  0  7G16G18G21G25G27G29G31
  22324764.060   117317430.55208  22324761.840    91416173.74047
  23127829.220   121537622.99308  23127827.620    94704663.14146
  21076951.920   110760135.85209  21076949.140    86306592.77949
  24225790.560   127307371.16607  24225792.440    99200549.28245
  23347861.140   122693866.98307  23347862.680    95605632.41047
  23458111.100   123273194.32707  23458110.340    96057023.88146
  22068668.660   115971621.76009  22068667.000    90367483.52648
 15 02 17 00 22 30.0000000  0  7G16G18G21G25G27G29G31
  22309719.580   117238371.12408  22309717.320    91354568.99147
  23114894.980   121469653.17908  23114893.600    94651699.68146
  21081770.400   110785457.12009  21081767.600    86326323.64149
  24243476.780   127400312.42506  24243478.740    99272970.97745
  23335328.040   122628005.77307  23335329.860    95554312.05347
  23471868.440   123345489.90207  23471867.880    96113358.04946
  22083518.680   116049658.81309  22083517.040    90428291.58748
 15 02 17 00 23  0.0000000  0  7G16G18G21G25G27G29G31
  22294705.100   117159469.64808  22294702.820    91293087.33047
  23101996.240   121401870.05608  23101995.080    94598881.69746
  21086663.780   110811172.01909  21086660.960    86346361.22449
  24261197.560   127493436.05706  24261199.960    99345534.74245
  23322815.940   122562254.37307  23322817.820    95503077.24847
  23485628.420   123417798.33807  23485627.820    96169702.23846
  22098430.160   116128018.80909  22098428.520    90489351.28948
 15 02 17 00 23 30.0000000  0  8G16G18G21G22G25G27G29G31
  22279720.860   117080726.95108  22279718.600    91231729.39447
  23089133.260   121334275.08108  23089132.040    94546210.31946
  21091631.600   110837278.12809  21091628.780    86366703.64749
  24540695.080   128962210.27807  24540694.340   100490032.60746
  24278952.640   127586739.61707  24278954.740    99418238.75845
  23310324.520   122496611.27607  23310326.320    95451926.83047
  23499390.480   123490117.99707  23499389.740    96226055.18446
  22113402.320   116206697.90209  22113400.720    90550659.62648
 15 02 17 00 24  0.0000000  0  8G16G18G21G22G25G27G29G31
  22264765.520   117002136.06508  22264763.200    91170489.75347
  23076304.860   121266861.49708  23076303.620    94493680.29546
  21096671.820   110863764.69209  21096669.000    86387342.52849
  24523562.600   128872180.06707  24523561.380   100419879.49944
  24296740.160   127680212.71907  24296742.040    99491074.92045
  23297851.900   122431067.14207  23297853.580    95400853.52647
  23513152.920   123562439.44007  23513152.000    96282409.54346
  22128432.880   116285683.93809  22128431.280    90612207.16048
 15 02 17 00 24 30.0000000  0  8G16G18G21G22G25G27G29G31
  22249843.980   116923723.00808  22249841.600    91109388.68047
  23063516.300   121199656.93208  23063514.880    94441313.13246
  21101788.920   110890655.20009  21101786.060    86408296.17349
  24506415.060   128782071.82407  24506413.900   100349665.55444
  24314564.500   127773879.24107  24314565.980    99564061.76545
  23285402.880   122365646.72708  23285404.360    95349876.60647
  23526920.260   123634787.27907  23526919.240    96338784.44346
  22143526.120   116364999.05109  22143524.460    90674011.10148
 15 02 17 00 25  0.0000000  0  8G16G18G21G22G25G27G29G31
  22234953.580   116845473.61708  22234951.220    91048415.14547
  23050764.900   121132647.61008  23050763.480    94389098.10846
  21106979.420   110917931.37009  21106976.520    86429550.33349
  24489249.840   128691871.29206  24489248.960   100279379.70444
  24332421.880   127867721.43406  24332423.420    99637185.47345
  23272974.180   122300333.34407  23272975.500    95298983.08646
  23540689.480   123707144.95307  23540688.240    96395167.02246
  22158678.280   116444624.17009  22158676.660    90736056.58748
 15 02 17 00 25 30.0000000  0  8G16G18G21G22G25G27G29G31
  22220095.660   116767394.84408  22220093.340    90987574.56947
  23038051.980   121065840.97708  23038050.460    94337041.03545
  21112244.000   110945596.85809  21112241.100    86451107.86349
  24472068.320   128601586.06007  24472068.200   100209027.90045
  24350313.580   127961743.17306  24350315.560    99710449.12346
  23260566.680   122235131.79407  23260568.000    95248176.73247
  23554461.440   123779517.14607  23554460.380    96451560.92446
  22173889.860   116524561.29009  22173888.260    90798345.17648
 15 02 17 00 26  0.0000000  0  8G16G18G21G22G25G27G29G31
  22205269.880   116689484.87908  22205267.640    90926865.52347
  23025377.480   120999235.88808  23025375.820    94285140.98445
  21117581.720   110973646.81409  21117578.820    86472964.97349
  24454871.140   128511214.80507  24454871.080   100138608.92245
  24368238.580   128055939.35507  24368240.800    99783848.64944
  23248179.600   122170037.99507  23248180.980    95197454.33046
  23568235.440   123851899.59807  23568234.520    96507962.81046
  22189159.560   116604803.75809  22189157.920    90860871.65248
 15 02 17 00 26 30.0000000  0  8G16G18G21G22G25G27G29G31
  22190476.240   116611743.59708  22190473.900    90866287.91447
  23012741.280   120932832.41708  23012739.580    94233398.05846
  21122991.780   111002076.90509  21122988.880    86495118.28749
  24437657.560   128420757.39407  24437657.480   100068122.90445
  24386196.240   128150306.58306  24386198.360    99857381.50445
  23235812.660   122105049.64907  23235814.060    95146814.10247
  23582010.980   123924290.07607  23582010.140    96564370.94646
  22204486.480   116685346.72209  22204484.880    90923632.31748
 15 02 17 00 27  0.0000000  0  8G16G18G21G22G25G27G29G31
  22175716.440   116534180.25108  22175714.000    90805848.95947
  23000145.340   120866640.57608  23000143.800    94181820.04146
  21128475.300   111030893.05509  21128472.400    86517572.43449
  24420429.280   128330223.72406  24420429.220    99997577.46045
  24404187.480   128244851.08806  24404189.240    99931052.49944
  23223467.200   122040173.92207  23223468.560    95096261.62847
  23595789.240   123996695.47307  23595788.420    96620790.70446
  22219871.420   116766194.66809  22219869.820    90986630.68448
 15 02 17 00 27 30.0000000  0  8G16G18G21G22G25G27G29G31
  22160989.840   116456791.49809  22160987.400    90745546.06147
  22987589.180   120800658.01408  22987587.760    94130405.08946
  21134030.980   111060088.45309  21134028.100    86540322.10149
  24403186.040   128239610.87206  24403185.940    99926970.24345
  24422211.020   128339566.18706  24422212.600   100004856.42145
  23211142.060   121975405.14207  23211143.400    95045792.49247
  23609569.380   124069110.54807  23609568.560    96677218.00646
  22235312.800   116847339.26509  22235311.240    91049860.16848
 15 02 17 00 28  0.0000000  0  8G16G18G21G22G25G27G29G31
  22146297.600   116379583.13508  22146295.120    90685383.71347
  22975074.040   120734890.32808  22975072.500    94079157.56246
  21139659.240   111089665.14309  21139656.360    86563368.86849
  24385928.880   128148924.59107  24385928.240    99856305.80145
  24440267.560   128434454.15807  24440269.300   100078794.99345
  23198837.920   121910746.67007  23198839.160    94995409.29846
  23623352.000   124141538.45007  23623351.180    96733655.31646
  22250810.720   116928781.18709  22250809.220    91113321.33548
 15 02 17 00 28 30.0000000  0  8G16G18G21G22G25G27G29G31
  22131638.780   116302550.82308  22131636.280    90625358.54747
  22962599.160   120669334.42608  22962597.540    94028075.06546
  21145358.600   111119615.50809  21145355.740    86586706.81949
  24368657.320   128058161.82807  24368656.860    99785581.79445
  24458355.780   128529508.19306  24458357.620   100152863.02145
  23186553.660   121846192.65908  23186554.760    94945107.50146
  23637135.820   124213972.90807  23637134.760    96790097.71146
  22266363.580   117010511.99009  22266362.100    91177007.62548
 15 02 17 00 29  0.0000000  0  8G16G18G21G22G25G27G29G31
  22117015.040   116225702.69009  22117012.560    90565476.90847
  22950166.260   120603999.14808  22950164.640    93977164.47746
  21151129.980   111149944.38109  21151127.140    86610339.70749
  24351372.420   127967330.78106  24351371.920    99714804.58645
  24476476.580   128624733.03506  24476478.780   100227064.11145
  23174290.480   121781749.06008  23174291.520    94894891.74347
  23650922.180   124286420.27207  23650921.100    96846550.19146
  22281972.040   117092534.96609  22281970.600    91240921.61248
 15 02 17 00 29 30.0000000  0  8G16G18G21G22G25G27G29G31
  22102426.360   116149038.68309  22102423.880    90505738.74347
  22937775.300   120538884.45508  22937773.900    93926425.79346
  21156972.680   111180648.15509  21156969.880    86634264.72649
  24334074.600   127876431.83107  24334074.340    99643974.45945
  24494629.080   128720125.14306  24494631.160   100301395.52744
  23162047.920   121717413.23808  23162048.860    94844759.96247
  23664710.540   124358877.99607  23664709.380    96903010.74146
  22297635.140   117174844.92609  22297633.660    91305059.22548
 15 02 17 00 30  0.0000000  0  8G16G18G21G22G25G27G29G31
  22087872.820   116072559.34609  22087870.360    90446144.47047
  22925426.580   120473991.64108  22925425.180    93875859.99446
  21162886.080   111211723.40009  21162883.300    86658479.20649
  24316764.280   127785465.64807  24316763.820    99573091.89345
  24512812.980   128815681.61706  24512814.860   100375855.07145
  23149825.500   121653183.42208  23149826.480    94794710.80647
  23678500.420   124431344.29207  23678499.340    96959477.95946
  22313351.920   117257437.13609  22313350.520    91369416.76048
 15 02 17 00 30 30.0000000  0  8G16G18G21G22G25G27G29G31
  22073355.760   115996271.66709  22073353.300    90386699.54947
  22913121.460   120409328.27408  22913120.060    93825472.97846
  21168870.880   111243173.85709  21168868.120    86682986.05849
  24299442.680   127694440.00207  24299442.040    99502163.02145
  24531028.980   128911406.57407  24531030.700   100450445.87444
  23137624.180   121589064.82408  23137625.160    94744748.30347
  23692292.740   124503824.11407  23692291.920    97015955.68746
  22329122.960   117340314.25009  22329121.600    91433996.30348
 15 02 17 00 31  0.0000000  0  8G16G18G21G22G25G27G29G31
  22058874.880   115920174.19809  22058872.360    90327402.84147
  22900859.840   120344893.32308  22900858.320    93775263.94345
  21174926.060   111274994.15609  21174923.320    86707781.10049
  24282109.420   127603353.72607  24282108.780    99431186.91546
  24549275.820   129007295.17205  24549277.960   100525164.12145
  23125443.220   121525053.54708  23125444.240    94694869.42346
  23706087.000   124576313.81207  23706086.300    97072441.14046
  22344946.960   117423469.71309  22344945.580    91498792.73948
 15 02 17 00 31 30.0000000  0  8G16G18G21G22G25G27G29G31
  22044430.480   115844268.40509  22044427.960    90268255.47547
  22888642.020   120280688.40308  22888640.560    93725234.15646
  21181051.220   111307181.99909  21181048.480    86732862.53349
  24264764.940   127512208.68907  24264764.160    99360165.01845
  24567553.680   129103345.39906  24567555.700   100600008.39044
  23113282.440   121461148.95308  23113283.500    94645073.67847
  23719883.100   124648812.32107  23719882.220    97128933.47446
  22360823.320   117506900.16509  22360821.880    91563803.44448
 15 02 17 00 32  0.0000000  0  8G16G18G21G22G25G27G29G31
  22030023.020   115768556.59509  22030020.520    90209259.27147
  22876468.600   120216716.95708  22876467.380    93675386.30046
  21187246.060   111339736.08809  21187243.320    86758229.35449
  24247409.600   127421007.24107  24247408.640    99289099.11045
  24585862.240   129199556.28007  24585863.920   100674977.81444
  23101141.920   121397350.87008  23101143.000    94595360.92747
  23733680.820   124721319.93107  23733679.880    97185432.89945
  22376751.400   117590602.70609  22376749.900    91629026.18748
 15 02 17 00 32 30.0000000  0  8G16G18G21G22G25G27G29G31
  22015652.980   115693041.54109  22015650.540    90150416.40348
  22864340.280   120152982.33108  22864339.180    93625723.00346
  21193510.460   111372655.53709  21193507.680    86783880.88049
  24230044.420   127329753.40507  24230043.360    99217992.38345
  24604201.260   129295927.41706  24604202.980   100750072.14345
  23089021.940   121333660.12908  23089022.960    94545731.81747
  23747480.280   124793837.33207  23747479.480    97241939.93646
  22392730.920   117674575.53209  22392729.420    91694459.56848
 15 02 17 00 33  0.0000000  0  8G16G18G21G22G25G27G29G31
  22001320.820   115617725.65009  22001318.420    90091728.71048
  22852257.560   120089486.95208  22852256.260    93576246.10046
  21199844.160   111405939.19309  21199841.360    86809816.19449
  24212669.780   127238449.79407  24212669.020    99146846.90346
  24622570.260   129392457.97506  24622572.380   100825290.63944
  23076922.460   121270076.92408  23076923.480    94496186.49247
  23761281.780   124866364.37807  23761281.080    97298454.47646
  22408761.300   117758815.90309  22408759.940    91760101.40148
 15 02 17 00 33 30.0000000  0  8G16G18G21G22G25G27G29G31
  21987026.740   115542609.72609  21987024.260    90033196.84447
  22840220.520   120026231.40708  22840219.080    93526956.08746
  21206246.620   111439584.35009  21206243.820    86836033.20549
  24195285.880   127147097.32407  24195285.220    99075663.34846
  24640969.280   129489145.08606  24640971.500   100900631.15745
  23064843.180   121206599.68008  23064844.220    94446723.74747
  23775084.920   124938899.94507  23775084.140    97354975.66746
  22424841.800   117843319.64209  22424840.580    91825948.47748
 15 02 17 00 34  0.0000000  0  8G16G18G21G22G25G27G29G31
  21972771.400   115467697.41709  21972768.880    89974823.62847
  22828230.040   119963221.00908  22828228.540    93477857.10546
  21212717.800   111473590.69809  21212715.000    86862531.66549
  24177893.580   127055699.93207  24177892.620    99004444.76344
  24659398.260   129585989.01007  24659400.400   100976093.82645
  23052784.240   121143229.65408  23052785.340    94397344.54747
  23788889.960   125011445.65507  23788888.980    97411504.76246
  22440972.140   117928085.22009  22440970.860    91891999.55048
 15 02 17 00 34 30.0000000  0  8G16G18G21G22G25G27G29G31
  21958554.940   115392989.50509  21958552.480    89916609.69148
  22816286.380   119900456.64108  22816284.760    93428949.82646
  21219257.220   111507955.65609  21219254.440    86889309.55249
  24160492.900   126964259.14607  24160491.300    98933192.31345
  24677856.800   129682987.37506  24677858.820   101051676.84244
  23040745.440   121079965.72208  23040746.620    94348048.02647
  23802696.700   125083999.89907  23802695.600    97468040.50645
  22457151.640   118013108.95608  22457150.180    91958251.78948
 15 02 17 00 35  0.0000000  0  8G16G18G21G22G25G27G29G31
  21944378.620   115318492.52209  21944376.180    89858560.11047
  22804390.860   119837945.25108  22804389.340    93380239.67046
  21225865.380   111542681.83409  21225862.620    86916368.91049
  24143085.260   126872782.07707  24143083.620    98861911.64846
  24696344.860   129780143.47405  24696346.500   101127382.84844
  23028727.560   121016812.07708  23028728.840    94298837.45947
  23816505.820   125156566.97807  23816504.760    97524586.25945
  22473380.560   118098392.26908  22473378.940    92024706.28447
 15 02 17 00 35 30.0000000  0  8G16G18G21G22G25G27G29G31
  21930241.580   115244202.12209  21930239.160    89800671.50747
  22792542.700   119775682.60608  22792541.080    93331723.34846
  21232540.660   111577760.70709  21232537.900    86943703.10049
  24125670.140   126781264.61708  24125668.640    98790599.49946
  24714861.360   129877449.46306  24714863.580   101203205.54545
  23016729.540   120953762.19608  23016730.700    94249707.70447
  23830315.920   125229140.24707  23830315.040    97581136.81845
  22489657.040   118183925.66508  22489655.500    92091355.62448
 15 02 17 00 36  0.0000000  0  8G16G18G21G22G25G27G29G31
  21916144.460   115170121.53509  21916142.000    89742946.38947
  22780742.680   119713672.80908  22780740.880    93283404.04446
  21239283.040   111613192.11109  21239280.260    86971311.98249
  24108247.860   126689710.40607  24108246.580    98719258.73245
  24733406.740   129974905.03906  24733409.400   101279144.85545
  23004751.460   120890817.00208  23004752.540    94200659.53847
  23844127.480   125301720.95507  23844126.780    97637693.17746
  22505980.840   118269707.54008  22505979.340    92158198.60048
 15 02 17 00 36 30.0000000  0  8G16G18G21G22G25G27G29G31
  21902088.260   115096255.95209  21902085.780    89685388.80247
  22768991.740   119651921.27908  22768989.880    93235285.98946
  21246092.840   111648977.82209  21246090.020    86999196.95849
  24090819.440   126598124.72907  24090817.960    98647893.40244
  24751981.080   130072511.94206  24751983.420   101355202.06944
  22992793.860   120827979.31208  22992794.780    94151695.14447
  23857941.220   125374311.93107  23857940.620    97694257.54546
  22522351.880   118355737.84608  22522350.400    92225235.13948
 15 02 17 00 37  0.0000000  0  8G16G18G21G22G25G27G29G31
  21888073.120   115022605.92609  21888070.640    89627999.19648
  22757290.000   119590428.52208  22757288.180    93187369.58646
  21252969.340   111685113.94009  21252966.480    87027354.98049
  24073385.440   126506508.97407  24073383.760    98576504.64345
  24770583.480   130170267.21205  24770585.720   101431374.87845
  22980856.380   120765247.33608  22980857.280    94102813.13147
  23871756.580   125446911.23407  23871755.740    97750828.42345
  22538769.340   118442012.16208  22538767.840    92292461.85948
 15 02 17 00 37 30.0000000  0  8G16G18G21G22G25G27G29G31
  21874099.560   114949174.26509  21874097.060    89570779.73848
  22745638.220   119529198.03108  22745636.380    93139657.53146
  21259912.380   111721599.75609  21259909.500    87055785.49349
  24055946.460   126414866.40507  24055944.600    98505094.95145
  24789213.720   130268170.56706  24789215.640   101507663.04744
  22968939.180   120702621.90908  22968940.040    94054014.14647
  23885573.700   125519519.99407  23885572.540    97807406.65645
  22555232.840   118528528.39108  22555231.360    92359877.08248
 15 02 17 00 38  0.0000000  0  8G16G18G21G22G25G27G29G31
  21860167.880   114875962.76109  21860165.300    89513731.82748
  22734036.740   119468231.85808  22734034.940    93092151.43746
  21266921.560   111758433.25109  21266918.680    87084486.91949
  24038502.720   126323199.04007  24038500.900    98433665.98145
  24807872.020   130366219.94406  24807874.100   101584065.11245
  22957042.080   120640102.34508  22957042.960    94005297.64547
  23899392.180   125592137.37707  23899391.060    97863991.59545
  22571741.700   118615283.12608  22571740.300    92427478.14348
 15 02 17 00 38 30.0000000  0  7G16G18G21G22G27G29G31
  21846278.620   114802974.21209  21846275.980    89456857.63848
  22722486.240   119407533.44508  22722484.420    93044853.99846
  21273996.800   111795613.73609  21273993.900    87113458.73049
  24021054.760   126231510.34507  24021053.280    98362220.40145
  22945165.180   120577689.36608  22945166.220    93956664.20247
  23913212.500   125664764.39507  23913211.660    97920584.05846
  22588295.560   118702274.31808  22588294.240    92495263.48148
 15 02 17 00 39  0.0000000  0  7G16G18G21G22G27G29G31
  21832432.000   114730209.87009  21832429.440    89400158.17948
  22710987.000   119347104.50208  22710985.120    92997766.54946
  21281137.520   111833138.54109  21281134.640    87142698.84449
  24003603.040   126139801.83407  24003601.420    98290759.35845
  22933308.360   120515382.00308  22933309.500    93908113.07447
  23927034.480   125737400.08607  23927033.720    97977183.27046
  22604893.760   118789498.36908  22604892.400    92563230.28047
 15 02 17 00 39 30.0000000  0  7G16G18G21G22G27G29G31
  21818628.320   114657671.13109  21818625.820    89343634.49448
  22699539.340   119286946.66308  22699537.420    92950890.33046
  21288343.280   111871005.06009  21288340.400    87172205.22249
  23986148.000   126048075.54207  23986145.900    98219284.41544
  22921471.540   120453179.27208  22921472.740    93859643.44447
  23940858.000   125810043.55207  23940857.500    98033788.53545
  22621535.520   118876951.27908  22621534.160    92631375.36648
 15 02 17 00 40  0.0000000  0  7G16G18G21G22G27G29G31
  21804868.280   114585361.66409  21804865.760    89287289.47448
  22688144.020   119227063.75308  22688142.060    92904228.35746
  21295614.000   111909213.06709  21295611.160    87201977.71049
  23968690.180   125956335.10807  23968688.220    98147798.49546
  22909654.860   120391082.37908  22909656.060    93811256.30647
  23954683.220   125882695.88107  23954682.680    98090400.75245
  22638220.480   118964631.37008  22638219.160    92699697.49447
 15 02 17 00 40 30.0000000  0  7G16G18G21G22G27G29G31
  21791151.520   114513279.96109  21791149.000    89231121.93448
  22676800.760   119167454.36708  22676798.600    92857779.50946
  21302948.720   111947757.32809  21302945.880    87232012.20149
  23951229.480   125864579.90307  23951227.980    98076301.08646
  22897857.700   120329087.85808  22897858.860    93762948.94247
  23968509.700   125955353.55407  23968509.220    98147017.09446
  22654947.540   119052532.59508  22654946.280    92768191.90948
 15 02 17 00 41  0.0000000  0  7G16G18G21G22G27G29G31
  21777479.640   114441434.03609  21777477.220    89175138.10648
  22665511.120   119108127.12408  22665509.040    92811550.50546
  21310348.200   111986641.98109  21310345.380    87262311.92749
  23933767.660   125772818.50007  23933766.320    98004798.82845
  22886081.120   120267201.52008  22886082.160    93714725.87147
  23982338.440   126028023.02807  23982338.060    98203642.61945
  22671717.240   119140657.60408  22671715.980    92836860.64447
 15 02 17 00 41 30.0000000  0  7G16G18G21G22G27G29G31
  21763852.140   114369821.17109  21763849.760    89119335.89048
  22654274.600   119049078.90708  22654272.720    92765538.93046
  21317811.260   112025860.68909  21317808.440    87292871.96149
  23916304.420   125681048.43807  23916302.800    97933289.78445
  22874324.000   120205418.00508  22874324.980    93666582.91747
  23996168.280   126100698.67907  23996167.620    98260272.98846
  22688528.020   119228998.67808  22688526.740    92905697.80248
 15 02 17 00 42  0.0000000  0  7G16G18G21G22G27G29G31
  21750270.200   114298447.95009  21750267.880    89063720.40948
  22643092.600   118990317.15608  22643090.740    92719750.57347
  21325338.340   112065415.89309  21325335.520    87323694.19849
  23898840.660   125589276.59807  23898838.720    97861779.35745
  22862587.320   120143741.72508  22862588.320    93618523.52347
  24009999.820   126173385.02106  24009999.340    98316911.62846
  22705380.260   119317557.26908  22705378.960    92974704.42647
 15 02 17 00 42 30.0000000  0  7G16G18G21G22G27G29G31
  21736734.100   114227315.22709  21736731.720    89008292.32848
  22631965.400   118931843.39608  22631963.480    92674186.63746
  21332928.840   112105304.31409  21332926.000    87354776.08649
  23881376.540   125497504.13807  23881374.940    97790268.49746
  22850870.840   120082171.33008  22850871.820    93570546.64347
  24023833.280   126246080.47807  24023832.660    98373557.41645
  22722273.000   119406328.77008  22722271.680    93043876.92647
 15 02 17 00 43  0.0000000  0  7G16G18G21G22G27G29G31
  21723242.860   114156418.17709  21723240.440    88953047.88048
  22620891.940   118873652.40708  22620890.040    92628843.02146
  21340581.120   112145517.47709  21340578.300    87386111.01649
  23863911.940   125405727.16407  23863910.620    97718754.09946
  22839173.200   120020699.83008  22839174.120    93522646.81847
  24037667.420   126318778.94807  24037666.580    98430205.56746
  22739204.500   119495304.13008  22739203.200    93113208.25347
 15 02 17 00 43 30.0000000  0  7G16G18G21G22G27G29G31
  21709798.220   114085765.92309  21709795.800    88897994.19148
  22609874.140   118815754.21808  22609872.360    92583727.58246
  21348296.300   112186061.02109  21348293.500    87417703.39449
  23846448.440   125313954.88307  23846447.040    97647243.34946
  22827495.620   119959333.94608  22827496.540    93474829.30147
  24051503.420   126391486.57307  24051502.560    98486860.86645
  22756175.460   119584486.70908  22756174.080    93182701.07347
 15 02 17 00 44  0.0000000  0  7G16G18G21G22G27G29G31
  21696400.960   114015362.88909  21696398.540    88843134.69848
  22598912.780   118758152.72608  22598911.000    92538843.32546
  21356074.360   112226934.93909  21356071.580    87449553.20348
  23828986.400   125222192.25207  23828984.900    97575740.13145
  22815838.480   119898075.70008  22815839.400    93427095.65347
  24065341.580   126464205.71707  24065340.600    98543525.12146
  22773185.760   119673875.79708  22773184.360    93252354.82248
 15 02 17 00 44 30.0000000  0  7G16G18G21G22G27G29G31
  21683050.900   113945207.79709  21683048.380    88788468.40448
  22588007.700   118700846.82408  22588005.940    92494189.39647
  21363914.380   112268134.27009  21363911.580    87481656.57549
  23811525.900   125130438.35807  23811524.340    97504243.72545
  22804201.240   119836921.58908  22804202.140    93379443.14747
  24079181.220   126536932.87507  24079180.280    98600195.63246
  22790234.220   119763465.37108  22790232.820    93322164.75747
 15 02 17 00 45  0.0000000  0  7G16G18G21G22G27G29G31
  21669748.100   113875300.88809  21669745.500    88733995.49248
  22577159.040   118643837.37508  22577157.360    92449766.47146
  21371815.560   112309655.13809  21371812.760    87514010.50148
  23794067.500   125038694.18608  23794066.000    97432754.87146
  22792583.400   119775869.65108  22792584.340    93331870.25647
  24093021.940   126609666.03707  24093021.240    98656870.76246
  22807319.880   119853250.23508  22807318.400    93392126.78047
 15 02 17 00 45 30.0000000  0  7G16G18G21G22G27G29G31
  21656494.040   113805650.46109  21656491.520    88679722.44648
  22566368.460   118587133.13808  22566366.960    92405581.38047
  21379778.780   112351502.13909  21379775.960    87546618.55949
  23776612.620   124946968.17507  23776611.240    97361280.17846
  22780986.140   119714925.94008  22780987.040    93284381.70847
  24106864.820   126682411.73207  24106864.240    98713555.67246
  22824443.300   119943233.84408  22824441.740    93462243.72847
 15 02 17 00 46  0.0000000  0  7G16G18G21G22G27G29G31
  21643288.120   113736253.04909  21643285.640    88625646.54648
  22555635.280   118530730.54608  22555633.920    92361631.32247
  21387802.640   112393667.85809  21387799.840    87579474.96449
  23759160.500   124855257.69307  23759159.140    97289817.60846
  22769408.440   119654084.71408  22769409.320    93236972.99047
  24120709.020   126755163.94407  24120708.540    98770245.69445
  22841602.960   120033407.64108  22841601.400    93532508.95147
 15 02 17 00 46 30.0000000  0  7G16G18G21G22G27G29G31
  21630130.780   113667110.80509  21630128.300    88571769.48448
  22544959.980   118474631.95708  22544958.780    92317918.16147
  21395886.780   112436150.31909  21395883.960    87612578.18048
  23741711.880   124763565.05107  23741710.360    97218368.92745
  22757850.180   119593345.74708  22757850.980    93189643.97147
  24134554.560   126827922.71107  24134554.000    98826940.82345
  22858798.140   120123768.37008  22858796.620    93602919.86547
 15 02 17 00 47  0.0000000  0  7G16G18G21G22G27G29G31
  21617022.760   113598227.68509  21617020.280    88518094.33948
  22534343.320   118418841.18408  22534342.240    92274444.85846
  21404031.200   112478949.72709  21404028.420    87645928.37048
  23724267.560   124671894.86707  23724265.840    97146937.73246
  22746311.720   119532710.79908  22746312.520    93142396.00047
  24148401.820   126900689.96207  24148400.920    98883642.57945
  22876028.700   120214315.05908  22876027.240    93673475.69047
 15 02 17 00 47 30.0000000  0  7G16G18G21G22G27G29G31
  21603964.580   113529606.78009  21603962.180    88464623.51048
  22523785.880   118363361.46008  22523784.840    92231213.92546
  21412235.720   112522064.83309  21412233.000    87679524.56148
  23706828.160   124580250.31707  23706826.320    97075526.49846
  22734793.020   119472180.41308  22734793.920    93095229.51247
  24162250.760   126973466.22306  24162249.640    98940351.37745
  22893294.160   120305045.20908  22893292.660    93744174.37547
 15 02 17 00 48  0.0000000  0  7G16G18G21G22G27G29G31
  21590957.060   113461252.00309  21590954.720    88411360.06048
  22513288.480   118308197.18008  22513287.320    92188228.78846
  21420500.380   112565495.95709  21420497.660    87713366.99149
  23689394.360   124488635.59507  23689392.640    97004138.53246
  22723294.620   119411756.46708  22723295.600    93048145.95747
  24176101.600   127046253.70107  24176100.900    98997068.82246
  22910594.380   120395957.91108  22910592.800    93815015.29747
 15 02 17 00 48 30.0000000  0  7G16G18G21G22G27G29G31
  21577999.340   113393158.69409  21577996.940    88358300.34348
  22502850.200   118253343.69008  22502849.000    92145485.82946
  21428823.560   112609234.45509  21428820.820    87747448.94049
  23671965.620   124397047.25307  23671963.760    96932771.09546
  22711815.260   119351432.06308  22711816.240    93001139.97347
  24189953.480   127119045.37707  24189952.920    99053789.62846
  22927927.460   120487043.55708  22927925.900    93885991.02447
 15 02 17 00 49  0.0000000  0  7G16G18G21G22G27G29G31
  21565093.260   113325336.83809  21565090.800    88305452.14548
  22492473.020   118198811.20208  22492471.800    92102993.00047
  21437206.340   112653286.18809  21437203.580    87781774.96148
  23654543.780   124305495.58307  23654541.880    96861432.24446
  22700356.300   119291214.83708  22700357.260    92954217.50347
  24203807.440   127191848.59706  24203806.840    99110519.37645
  22945294.260   120578306.84808  22945292.940    93957105.22647
 15 02 17 00 49 30.0000000  0  7G16G18G21G22G27G29G31
  21552238.280   113257783.34609  21552235.820    88252813.06948
  22482156.300   118144596.44908  22482155.000    92060747.76247
  21445647.380   112697643.99009  21445644.600    87816339.48649
  23637128.400   124213977.45107  23637126.540    96790119.53346
  22688916.760   119231099.20008  22688917.500    92907374.18747
  24217662.740   127264658.49307  24217662.020    99167254.35445
  22962693.280   120669739.23708  22962692.080    94028351.23347
 15 02 17 00 50  0.0000000  0  7G16G18G21G22G27G29G31
  21539435.360   113190503.40609  21539432.880    88200387.15848
  22471901.020   118090704.48108  22471899.680    92018754.04747
  21454146.900   112742309.27409  21454144.120    87851143.60648
  23619720.440   124122499.09407  23619718.840    96718837.84046
  22677497.120   119171088.38908  22677497.720    92860612.55047
  24231519.940   127337478.53306  24231519.440    99223997.23146
  22980124.560   120761341.03408  22980123.280    94099729.24047
 15 02 17 00 50 30.0000000  0  7G16G18G21G22G27G29G31
  21526684.580   113123497.71009  21526682.080    88148174.93448
  22461707.460   118037136.72508  22461706.100    91977012.96047
  21462704.300   112787278.64309  21462701.480    87886184.66948
  23602320.320   124031061.23808  23602318.540    96647587.66446
  22666097.020   119111180.65908  22666097.680    92813931.24047
  24245378.600   127410306.85106  24245378.120    99280746.56545
  22997587.200   120853107.58308  22997585.980    94171235.60547
 15 02 17 00 51  0.0000000  0  7G16G18G21G22G27G29G31
  21513986.660   113056769.66409  21513984.080    88096179.05748
  22451576.360   117983896.96208  22451575.040    91935527.45147
  21471319.500   112832551.88509  21471316.660    87921462.51548
  23584928.700   123939668.19907  23584926.760    96576372.42246
  22654716.740   119051377.41008  22654717.500    92767331.35147
  24259239.120   127483144.82707  24259238.720    99337503.40345
  23015080.840   120945037.38108  23015079.580    94242869.10147
 15 02 17 00 51 30.0000000  0  7G16G18G21G22G27G29G31
  21501341.860   112990320.73609  21501339.300    88044400.68248
  22441507.700   117930985.34008  22441506.260    91894297.64347
  21479991.940   112878125.91809  21479989.080    87956974.75948
  23567545.880   123848321.48608  23567543.960    96505193.28846
  22643356.120   118991677.32708  22643357.000    92720811.85548
  24273101.280   127555991.11107  24273100.900    99394266.70845
  23032604.840   121037126.40508  23032603.660    94314626.65347
 15 02 17 00 52  0.0000000  0  7G16G18G21G22G27G29G31
  21488750.100   112924150.56709  21488747.560    87992839.51448
  22431501.580   117878402.47508  22431499.960    91853324.00146
  21488720.740   112923996.01609  21488717.840    87992717.69748
  23550172.000   123757021.34908  23550169.960    96434050.43446
  22632014.720   118932078.07308  22632015.600    92674370.91648
  24286964.860   127628843.60207  24286964.280    99451034.88145
  23050158.100   121129368.93308  23050157.040    94386503.73347
 15 02 17 00 52 30.0000000  0  7G16G18G21G22G27G29G31
  21476212.640   112858265.84909  21476210.080    87941500.78148
  22421559.280   117826155.07308  22421557.540    91812611.76447
  21497506.580   112970165.96209  21497503.680    88028694.28648
