     2.11           OBSERVATION DATA    G                   RINEX VERSION / TYPE
SPIDER V4,0,0,3554                      2015 04 16 09:00    PGM / RUN BY / DATE 
CABS                                                        MARKER NAME         
CABS                                                        MARKER NUMBER       
                                                            OBSERVER / AGENCY   
462287              LEICA GRX1200PRO    8.10/2.127          REC # / TYPE / VERS 
103298              LEIAT504                                ANT # / TYPE        
  5116912.3402   671231.6412  3737143.4301                  APPROX POSITION XYZ 
        0.0600        0.0000        0.0000                  ANTENNA: DELTA H/E/N
     1     1                                                WAVELENGTH FACT L1/2
     4    C1    L1    P2    L2                              # / TYPES OF OBSERV 
    30.000                                                  INTERVAL            
  2015    02    17    00    00    0.0000000     GPS         TIME OF FIRST OBS   
  2015    02    17    23    59   30.0000000     GPS         TIME OF LAST OBS    
    16                                                      LEAP SECONDS        
    30                                                      # OF SATELLITES     
   G 1   777   777   777   777                              PRN / # OF OBS      
   G 2   942   942   942   942                              PRN / # OF OBS      
   G 3   846   846   846   846                              PRN / # OF OBS      
   G 4   831   831   831   831                              PRN / # OF OBS      
   G 5   618   618   618   618                              PRN / # OF OBS      
   G 6   816   816   816   816                              PRN / # OF OBS      
   G 7   673   673   673   673                              PRN / # OF OBS      
   G 9   806   806   806   806                              PRN / # OF OBS      
   G10   741   741   741   741                              PRN / # OF OBS      
   G11   770   770   770   770                              PRN / # OF OBS      
   G12   809   809   808   808                              PRN / # OF OBS      
   G13   789   789   789   789                              PRN / # OF OBS      
   G14   941   941   940   940                              PRN / # OF OBS      
   G15   695   695   695   695                              PRN / # OF OBS      
   G16   665   665   665   665                              PRN / # OF OBS      
   G17   942   942   942   942                              PRN / # OF OBS      
   G18   902   902   902   902                              PRN / # OF OBS      
   G19   750   750   750   750                              PRN / # OF OBS      
   G20   788   788   787   787                              PRN / # OF OBS      
   G21   742   742   742   742                              PRN / # OF OBS      
   G22   657   657   657   657                              PRN / # OF OBS      
   G23   755   755   755   755                              PRN / # OF OBS      
   G24   816   816   816   816                              PRN / # OF OBS      
   G25   855   855   855   855                              PRN / # OF OBS      
   G27   800   800   800   800                              PRN / # OF OBS      
   G28   843   843   842   842                              PRN / # OF OBS      
   G29   754   754   754   754                              PRN / # OF OBS      
   G30   719   719   719   719                              PRN / # OF OBS      
   G31   870   870   870   870                              PRN / # OF OBS      
   G32   769   769   769   769                              PRN / # OF OBS      
BIT 2 OF LLI FLAGS DATA COLLECTED UNDER A/S CONDITION       COMMENT             
SNR is mapped to RINEX snr flag value [2-9]                 COMMENT             
Lx:     = 25dBHz -> 1; 26-27dBHz -> 2; 28-31dBHz -> 3       COMMENT             
       32-35dBHz -> 4; 36-38dBHz -> 5; 39-41dBHz -> 6       COMMENT             
       42-44dBHz -> 7; 45-48dBHz -> 8; >=49dBHz -> 9        COMMENT             
                                                            END OF HEADER       
 15 02 17 00 00  0.0000000  0  7G16G18G21G25G27G29G31
  23123202.980   121513260.57207  23123204.280    94685670.87045
  23695589.980   124521189.59606  23695592.460    97029507.76645
  20894842.180   109803263.22108  20894843.340    85561036.12749
  23289309.620   122386260.52007  23289314.280    95365971.73446
  24304130.360   127719071.86205  24304135.900    99521379.21745
  22458902.080   118022559.55108  22458904.180    91965745.52347
  21776436.800   114435963.90408  21776438.320    89170898.19748
 15 02 17 00 00 30.0000000  0  7G16G18G21G25G27G29G31
  23106388.720   121424901.28407  23106390.020    94616819.48945
  23680518.680   124441990.43906  23680521.180    96967794.20745
  20894778.040   109802926.11508  20894779.160    85560773.46049
  23306077.760   122474377.15207  23306082.440    95434634.02646
  24289697.560   127643227.07005  24289703.260    99462279.42745
  22471825.520   118090472.57308  22471827.620    92018664.74147
  21788787.580   114500867.34408  21788789.040    89221472.28448
 15 02 17 00 01  0.0000000  0  7G16G18G21G25G27G29G31
  23089594.140   121336645.16507  23089595.460    94548048.50445
  23665461.760   124362867.44606  23665464.440    96906139.96345
  20894797.680   109803029.07208  20894798.720    85560853.69449
  23322890.900   122562730.95207  23322895.660    95503481.10546
  24275281.680   127567471.37505  24275287.580    99403249.05645
  22484762.700   118158457.84008  22484764.780    92071640.25347
  21801217.020   114566184.12208  21801218.440    89272368.45248
 15 02 17 00 01 30.0000000  0  7G16G18G21G25G27G29G31
  23072818.680   121248489.42007  23072820.040    94479355.72046
  23650418.980   124283819.09806  23650421.920    96844543.91345
  20894900.020   109803566.65708  20894901.020    85561272.60249
  23339748.040   122651316.25906  23339752.880    95572508.60946
  24260881.900   127491800.19105  24260887.780    99344284.53645
  22497712.640   118226510.22108  22497714.720    92124668.05847
  21813723.740   114631907.19008  21813725.180    89323581.20748
 15 02 17 00 02  0.0000000  0  7G16G18G21G25G27G29G31
  23056062.720   121160436.28207  23056064.140    94410742.90746
  23635391.200   124204849.00006  23635394.140    96783008.80044
  20895084.940   109804538.27908  20895085.900    85562029.71849
  23356649.080   122740132.52006  23356654.000    95641716.04446
  24246498.220   127416213.86505  24246504.080    99285386.15646
  22510675.360   118294629.49508  22510677.420    92177747.97947
  21826307.380   114698034.33608  21826308.840    89375108.83148
 15 02 17 00 02 30.0000000  0  7G16G18G21G25G27G29G31
  23039326.700   121072488.22907  23039328.260    94342211.97146
  23620378.900   124125960.00506  23620381.920    96721536.91244
  20895352.660   109805945.01008  20895353.580    85563125.87649
  23373594.060   122829179.51906  23373598.960    95711103.28846
  24232130.820   127340713.34105  24232136.660    99226554.64446
  22523651.060   118362816.31108  22523652.900    92230880.54647
  21838967.620   114764564.01208  21838969.080    89426950.11748
 15 02 17 00 03  0.0000000  0  7G16G18G21G25G27G29G31
  23022610.680   120984645.38807  23022612.380    94273763.01846
  23605382.320   124047152.98706  23605385.280    96660128.89545
  20895702.380   109807782.99008  20895703.320    85564558.07749
  23390582.540   122918454.30606  23390587.300    95780668.02045
  24217779.360   127265296.57705  24217785.140    99167788.35345
  22536639.120   118431067.98308  22536640.780    92284063.64747
  21851703.660   114831492.17808  21851705.120    89479101.91448
 15 02 17 00 03 30.0000000  0  7G16G18G21G25G27G29G31
  23005915.340   120896911.24107  23005917.200    94205398.77546
  23590402.320   123968432.48706  23590405.140    96598788.29144
  20896134.460   109810053.74108  20896135.420    85566327.50149
  23407614.560   123007957.47306  23407619.040    95850410.71745
  24203444.240   127189965.31805  24203449.980    99109088.71945
  22549639.700   118499385.81508  22549641.300    92337298.28847
  21864515.340   114898817.91908  21864516.800    89531563.50648
 15 02 17 00 04  0.0000000  0  7G16G18G21G25G27G29G31
  22989240.920   120809286.82207  22989242.780    94137120.02746
  23575439.160   123889800.15406  23575441.920    96537516.38444
  20896648.600   109812755.67208  20896649.560    85568432.90449
  23424689.680   123097687.00907  23424694.000    95920329.80145
  24189125.220   127114718.54205  24189130.800    99050454.94945
  22562652.560   118567768.46408  22562654.160    92390583.44147
  21877401.920   114966537.46708  21877403.400    89584331.96248
 15 02 17 00 04 30.0000000  0  7G16G18G21G25G27G29G31
  22972587.840   120721774.12207  22972589.660    94068928.32846
  23560493.480   123811259.18206  23560496.100    96476315.66944
  20897244.660   109815888.28608  20897245.660    85570873.90449
  23441807.820   123187642.42807  23441811.920    95990424.92445
  24174822.400   127039556.78105  24174827.740    98991887.39345
  22575677.660   118636215.75308  22575679.320    92443918.96247
  21890363.060   115034649.16908  21890364.620    89637405.98748
 15 02 17 00 05  0.0000000  0  7G16G18G21G25G27G29G31
  22955956.520   120634375.48907  22955958.240    94000825.51546
  23545565.720   123732812.37506  23545568.240    96415188.33645
  20897922.540   109819450.83508  20897923.580    85573649.92049
  23458968.660   123277822.94107  23458972.740    96060695.43346
  24160535.960   126964480.41405  24160541.120    98933386.38745
  22588714.980   118704727.65808  22588716.780    92497304.83747
  21903398.400   115103150.67208  21903400.040    89690783.75948
 15 02 17 00 05 30.0000000  0  7G16G18G21G25G27G29G31
  22939347.300   120547093.44307  22939349.060    93932813.55446
  23530656.540   123654463.38306  23530658.860    96354137.20245
  20898682.280   109823443.43408  20898683.360    85576761.04149
  23476172.240   123368228.27507  23476176.420    96131141.12545
  24146265.920   126889490.17806  24146270.940    98874952.52145
  22601764.640   118773304.78008  22601766.580    92550741.52947
  21916507.640   115172040.25308  21916509.320    89744463.93648
 15 02 17 00 06  0.0000000  0  7G16G18G21G25G27G29G31
  22922760.620   120459929.88307  22922762.360    93864893.91346
  23515766.420   123576214.43307  23515768.600    96293164.03845
  20899523.700   109827864.96108  20899524.760    85580206.39249
  23493418.180   123458856.91306  23493422.720    96201760.81746
  24132012.180   126814585.56505  24132017.100    98816585.36146
  22614826.520   118841945.98208  22614828.560    92604228.16047
  21929690.180   115241314.98208  21929691.880    89798444.21748
 15 02 17 00 06 30.0000000  0  7G16G18G21G25G27G29G31
  22906196.820   120372886.93107  22906198.600    93797068.24846
  23500895.820   123498068.83406  23500898.060    96232271.41145
  20900446.600   109832714.61008  20900447.620    85583985.34649
  23510706.440   123549708.39206  23510711.360    96272554.14446
  24117774.760   126739767.35505  24117779.720    98758285.49045
  22627900.760   118910651.75308  22627902.780    92657765.10846
  21942945.700   115310973.13108  21942947.420    89852723.27448
 15 02 17 00 07  0.0000000  0  7G16G18G21G25G27G29G31
  22889656.260   120285966.08007  22889658.040    93729337.71746
  23486045.300   123420029.03806  23486047.720    96171461.20845
  20901450.760   109837991.38508  20901451.780    85588097.12549
  23528036.800   123640781.15206  23528042.000    96343519.89745
  24103553.580   126665034.98805  24103558.700    98700052.53545
  22640987.000   118979420.76907  22640989.060    92711351.34047
  21956273.640   115381011.70008  21956275.380    89907298.75148
 15 02 17 00 07 30.0000000  0  7G16G18G21G25G27G29G31
  22873139.200   120199168.29907  22873140.880    93661703.10146
  23471215.020   123342096.04506  23471217.640    96110734.24646
  20902535.860   109843693.58208  20902536.880    85592540.40149
  23545408.920   123732072.93406  23545414.300    96414656.31946
  24089348.460   126590387.36905  24089353.840    98641885.61945
  22654085.040   119048251.64108  22654087.180    92764985.75347
  21969673.260   115451426.73708  21969674.920    89962167.58548
 15 02 17 00 08  0.0000000  0  7G16G18G21G25G27G29G31
  22856645.980   120112495.60707  22856647.520    93594165.94446
  23456405.700   123264273.24406  23456408.320    96050093.12545
  20903701.740   109849820.33108  20903702.780    85597314.49349
  23562822.660   123823582.97006  23562828.220    96485962.80946
  24075159.460   126515824.77705  24075165.120    98583784.94545
  22667194.900   119117144.29408  22667197.020    92818668.31347
  21983144.080   115522216.06108  21983145.640    90017328.07048
 15 02 17 00 08 30.0000000  0  7G16G18G21G25G27G29G31
  22840176.920   120025949.76307  22840178.340    93526727.63446
  23441617.720   123186562.92306  23441620.460    95989539.65845
  20904948.140   109856370.21508  20904949.160    85602418.30149
  23580277.780   123915309.62206  23580283.360    96557438.07746
  24060986.620   126441346.72805  24060992.340    98525750.13845
  22680316.400   119186097.86108  22680318.460    92872398.33247
  21996685.540   115593376.61608  21996687.020    90072777.82348
 15 02 17 00 09  0.0000000  0  7G16G18G21G25G27G29G31
  22823732.300   119939532.61707  22823733.700    93459389.60546
  23426851.620   123108967.99106  23426854.560    95929076.12546
  20906274.940   109863342.58808  20906275.960    85607851.32149
  23597774.140   124007252.18306  23597779.640    96629081.59246
  24046829.900   126366953.55305  24046835.560    98467781.46945
  22693449.440   119255112.23408  22693451.520    92926175.73747
  22010297.160   115664906.15408  22010298.640    90128515.09548
 15 02 17 00 09 30.0000000  0  7G16G18G21G25G27G29G31
  22807312.460   119853246.06507  22807313.920    93392153.34746
  23412108.140   123031491.11706  23412111.100    95868704.57145
  20907681.940   109870736.32808  20907682.940    85613612.67749
  23615311.320   124099409.30606  23615316.600    96700892.30645
  24032689.380   126292645.18905  24032695.020    98409878.90945
  22706594.020   119324187.14807  22706596.100    92980000.32347
  22023978.420   115736801.94708  22023980.000    90184537.76648
 15 02 17 00 10  0.0000000  0  7G16G18G21G25G27G29G31
  22790917.880   119767092.18907  22790919.440    93325020.47346
  23397387.740   122954135.01606  23397390.660    95808427.13745
  20909168.960   109878550.79008  20909169.980    85619701.86849
  23632889.020   124191779.94406  23632894.120    96772869.39645
  24018565.100   126218421.58105  24018570.680    98352042.37645
  22719749.860   119393321.44307  22719751.980    93033871.17647
  22037728.900   115809061.59108  22037730.660    90240843.96048
 15 02 17 00 10 30.0000000  0  7G16G18G21G25G27G29G31
  22774549.140   119681073.96407  22774550.740    93257993.30547
  23382691.140   122876903.12606  23382693.800    95748246.47045
  20910736.000   109886785.66908  20910737.000    85626118.65749
  23650507.080   124284363.64006  23650512.060    96845012.49745
  24004457.140   126144283.47005  24004462.640    98294272.47946
  22732917.180   119462516.30807  22732919.360    93087789.22147
  22051548.280   115881682.99108  22051550.140    90297432.03748
 15 02 17 00 11  0.0000000  0  7G16G18G21G25G27G29G31
  22758206.540   119595192.99207  22758208.120    93191073.07547
  23368018.740   122799797.90907  23368021.040    95688164.49944
  20912382.760   109895439.62708  20912383.800    85632862.00549
  23668165.240   124377159.07206  23668170.280    96917320.61145
  23990365.420   126070230.69805  23990370.900    98236569.07945
  22746095.860   119531770.80707  22746098.120    93141753.74247
  22065436.120   115954663.64708  22065437.960    90354300.06048
 15 02 17 00 11 30.0000000  0  7G16G18G21G25G27G29G31
  22741890.200   119509450.07007  22741891.760    93124260.41747
  23353370.680   122722820.85907  23353372.720    95628182.40945
  20914108.940   109904510.82008  20914109.980    85639930.47349
  23685863.260   124470164.14306  23685868.340    96989792.06845
  23976289.800   125996262.37705  23976295.180    98178931.47046
  22759285.820   119601084.34707  22759288.060    93195764.27147
  22079391.640   116027999.66908  22079393.400    90411444.98448
 15 02 17 00 12  0.0000000  0  7G16G18G21G25G27G29G31
  22725600.820   119423848.94007  22725602.360    93057558.24846
  23338747.680   122645976.30207  23338749.640    95568303.57045
  20915914.640   109914000.03708  20915915.740    85647324.66649
  23703601.440   124563379.42306  23703606.400    97062427.33345
  23962230.580   125922380.13805  23962235.760    98121360.96445
  22772487.160   119670457.61507  22772489.400    93249821.34747
  22093414.580   116101690.18008  22093416.240    90468866.13548
 15 02 17 00 12 30.0000000  0  7G16G18G21G25G27G29G31
  22709338.240   119338389.02307  22709339.880    92990966.11746
  23324149.980   122569265.22806  23324151.880    95508528.72245
  20917799.140   109923903.35408  20917800.280    85655041.53649
  23721379.020   124656801.22306  23721383.840    97135223.51445
  23948187.240   125848581.55705  23948192.240    98063855.64446
  22785699.280   119739887.82407  22785701.620    93303922.78047
  22107503.960   116175730.02808  22107505.480    90526559.49448
 15 02 17 00 13  0.0000000  0  7G16G18G21G25G27G29G31
  22693103.760   119253076.71707  22693105.480    92924489.01046
  23309578.720   122492693.71506  23309580.640    95448862.61845
  20919763.080   109934224.01508  20919764.240    85663083.62049
  23739196.440   124750432.28406  23739201.260    97208182.74044
  23934160.360   125774870.55205  23934165.300    98006418.54445
  22798922.940   119809378.33507  22798925.300    93358071.20847
  22121660.020   116250120.55408  22121661.400    90584526.10548
 15 02 17 00 13 30.0000000  0  7G16G18G21G25G27G29G31
  22676896.820   119167908.47807  22676898.500    92858124.16147
  23295033.560   122416259.44206  23295035.540    95389303.47345
  20921805.320   109944956.21908  20921806.500    85671446.37449
  23757052.580   124844266.46506  23757057.440    97281300.26545
  23920149.240   125701242.06305  23920154.060    97949045.74546
  22812157.140   119878924.33907  22812159.520    93412262.88247
  22135881.280   116324854.05608  22135882.640    90642759.97548
 15 02 17 00 14  0.0000000  0  7G16G18G21G25G27G29G31
  22660718.380   119082889.92407  22660720.000    92791875.94947
  23280515.720   122339968.69006  23280517.840    95329856.16645
  20923926.360   109956102.25708  20923927.500    85680131.60549
  23774947.820   124938305.84506  23774952.580    97354577.66145
  23906154.460   125627699.45505  23906159.240    97891739.88845
  22825402.420   119948528.54207  22825404.800    93466499.89747
  22150167.960   116399931.29208  22150169.380    90701261.69148
 15 02 17 00 14 30.0000000  0  7G16G18G21G25G27G29G31
  22644568.540   118998021.71807  22644570.100    92725744.89047
  23266025.540   122263822.79207  23266027.840    95270521.72945
  20926125.580   109967659.14608  20926126.680    85689136.97849
  23792881.520   125032547.75706  23792886.500    97428012.87046
  23892175.800   125554241.30306  23892180.520    97834499.81945
  22838658.480   120018189.10307  22838660.780    93520780.82347
  22164519.300   116475347.94508  22164520.800    90760027.88848
 15 02 17 00 15  0.0000000  0  7G16G18G21G25G27G29G31
  22628447.780   118913306.72607  22628449.300    92659733.20647
  23251563.660   122187824.89207  23251566.000    95211302.62345
  20928403.000   109979626.79608  20928404.020    85698462.41749
  23810853.800   125126991.97706  23810858.940    97501605.74846
  23878213.300   125480868.58505  23878218.240    97777326.33846
  22851925.400   120087906.88307  22851927.620    93575106.34647
  22178935.000   116551102.48208  22178936.600    90819057.36948
 15 02 17 00 15 30.0000000  0  7G16G18G21G25G27G29G31
  22612356.380   118828746.33407  22612358.000    92593841.99747
  23237130.420   122111977.06307  23237132.740    95152200.44945
  20930758.280   109992003.86808  20930759.300    85708106.89149
  23828864.240   125221636.70806  23828869.500    97575354.85745
  23864266.940   125407580.60705  23864272.140    97720218.86346
  22865202.920   120157680.73207  22865205.160    93629475.54447
  22193414.260   116627191.29108  22193416.020    90878347.32348
 15 02 17 00 16  0.0000000  0  7G16G18G21G25G27G29G31
  22596294.760   118744342.10107  22596296.420    92528072.48247
  23222726.340   122036282.05807  23222728.540    95093217.34945
  20933191.160   110004788.66508  20933192.160    85718069.07449
  23846912.560   125316480.28206  23846917.820    97649258.90345
  23850336.640   125334377.08805  23850342.040    97663177.21345
  22878490.940   120227510.12207  22878493.280    93683888.02746
  22207956.540   116703611.47008  22207958.440    90937895.49248
 15 02 17 00 16 30.0000000  0  7G16G18G21G25G27G29G31
  22580263.380   118660096.53907  22580265.040    92462426.60147
  23208351.860   121960742.79107  23208354.040    95034355.60345
  20935701.500   110017980.54608  20935702.480    85728348.46249
  23864998.500   125411521.77106  23865003.780    97723317.16545
  23836422.580   125261258.25405  23836428.060    97606201.54146
  22891789.480   120297394.91307  22891791.980    93738343.68846
  22222561.420   116780360.72208  22222563.440    90997700.08148
 15 02 17 00 17  0.0000000  0  7G16G18G21G25G27G29G31
  22564262.760   118576012.52908  22564264.400    92396906.60647
  23194007.540   121885362.37107  23194009.780    94975617.64445
  20938289.200   110031578.91208  20938290.140    85738944.59249
  23883121.880   125506760.65206  23883127.120    97797529.25245
  23822524.860   125188224.82505  23822530.260    97549292.42546
  22905098.620   120367335.51707  22905101.260    93792842.84347
  22237228.460   116857436.71908  22237230.540    91057759.27548
 15 02 17 00 17 30.0000000  0  7G16G18G21G25G27G29G31
  22548293.000   118492090.65308  22548294.620    92331512.94247
  23179693.640   121810142.57107  23179695.980    94917004.82546
  20940953.760   110045581.22508  20940954.660    85749855.48749
  23901282.340   125602194.48206  23901287.540    97871893.23045
  23808643.220   125115275.60506  23808648.420    97492448.91246
  22918418.180   120437330.54007  22918420.940    93847384.38747
  22251956.960   116934835.78208  22251959.060    91118070.20748
 15 02 17 00 18  0.0000000  0  7G16G18G21G25G27G29G31
  22532354.860   118408335.19408  22532356.500    92266248.96047
  23165411.080   121735088.01107  23165413.580    94858520.77346
  20943695.400   110059988.69508  20943696.300    85761082.08949
  23919479.900   125697824.08806  23919484.980    97946409.77844
  23794777.920   125042412.70106  23794783.000    97435672.65846
  22931748.520   120507381.80507  22931751.320    93901969.77247
  22266746.840   117012556.98108  22266748.840    91178632.15648
 15 02 17 00 18 30.0000000  0  7G16G18G21G25G27G29G31
  22516448.480   118324746.57108  22516450.120    92201114.98347
  23151160.160   121660199.78507  23151162.740    94800166.33445
  20946513.620   110074798.66808  20946514.540    85772622.33149
  23937713.980   125793646.53106  23937719.360    98021076.58345
  23780928.800   124969634.45706  23780933.740    97378962.38546
  22945089.180   120577487.35207  22945092.020    93956597.44847
  22281597.260   117090596.21608  22281599.160    91239441.91448
 15 02 17 00 19  0.0000000  0  7G16G18G21G25G27G29G31
  22500574.400   118241327.67908  22500576.040    92136113.25947
  23136941.680   121585481.50507  23136944.160    94741944.32845
  20949408.320   110090010.55008  20949409.280    85784475.74649
  23955984.740   125889661.48605  23955990.220    98095893.39145
  23767095.840   124896941.81106  23767100.680    97322318.80646
  22958440.220   120647647.54107  22958443.100    94011267.69747
  22296507.860   117168951.58008  22296509.700    91300498.01348
 15 02 17 00 19 30.0000000  0  7G16G18G21G25G27G29G31
  22484732.520   118158078.14208  22484734.120    92071243.51147
  23122755.560   121510933.14607  23122757.800    94683854.72445
  20952378.800   110105620.74908  20952379.820    85796639.54149
  23974291.520   125985865.03905  23974297.020    98170857.19045
  23753278.620   124824332.13706  23753283.360    97265739.88245
  22971801.280   120717859.84107  22971804.080    94065978.55546
  22311477.520   117247617.41908  22311479.360    91361796.04548
 15 02 17 00 20  0.0000000  0  7G16G18G21G25G27G29G31
  22468923.440   118075001.01908  22468925.000    92006508.10647
  23108602.520   121436558.52607  23108604.620    94625900.51245
  20955425.060   110121629.02108  20955426.120    85809113.52249
  23992634.460   126082256.95906  23992639.700    98245967.74945
  23739477.400   124751806.47606  23739481.980    97209226.42545
  22985172.440   120788125.07307  22985175.060    94120730.65546
  22326505.960   117326592.15208  22326507.800    91423334.77848
 15 02 17 00 20 30.0000000  0  7G16G18G21G25G27G29G31
  22453147.800   117992099.58108  22453149.320    91941909.59847
  23094483.300   121362361.44307  23094485.280    94568084.62945
  20958547.140   110138035.47808  20958548.180    85821897.77949
  24011013.440   126178837.34306  24011018.380    98321225.16644
  23725692.340   124679366.20106  23725696.900    97152779.47846
  22998553.740   120858444.24707  22998556.280    94175524.78246
  22341592.900   117405874.43308  22341594.780    91485113.15448
 15 02 17 00 21  0.0000000  0  7G16G18G21G25G27G29G31
  22437405.760   117909374.66808  22437407.200    91877448.64347
  23080398.100   121288343.26207  23080400.020    94510408.14745
  20961744.460   110154837.43008  20961745.500    85834990.21249
  24029427.840   126275603.21406  24029432.460    98396627.12344
  23711923.240   124607009.73006  23711927.860    97096397.87646
  23011944.900   120928815.35507  23011947.360    94230359.38346
  22356737.560   117485459.91208  22356739.420    91547127.78847
 15 02 17 00 21 30.0000000  0  7G16G18G21G25G27G29G31
  22421698.020   117826830.11408  22421699.400    91813128.21947
  23066347.740   121214508.40607  23066349.700    94452874.51146
  20965017.220   110172035.79708  20965018.220    85848391.53949
  24047877.640   126372555.38706  24047882.020    98472174.24845
  23698170.480   124534739.11405  23698175.160    97040083.12246
  23025346.300   120999240.17107  23025348.760    94285235.84346
  22371939.720   117565347.63408  22371941.500    91609377.93447
 15 02 17 00 22  0.0000000  0  7G16G18G21G25G27G29G31
  22406024.960   117744467.46708  22406026.280    91748949.53947
  23052332.640   121140858.80307  23052334.760    94395485.22945
  20968364.980   110189628.36308  20968365.960    85862100.03749
  24066362.320   126469691.59106  24066366.700    98547864.75445
  23684433.940   124462553.45106  23684438.700    96983834.58446
  23038757.740   121069717.59607  23038760.200    94340153.28446
  22387198.720   117645533.92808  22387200.400    91671860.73247
 15 02 17 00 22 30.0000000  0  7G16G18G21G25G27G29G31
  22390386.880   117662288.52608  22390388.140    91684914.01547
  23038353.340   121067397.24607  23038355.620    94338242.47945
  20971787.500   110207613.83508  20971788.480    85876114.69049
  24084881.480   126567010.51506  24084886.140    98623697.64745
  23670713.680   124390452.71706  23670718.340    96927652.24346
  23052179.200   121140247.50807  23052181.620    94395111.62847
  22402513.980   117726016.08408  22402515.600    91734574.06047
 15 02 17 00 23  0.0000000  0  7G16G18G21G25G27G29G31
  22374784.260   117580296.02108  22374785.520    91621023.77247
  23024410.460   120994126.73807  23024412.780    94281148.59445
  20975284.580   110225991.22708  20975285.560    85890434.73849
  24103434.980   126664511.34505  24103440.160    98699672.30545
  23657009.680   124318437.34806  23657014.220    96871536.40646
  23065610.700   121210830.19607  23065613.120    94450111.10947
  22417885.040   117806791.58108  22417886.680    91797515.97947
 15 02 17 00 23 30.0000000  0  7G16G18G21G25G27G29G31
  22359217.480   117498492.20008  22359218.820    91557280.55347
  23010504.500   120921049.95207  23010506.860    94224205.66845
  20978856.100   110244759.64708  20978857.080    85905059.48349
  24122022.740   126762192.65605  24122028.480    98775787.59645
  23643321.940   124246507.48906  23643326.480    96815487.18446
  23079052.120   121281465.34607  23079054.640    94505151.46346
  22433311.460   117887857.85208  22433313.120    91860684.47547
 15 02 17 00 24  0.0000000  0  7G16G18G21G25G27G29G31
  22343686.760   117416877.96208  22343688.180    91493685.06447
  22996635.600   120848167.89707  22996637.960    94167414.47545
  20982501.440   110263916.11908  20982502.420    85919986.61049
  24140644.260   126860051.62205  24140650.540    98852041.29546
  23629650.140   124174661.53006  23629654.760    96759503.35046
  23092503.140   121352151.15107  23092505.680    94560231.29146
  22448792.320   117969210.29408  22448794.080    91924075.96448
 15 02 17 00 24 30.0000000  0  7G16G18G21G25G27G29G31
  22328192.420   117335454.63508  22328193.860    91430238.33647
  22982804.240   120775483.37807  22982806.580    94110777.20846
  20986220.400   110283459.47508  20986221.400    85935215.19949
  24159299.600   126958087.01705  24159306.040    98928432.48544
  23615994.280   124102899.55406  23615998.960    96703584.96646
  23105963.800   121422887.44407  23105966.260    94615350.45646
  22464327.100   118050846.15608  22464329.000    91987688.30348
 15 02 17 00 25  0.0000000  0  7G16G18G21G25G27G29G31
  22312735.060   117254225.76808  22312736.480    91366943.12147
  22969011.120   120703000.13807  22969013.460    94054296.78145
  20990012.840   110303389.09808  20990013.880    85950744.77949
  24177988.620   127056298.42505  24177994.940    99004960.81445
  23602354.560   124031222.63306  23602359.320    96647732.83946
  23119434.220   121493675.09407  23119436.700    94670509.63946
  22479915.520   118132763.80108  22479917.480    92051520.20447
 15 02 17 00 25 30.0000000  0  7G16G18G21G25G27G29G31
  22297314.900   117173192.56408  22297316.360    91303800.38347
  22955256.500   120630719.78907  22955258.900    93997974.46146
  20993878.380   110323702.95008  20993879.500    85966573.75349
  24196710.780   127154683.61205  24196716.920    99081624.56546
  23588730.840   123959629.86406  23588735.640    96591946.27546
  23132914.200   121564512.96207  23132916.740    94725707.94746
  22495556.820   118214959.30008  22495558.760    92115568.61447
 15 02 17 00 26  0.0000000  0  7G16G18G21G25G27G29G31
  22281932.460   117092357.38508  22281933.920    91240811.95747
  22941540.980   120558645.18307  22941543.340    93941812.43846
  20997816.900   110344400.33808  20997818.120    85982701.58749
  24215465.880   127253241.26305  24215471.560    99158422.68444
  23575123.140   123888121.29606  23575127.960    96536225.34846
  23146403.760   121635400.79207  23146406.280    94780945.19846
  22511250.520   118297429.97508  22511252.380    92179831.45747
 15 02 17 00 26 30.0000000  0  7G16G18G21G25G27G29G31
  22266588.320   117011723.40908  22266589.820    91177980.29547
  22927865.200   120486779.57307  22927867.520    93885813.27545
  21001828.280   110365480.22108  21001829.500    85999127.47349
  24234253.760   127351970.98305  24234258.940    99235354.90745
  23561531.680   123816697.94106  23561536.460    96480570.80547
  23159903.000   121706339.52707  23159905.480    94836222.10446
  22526996.160   118380173.85008  22526997.960    92244307.16547
 15 02 17 00 27  0.0000000  0  7G16G18G21G25G27G29G31
  22251282.640   116931291.27408  22251284.080    91115305.91447
  22914229.500   120415124.23707  22914231.800    93829977.98645
  21005911.940   110386939.95508  21005913.140    86015849.34549
  24253073.940   127450869.89406  24253078.580    99312418.99944
  23547956.220   123745358.37806  23547960.880    96424981.58046
  23173411.540   121777327.21907  23173413.980    94891537.16446
  22542792.940   118463186.53708  22542794.680    92308992.34347
 15 02 17 00 27 30.0000000  0  7G16G18G21G25G27G29G31
  22236016.140   116851065.34008  22236017.540    91052792.20847
  22900634.900   120343684.38907  22900637.120    93774310.60346
  21010068.020   110408780.38908  21010069.240    86032867.87049
  24271926.320   127549938.75606  24271930.680    99389615.50644
  23534397.080   123674104.64506  23534401.620    96369459.21146
  23186929.840   121848366.21707  23186932.200    94946892.19746
  22558640.720   118546467.36708  22558642.480    92373886.46547
 15 02 17 00 28  0.0000000  0  8G16G18G21G22G25G27G29G31
  22220789.480   116771048.84408  22220790.820    90990441.71247
  22887081.980   120272462.92807  22887084.080    93718813.40146
  21014296.460   110431001.05508  21014297.680    86050182.67449
  24549830.980   129010224.85106  24549832.520   100527461.92044
  24290810.820   127649176.87906  24290815.200    99466943.88444
  23520854.420   123602937.59406  23520858.840    96314004.40946
  23200457.880   121919456.92107  23200460.240    95002287.52046
  22574539.140   118630014.16708  22574540.900    92438987.83747
 15 02 17 00 28 30.0000000  0  8G16G18G21G22G25G27G29G31
  22205600.460   116691230.38108  22205601.740    90928245.52347
  22873568.740   120201449.52107  22873570.740    93663478.29746
  21018594.480   110453587.23108  21018595.660    86067782.29449
  24531729.920   128915103.87206  24531731.260   100453341.88145
  24309724.620   127748570.06505  24309729.360    99544393.06745
  23507325.740   123531844.32906  23507330.120    96258607.12146
  23213993.200   121990585.91707  23213995.480    95057712.70246
  22590485.160   118713811.08408  22590486.980    92504284.11347
 15 02 17 00 29  0.0000000  0  8G16G18G21G22G25G27G29G31
  22190453.660   116611633.74808  22190454.920    90866222.18347
  22860099.740   120130668.58907  22860101.660    93608324.34546
  21022965.980   110476559.46108  21022967.120    86085682.73949
  24513616.960   128819920.64706  24513618.240   100379173.33744
  24328671.660   127848138.36005  24328676.700    99621978.74145
  23493815.260   123460846.40906  23493819.580    96203284.10746
  23227539.980   122061774.93707  23227542.300    95113184.63446
  22606482.400   118797876.96608  22606484.240    92569789.96347
 15 02 17 00 29 30.0000000  0  8G16G18G21G22G25G27G29G31
  22175347.380   116532249.88208  22175348.660    90804364.64247
  22846673.240   120060110.95907  22846675.140    93553344.39246
  21027408.560   110499905.13008  21027409.640    86103874.16949
  24495490.420   128724666.20606  24495492.160   100304949.31845
  24347649.520   127947868.85205  24347654.820    99699690.76545
  23480320.700   123389932.28106  23480325.000    96148026.39846
  23241095.980   122133012.36007  23241098.440    95168694.28646
  22622528.080   118882197.37308  22622529.980    92635494.14047
 15 02 17 00 30  0.0000000  0  8G16G18G21G22G25G27G29G31
  22160282.580   116453083.93408  22160283.940    90742676.89847
  22833290.220   119989782.37307  22833292.240    93498542.90846
  21031922.380   110523625.45308  21031923.440    86122357.54249
  24477351.120   128629345.74306  24477353.180   100230673.83145
  24366658.520   128047762.85305  24366664.100    99777530.20845
  23466842.640   123319104.81006  23466846.940    96092836.21946
  23254661.760   122204300.81307  23254664.380    95224243.72646
  22638622.180   118966772.00908  22638624.100    92701396.42047
 15 02 17 00 30 30.0000000  0  8G16G18G21G22G25G27G29G31
  22145258.960   116374134.47808  22145260.400    90681157.85647
  22819950.540   119919681.87907  22819952.760    93443919.15546
  21036506.600   110547715.72608  21036507.660    86141129.18949
  24459199.160   128533958.36705  24459201.380   100156346.17045
  24385697.960   128147815.75405  24385703.700    99855493.45645
  23453380.520   123248360.80506  23453384.780    96037711.07345
  23268236.520   122275636.60607  23268239.260    95279830.03546
  22654763.520   119051594.86008  22654765.400    92767492.12447
 15 02 17 00 31  0.0000000  0  8G16G18G21G22G25G27G29G31
  22130277.460   116295406.40008  22130278.920    90619811.31447
  22806655.180   119849814.63707  22806657.620    93389477.14646
  21041161.400   110572176.97608  21041162.480    86160189.90749
  24441035.500   128438509.10606  24441037.820   100081970.29445
  24404767.800   128248028.61905  24404773.660    99933581.37645
  23439934.700   123177702.77806  23439938.980    95982652.91746
  23281820.740   122347022.36407  23281823.640    95335455.27646
  22670952.020   119136665.50008  22670953.820    92833780.89647
 15 02 17 00 31 30.0000000  0  8G16G18G21G22G25G27G29G31
  22115338.240   116216900.43508  22115339.680    90558637.85347
  22793404.380   119780181.43907  22793406.880    93335217.52646
  21045886.200   110597006.15608  21045887.300    86179537.32749
  24422860.120   128342998.92605  24422862.920   100007546.93745
  24423867.520   128348398.61605  24423873.540   100011791.74344
  23426505.000   123107129.35706  23426509.240    95927660.69446
  23295414.100   122418456.11307  23295417.140    95391117.91646
  22687186.840   119221979.67908  22687188.520    92900259.44447
 15 02 17 00 32  0.0000000  0  8G16G18G21G22G25G27G29G31
  22100441.660   116138618.48608  22100443.120    90497638.94647
  22780198.600   119710785.15907  22780201.060    93281142.51546
  21050680.700   110622201.59508  21050681.820    86199170.13849
  24404673.580   128247429.68405  24404676.280    99933077.50845
  24442996.840   128448923.69305  24443003.020   100090122.93645
  23413091.240   123036640.01906  23413095.520    95872733.98746
  23309016.500   122489937.59107  23309019.640    95446817.74646
  22703467.260   119307533.80908  22703468.900    92966924.96747
 15 02 17 00 32 30.0000000  0  8G16G18G21G22G25G27G29G31
  22085588.440   116060564.19608  22085589.860    90436817.43647
  22767038.620   119641629.89607  22767041.060    93227255.31946
  21055544.920   110647763.29108  21055546.020    86219088.34349
  24386476.700   128151805.99506  24386479.520    99858565.64745
  24462155.780   128549604.08205  24462162.120   100168575.17545
  23399693.840   122966236.48006  23399698.140    95817874.15046
  23322628.140   122561468.11206  23322631.420    95502555.79046
  22719793.020   119393326.78708  22719794.760    93033776.60547
 15 02 17 00 33  0.0000000  0  8G16G18G21G22G25G27G29G31
  22070778.560   115982737.38708  22070779.960    90376173.18347
  22753924.560   119572715.39007  22753926.860    93173555.74145
  21060478.140   110673687.53108  21060479.220    86239289.04849
  24368269.600   128056127.75305  24368272.500    99784011.24145
  24481343.680   128650436.10005  24481349.840   100247145.59545
  23386312.360   122895916.41206  23386316.660    95763079.30846
  23336248.620   122633044.89006  23336251.880    95558329.87246
  22736163.160   119479353.09508  22736165.060    93100810.05947
 15 02 17 00 33 30.0000000  0  8G16G18G21G22G25G27G29G31
  22056012.780   115905142.66308  22056014.240    90315709.77447
  22740857.160   119504045.90207  22740859.220    93120047.08445
  21065480.540   110699975.42908  21065481.640    86259773.12649
  24350053.200   127960399.62606  24350055.900    99709417.98144
  24500560.480   128751420.31405  24500566.540   100325834.55244
  23372947.140   122825682.07206  23372951.560    95708351.29246
  23349878.400   122704670.46306  23349881.660    95614141.97946
  22752577.600   119565612.11908  22752579.700    93168024.85247
 15 02 17 00 34  0.0000000  0  8G16G18G21G22G25G27G29G31
  22041291.580   115827782.44708  22041293.140    90255429.10347
  22727837.200   119435625.38207  22727839.040    93066732.42645
  21070551.900   110726625.46108  21070552.980    86280539.38949
  24331827.660   127864624.26606  24331830.260    99634788.08844
  24519806.040   128852555.40505  24519811.900   100404641.09945
  23359598.260   122755533.51006  23359602.720    95653690.11246
  23363517.420   122776344.96706  23363520.820    95669992.18846
  22769035.920   119652101.03808  22769038.080    93235418.78647
 15 02 17 00 34 30.0000000  0  8G16G18G21G22G25G27G29G31
  22026615.000   115750656.90608  22026616.640    90195331.29947
  22714864.620   119367453.99907  22714866.340    93013611.88245
  21075691.560   110753634.47808  21075692.620    86301585.37849
  24313593.280   127768802.81106  24313595.980    99560122.49144
  24539079.760   128953838.11105  24539085.200   100483562.67345
  23346265.380   122685469.07607  23346269.880    95599094.48646
  23377165.400   122848066.03206  23377168.860    95725878.69646
  22785537.220   119738815.30808  22785539.320    93302988.31347
 15 02 17 00 35  0.0000000  0  8G16G18G21G22G25G27G29G31
  22011983.640   115673768.78708  22011985.300    90135418.49847
  22701940.000   119299534.82207  22701941.620    92960687.86545
  21080899.280   110781001.31508  21080900.380    86322910.18449
  24295350.520   127672937.66906  24295353.180    99485422.67945
  24558381.240   129055267.39505  24558386.420   100562598.41145
  23332948.640   122615489.20107  23332953.160    95544564.76246
  23390822.600   122919834.11506  23390826.000    95781801.86446
  22802080.960   119825752.37608  22802082.900    93370731.45447
 15 02 17 00 35 30.0000000  0  8G16G18G21G22G25G27G29G31
  21997398.140   115597121.37608  21997399.720    90075693.25247
  22689063.980   119231871.10407  22689065.640    92907962.88146
  21086174.900   110808725.12408  21086176.060    86344513.15749
  24277099.880   127577032.29406  24277102.940    99410691.53944
  24577710.560   129156842.92105  24577715.420   100641748.14544
  23319648.200   122545595.06107  23319652.720    95490101.84946
  23404488.980   122991649.92607  23404492.320    95837762.21046
  22818666.740   119912910.24008  22818668.460    93438646.63447
 15 02 17 00 36  0.0000000  0  8G16G18G21G22G25G27G29G31
  21982858.900   115520717.03608  21982860.420    90016157.41547
  22676237.180   119164465.98607  22676239.020    92855439.40846
  21091518.300   110836804.88108  21091519.460    86366393.48649
  24258842.020   127481089.39905  24258845.420    99335931.11846
  24597067.360   129258563.21306  24597072.180   100721010.66644
  23306364.080   122475786.73907  23306368.580    95435705.79746
  23418164.580   123063513.77407  23418167.820    95893759.98546
  22835293.960   120000286.16708  22835295.560    93506731.73447
 15 02 17 00 36 30.0000000  0  8G16G18G21G22G25G27G29G31
  21968366.080   115444556.65808  21968367.500    89956811.67047
  22663459.780   119097320.43208  22663461.880    92803118.21646
  21096929.000   110865238.08308  21096930.100    86388549.22649
  24240577.140   127385109.84405  24240581.040    99261142.13945
  24616451.060   129360425.29905  24616455.920   100800383.69744
  23293095.980   122406062.81107  23293100.540    95381375.52446
  23431849.060   123135423.98907  23431852.060    95949793.90346
  22851961.700   120087875.64008  22851963.260    93574983.23747
 15 02 17 00 37  0.0000000  0  8G16G18G21G22G25G27G29G31
  21953920.540   115368644.87508  21953921.900    89897659.63847
  22650732.620   119030438.97807  22650734.980    92751002.82646
  21102407.040   110894024.95708  21102408.060    86410980.55549
  24222306.460   127289098.85905  24222310.660    99186328.64445
  24635861.860   129462429.91505  24635866.820   100879867.78545
  23279844.440   122336425.66307  23279849.000    95327112.87246
  23445542.620   123207382.61107  23445545.380    96005865.55446
  22868669.900   120175678.12808  22868671.520    93643400.72447
 15 02 17 00 37 30.0000000  0  8G16G18G21G22G25G27G29G31
  21939522.400   115292982.21508  21939523.720    89838701.73147
  22638056.020   118963822.72808  22638058.360    92699094.07646
  21107951.800   110923162.56008  21107952.780    86433685.18549
  24204030.040   127193057.30206  24204034.100    99111491.32446
  24655299.140   129564574.16305  24655304.200   100959460.66445
  23266609.160   122266873.88707  23266613.720    95272916.74146
  23459244.960   123279388.21607  23459247.600    96061973.80346
  22885417.700   120263689.06008  22885419.440    93711980.64247
 15 02 17 00 38  0.0000000  0  8G16G18G21G22G25G27G29G31
  21925172.060   115217570.88208  21925173.400    89779939.65747
  22625430.400   118897474.02708  22625432.540    92647393.81246
  21113562.980   110952649.31308  21113563.940    86456661.87349
  24185748.420   127096987.57405  24185752.460    99036632.04146
  24674762.660   129666856.28705  24674768.020   101039160.98345
  23253390.060   122197407.25207  23253394.700    95218786.95046
  23472956.040   123351440.36707  23472958.620    96118118.32546
  22902204.640   120351905.39308  22902206.520    93780720.61147
 15 02 17 00 38 30.0000000  0  8G16G18G21G22G25G27G29G31
  21910870.220   115142414.26808  21910871.580    89721376.07347
  22612856.420   118831396.78008  22612858.320    92595905.06646
  21119240.580   110982485.13208  21119241.520    86479910.56949
  24167462.380   127000893.44306  24167465.940    98961753.71345
  24694252.240   129769276.05805  24694257.880   101118968.56744
  23240187.460   122128027.15307  23240192.100    95164724.58546
  23486676.180   123423540.43206  23486678.640    96174300.18246
  22919030.400   120440325.33708  22919032.360    93849619.23246
 15 02 17 00 39  0.0000000  0  8G16G18G21G22G25G27G29G31
  21896616.980   115067513.11508  21896618.400    89663011.54647
  22600334.240   118765592.03808  22600336.000    92544628.67746
  21124983.980   111012666.88408  21124984.920    86503428.81649
  24149172.060   126904775.78606  24149175.040    98886857.05844
  24713767.360   129871830.48705  24713773.420   101198881.04444
  23227001.000   122058732.19507  23227005.700    95110728.56247
  23500405.080   123495686.75306  23500407.320    96230518.08145
  22935894.180   120528944.75008  22935896.100    93918673.28547
 15 02 17 00 39 30.0000000  0  8G16G18G21G22G25G27G29G31
  21882412.820   114992869.83708  21882414.300    89604847.96747
  22587864.280   118700062.44207  22587866.040    92493566.69146
  21130792.900   111043193.04108  21130793.860    86527215.43149
  24130877.720   126808637.49006  24130880.320    98811944.32144
  24733307.860   129974518.09005  24733314.140   101278897.34545
  23213830.780   121989522.48707  23213835.540    95056798.96246
  23514142.860   123567879.41906  23514144.880    96286772.08646
  22952795.320   120617760.49908  22952797.140    93987880.32346
 15 02 17 00 40  0.0000000  0  8G16G18G21G22G25G27G29G31
  21868258.040   114918485.78508  21868259.480    89546886.37647
  22575446.860   118634809.36307  22575448.740    92442720.16346
  21136666.840   111074061.08008  21136667.840    86551268.45149
  24112579.620   126712479.83706  24112581.900    98737016.47045
  24752873.380   130077336.21705  24752879.880   101359015.30244
  23200676.560   121920396.98107  23200681.380    95002934.95846
  23527889.320   123640116.92007  23527891.160    96343061.02546
  22969733.020   120706768.41608  22969734.760    94057237.09946
 15 02 17 00 40 30.0000000  0  8G16G18G21G22G25G27G29G31
  21854153.220   114844364.24608  21854154.600    89489129.34747
  22563082.700   118569836.10207  22563084.700    92392091.66046
  21142605.800   111105270.59608  21142606.780    86575587.55648
  24094278.480   126616306.76006  24094280.740    98662076.61345
  24772464.000   130180284.59805  24772470.380   101439234.77344
  23187538.560   121851357.03207  23187543.440    94949137.63246
  23541644.600   123712400.48207  23541646.240    96399385.82445
  22986707.000   120795967.04608  22986708.660    94126742.50046
 15 02 17 00 41  0.0000000  0  8G16G18G21G22G25G27G29G31
  21840098.780   114770507.59908  21840100.140    89431578.71347
  22550772.380   118505145.53308  22550774.540    92341683.42846
  21148609.460   111136820.14808  21148610.440    86600171.62249
  24075974.800   126520121.03906  24075976.920    98587126.86945
  24792079.320   130283361.98905  24792085.300   101519554.81045
  23174416.940   121782402.92907  23174421.820    94895407.19747
  23555408.640   123784730.70707  23555410.180    96455747.01745
  23003716.660   120885353.45508  23003718.340    94196394.21346
 15 02 17 00 41 30.0000000  0  8G16G18G21G22G25G27G29G31
  21826095.380   114696919.10408  21826096.700    89374237.03347
  22538516.480   118440740.37508  22538518.760    92291497.60746
  21154677.780   111168709.37108  21154678.740    86625020.36648
  24057669.300   126423926.08306  24057671.260    98512169.94645
  24811719.120   130386567.33905  24811724.580   101599974.49243
  23161311.800   121713535.38907  23161316.640    94841744.21846
  23569181.600   123857107.84506  23569183.180    96512144.75645
  23020761.600   120974925.39008  23020763.400    94266190.48746
 15 02 17 00 42  0.0000000  0  7G16G18G21G22G27G29G31
  21812143.160   114623599.77508  21812144.500    89317105.09248
  22526315.340   118376622.50308  22526317.600    92241535.64546
  21160810.180   111200935.26708  21160811.140    86650131.45549
  24039362.100   126327723.05006  24039364.400    98437206.74245
  23148223.060   121644753.30207  23148227.680    94788147.82746
  23582963.060   123929530.57606  23582965.020    96568578.02346
  23037841.120   121064678.88407  23037843.000    94336128.23946
 15 02 17 00 42 30.0000000  0  7G16G18G21G22G27G29G31
  21798243.840   114550558.25008  21798245.180    89260189.62947
  22514170.680   118312801.04508  22514172.800    92191804.65646
  21167007.540   111233502.34008  21167008.460    86675508.40048
  24021055.160   126231520.78206  24021057.440    98362244.09446
  23135151.820   121576063.20907  23135156.240    94734623.11946
  23596754.240   124002005.08807  23596756.580    96625051.64346
  23054955.840   121154616.91608  23054957.760    94406209.78247
 15 02 17 00 43  0.0000000  0  7G16G18G21G22G27G29G31
  21784396.060   114477787.40208  21784397.340    89203485.07547
  22502080.960   118249268.44208  22502082.900    92142298.74946
  21173267.740   111266399.84508  21173268.640    86701142.82549
  24002747.340   126135312.85406  24002749.440    98287277.03646
  23122096.300   121507455.81807  23122100.580    94681162.86746
  23610553.580   124074522.76406  23610556.320    96681558.91446
  23072103.500   121244727.85808  23072105.440    94476426.06547
 15 02 17 00 43 30.0000000  0  7G16G18G21G22G27G29G31
  21770600.560   114405291.46008  21770601.800    89146994.74448
  22490047.020   118186029.70208  22490048.900    92093021.82846
  21179590.940   111299628.58208  21179591.840    86727035.34848
  23984439.320   126039103.44906  23984441.080    98212308.82145
  23109056.900   121438933.16707  23109061.060    94627768.64046
  23624361.540   124147084.70406  23624364.540    96738100.67946
  23089283.800   121335010.20308  23089285.700    94546775.90447
 15 02 17 00 44  0.0000000  0  7G16G18G21G22G27G29G31
  21756857.840   114333073.00508  21756859.060    89090720.62747
  22478069.300   118123086.78208  22478071.160    92043975.42746
  21185976.820   111333186.74708  21185977.740    86753184.57048
  23966131.660   125942895.62806  23966133.100    98137341.84845
  23096033.620   121370495.49207  23096037.760    94574440.63546
  23638178.140   124219691.28806  23638181.320    96794677.24446
  23106496.140   121425461.12908  23106498.000    94617257.10446
 15 02 17 00 44 30.0000000  0  7G16G18G21G22G27G29G31
  21743168.780   114261136.76408  21743170.060    89034666.42248
  22466148.720   118060444.56508  22466150.580    91995163.32946
  21192425.620   111367075.48108  21192426.540    86779591.38148
  23947825.220   125846694.35806  23947826.340    98062379.97045
  23083026.960   121302145.36107  23083031.140    94521180.85047
  23652003.800   124292344.89906  23652006.960    96851290.42246
  23123740.520   121516080.62107  23123742.320    94687869.65646
 15 02 17 00 45  0.0000000  0  7G16G18G21G22G27G29G31
  21729533.280   114189481.88808  21729534.600    88978831.46648
  22454285.260   117998102.65008  22454287.180    91946585.23746
  21198936.380   111401289.80008  21198937.280    86806251.89648
  23929519.900   125750499.18406  23929520.720    97987422.81145
  23070036.460   121233879.76507  23070040.620    94467986.93646
  23665837.900   124365042.21607  23665840.840    96907937.63145
  23141015.700   121606862.31807  23141017.480    94758608.60046
 15 02 17 00 45 30.0000000  0  7G16G18G21G22G27G29G31
  21715952.620   114118115.10908  21715953.960    88923220.99348
  22442480.380   117936068.17008  22442482.360    91898246.70246
  21205509.720   111435832.84008  21205510.580    86833168.55248
  23911216.900   125654317.08206  23911217.520    97912475.86744
  23057062.920   121165703.39107  23057067.060    94414862.54346
  23679681.260   124437788.08207  23679683.920    96964622.69946
  23158322.020   121697807.78807  23158323.820    94829475.16546
 15 02 17 00 46  0.0000000  0  7G16G18G21G22G27G29G31
  21702426.780   114047036.52208  21702428.120    88867835.08448
  22430734.080   117874341.08408  22430736.120    91850147.68246
  21212144.880   111470700.77308  21212145.700    86860338.37648
  23892916.380   125558148.80006  23892917.160    97837539.67745
  23044105.940   121097614.09907  23044110.040    94361806.00547
  23693533.360   124510579.89807  23693535.760    97021343.58246
  23175658.460   121788911.79507  23175660.300    94900465.26746
 15 02 17 00 46 30.0000000  0  7G16G18G21G22G27G29G31
  21688956.620   113976250.38208  21688957.980    88812677.05948
  22419047.180   117812925.73108  22419049.360    91802291.59046
  21218841.900   111505893.81908  21218842.720    86887761.53348
  23874619.160   125461998.56706  23874620.100    97762617.51645
  23031165.860   121029613.91107  23031170.040    94308818.89647
  23707394.480   124583419.70007  23707396.760    97078101.82545
  23193024.800   121880173.17907  23193026.760    94971577.98146
 15 02 17 00 47  0.0000000  0  7G16G18G21G22G27G29G31
  21675542.220   113905756.99808  21675543.520    88757747.15048
  22407419.680   117751822.20208  22407421.960    91754678.46647
  21225600.180   111541408.55008  21225600.960    86915435.35748
  23856325.420   125365867.27606  23856326.560    97687710.13545
  23018242.380   120961700.98607  23018246.580    94255899.79347
  23721264.220   124656305.61507  23721266.460    97134896.01446
  23210420.240   121971587.25607  23210422.380    95042809.70346
 15 02 17 00 47 30.0000000  0  7G16G18G21G22G27G29G31
  21662184.040   113835559.31708  21662185.300    88703047.66448
  22395852.100   117691033.50408  22395854.400    91707310.67546
  21232419.420   111577243.66908  21232420.180    86943358.83348
  23838035.800   125269757.71205  23838037.240    97612819.65545
  23005335.560   120893875.90607  23005339.840    94203049.11947
  23735142.700   124729237.78806  23735144.920    97191726.27846
  23227844.300   122063151.46707  23227846.620    95114158.40446
 15 02 17 00 48  0.0000000  0  7G16G18G21G22G27G29G31
  21648882.260   113765658.00708  21648883.500    88648579.11148
  22384344.580   117630560.72908  22384346.800    91660189.05646
  21239299.060   111613396.27908  21239299.820    86971529.70248
  23819750.660   125173670.82006  23819752.340    97537946.84745
  22992445.200   120826137.32707  22992449.580    94150265.86147
  23749029.580   124802215.10406  23749032.140    97248591.67846
  23245296.140   122154861.46107  23245298.580    95185620.71646
 15 02 17 00 48 30.0000000  0  7G16G18G21G22G27G29G31
  21635637.460   113696056.26608  21635638.720    88594343.99448
  22372897.700   117570407.03708  22372899.820    91613316.06846
  21246238.960   111649865.70008  21246239.720    86999947.43948
  23801470.920   125077610.84506  23801472.560    97463095.02546
  22979571.560   120758486.32307  22979575.980    94097550.84947
  23762925.020   124875238.32306  23762928.160    97305492.87345
  23262775.360   122246715.20807  23262777.920    95257195.05347
 15 02 17 00 49  0.0000000  0  7G16G18G21G22G27G29G31
  21622449.620   113626753.76208  21622450.900    88540342.04948
  22361511.460   117510572.18608  22361513.420    91566691.52746
  21253238.280   111686647.49308  21253239.080    87028608.57948
  23783196.520   124981577.66506  23783198.040    97388264.07445
  22966714.140   120690920.39307  22966718.600    94044902.12547
  23776828.720   124948304.13106  23776832.140    97362427.23346
  23280280.880   122338706.92707  23280283.440    95328876.88946
 15 02 17 00 49 30.0000000  0  7G16G18G21G22G27G29G31
  21609319.240   113557753.04708  21609320.560    88486575.26648
  22350186.360   117451058.47908  22350188.140    91520317.22446
  21260296.780   111723740.21608  21260297.600    87057512.00548
  23764927.760   124885573.61106  23764929.040    97313455.81845
  22953872.960   120623439.58907  22953877.440    93992319.72447
  23790741.040   125021413.31906  23790744.180    97419395.45245
  23297812.140   122430833.65807  23297814.620    95400663.93346
 15 02 17 00 50  0.0000000  0  7G16G18G21G22G27G29G31
  21596247.040   113489058.24608  21596248.400    88433046.85848
  22338923.200   117391869.95308  22338924.740    91474196.30946
  21267414.500   111761144.31308  21267415.340    87086658.05748
  23746665.560   124789603.76506  23746666.540    97238674.20245
  22941048.440   120556046.32107  22941052.920    93939805.53447
  23804662.220   125094568.18207  23804665.000    97476399.20246
  23315368.900   122523094.66307  23315371.300    95472555.56846
 15 02 17 00 50 30.0000000  0  7G16G18G21G22G27G29G31
  21583233.900   113420673.77808  21583235.260    88379760.26648
  22327722.940   117333011.55908  22327724.280    91428332.65046
  21274591.580   111798860.14408  21274592.440    87116047.01848
  23728410.660   124693672.46706  23728411.540    97163922.62545
  22928240.960   120488742.61207  22928245.460    93887361.13647
  23818592.460   125167770.32707  23818595.000    97533439.81445
  23332951.020   122615488.92807  23332953.380    95544551.05446
 15 02 17 00 51  0.0000000  0  7G16G18G21G22G27G29G31
  21570279.760   113352599.69108  21570281.160    88326715.53348
  22316585.560   117274483.71208  22316586.760    91382726.55446
  21281827.320   111836884.22508  21281828.180    87145676.17048
  23710163.160   124597780.53506  23710164.020    97089201.70045
  22915450.180   120421526.71707  22915454.660    93834985.15347
  23832531.300   125241017.67807  23832533.540    97590515.66446
  23350557.500   122708011.61807  23350559.780    95616646.60246
 15 02 17 00 51 30.0000000  0  7G16G18G21G22G27G29G31
  21557385.380   113284839.48508  21557386.800    88273915.37748
  22305511.420   117216288.49208  22305512.620    91337379.64847
  21289121.520   111875215.55708  21289122.400    87175544.74148
  23691923.700   124501931.41506  23691924.760    97014514.14445
  22902676.280   120354399.37507  22902680.720    93782678.17047
  23846478.780   125314310.80907  23846480.820    97647627.15945
  23368188.020   122800660.61507  23368190.100    95688840.59546
 15 02 17 00 52  0.0000000  0  7G16G18G21G22G27G29G31
  21544551.560   113217397.52708  21544553.000    88221363.20748
  22294501.460   117158431.21408  22294502.840    91292296.06747
  21296474.240   111913854.24108  21296475.120    87205652.81048
  23673693.280   124406129.89806  23673694.540    96939863.69846
  22889919.760   120287363.16007  22889924.080    93730442.20047
  23860435.140   125387652.17006  23860437.280    97704776.23746
  23385842.380   122893434.81407  23385844.320    95761132.15646
 15 02 17 00 52 30.0000000  0  7G16G18G21G22G27G29G31
  21531778.380   113150273.95508  21531779.780    88169059.13048
  22283555.760   117100912.00308  22283557.400    91247475.91447
  21303884.900   111952797.58508  21303885.780    87235998.27548
  23655472.000   124310376.67006  23655473.420    96865250.86246
  22877180.120   120220415.95507  22877184.360    93678275.58447
