     2.11           OBSERVATION DATA    G                   RINEX VERSION / TYPE
SPIDER V4,0,0,3554                      2015 03 15 00:26    PGM / RUN BY / DATE 
CKHR                                                        MARKER NAME         
CKHR                                                        MARKER NUMBER       
                                                            OBSERVER / AGENCY   
496547              LEICA GRX1200+GNSS  8.10/4.007          REC # / TYPE / VERS 
10301042            LEIAR25         NONE                    ANT # / TYPE        
  5141838.0877   498328.5776  3730203.3049                  APPROX POSITION XYZ 
        0.0720        0.0000        0.0000                  ANTENNA: DELTA H/E/N
     1     1                                                WAVELENGTH FACT L1/2
     4    C1    L1    P2    L2                              # / TYPES OF OBSERV 
    30.000                                                  INTERVAL            
  2015    02    17    07    32    0.0000000     GPS         TIME OF FIRST OBS   
  2015    02    17    23    59   30.0000000     GPS         TIME OF LAST OBS    
    16                                                      LEAP SECONDS        
    28                                                      # OF SATELLITES     
   G 1   305   305   305   305                              PRN / # OF OBS      
   G 2   928   927   927   927                              PRN / # OF OBS      
   G 3   453   453   453   453                              PRN / # OF OBS      
   G 4   170   170   170   170                              PRN / # OF OBS      
   G 5   627   627   627   627                              PRN / # OF OBS      
   G 6   789   789   789   789                              PRN / # OF OBS      
   G 7   665   664   664   664                              PRN / # OF OBS      
   G 9   741   741   741   741                              PRN / # OF OBS      
   G10   738   737   737   737                              PRN / # OF OBS      
   G11   206   206   206   206                              PRN / # OF OBS      
   G12   804   804   804   804                              PRN / # OF OBS      
   G13   790   790   790   790                              PRN / # OF OBS      
   G14   492   492   492   492                              PRN / # OF OBS      
   G15   680   680   680   680                              PRN / # OF OBS      
   G16    98    98    98    98                              PRN / # OF OBS      
   G17   765   765   765   765                              PRN / # OF OBS      
   G18   380   380   379   379                              PRN / # OF OBS      
   G20   761   761   761   761                              PRN / # OF OBS      
   G21   328   328   328   328                              PRN / # OF OBS      
   G23   542   542   542   542                              PRN / # OF OBS      
   G24   826   826   826   826                              PRN / # OF OBS      
   G25   771   771   771   771                              PRN / # OF OBS      
   G27    41    41    41    41                              PRN / # OF OBS      
   G28   577   576   576   576                              PRN / # OF OBS      
   G29   602   602   602   602                              PRN / # OF OBS      
   G30   710   710   710   710                              PRN / # OF OBS      
   G31   579   579   579   579                              PRN / # OF OBS      
   G32   196   196   196   196                              PRN / # OF OBS      
BIT 2 OF LLI FLAGS DATA COLLECTED UNDER A/S CONDITION       COMMENT             
SNR is mapped to RINEX snr flag value [2-9]                 COMMENT             
Lx:     = 25dBHz -> 1; 26-27dBHz -> 2; 28-31dBHz -> 3       COMMENT             
       32-35dBHz -> 4; 36-38dBHz -> 5; 39-41dBHz -> 6       COMMENT             
       42-44dBHz -> 7; 45-48dBHz -> 8; >=49dBHz -> 9        COMMENT             
                                                            END OF HEADER       
 15 02 17 07 32  0.0000000  0 10G01G03G04G09G11G17G20G23G31G32
  20456855.640   107501501.63509  20456857.640    83767411.39649
  20512162.760   107792141.61609  20512164.100    83993882.66349
  21791450.000   114514842.37309  21791451.120    89232348.50448
  23736737.680   124737396.60108  23736739.940    97197982.33547
  21093894.300   110849162.31509  21093893.040    86375965.06648
  22577981.080   118648091.13709  22577980.280    92453055.13448
  24450847.880   128490072.00807  24450848.080   100122128.98344
  21604319.320   113531462.76609  21604317.220    88466067.54948
  23951056.120   125863649.48608  23951059.780    98075584.26147
  22035481.960   115797238.76809  22035482.680    90231618.18948
 15 02 17 07 32 30.0000000  0 10G01G03G04G09G11G17G20G23G31G32
  20459819.420   107517076.44609  20459821.460    83779547.53049
  20512097.180   107791796.50309  20512098.440    83993613.67849
  21804619.580   114584048.25709  21804620.540    89286275.04948
  23716176.820   124629349.02308  23716179.240    97113789.48746
  21106885.240   110917430.07909  21106883.980    86429160.63648
  22567139.420   118591117.42209  22567138.560    92408659.97248
  24435133.260   128407491.94207  24435133.240   100057780.82145
  21590595.100   113459340.58909  21590592.700    88409868.43248
  23948267.520   125848995.88808  23948271.280    98064165.86046
  22049050.000   115868538.02209  22049050.420    90287175.91448
 15 02 17 07 33  0.0000000  0 10G01G03G04G09G11G17G20G23G31G32
  20462856.680   107533037.16909  20462858.760    83791984.38749
  20512080.220   107791707.40609  20512081.500    83993544.19449
  21817846.820   114653556.76109  21817847.540    89340437.40548
  23695646.880   124521464.90008  23695649.520    97029723.98946
  21119953.820   110986105.45709  21119952.520    86482673.80748
  22556390.280   118534629.98709  22556389.380    92364643.73548
  24419436.800   128325006.28806  24419436.520    99993506.17346
  21576943.440   113387599.71509  21576940.800    88353966.42548
  23945574.740   125834846.33208  23945578.560    98053140.18346
  22062638.180   115939943.33109  22062638.440    90342816.28048
 15 02 17 07 33 30.0000000  0 10G01G03G04G09G11G17G20G23G31G32
  20465965.900   107549376.01209  20465967.980    83804715.88449
  20512110.200   107791865.18109  20512111.540    83993667.07849
  21831129.920   114723358.83209  21831130.500    89394828.50448
  23675146.820   124413737.99708  23675149.600    96945780.98746
  21133098.160   111055178.78609  21133096.820    86536497.09148
  22545732.400   118478622.03409  22545731.400    92321001.11648
  24403756.460   128242606.24207  24403756.240    99929298.35245
  21563363.000   113316233.33209  21563360.220    88298356.23248
  23942976.520   125821193.70207  23942980.360    98042501.71345
  22076244.740   116011444.96009  22076244.860    90398531.70948
 15 02 17 07 34  0.0000000  0 10G01G03G04G09G11G17G20G23G31G32
  20469147.480   107566095.21509  20469149.560    83817743.74249
  20512187.380   107792270.72709  20512188.760    83993983.01349
  21844469.040   114793455.51209  21844469.500    89449449.17048
  23654677.640   124306172.25808  23654680.420    96861963.51246
  21146318.200   111124650.41309  21146316.860    86590630.72348
  22535166.600   118423098.16209  22535165.520    92277735.67548
  24388092.940   128160293.79407  24388092.900    99865158.72344
  21549854.320   113245244.83209  21549851.520    88243040.48948
  23940473.260   125808041.10007  23940477.200    98032252.87146
  22089869.580   116083043.26509  22089869.600    90454322.43948
 15 02 17 07 34 30.0000000  0 10G01G03G04G09G11G17G20G23G31G32
  20472401.080   107583192.81709  20472403.120    83831066.48149
  20512311.100   107792920.65409  20512312.460    83994489.39249
  21857863.620   114863843.80609  21857864.080    89504297.06648
  23634239.160   124198767.21608  23634241.860    96778271.27746
  21159613.120   111194516.02809  21159611.900    86645071.37848
  22524692.580   118368056.94709  22524691.520    92234846.37948
  24372445.680   128078066.70408  24372445.960    99801085.63945
  21536417.280   113174633.21209  21536414.560    88188018.43348
  23938064.820   125795386.96707  23938068.880    98022392.47045
  22103511.980   116154734.31909  22103512.040    90510185.46948
 15 02 17 07 35  0.0000000  0 10G01G03G04G09G11G17G20G23G31G32
  20475727.800   107600674.43309  20475729.760    83844688.44649
  20512482.160   107793819.24209  20512483.520    83995189.53749
  21871314.380   114934527.77709  21871315.000    89559375.35948
  23613832.460   124091530.05308  23613835.320    96694709.87047
  21172983.760   111264779.55209  21172982.620    86699822.09248
  22514311.740   118313505.39109  22514310.760    92192338.61248
  24356815.680   127995930.03208  24356815.820    99737082.97245
  21523053.280   113104404.83409  21523050.500    88133295.00748
  23935752.720   125783237.67208  23935756.680    98012925.46846
  22117172.740   116226521.87409  22117173.000    90566123.69147
 15 02 17 07 35 30.0000000  0 10G01G03G04G09G11G17G20G23G31G32
  20479127.240   107618538.12809  20479129.120    83858608.13449
  20512699.900   107794963.17409  20512701.260    83996080.85349
  21884820.780   115005504.12809  21884821.540    89614681.49648
  23593457.540   123984460.36408  23593460.680    96611278.98046
  21186429.420   111335437.16909  21186428.340    86754879.90048
  22504023.920   118259442.72909  22504022.980    92150211.80148
  24341202.500   127913881.20608  24341202.440    99673148.76345
  21509762.140   113034558.85709  21509759.220    88078869.55248
  23933536.760   125771591.84608  23933540.500    98003850.75846
  22130851.120   116298402.17809  22130851.440    90622134.19048
 15 02 17 07 36  0.0000000  0 10G01G03G04G09G11G17G20G23G31G32
  20482599.080   107636782.68909  20482600.940    83872824.60449
  20512963.780   107796349.92209  20512965.160    83997161.38549
  21898382.320   115076770.74609  21898383.220    89670213.81348
  23573114.800   123877558.68308  23573117.900    96527978.96746
  21199949.480   111406485.45909  21199948.400    86810242.10548
  22493829.120   118205868.85409  22493828.260    92108465.86348
  24325605.740   127831918.83008  24325605.480    99609281.92745
  21496543.780   112965094.93409  21496540.680    88024741.79348
  23931416.680   125760449.09508  23931420.320    97995168.05846
  22144546.640   116370372.23209  22144547.040    90678214.62348
 15 02 17 07 36 30.0000000  0 10G01G03G04G09G11G17G20G23G31G32
  20486144.200   107655412.56409  20486146.040    83887341.32749
  20513274.440   107797982.60909  20513275.860    83998433.55849
  21911999.600   115148330.54509  21912000.640    89725974.58248
  23552805.260   123770830.86408  23552808.260    96444814.42347
  21213544.440   111477926.96209  21213543.340    86865910.72948
  22483728.420   118152789.45609  22483727.620    92067105.24048
  24310026.060   127750046.72807  24310025.440    99545485.43545
  21483399.080   112896018.49109  21483395.880    87970915.97748
  23929393.340   125749814.17208  23929396.600    97986881.08946
  22158259.840   116442434.52109  22158260.220    90734366.93248
 15 02 17 07 37  0.0000000  0 10G01G03G04G09G11G17G20G23G31G32
  20489763.300   107674431.08409  20489765.160    83902160.89349
  20513632.280   107799863.16309  20513633.700    83999898.87549
  21925673.140   115220185.79809  21925674.240    89781965.57448
  23532529.720   123664281.87508  23532532.780    96361789.25747
  21227214.480   111549762.91609  21227213.300    86921886.69948
  22473722.820   118100209.69409  22473722.040    92026133.95848
  24294463.840   127668267.72706  24294463.180    99481761.53246
  21470328.700   112827333.67709  21470325.580    87917395.32548
  23927467.380   125739691.19208  23927470.280    97978993.05946
  22171990.840   116514590.55909  22171991.160    90790592.27948
 15 02 17 07 37 30.0000000  0 10G01G03G04G09G11G17G20G23G31G32
  20493455.560   107693833.92309  20493457.460    83917279.91949
  20514036.240   107801986.01109  20514037.660    84001552.97949
  21939401.920   115292330.68709  21939403.020    89838182.24648
  23512287.680   123557908.96608  23512290.680    96278901.29746
  21240958.360   111621987.08309  21240957.160    86978165.18748
  22463811.640   118048125.90509  22463810.900    91985549.12648
  24278918.720   127586577.21807  24278917.800    99418106.54545
  21457332.120   112759037.14009  21457329.120    87864177.21748
  23925637.960   125730076.24008  23925640.540    97971500.88246
  22185738.520   116586834.29309  22185738.700    90846885.95747
 15 02 17 07 38  0.0000000  0 10G01G03G04G09G11G17G20G23G31G32
  20497221.240   107713622.77909  20497223.180    83932699.75149
  20514486.440   107804351.56309  20514487.840    84003396.21749
  21953186.060   115364766.02309  21953187.040    89894625.24848
  23492079.820   123451715.49108  23492082.620    96196153.13046
  21254775.960   111694599.24509  21254774.900    87034746.02048
  22453995.300   117996540.76109  22453994.640    91945352.86148
  24263390.420   127504976.22008  24263389.700    99354521.40145
  21444409.960   112691131.59809  21444407.120    87811263.78948
  23923905.480   125720971.64408  23923908.120    97964406.40046
  22199502.820   116659165.62809  22199503.000    90903247.91048
 15 02 17 07 45  0.0000000  0 10G01G03G04G09G11G17G20G23G31G32
  20557739.900   108031651.61109  20557741.860    84180515.98849
  20525590.660   107862706.34809  20525592.240    84048868.04849
  22151914.780   116409097.03509  22151915.800    90708391.82547
  23213012.440   121985203.91508  23213014.560    95053413.71147
  21455847.660   112751239.46309  21455847.080    87858107.05348
  22326747.340   117327848.52309  22326746.680    91424294.01548
  24047831.500   126372205.01308  24047833.680    98471867.41445
  21271494.460   111782457.39409  21271491.960    87103203.22148
  23909986.620   125647827.99908  23909988.700    97907405.79346
  22393857.900   117680517.19808  22393859.520    91699110.07247
 15 02 17 07 45 30.0000000  0 10G01G03G04G09G11G17G20G23G31G32
  20562611.180   108057251.19809  20562613.340    84200463.63649
  20526709.300   107868585.32509  20526710.920    84053448.99449
  22166502.740   116485757.44509  22166503.960    90768127.05247
  23193357.760   121881918.68608  23193360.120    94972931.67947
  21470730.920   112829451.70109  21470730.440    87919051.53748
  22318385.860   117283908.10509  22318385.080    91390054.67148
  24032554.800   126291924.50307  24032556.940    98409311.12246
  21259713.000   111720544.69209  21259710.380    87054959.53448
  23909725.640   125646457.25208  23909727.940    97906337.61946
  22407838.280   117753983.70009  22407839.620    91756356.53547
 15 02 17 07 46  0.0000000  0 10G01G03G04G09G11G17G20G23G31G32
  20567573.140   108083327.37309  20567575.560    84220782.64949
  20527887.740   107874778.46509  20527889.360    84058274.75549
  22181159.360   116562778.98409  22181160.720    90828143.69247
  23173759.340   121778929.91808  23173762.120    94892680.67347
  21485699.340   112908111.10809  21485698.920    87980344.47348
  22310140.060   117240575.51109  22310139.100    91356288.94748
  24017311.260   126211818.79508  24017312.820    98346891.07344
  21248026.080   111659128.02309  21248023.180    87007102.35348
  23909580.600   125645694.71709  23909582.800    97905743.38146
  22421847.680   117827602.63309  22421848.900    91813721.78147
 15 02 17 07 46 30.0000000  0 10G01G03G04G09G11G17G20G23G31G32
  20572610.080   108109797.42209  20572612.780    84241408.58049
  20529110.080   107881202.00009  20529111.680    84063280.03549
  22195868.720   116640077.62109  22195870.160    90888376.24947
  23154202.140   121676156.60608  23154205.060    94812597.54047
  21500736.560   112987132.01509  21500736.220    88041919.09148
  22301994.440   117197769.22709  22301993.260    91322933.34248
  24002085.140   126131804.55008  24002086.300    98284542.20645
  21236417.820   111598125.27509  21236414.760    86959567.72148
  23909535.640   125645457.91708  23909537.820    97905558.83546
  22435870.160   117901289.86209  22435871.240    91871140.26847
 15 02 17 07 47  0.0000000  0 10G01G03G04G09G11G17G20G23G31G32
  20577721.220   108136657.15209  20577724.140    84262338.15349
  20530375.300   107887850.65809  20530376.840    84068460.73649
  22210629.880   116717647.99609  22210631.420    90948820.54547
  23134685.600   121573596.32808  23134688.540    94732680.40147
  21515841.480   113066508.52409  21515841.140    88103770.80048
  22293948.340   117155485.93209  22293947.040    91289985.26148
  23986875.620   126051877.77308  23986876.660    98222261.42045
  21224887.600   111537532.82409  21224884.460    86912352.80248
  23909589.920   125645743.05308  23909592.100    97905780.98446
  22449904.540   117975039.84209  22449905.540    91928607.62547
 15 02 17 07 47 30.0000000  0 10G01G03G04G09G11G17G20G23G31G32
  20582908.100   108163914.87309  20582911.180    84283577.83849
  20531684.780   107894731.72509  20531686.300    84073822.53849
  22225444.160   116795497.08209  22225445.780    91009482.01747
  23115211.480   121471259.05508  23115214.520    94652937.05147
  21531015.320   113146247.04209  21531014.960    88165904.60848
  22286003.480   117113735.22409  22286002.280    91257452.18048
  23971684.160   125972046.07707  23971685.200    98160054.79446
  21213437.140   111477359.95109  21213434.020    86865464.83148
  23909745.080   125646558.82108  23909747.480    97906416.64946
  22463952.120   118048859.28509  22463952.980    91986129.13847
 15 02 17 07 48  0.0000000  0 10G01G03G04G09G11G17G20G23G31G32
  20588170.300   108191568.10509  20588173.420    84305125.73749
  20533037.840   107901841.58509  20533039.340    84079362.62849
  22240310.920   116873621.43709  22240312.540    91070357.99047
  23095779.460   121369143.96508  23095782.740    94573366.84147
  21546257.300   113226343.35209  21546256.840    88228317.20648
  22278159.560   117072515.55709  22278158.540    91225332.91148
  23956510.240   125892306.88708  23956511.340    98097920.36645
  21202066.180   111417605.46109  21202063.180    86818902.88048
  23910000.820   125647903.02708  23910003.260    97907464.10946
  22478012.120   118122744.42409  22478013.020    92043701.84747
 15 02 17 07 48 30.0000000  0 10G01G03G04G09G11G17G20G23G31G32
  20593508.440   108219620.05709  20593511.560    84326984.32349
  20534434.860   107909182.48609  20534436.320    84085082.73349
  22255230.420   116952022.94609  22255232.000    91131449.94247
  23076390.660   121267256.07108  23076394.060    94493973.65947
  21561567.600   113306798.41309  21561567.040    88291009.35748
  22270417.480   117031831.23709  22270416.660    91193630.77348
  23941354.680   125812663.53208  23941355.680    98035860.50245
  21190775.440   111358273.27809  21190772.680    86772669.99548
  23910357.760   125649778.98008  23910360.180    97908925.91146
  22492084.900   118196697.12209  22492085.800    92101327.18947
 15 02 17 07 49  0.0000000  0 10G01G03G04G09G11G17G20G23G31G32
  20598921.580   108248065.73209  20598924.660    84349149.71549
  20535874.660   107916748.41309  20535876.140    84090978.19949
  22270201.520   117030695.44009  22270202.920    91192753.03947
  23057044.520   121165592.07408  23057047.940    94414754.95347
  21576944.720   113387605.17209  21576944.180    88353975.55648
  22262776.480   116991677.70109  22262775.740    91162342.24748
  23926216.460   125733110.43208  23926217.060    97973870.91845
  21179564.300   111299359.27009  21179561.740    86726762.95648
  23910815.000   125652181.81908  23910817.600    97910798.25946
  22506169.240   118270710.93609  22506170.220    92159000.15247
 15 02 17 07 49 30.0000000  0 10G01G03G04G09G11G17G20G23G31G32
  20604410.220   108276908.15709  20604413.240    84371624.26049
  20537357.640   107924541.42809  20537359.180    84097050.61749
  22285224.500   117109640.63509  22285225.760    91254268.64447
  23037742.080   121064156.76508  23037745.420    94335714.44247
  21592388.860   113468764.66509  21592388.360    88417216.61748
  22255237.380   116952059.55509  22255236.680    91131470.91448
  23911095.880   125653650.09407  23911096.220    97911953.67046
  21168433.440   111240867.02809  21168430.960    86681184.56748
  23911373.140   125655114.76208  23911375.720    97913083.65546
  22520265.560   118344787.59209  22520266.600    92216722.09947
 15 02 17 07 50  0.0000000  0 10G01G03G04G09G11G17G20G23G31G32
  20609975.260   108306152.04309  20609978.200    84394411.62049
  20538884.520   107932565.26609  20538886.120    84103302.90649
  22300300.000   117188862.32609  22300301.180    91315999.67647
  23018484.460   120962956.62908  23018487.740    94256857.18847
  21607900.600   113550279.61609  21607900.100    88480734.65548
  22247801.320   116912982.75909  22247800.620    91101021.39748
  23895993.900   125574287.67408  23895994.180    97850112.79845
  21157384.040   111182802.29409  21157381.440    86635939.28948
  23912033.100   125658583.08608  23912035.700    97915786.20246
  22534374.420   118418930.49609  22534375.560    92274495.64547
 15 02 17 07 50 30.0000000  0 10G01G03G04G09G11G17G20G23G31G32
  20615615.920   108335793.42609  20615618.820    84417508.73749
  20540454.420   107940814.93609  20540456.000    84109731.17249
  22315427.000   117268355.18709  22315428.320    91377942.02447
  22999271.120   120861989.37608  22999274.360    94178181.43047
  21623478.880   113632144.05109  21623478.280    88544525.02948
  22240467.680   116874444.13409  22240466.960    91070991.25848
  23880909.680   125495018.97408  23880910.000    97788344.85745
  21146415.340   111125161.89909  21146412.700    86591024.67548
  23912794.180   125662582.85108  23912796.680    97918902.88246
  22548495.040   118493134.44009  22548496.260    92332316.78147
 15 02 17 07 51  0.0000000  0 10G01G03G04G09G11G17G20G23G31G32
  20621332.880   108365835.58109  20621335.720    84440918.15149
  20542067.760   107949292.77209  20542069.280    84116337.23249
  22330606.020   117348121.34109  22330607.460    91440097.35047
  22980102.960   120761260.09408  22980106.180    94099691.08347
  21639123.980   113714359.28409  21639123.260    88608588.73848
  22233237.140   116836447.22909  22233236.400    91041383.21948
  23865843.660   125415846.85207  23865844.200    97726652.18646
  21135528.140   111067949.89109  21135525.600    86546443.86748
  23913657.020   125667117.55708  23913659.420    97922436.39546
  22562627.760   118567401.43109  22562629.000    92390187.05147
 15 02 17 07 51 30.0000000  0 10G01G03G04G09G11G17G20G23G31G32
  20627125.860   108396277.10809  20627128.560    84464638.75649
  20543724.060   107957996.46409  20543725.520    84123119.28149
  22345836.700   117428158.26709  22345838.180    91502463.64247
  22960980.000   120660769.09108  22960983.340    94021386.41147
  21654835.240   113796922.04509  21654834.500    88672923.27348
  22226109.900   116798992.92109  22226109.120    91012197.98248
  23850795.520   125336769.64008  23850796.600    97665033.58145
  21124722.440   111011165.88609  21124720.000    86502196.57248
  23914621.520   125672186.15708  23914623.960    97926385.90046
  22576771.860   118641728.79709  22576773.300    92448104.33847
 15 02 17 07 52  0.0000000  0 10G01G03G04G09G11G17G20G23G31G32
  20632995.080   108427119.27609  20632997.640    84488671.55749
  20545423.340   107966926.31909  20545424.840    84130077.55749
  22361118.920   117508465.86109  22361120.300    91565040.84147
  22941902.940   120560519.45508  22941906.440    93943269.82047
  21670612.500   113879831.56409  21670611.860    88737527.99348
  22219086.160   116762082.73609  22219085.300    90983436.73048
  23835765.860   125257788.67708  23835767.120    97603489.81445
  21113998.600   110954811.78409  21113996.240    86458284.27548
  23915687.960   125677790.12508  23915690.400    97930752.58046
  22590927.440   118716116.53909  22590928.800    92506068.71747
 15 02 17 07 52 30.0000000  0 10G01G03G04G09G11G17G20G23G31G32
  20638940.480   108458361.58409  20638942.840    84513016.14349
  20547165.460   107976080.99509  20547166.940    84137211.02849
  22376452.340   117589042.69609  22376453.680    91627827.85547
  22922872.140   120460512.48508  22922875.740    93865342.32147
  21686455.320   113963085.53609  21686454.760    88802401.11348
  22212166.000   116725717.33409  22212165.240    90955100.00448
  23820754.520   125178903.35607  23820755.840    97542020.65346
  21103356.740   110898888.03509  21103354.380    86414707.32148
  23916856.100   125683928.94908  23916858.580    97935536.01346
  22605094.120   118790563.01009  22605095.700    92564078.80747
 15 02 17 07 53  0.0000000  0 10G01G03G04G09G11G17G20G23G31G32
  20644961.560   108490001.29609  20644963.640    84537670.41349
  20548949.640   107985456.75909  20548951.120    84144516.78149
  22391836.120   117669884.66409  22391837.400    91690821.47147
  22903887.440   120360747.10808  22903891.000    93787603.07747
  21702362.740   114046679.01909  21702362.260    88867538.80748
  22205349.120   116689894.76909  22205348.560    90927186.26148
  23805760.820   125100110.51008  23805761.900    97480623.62445
  21092796.520   110843392.61209  21092794.040    86371464.12648
  23918125.640   125690600.17508  23918128.100    97940734.31746
  22619271.300   118865064.29209  22619272.700    92622131.67447
 15 02 17 07 53 30.0000000  0 10G01G03G04G09G11G17G20G23G31G32
  20651059.400   108522044.61609  20651061.240    84562639.17649
  20550776.900   107995059.02309  20550778.380    84151999.01949
  22407271.200   117750996.85109  22407272.540    91754025.62347
  22884950.340   120261231.41408  22884953.700    93710058.37447
  21718335.460   114130616.40309  21718335.080    88932944.44848
  22198636.860   116654621.83009  22198636.440    90899700.78948
  23790786.100   125021416.79608  23790786.960    97419303.70945
  21082319.240   110788332.68809  21082316.560    86328560.27548
  23919497.740   125697810.21808  23919500.080    97946352.46646
  22633459.740   118939625.41209  22633461.380    92680231.11447
 15 02 17 07 54  0.0000000  0 10G01G03G04G09G11G17G20G23G31G32
  20657233.420   108554488.81809  20657235.140    84587920.32649
  20552646.540   108004884.18109  20552648.080    84159654.95449
  22422756.980   117832375.58709  22422758.480    91817437.48247
  22866060.480   120161964.44308  22866063.840    93632707.51647
  21734372.680   114214893.15609  21734372.420    88998614.55348
  22192029.020   116619897.36309  22192028.600    90872642.70548
  23775829.540   124942818.91707  23775830.360    97358058.55046
  21071924.480   110733706.12409  21071921.460    86285994.12248
  23920971.800   125705556.55008  23920974.240    97952388.53146
  22647658.960   119014242.46509  22647660.560    92738374.17747
 15 02 17 07 54 30.0000000  0 10G01G03G04G09G11G17G20G23G31G32
  20663483.900   108587335.23409  20663485.640    84613514.87449
  20554558.660   108014932.71009  20554560.220    84167484.93349
  22438293.580   117914020.78209  22438295.260    91881056.98947
  22847218.520   120062949.30908  22847221.900    93555552.89547
  21750474.320   114299508.38209  21750474.200    89064548.38248
  22185526.100   116585723.57509  22185525.480    90846013.73348
  23760891.360   124864318.32708  23760892.240    97296889.27145
  21061612.500   110679515.25309  21061609.220    86243767.45848
  23922548.160   125713840.41208  23922550.600    97958843.46346
  22661868.900   119088915.70509  22661870.500    92796561.01147
 15 02 17 07 55  0.0000000  0 10G01G03G04G09G11G17G20G23G31G32
  20669809.720   108620578.13909  20669811.620    84639418.38949
  20556512.060   108025198.00709  20556513.700    84175483.83149
  22453879.680   117995925.63109  22453881.440    91944878.81847
  22828423.700   119964182.07309  22828427.060    93478591.44747
  21766639.100   114384454.43809  21766638.980    89130740.01848
  22179126.960   116552095.16309  22179126.180    90819809.74148
  23745970.580   124785909.20708  23745971.300    97235791.22544
  21051382.220   110625754.99209  21051378.900    86201876.35848
  23924225.760   125722656.44808  23924228.260    97965713.08446
  22676088.260   119163638.18609  22676089.860    92854786.21347
 15 02 17 07 55 30.0000000  0 10G01G03G04G09G11G17G20G23G31G32
  20676212.560   108654225.95709  20676214.640    84665637.42249
  20558508.160   108035687.71709  20558509.900    84183657.59249
  22469516.620   118078097.57709  22469518.400    92008908.75347
  22809678.060   119865672.98408  22809681.360    93401831.12247
  21782868.140   114469737.54109  21782867.920    89197194.27448
  22172833.420   116519021.88309  22172832.560    90794038.30948
  23731068.780   124707599.87208  23731069.400    97174770.89445
  21041235.440   110572434.85309  21041232.300    86160328.19048
  23926006.300   125732013.06808  23926008.860    97973003.96246
  22690318.520   119238417.20709  22690319.680    92913055.48347
 15 02 17 07 56  0.0000000  0 10G01G03G04G09G11G17G20G23G31G32
  20682691.540   108688274.01509  20682693.780    84692168.31949
  20560545.940   108046396.35809  20560547.740    84192001.94749
  22485203.260   118160530.63109  22485205.000    92073142.19247
  22790980.900   119767419.16508  22790984.240    93325269.71947
  21799160.120   114555351.33109  21799159.780    89263906.21348
  22166644.700   116486499.95809  22166643.920    90768696.50448
  23716184.960   124629385.26408  23716185.720    97113824.47145
  21031171.620   110519550.72509  21031168.700    86119119.78248
  23927888.860   125741905.77708  23927891.500    97980712.59246
  22704558.420   119313247.17809  22704559.540    92971364.42947
 15 02 17 07 56 30.0000000  0 10G01G03G04G09G11G17G20G23G31G32
  20689247.500   108722726.53209  20689249.920    84719014.38949
  20562626.080   108057327.39109  20562627.880    84200519.59649
  22500940.160   118243227.90509  22500941.860    92137581.48847
  22772333.440   119669426.69008  22772336.860    93248911.97347
  21815515.320   114641297.86409  21815515.000    89330877.42848
  22160561.860   116454534.46809  22160561.160    90743788.27548
  23701320.140   124551269.92608  23701320.820    97052955.38745
  21021191.740   110467107.39209  21021189.000    86078254.84748
  23929874.160   125752338.91408  23929876.900    97988842.32146
  22718808.500   119388131.24709  22718809.640    93029715.53747
 15 02 17 07 57  0.0000000  0 10G01G03G04G09G11G17G20G23G31G32
  20695880.200   108757582.39209  20695882.780    84746174.75449
  20564748.200   108068478.91009  20564750.040    84209209.04649
  22516726.920   118326187.17409  22516728.580    92202224.93747
  22753735.900   119571696.25208  22753739.380    93172758.39947
  21831933.180   114727574.25409  21831932.920    89398105.66248
  22154584.920   116423125.12109  22154584.220    90719313.41248
  23686474.100   124473252.83408  23686474.580    96992162.79645
  21011295.780   110415104.73809  21011293.180    86037733.29148
  23931961.880   125763311.20008  23931964.900    97997392.14046
  22733068.380   119463067.32709  22733069.640    93088107.19147
 15 02 17 07 57 30.0000000  0 10G01G03G04G09G11G17G20G23G31G32
  20702588.900   108792837.49209  20702591.640    84773646.20949
  20566911.320   108079846.01909  20566913.160    84218066.49749
  22532562.560   118409403.30109  22532564.240    92267068.51747
  22735187.780   119474225.50709  22735191.300    93096807.20647
  21848412.680   114814174.76309  21848412.580    89465586.48048
  22148713.180   116392268.72009  22148712.480    90695269.42548
  23671645.880   124395329.43407  23671646.260    96931443.22146
  21001483.200   110363539.67909  21001480.680    85997552.72148
  23934151.440   125774818.76808  23934154.620    98006359.09346
  22747337.100   119538050.14609  22747338.600    93146535.25547
 15 02 17 07 58  0.0000000  0 10G01G03G04G09G11G17G20G23G31G32
  20709374.960   108828498.82509  20709377.860    84801434.19349
  20569116.720   108091435.08309  20569118.460    84227096.88949
  22548448.120   118492882.01409  22548449.880    92332116.70547
  22716690.880   119377023.37109  22716694.360    93021065.29647
  21864954.760   114901104.08309  21864954.800    89533323.49848
  22142948.100   116361973.04609  22142947.460    90671662.35248
  23656836.860   124317507.15908  23656837.060    96870802.53845
  20991755.460   110312419.66909  20991752.880    85957718.92248
  23936444.320   125786868.51508  23936447.460    98015748.49946
  22761615.920   119613085.83609  22761617.540    93205004.52047
 15 02 17 07 58 30.0000000  0 10G01G03G04G09G11G17G20G23G31G32
  20716237.480   108864561.17209  20716240.360    84829534.66849
  20571363.240   108103240.07609  20571364.860    84236295.55149
  22564382.400   118576617.10509  22564384.440    92397364.68347
  22698244.520   119280086.41209  22698247.760    92945530.02247
  21881558.140   114988355.12909  21881558.260    89601311.21948
  22137288.860   116332233.80209  22137288.340    90648488.86648
  23642046.100   124239780.96008  23642046.260    96810236.62145
  20982111.740   110261740.35109  20982109.020    85918228.53548
  23938839.400   125799455.40208  23938842.520    98025556.48246
  22775903.660   119688168.12209  22775905.400    93263510.07947
 15 02 17 07 59  0.0000000  0 10G01G03G04G09G11G17G20G23G31G32
  20723177.580   108901031.09209  20723180.460    84857952.73049
  20573651.920   108115266.87609  20573653.500    84245667.04849
  22580366.460   118660613.82109  22580368.680    92462816.51147
  22679850.240   119183423.04509  22679853.280    92870207.93348
  21898223.760   115075932.44709  21898223.780    89669553.16548
  22131736.880   116303058.33109  22131736.460    90625754.68848
  23627274.760   124162156.93908  23627274.880    96749750.30445
  20972553.340   110211509.31909  20972550.500    85879087.46148
  23941337.800   125812585.96508  23941341.300    98035788.06546
  22790201.300   119763302.77209  22790202.860    93322056.45947
 15 02 17 07 59 30.0000000  0 10G01G03G04G09G11G17G20G23G31G32
  20730193.580   108937900.06909  20730196.500    84886681.74849
  20575981.000   108127506.25309  20575982.660    84255204.19749
  22596398.560   118744862.64709  22596400.700    92528464.82847
  22661506.700   119087026.60609  22661509.600    92795093.83847
  21914949.500   115163825.63509  21914949.380    89738041.27547
  22126290.840   116274438.90909  22126290.440    90603453.81648
  23612521.140   124084626.32708  23612521.100    96689336.80745
  20963078.640   110161718.65409  20963075.720    85840289.53048
  23943938.180   125826251.74008  23943942.020    98046436.72046
  22804507.080   119838480.12509  22804508.820    93380636.08347
 15 02 17 08 00  0.0000000  0 10G01G03G04G09G11G17G20G23G31G32
  20737286.540   108975173.20209  20737289.400    84915725.68249
  20578351.380   108139962.63709  20578353.080    84264910.42749
  22612479.440   118829367.52209  22612481.420    92594312.62147
  22643215.220   118990904.01709  22643218.080    92720193.12447
  21931735.820   115252038.09509  21931735.720    89806778.15047
  22120951.780   116246381.45709  22120951.320    90581590.83048
  23597786.320   124007194.52508  23597786.300    96629000.34446
  20953688.680   110112374.06309  20953685.740    85801839.18348
  23946641.620   125840457.63208  23946645.440    98057506.24346
  22818821.840   119913704.52309  22818823.600    93439252.39247
 15 02 17 08 00 30.0000000  0 10G01G03G04G09G11G17G20G23G31G32
  20744456.200   109012849.27609  20744458.920    84945083.61749
  20580762.720   108152634.14409  20580764.380    84274784.29749
  22628608.640   118914126.30909  22628610.480    92660358.29847
  22624976.000   118895055.90909  22624978.860    92645506.30747
  21948582.140   115340566.40109  21948582.160    89875761.15147
  22115719.620   116218885.67409  22115719.060    90560165.51248
  23583070.080   123929860.65508  23583070.280    96568740.16445
  20944383.380   110063475.16409  20944380.580    85763736.14548
  23949447.760   125855202.48908  23949451.160    98068995.77346
  22833145.300   119988973.87209  22833147.100    93497903.73347
 15 02 17 08 01  0.0000000  0 10G01G03G04G09G11G17G20G23G31G32
  20751703.040   109050931.03109  20751705.600    84974757.64649
  20583215.380   108165522.91709  20583217.040    84284827.46049
  22644786.480   118999140.51009  22644788.320    92726602.96847
  22606789.880   118799486.90909  22606792.700    92571036.96448
  21965488.820   115429411.70109  21965488.900    89944991.14147
  22110594.900   116191955.04709  22110594.360    90539180.57148
  23568373.000   123852627.36508  23568373.500    96508558.32245
  20935163.500   110015025.44509  20935160.860    85725983.09248
  23952356.840   125870489.03808  23952359.740    98080907.35346
  22847477.500   120064289.99208  22847479.400    93556591.47547
 15 02 17 08 01 30.0000000  0 10G01G03G04G09G11G17G20G23G31G32
  20759026.240   109089414.32609  20759028.720    85004744.56649
  20585708.460   108178624.15609  20585710.120    84295036.18349
  22661011.900   119084405.01109  22661013.840    92793042.69147
  22588656.480   118704194.73409  22588659.120    92496783.33048
  21982454.700   115518567.51609  21982454.760    90014463.09648
  22105577.100   116165586.15409  22105576.520    90518633.33948
  23553694.260   123775490.33407  23553694.960    96448451.48746
  20926028.500   109967021.55809  20926025.920    85688577.45248
  23955368.140   125886313.06108  23955370.780    98093237.76346
  22861817.720   120139647.89709  22861819.720    93615311.79247
 15 02 17 08 02  0.0000000  0 10G01G03G04G09G11G17G20G23G31G32
  20766425.740   109128298.90009  20766428.240    85035044.17949
  20588241.740   108191937.04009  20588243.500    84305409.82249
  22677284.600   119169918.56609  22677286.760    92859676.47747
  22570576.060   118609181.05209  22570578.540    92422746.70048
  21999479.440   115608032.09609  21999479.420    90084175.63947
  22100666.220   116139779.63609  22100665.680    90498524.33748
  23539033.920   123698449.76908  23539034.580    96388419.81045
  20916978.560   109919464.00709  20916975.900    85651519.60348
  23958481.860   125902674.47508  23958484.400    98105986.93046
  22876165.660   120215046.58609  22876167.660    93674063.88847
 15 02 17 08 02 30.0000000  0 10G01G03G04G09G11G17G20G23G31G32
  20773902.460   109167589.15109  20773904.980    85065659.89349
  20590816.060   108205465.31409  20590817.840    84315951.30849
  22693605.240   119255684.11309  22693607.640    92926506.63247
  22552549.800   118514452.05609  22552552.040    92348931.91348
  22016563.420   115697807.90309  22016563.320    90154130.73348
  22095863.200   116114540.13509  22095862.800    90478857.16848
  23524392.880   123621509.97007  23524393.520    96328466.61546
  20908014.780   109872357.99309  20908011.880    85614813.60448
  23961698.640   125919577.62208  23961701.120    98119158.21046
  22890522.180   120290489.55209  22890524.200    93732850.47547
 15 02 17 08 03  0.0000000  0 10G01G03G04G09G11G17G20G23G31G32
  20781456.460   109207285.55409  20781459.040    85096592.09649
  20593431.360   108219208.89009  20593433.140    84326660.55149
  22709973.820   119341701.31109  22709976.300    92993532.85447
  22534578.080   118420010.11409  22534580.260    92275340.80048
  22033706.240   115787893.47809  22033706.220    90224327.18348
  22091168.600   116089869.90009  22091168.160    90459633.55848
  23509771.160   123544671.67408  23509771.680    96268592.60446
  20899137.220   109825704.65009  20899134.060    85578460.32948
  23965018.400   125937022.49308  23965020.860    98132751.63846
  22904887.160   120365976.56209  22904888.740    93791671.41447
 15 02 17 08 03 30.0000000  0 10G01G03G04G09G11G17G20G23G31G32
  20789087.080   109247384.57609  20789089.700    85127838.02148
  20596086.860   108233163.69409  20596088.680    84337534.39849
  22726389.460   119427965.32209  22726391.880    93060751.41947
  22516660.720   118325853.62309  22516662.860    92201972.11848
  22050906.840   115878283.29109  22050906.940    90294760.68347
  22086581.760   116065765.48109  22086581.200    90440850.85548
  23495168.160   123467931.59208  23495168.420    96208795.06645
  20890345.120   109779501.11409  20890341.840    85542457.56048
  23968440.540   125955005.71309  23968442.880    98146764.57446
  22919259.500   120441503.30409  22919261.060    93850523.27147
 15 02 17 08 04  0.0000000  0 10G01G03G04G09G11G17G20G23G31G32
  20796794.200   109287885.75109  20796796.820    85159397.31549
  20598782.380   108247328.71909  20598784.240    84348572.04249
  22742851.860   119514475.09809  22742854.120    93128161.48147
  22498798.000   118231983.96309  22498800.020    92128826.94448
  22068164.900   115968974.78509  22068164.960    90365429.26147
  22082102.640   116042227.15509  22082102.040    90422509.26748
  23480583.760   123391289.24408  23480583.900    96149073.74045
  20881638.460   109733747.74109  20881635.320    85506805.56648
  23971965.040   125973526.82009  23971967.140    98161196.63846
  22933639.180   120517068.60909  22933640.840    93909405.19447
 15 02 17 08 04 30.0000000  0 10G01G03G04G09G11G17G20G23G31G32
  20804578.380   109328791.91209  20804581.040    85191272.18049
  20601518.400   108261706.25409  20601520.220    84359775.28849
  22759361.280   119601231.96609  22759363.520    93195764.07547
  22480990.780   118138405.85909  22480992.700    92055908.95748
  22085480.600   116059969.15009  22085480.660    90436333.86148
  22077731.820   116019257.87809  22077731.240    90404611.09348
  23466018.480   123314747.54508  23466018.520    96089430.83546
  20873018.100   109688448.15509  20873015.180    85471507.17948
  23975592.400   125992588.35509  23975594.380    98176049.82347
  22948026.480   120592674.53308  22948028.240    93968318.78047
 15 02 17 08 05  0.0000000  0 10G01G03G04G09G11G17G20G23G31G32
  20812439.600   109370102.83309  20812442.300    85223462.46649
  20604294.700   108276295.52509  20604296.480    84371143.52749
  22775917.460   119688234.77709  22775919.860    93263558.33447
  22463239.320   118045120.95809  22463241.200    91983219.43248
  22102853.480   116151264.23309  22102853.660    90507472.76747
  22073469.520   115996859.18309  22073469.060    90387157.52948
  23451472.240   123238306.47208  23451472.300    96029866.29745
  20864484.140   109643602.55009  20864481.460    85436562.55648
  23979322.520   126012189.95609  23979324.600    98191323.77947
  22962421.280   120668320.07809  22962423.220    94027263.20547
 15 02 17 08 05 30.0000000  0 10G01G03G04G09G11G17G20G23G31G32
  20820377.680   109411817.61509  20820380.480    85255967.42949
  20607111.060   108291095.25309  20607112.820    84382675.75349
  22792520.100   119775481.62409  22792522.540    93331542.71847
  22445543.780   117952130.34109  22445545.700    91910759.22448
  22120283.220   116242857.56409  22120283.420    90578844.09047
  22069315.600   115975030.48009  22069315.320    90370148.10148
  23436944.860   123161965.28708  23436945.040    95970379.72146
  20856036.600   109599210.77709  20856034.080    85401971.56048
  23983155.200   126032330.68309  23983157.560    98207017.83047
  22976823.580   120744003.85308  22976825.640    94086237.44447
 15 02 17 08 06  0.0000000  0 10G01G03G04G09G11G17G20G23G31G32
  20828392.940   109453937.62809  20828395.780    85288788.15349
  20609967.660   108306106.25409  20609969.380    84394372.59849
  22809169.280   119862972.80709  22809171.800    93399717.50647
  22427904.860   117859437.21709  22427906.700    91838530.83847
  22137769.640   116334748.35209  22137769.820    90650447.18747
  22065270.560   115953773.80709  22065270.340    90353584.42948
  23422436.920   123085725.88708  23422437.160    95910972.36346
  20847675.840   109555275.20409  20847673.460    85367736.04748
  23987090.560   126053011.74108  23987093.160    98223132.88947
  22991233.200   120819726.43609  22991235.400    94145241.89547
 15 02 17 08 06 30.0000000  0 11G01G03G04G06G09G11G17G20G23G31G32
  20836485.040   109496461.27809  20836487.860    85321923.41349
  20612864.080   108321326.48609  20612865.720    84406232.47949
  22825864.480   119950705.73709  22825867.080    93468080.67147
  24658834.280   129583057.39707  24658839.240   100973824.73445
  22410322.520   117767041.93309  22410324.300    91766534.52548
  22155312.060   116426933.26909  22155312.200    90722279.46147
  22061334.200   115933088.01909  22061333.920    90337465.58448
  23407948.020   123009586.55008  23407948.440    95851643.03246
  20839401.680   109511794.98509  20839399.460    85333855.35548
  23991128.280   126074231.39808  23991131.200    98239667.63347
  23005649.880   120895485.65509  23005651.880    94204274.94046
 15 02 17 08 07  0.0000000  0 11G01G03G04G06G09G11G17G20G23G31G32
  20844656.400   109539401.73109  20844659.180    85355383.44149
  20615802.700   108336768.71809  20615804.260    84418265.33549
  22842608.020   120038692.60609  22842610.460    93536641.74547
  24639839.760   129483240.40207  24639845.280   100896045.27245
  22392799.780   117674959.60409  22392801.500    91694782.08348
  22172912.520   116519423.58809  22172912.640    90794349.71447
  22057509.060   115912986.81509  22057508.820    90321802.27748
  23393480.760   122933560.63508  23393481.280    95792402.04646
  20831216.860   109468783.98909  20831214.720    85300340.28848
  23995270.960   126096002.73708  23995274.040    98256632.24946
  23020075.820   120971294.15309  23020077.940    94263346.34747
 15 02 17 08 07 30.0000000  0 11G01G03G04G06G09G11G17G20G23G31G32
  20852901.380   109582729.24909  20852904.120    85389145.07749
  20618777.840   108352402.74609  20618779.300    84430447.65449
  22859393.880   120126902.53409  22859396.220    93605376.58547
  24620841.180   129383399.84908  24620846.360   100818247.36945
  22375331.240   117583162.36409  22375333.020    91623251.78148
  22190564.980   116612187.69509  22190565.080    90866633.32347
  22053789.820   115893442.04009  22053789.560    90306572.54448
  23379029.520   122857618.84408  23379030.020    95733226.68145
  20823115.900   109426212.94609  20823113.720    85267168.04148
  23999513.020   126118295.73208  23999516.080    98274003.33146
  23034505.360   121047121.35909  23034507.700    94322432.32447
 15 02 17 08 08  0.0000000  0 11G01G03G04G06G09G11G17G20G23G31G32
  20861223.500   109626461.89309  20861226.240    85423222.41149
  20621792.800   108368246.27809  20621794.260    84442793.23349
  22876225.400   120215352.71608  22876227.860    93674298.67447
  24601841.720   129283555.32408  24601846.420   100740446.33946
  22357920.740   117491670.18409  22357922.740    91551959.21648
  22208272.560   116705242.13909  22208272.780    90939143.17347
  22050179.840   115874471.68509  22050179.600    90291790.43748
  23364597.780   122781779.34908  23364598.120    95674130.92346
  20815102.300   109384100.75009  20815099.960    85234353.34948
  24003857.880   126141128.26508  24003861.020    98291794.83746
  23048941.840   121122984.99508  23048944.020    94381546.73147
 15 02 17 08 08 30.0000000  0 11G01G03G04G06G09G11G17G20G23G31G32
  20869623.000   109670600.95409  20869625.780    85457616.41549
  20624847.780   108384300.15909  20624849.220    84455302.70749
  22893102.660   120304043.30809  22893105.320    93743408.05247
  24582842.000   129183709.81508  24582846.280   100662644.54246
  22340568.900   117400486.30309  22340571.160    91480906.86248
  22226035.260   116798586.17609  22226035.660    91011878.67147
  22046679.520   115856077.69709  22046679.360    90277457.42248
  23350185.900   122706043.91208  23350186.080    95615116.28746
  20807176.420   109342449.36009  20807173.820    85201897.71248
  24008305.580   126164501.45908  24008308.780    98310007.62645
  23063385.560   121198885.73208  23063387.620    94440690.05047
 15 02 17 08 09  0.0000000  0 11G01G03G04G06G09G11G17G20G23G31G32
  20878098.460   109715139.57909  20878101.300    85492321.78249
  20627941.380   108400557.20809  20627942.900    84467970.50349
  22910024.280   120392966.57409  22910026.960    93812698.73746
  24563841.100   129083858.18508  24563845.140   100584838.03245
  22323274.800   117309605.80709  22323277.280    91410090.92148
  22243851.500   116892210.91509  22243852.040    91084832.88547
  22043287.780   115838253.88309  22043287.620    90263568.70548
  23335792.500   122630405.88708  23335792.700    95556177.60946
  20799337.140   109301252.86709  20799334.320    85169796.54948
  24012854.880   126188408.20008  24012857.980    98328636.19745
  23077834.700   121274816.26808  23077836.980    94499856.52346
 15 02 17 08 09 30.0000000  0 11G01G03G04G06G09G11G17G20G23G31G32
  20886651.160   109760084.27609  20886654.000    85527343.56049
  20631074.780   108417023.53809  20631076.380    84480801.36049
  22926991.300   120482127.83108  22926993.880    93882174.91647
  24544840.440   128984008.60707  24544844.580   100507033.11445
  22306040.100   117219037.13609  22306042.660    91339517.95848
  22261722.300   116986121.31509  22261722.800    91158009.69747
  22040005.900   115821007.09609  22040005.680    90250129.63248
  23321418.920   122554871.97008  23321419.100    95497320.03246
  20791585.720   109260518.15709  20791582.740    85138055.21348
  24017506.960   126212854.56708  24017509.520    98347685.27245
  23092290.720   121350782.34008  23092292.640    94559050.76546
 15 02 17 08 10  0.0000000  0 11G01G03G04G06G09G11G17G20G23G31G32
  20895279.980   109805428.73709  20895282.700    85562676.83748
  20634246.740   108433692.54509  20634248.380    84493790.15449
  22944002.240   120571519.93908  22944004.760    93951830.93447
  24525839.460   128884156.66308  24525843.440   100429226.35246
  22288863.840   117128775.92209  22288866.460    91269184.56848
  22279645.900   117080308.99709  22279646.320    91231402.58247
  22036832.840   115804332.24009  22036832.600    90237136.20348
  23307064.060   122479436.31908  23307064.300    95438538.96546
  20783921.040   109220239.56609  20783917.980    85106669.29348
  24022260.700   126237834.44908  24022262.680    98367150.06245
  23106752.200   121426777.36108  23106754.020    94618267.54547
 15 02 17 08 10 30.0000000  0 11G01G03G04G06G09G11G17G20G23G31G32
  20903985.900   109851178.13209  20903988.460    85598325.65148
  20637458.200   108450569.04209  20637459.900    84506940.61548
  22961057.780   120661146.81209  22961060.420    94021669.89347
  24506839.300   128784309.21308  24506843.240   100351423.06645
  22271747.440   117038829.23409  22271750.080    91199096.26748
  22297622.920   117174777.75609  22297623.280    91305014.47647
  22033769.660   115788234.63209  22033769.300    90224592.58048
  23292728.780   122404104.16908  23292729.300    95379838.63147
  20776344.200   109180423.25609  20776341.220    85075643.59948
  24027116.860   126263352.64408  24027118.460    98387034.32245
  23121219.920   121502806.00208  23121222.000    94677510.48747
 15 02 17 08 11  0.0000000  0 11G01G03G04G06G09G11G17G20G23G31G32
  20912768.760   109897332.04709  20912771.320    85634289.66548
  20640709.020   108467652.34209  20640710.800    84520252.22348
  22978157.780   120751007.41208  22978160.400    94091690.98947
  24487840.260   128684467.67208  24487844.120   100273624.39145
  22254691.140   116949198.62909  22254693.800    91129254.26848
  22315652.760   117269524.98909  22315653.100    91378843.34047
  22030816.400   115772714.40309  22030815.880    90212498.85148
  23278413.180   122328875.67808  23278413.780    95321219.03145
  20768855.300   109141069.34109  20768852.440    85044978.20048
  24032075.320   126289408.45308  24032076.600    98407337.51745
  23135693.960   121578867.29909  23135695.980    94736778.91546
 15 02 17 08 11 30.0000000  0 11G01G03G04G06G09G11G17G20G23G31G32
  20921627.760   109943886.34309  20921630.440    85670565.67448
  20643998.360   108484938.04009  20644000.240    84533721.54548
  22995301.220   120841096.59009  22995304.040    94161890.14846
  24468841.720   128584629.67107  24468845.680   100195828.49746
  22237694.620   116859881.92309  22237697.280    91059656.86848
  22333734.400   117364544.90109  22333734.840    91452884.69247
  22027972.280   115757768.14109  22027971.740    90200852.38348
  23264116.600   122253746.98708  23264117.140    95262677.16846
  20761453.760   109102174.17509  20761450.960    85014670.28148
  24037135.300   126315997.63908  24037136.760    98428056.32746
  23150173.420   121654956.84408  23150175.640    94796069.34747
 15 02 17 08 12  0.0000000  0 11G01G03G04G06G09G11G17G20G23G31G32
  20930563.540   109990844.22909  20930566.320    85707156.16149
  20647326.760   108502429.05509  20647328.760    84547350.85449
  23012488.640   120931416.34009  23012491.640    94232269.00247
  24449844.760   128484800.22508  24449848.760   100118039.28946
  22220758.860   116770884.26409  22220761.500    90990308.07148
  22351868.200   117459838.94409  22351868.800    91527139.65447
  22025238.100   115743399.60809  22025237.560    90189656.07848
  23249839.700   122178721.61008  23249840.240    95204215.83746
  20754140.320   109063741.75709  20754137.520    84984722.93448
  24042297.160   126343122.76908  24042299.080    98449192.72846
  23164658.760   121731077.33109  23164661.320    94855383.86247
 15 02 17 08 12 30.0000000  0 11G01G03G04G06G09G11G17G20G23G31G32
  20939575.900   110038204.30309  20939578.700    85744060.04949
  20650693.960   108520123.76609  20650696.000    84561138.89149
  23029719.560   121021964.57909  23029722.460    94302825.89847
  24430849.700   128384979.96908  24430853.720   100040257.20746
  22203883.960   116682206.24209  22203886.700    90921208.33448
  22370053.720   117555404.38909  22370054.420    91601606.10347
  22022613.680   115729607.79909  22022613.100    90178909.17948
  23235582.340   122103798.72808  23235582.860    95145834.38246
  20746914.740   109025771.24009  20746912.000    84955135.51048
  24047560.580   126370782.22208  24047562.980    98470745.46746
  23179149.780   121807227.05708  23179152.420    94914721.22146
 15 02 17 08 13  0.0000000  0 11G01G03G04G06G09G11G17G20G23G31G32
  20948664.940   110085966.92109  20948667.660    85781277.58649
  20654099.960   108538022.28009  20654101.980    84575085.73248
  23046993.840   121112740.57908  23046996.800    94373560.26947
  24411856.720   128285170.97808  24411860.740    99962483.92646
  22187070.360   116593850.13309  22187073.220    90852359.43848
  22388290.540   117651239.11509  22388291.300    91676282.39247
  22020099.100   115716393.70709  22020098.600    90168612.44548
  23221344.700   122028978.97508  23221345.000    95087533.25446
  20739777.300   108988264.17409  20739774.700    84925909.21848
  24052925.620   126398976.12908  24052928.420    98492714.64046
  23193646.040   121883405.95308  23193648.840    94974081.25747
 15 02 17 08 13 30.0000000  0 11G01G03G04G06G09G11G17G20G23G31G32
  20957830.220   110134129.94409  20957832.860    85818807.13648
  20657544.320   108556122.27809  20657546.320    84589189.57549
  23064310.840   121203741.19009  23064313.840    94444469.66047
  24392865.980   128185373.15108  24392870.180    99884719.35746
  22170318.000   116505815.82909  22170320.900    90783761.29648
  22406577.980   117747339.48109  22406578.720    91751165.63447
  22017694.140   115703755.59609  22017693.700    90158764.53048
  23207126.340   121954260.54008  23207126.440    95029311.10746
  20732727.680   108951218.67809  20732725.200    84897042.57848
  24058391.980   126427702.36808  24058395.000    98515098.60647
  23208147.540   121959611.46908  23208150.580    95033462.03747
 15 02 17 08 14  0.0000000  0 11G01G03G04G06G09G11G17G20G23G31G32
  20967072.440   110182697.44409  20967075.040    85856651.85749
  20661027.720   108574427.56109  20661029.720    84603453.38349
  23081671.200   121294969.62309  23081674.260    94515556.54246
  24373878.320   128085592.30108  24373882.760    99806968.02645
  22153627.960   116418109.27709  22153630.860    90715418.55848
  22424916.460   117843707.92409  22424917.160    91826257.77847
  22015399.680   115691697.96709  22015399.260    90149368.94648
  23192927.980   121879647.78608  23192928.000    94971171.29446
  20725766.840   108914639.37109  20725764.440    84868539.22048
  24063960.380   126456964.51208  24063963.560    98537900.17447
  23222654.720   122035847.44008  23222657.500    95092866.56746
 15 02 17 08 14 30.0000000  0 11G01G03G04G06G09G11G17G20G23G31G32
  20976390.500   110231664.20109  20976393.180    85894807.68849
  20664549.220   108592932.82109  20664551.160    84617873.01949
  23099073.720   121386419.63709  23099076.700    94586816.12346
  24354893.260   127985825.31607  24354897.820    99729227.41646
  22136999.520   116330727.29909  22137002.560    90647328.74248
  22443304.640   117940337.47709  22443305.260    91901553.38847
  22013214.820   115680216.23309  22013214.400    90140422.09148
  23178748.860   121805136.27808  23178748.920    94913110.38146
  20718894.000   108878521.96209  20718891.580    84840395.76248
  24069629.600   126486756.68008  24069632.840    98561114.73446
  23237166.660   122112108.35008  23237169.200    95152290.54646
 15 02 17 08 15  0.0000000  0 11G01G03G04G06G09G11G17G20G23G31G32
  20985785.280   110281034.26309  20985788.080    85933277.78049
  20668109.500   108611641.89309  20668111.440    84632451.46549
  23116518.980   121478094.48409  23116522.060    94658250.86646
  24335911.960   127886078.11908  24335916.420    99651502.30346
  22120433.960   116243675.87309  22120437.100    90579496.48948
  22461742.920   118037230.23309  22461743.380    91977054.08447
  22011140.380   115669314.83509  22011139.960    90131927.44648
  23164589.800   121730730.49608  23164589.960    94855131.87546
  20712109.940   108842870.83209  20712107.400    84812615.65248
  24075400.420   126517082.97508  24075403.780    98584745.51246
  23251684.160   122188397.89908  23251686.960    95211736.80446
 15 02 17 08 15 30.0000000  0 11G01G03G04G06G09G11G17G20G23G31G32
  20995255.820   110330802.61609  20995258.760    85972058.24149
  20671707.620   108630549.62409  20671709.500    84647184.72549
  23134005.940   121569988.10508  23134008.880    94729856.12547
  24316933.920   127786347.83508  24316938.280    99573790.30146
  22103930.780   116156951.94909  22103934.040    90511919.43648
  22480230.180   118134380.33409  22480230.500    92052755.31447
  22009175.500   115658989.28709  22009175.120    90123881.53448
  23150450.000   121656425.77108  23150450.240    94797232.05846
  20705413.820   108807681.71409  20705411.100    84785195.54448
  24081271.920   126547937.80008  24081275.400    98608788.12747
  23266206.100   122264710.84308  23266209.040    95271201.30546
 15 02 17 08 16  0.0000000  0 11G01G03G04G06G09G11G17G20G23G31G32
  21004802.640   110380972.18209  21004805.740    86011151.32348
  20675344.040   108649658.83009  20675345.900    84662074.98549
  23151534.900   121662102.64409  23151537.980    94801633.47546
  24297960.200   127686639.31708  24297964.220    99496095.26346
  22087490.840   116070560.45109  22087494.280    90444601.42948
  22498766.400   118231787.82609  22498766.700    92128657.11747
  22007320.840   115649242.86409  22007320.500    90116286.87248
  23136330.180   121582225.84208  23136330.460    94739413.93046
  20698806.220   108772958.30809  20698803.380    84758138.32648
  24087244.640   126579323.84608  24087248.040    98633244.70847
  23280733.200   122341049.87108  23280735.960    95330686.15646
 15 02 17 08 16 30.0000000  0 11G01G03G04G06G09G11G17G20G23G31G32
  21014425.180   110431539.49909  21014428.480    86050554.33948
  20679018.100   108668965.96409  20679019.920    84677119.47649
  23169105.040   121754433.58809  23169108.080    94873579.49646
  24278990.300   127586951.17908  24278994.120    99418416.11646
  22071113.960   115984499.88109  22071117.480    90377541.27948
