     2.11           OBSERVATION DATA    G                   RINEX VERSION / TYPE
SPIDER V4,0,0,3554                      2015 03 18 00:41    PGM / RUN BY / DATE 
CKTS                                                        MARKER NAME         
CKTS                                                        MARKER NUMBER       
                                                            OBSERVER / AGENCY   
496659              LEICA GRX1200+GNSS  8.10/4.007          REC # / TYPE / VERS 
10321004            LEIAR25         NONE                    ANT # / TYPE        
  5190783.6897   517202.7561  3658836.0979                  APPROX POSITION XYZ 
        0.0720        0.0000        0.0000                  ANTENNA: DELTA H/E/N
     1     1                                                WAVELENGTH FACT L1/2
     4    C1    L1    P2    L2                              # / TYPES OF OBSERV 
    30.000                                                  INTERVAL            
  2015    02    17    00    00    0.0000000     GPS         TIME OF FIRST OBS   
  2015    02    17    23    59   30.0000000     GPS         TIME OF LAST OBS    
    16                                                      LEAP SECONDS        
    30                                                      # OF SATELLITES     
   G 1   802   802   802   802                              PRN / # OF OBS      
   G 2   758   758   757   757                              PRN / # OF OBS      
   G 3   852   851   851   851                              PRN / # OF OBS      
   G 4   841   841   841   841                              PRN / # OF OBS      
   G 5   485   485   485   485                              PRN / # OF OBS      
   G 6   632   632   632   632                              PRN / # OF OBS      
   G 7   665   665   665   665                              PRN / # OF OBS      
   G 9   806   806   806   806                              PRN / # OF OBS      
   G10   651   651   650   650                              PRN / # OF OBS      
   G11   780   779   780   779                              PRN / # OF OBS      
   G12   772   772   772   772                              PRN / # OF OBS      
   G13   790   790   790   790                              PRN / # OF OBS      
   G14   769   769   769   769                              PRN / # OF OBS      
   G15   574   574   574   574                              PRN / # OF OBS      
   G16   546   545   545   545                              PRN / # OF OBS      
   G17   773   773   772   772                              PRN / # OF OBS      
   G18   726   726   726   726                              PRN / # OF OBS      
   G19   662   662   662   662                              PRN / # OF OBS      
   G20   800   800   800   800                              PRN / # OF OBS      
   G21   733   733   732   732                              PRN / # OF OBS      
   G22   650   650   650   650                              PRN / # OF OBS      
   G23   750   750   750   750                              PRN / # OF OBS      
   G24   830   830   830   830                              PRN / # OF OBS      
   G25   840   839   839   839                              PRN / # OF OBS      
   G27   814   814   814   814                              PRN / # OF OBS      
   G28   605   605   603   603                              PRN / # OF OBS      
   G29   738   737   737   737                              PRN / # OF OBS      
   G30   709   709   709   709                              PRN / # OF OBS      
   G31   692   692   692   692                              PRN / # OF OBS      
   G32   766   766   766   766                              PRN / # OF OBS      
BIT 2 OF LLI FLAGS DATA COLLECTED UNDER A/S CONDITION       COMMENT             
SNR is mapped to RINEX snr flag value [2-9]                 COMMENT             
Lx:     = 25dBHz -> 1; 26-27dBHz -> 2; 28-31dBHz -> 3       COMMENT             
       32-35dBHz -> 4; 36-38dBHz -> 5; 39-41dBHz -> 6       COMMENT             
       42-44dBHz -> 7; 45-48dBHz -> 8; >=49dBHz -> 9        COMMENT             
                                                            END OF HEADER       
 15 02 17 00 00  0.0000000  0  6G18G21G25G27G29G31
  23683801.860   124459265.58508  23683799.900    96981266.37945
  20907210.180   109868134.32908  20907206.280    85611519.93948
  23352350.980   122717427.09408  23352351.760    95623965.91346
  24149013.700   126903928.82908  24149014.300    98886187.25446
  22628344.960   118912751.17709  22628343.120    92659273.30747
  21641768.980   113728257.10809  21641765.740    88619405.16348
 15 02 17 00 00 30.0000000  0  6G18G21G25G27G29G31
  23669207.740   124382572.36808  23669205.880    96921505.48545
  20907794.920   109871206.84908  20907790.940    85613914.11948
  23368729.280   122803496.22408  23368730.180    95691032.74746
  24135030.660   126830447.52109  24135031.060    98828929.09446
  22641505.360   118981909.10209  22641503.380    92713162.56847
  21653754.220   113791239.62509  21653750.800    88668482.42948
 15 02 17 00 01  0.0000000  0  6G18G21G25G27G29G31
  23654627.560   124305952.54508  23654625.740    96861801.80745
  20908463.340   109874719.42508  20908459.380    85616651.20148
  23385151.840   122889797.15708  23385152.600    95758280.20346
  24121066.320   126757064.09608  24121066.560    98771747.22946
  22654675.580   119051118.04009  22654673.660    92767091.59447
  21665819.680   113854643.73009  21665816.120    88717888.20948
 15 02 17 00 01 30.0000000  0  6G18G21G25G27G29G31
  23640062.180   124229410.78308  23640060.420    96802158.95445
  20909215.660   109878672.80409  20909211.740    85619731.76248
  23401618.820   122976330.61508  23401619.080    95825708.86346
  24107120.700   126683780.03607  24107121.000    98714642.81346
  22667855.560   119120379.21509  22667853.500    92821061.30947
  21677965.100   113918468.69509  21677961.640    88767621.94148
 15 02 17 00 02  0.0000000  0  6G18G21G25G27G29G31
  23625511.980   124152948.98408  23625510.260    96742578.40144
  20910051.400   109883064.59208  20910047.540    85623153.92948
  23418129.600   123063094.46108  23418129.600    95893317.02846
  24093193.580   126610594.10808  24093194.360    98657614.88946
  22681045.140   119189690.62109  22681043.160    92875070.15847
  21690189.860   113982710.70209  21690186.600    88817680.60948
 15 02 17 00 02 30.0000000  0  6G18G21G25G27G29G31
  23610976.940   124076567.19908  23610975.020    96683060.18445
  20910970.220   109887892.93408  20910966.320    85626916.28848
  23434683.480   123150085.70408  23434683.560    95961102.36946
  24079284.920   126537504.25008  24079285.740    98600661.81046
  22694244.060   119259050.07609  22694241.680    92929116.46848
  21702493.280   114047365.41109  21702490.080    88868060.88248
 15 02 17 00 03  0.0000000  0  6G18G21G25G27G29G31
  23596458.040   124000270.67908  23596455.920    96623608.40944
  20911972.160   109893158.35908  20911968.260    85631019.22248
  23451280.920   123237305.96608  23451281.100    96029066.17546
  24065395.000   126464512.82708  24065396.020    98543785.45946
  22707452.280   119328459.26509  22707449.680    92983201.52247
  21714875.360   114112433.31809  21714872.180    88918763.11848
 15 02 17 00 03 30.0000000  0  6G18G21G25G27G29G31
  23581955.680   123924061.05908  23581953.400    96564224.33345
  20913056.980   109898859.36508  20913053.060    85635461.57348
  23467921.640   123324753.00108  23467922.000    96097206.70946
  24051523.680   126391618.60608  24051524.920    98486984.84947
  22720669.260   119397916.72709  22720666.560    93037324.18047
  21727335.340   114177910.62109  21727332.140    88969784.36748
 15 02 17 00 04  0.0000000  0  6G18G21G25G27G29G31
  23567470.320   123847940.53808  23567468.080    96504909.71145
  20914224.480   109904994.78008  20914220.540    85640242.42248
  23484605.240   123412425.36208  23484605.640    96165522.82046
  24037670.800   126318820.98608  24037672.000    98430259.53346
  22733895.480   119467421.36109  22733892.540    93091483.66647
  21739872.580   114243794.11709  21739869.300    89021122.14448
 15 02 17 00 04 30.0000000  0  6G18G21G25G27G29G31
  23553002.680   123771912.80308  23553000.660    96445667.36545
  20915474.660   109911564.65108  20915470.700    85645361.81048
  23501331.560   123500323.32308  23501332.060    96234014.70646
  24023836.300   126246121.02808  24023837.340    98373610.26645
  22747131.020   119536973.79409  22747127.880    93145680.33047
  21752486.980   114310082.85309  21752483.680    89072775.66948
 15 02 17 00 05  0.0000000  0  6G18G21G25G27G29G31
  23538553.580   123695982.61908  23538551.760    96386501.04545
  20916807.800   109918570.05509  20916803.780    85650820.57548
  23518101.020   123588448.11108  23518101.780    96302683.35746
  24010020.640   126173520.90808  24010021.280    98317038.76345
  22760375.860   119606575.85908  22760372.760    93199915.67247
  21765178.440   114376776.43709  21765175.180    89124744.68348
 15 02 17 00 05 30.0000000  0  6G18G21G25G27G29G31
  23524122.180   123620145.39708  23524120.420    96327407.18045
  20918222.280   109926002.82408  20918218.160    85656612.34548
  23534912.120   123676791.36608  23534912.980    96371522.22046
  23996222.740   126101013.24208  23996223.440    98260539.35546
  22773628.880   119676219.88209  22773626.120    93254183.70247
  21777944.980   114443865.05709  21777941.800    89177021.49848
 15 02 17 00 06  0.0000000  0  6G18G21G25G27G29G31
  23509709.460   123544406.22408  23509707.640    96268389.68345
  20919718.360   109933864.59908  20919714.120    85662738.41448
  23551765.180   123765354.44008  23551765.880    96440532.39546
  23982443.020   126028600.22308  23982443.780    98204113.69746
  22786890.220   119745907.57008  22786887.280    93308485.75747
  21790786.640   114511348.62509  21790783.520    89229606.06348
 15 02 17 00 06 30.0000000  0  6G18G21G25G27G29G31
  23495317.300   123468774.63908  23495315.080    96209456.04245
  20921297.080   109942160.71308  20921292.840    85669202.92648
  23568661.220   123854143.28208  23568661.920    96509718.46346
  23968682.640   125956288.79808  23968683.580    98147767.21646
  22800160.740   119815645.70008  22800157.720    93362827.17047
  21803704.380   114579231.76209  21803701.300    89282501.98848
 15 02 17 00 07  0.0000000  0  6G18G21G25G27G29G31
  23480944.540   123393245.03908  23480942.080    96150601.84945
  20922956.660   109950882.07808  20922952.500    85675998.79948
  23585598.340   123943148.40108  23585598.920    96579073.06146
  23954940.040   125884070.31508  23954940.780    98091493.11846
  22813439.220   119885424.87008  22813436.820    93417200.51647
  21816696.080   114647503.46209  21816693.060    89335700.69048
 15 02 17 00 07 30.0000000  0  6G18G21G25G27G29G31
  23466592.660   123317825.37208  23466590.160    96091833.32845
  20924698.120   109960033.85608  20924694.120    85683130.06748
  23602577.560   124032374.51808  23602578.140    96648599.89346
  23941216.080   125811950.45808  23941216.560    98035295.87846
  22826726.780   119955250.68309  22826724.320    93471610.20847
  21829762.300   114716166.77809  21829759.200    89389204.55248
 15 02 17 00 08  0.0000000  0  6G18G21G25G27G29G31
  23452262.340   123242519.40208  23452259.880    96033153.40645
  20926521.500   109969615.47009  20926517.440    85690596.25948
  23619598.740   124121821.39908  23619599.340    96718298.73046
  23927510.940   125739929.97108  23927511.380    97979176.04946
  22840022.960   120025123.36908  22840021.120    93526056.41847
  21842902.760   114785219.98509  21842899.440    89443012.22848
 15 02 17 00 08 30.0000000  0  6G18G21G25G27G29G31
  23437953.240   123167325.19208  23437950.920    95974560.56345
  20928425.580   109979621.23608  20928421.480    85698392.96948
  23636660.900   124211483.30608  23636661.520    96788165.13746
  23913823.820   125668004.03508  23913824.240    97923129.90646
  22853327.200   120095037.90909  22853325.740    93580535.23947
  21856116.140   114854655.91209  21856112.700    89497118.12048
 15 02 17 00 09  0.0000000  0  6G18G21G25G27G29G31
  23423665.840   123092244.98108  23423663.580    95916056.55944
  20930410.000   109990049.71708  20930405.960    85706519.05648
  23653763.740   124301358.90308  23653764.440    96858198.02346
  23900154.800   125596172.25108  23900155.220    97867157.15947
  22866639.140   120164993.42409  22866637.780    93635046.01247
  21869401.720   114924471.62009  21869398.340    89551519.94248
 15 02 17 00 09 30.0000000  0  6G18G21G25G27G29G31
  23409401.280   123017284.57008  23409399.000    95857645.88545
  20932475.180   110000902.85808  20932471.260    85714976.06148
  23670907.520   124391450.15408  23670908.240    96928398.96046
  23886504.280   125524437.60308  23886504.860    97811260.06247
  22879959.480   120234992.81409  22879958.140    93689590.96647
  21882759.560   114994667.67209  21882756.340    89606218.13148
 15 02 17 00 10  0.0000000  0  6G18G21G25G27G29G31
  23395159.700   122942444.90908  23395157.280    95799329.31345
  20934620.760   110012178.23309  20934616.880    85723762.06348
  23688091.760   124481754.31808  23688092.560    96998765.81046
  23872871.840   125452798.25108  23872872.540    97755437.25747
  22893287.800   120305033.24308  22893286.160    93744167.93847
  21896188.940   115065239.93409  21896185.880    89661209.47048
 15 02 17 00 10 30.0000000  0  6G18G21G25G27G29G31
  23380942.580   122867733.59108  23380940.040    95741112.74745
  20936847.460   110023879.54708  20936843.500    85732879.98948
  23705317.320   124572275.13608  23705318.240    97069301.49746
  23859258.260   125381258.91508  23859259.080    97699692.37947
  22906624.940   120375120.02409  22906623.520    93798780.94347
  21909690.280   115136190.48009  21909687.320    89716495.59748
 15 02 17 00 11  0.0000000  0  6G18G21G25G27G29G31
  23366749.420   122793148.32608  23366746.940    95682994.41245
  20939154.000   110036000.68608  20939150.080    85742325.02848
  23722583.060   124663006.76808  23722583.900    97140001.43746
  23845662.680   125309814.78408  23845663.620    97644021.69646
  22919969.660   120445247.46409  22919967.960    93853425.67646
  21923262.180   115207512.19209  21923259.320    89772070.92848
 15 02 17 00 11 30.0000000  0  6G18G21G25G27G29G31
  23352579.980   122718687.72108  23352577.680    95624973.19445
  20941539.580   110048536.77008  20941535.640    85752093.41548
  23739888.040   124753944.26608  23739888.820    97210861.78646
  23832084.760   125238461.94208  23832085.260    97588422.12346
  22933321.780   120515412.02509  22933319.760    93908099.35647
  21936903.420   115279198.30909  21936900.640    89827930.21648
 15 02 17 00 12  0.0000000  0  6G18G21G25G27G29G31
  23338436.400   122644362.80408  23338434.160    95567057.72145
  20944005.540   110061495.30908  20944001.580    85762190.97648
  23757233.540   124845095.01608  23757234.020    97281888.30646
  23818525.640   125167208.63708  23818525.940    97532900.08246
  22946682.360   120585621.12209  22946680.360    93962807.76047
  21950615.180   115351254.72009  21950612.480    89884078.03748
 15 02 17 00 12 30.0000000  0  6G18G21G25G27G29G31
  23324318.700   122570173.28008  23324316.340    95509247.72745
  20946550.860   110074870.97409  20946546.840    85772613.58348
  23774618.460   124936454.16808  23774618.920    97353077.23145
  23804984.840   125096051.14008  23804985.060    97477452.73546
  22960050.460   120655870.81509  22960048.680    94017547.72947
  21964396.260   115423675.08309  21964393.700    89940509.45748
 15 02 17 00 13  0.0000000  0  6G18G21G25G27G29G31
  23310227.380   122496122.28908  23310224.820    95451545.70245
  20949175.600   110088663.98908  20949171.500    85783361.39148
  23792043.000   125028021.60508  23792043.460    97424428.41946
  23791462.260   125024990.30608  23791462.860    97422080.72946
  22973426.340   120726161.42008  22973424.920    94072319.59247
  21978246.420   115496457.82909  21978243.880    89997223.25048
 15 02 17 00 13 30.0000000  0  6G18G21G25G27G29G31
  23296163.060   122422213.42408  23296160.340    95393954.41045
  20951879.760   110102874.43008  20951875.620    85794434.47648
  23809507.360   125119797.19208  23809507.960    97495941.84746
  23777958.140   124954027.03808  23777958.820    97366784.70045
  22986810.120   120796494.09809  22986808.600    94127124.22947
  21992165.320   115569601.24909  21992162.680    90054218.09848
 15 02 17 00 14  0.0000000  0  6G18G21G25G27G29G31
  23282124.720   122348441.70108  23282121.980    95336469.98845
  20954661.580   110117493.23508  20954657.540    85805825.75248
  23827009.680   125211771.90308  23827010.420    97567610.43246
  23764471.280   124883153.32608  23764472.100    97311558.47646
  23000200.780   120866860.24209  23000198.760    94181954.99547
  22006150.840   115643094.89609  22006148.040    90111485.86148
 15 02 17 00 14 30.0000000  0  6G18G21G25G27G29G31
  23268114.360   122274817.45408  23268111.540    95279100.49046
  20957522.240   110132526.39909  20957518.320    85817539.89448
  23844550.980   125303952.19608  23844552.020    97639439.20146
  23751002.980   124812376.64508  23751003.480    97256407.87345
  23013599.100   120937267.16008  23013596.580    94236817.50447
  22020203.860   115716943.57809  22020200.960    90169030.25648
 15 02 17 00 15  0.0000000  0  6G18G21G25G27G29G31
  23254132.980   122201345.12608  23254130.200    95221849.36745
  20960461.940   110147974.92408  20960458.080    85829577.70548
  23862131.520   125396339.15908  23862132.740    97711429.00046
  23737553.500   124741699.23008  23737553.360    97201334.59345
  23027005.220   121007716.84809  23027002.760    94291713.29147
  22034324.300   115791146.95409  22034321.440    90226851.04448
 15 02 17 00 15 30.0000000  0  6G18G21G25G27G29G31
  23240179.760   122128020.03208  23240176.960    95164712.95446
  20963479.200   110163830.70308  20963475.360    85841932.87848
  23879749.900   125488924.36808  23879750.980    97783573.28646
  23724121.340   124671113.53308  23724120.940    97146332.78246
  23040417.940   121078201.44108  23040415.280    94346636.34046
  22048510.280   115865694.83209  22048507.520    90284940.26948
 15 02 17 00 16  0.0000000  0  6G18G21G25G27G29G31
  23226256.080   122054849.99309  23226253.200    95107697.36045
  20966574.560   110180097.05008  20966570.740    85854607.95248
  23897406.800   125581711.32608  23897407.580    97855874.78545
  23710707.620   124600624.27908  23710707.460    97091406.14446
  23053837.900   121148725.49608  23053834.720    94401590.15347
  22062762.300   115940589.37709  22062759.540    90343299.61348
 15 02 17 00 16 30.0000000  0  7G16G18G21G25G27G29G31
  22558269.200                                                  
  23212362.240   121981837.45008  23212359.400    95050804.50245
  20969747.820   110196772.81208  20969744.060    85867602.05548
  23915101.880   125674698.81108  23915102.680    97928332.52846
  23697312.120   124530231.20308  23697312.600    97036554.47046
  23067265.280   121219288.49408  23067262.760    94456574.24247
  22077079.800   116015827.92209  22077076.960    90401927.02648
 15 02 17 00 17  0.0000000  0  7G16G18G21G25G27G29G31
  22542496.260   118461609.64805  22542491.400    92307739.11944
  23198498.460   121908983.82708  23198495.860    94994035.49445
  20972998.560   110213855.53008  20972994.760    85880913.27748
  23932834.460   125767884.61507  23932835.580    98000944.81146
  23683934.680   124459933.23208  23683935.620    96981776.87746
  23080700.260   121289888.99409  23080698.240    94511587.65847
  22091462.040   116091406.44909  22091459.120    90460819.36248
 15 02 17 00 17 30.0000000  0  7G16G18G21G25G27G29G31
  22526752.520   118378875.65706  22526748.780    92243271.06644
  23184665.420   121836291.72808  23184663.020    94937392.32846
  20976326.360   110231343.56808  20976322.600    85894540.32048
  23950604.480   125861267.31808  23950605.860    98073710.50846
  23670575.440   124389729.97108  23670576.000    96927073.06246
  23094141.820   121360526.80808  23094140.320    94566630.02647
  22105908.440   116167322.28409  22105905.500    90519974.51748
 15 02 17 00 18  0.0000000  0  7G16G18G21G25G27G29G31
  22511037.660   118296293.15607  22511033.920    92178921.07144
  23170863.740   121763763.75908  23170861.280    94880877.06146
  20979731.140   110249235.90208  20979727.380    85908482.39048
  23968411.820   125954845.74208  23968413.020    98146628.71346
  23657234.280   124319621.39408  23657234.720    96872443.02147
  23107590.440   121431201.33608  23107589.320    94621701.10747
  22120418.440   116243572.40709  22120415.400    90579390.15948
 15 02 17 00 18 30.0000000  0  7G16G18G21G25G27G29G31
  22495351.900   118213863.69108  22495348.220    92114690.32845
  23157093.740   121691402.21308  23157091.180    94824491.46346
  20983212.540   110267531.07708  20983208.840    85922738.37948
  23986256.260   126048618.35008  23986257.240    98219698.24146
  23643911.000   124249607.05108  23643911.660    96817886.41646
  23121046.480   121501912.09708  23121044.760    94676800.34946
  22134991.560   116320153.98409  22134988.280    90639064.09848
 15 02 17 00 19  0.0000000  0  7G16G18G21G25G27G29G31
  22479695.700   118131589.55008  22479692.000    92050580.60545
  23143356.000   121619210.15108  23143353.340    94768237.92345
  20986770.360   110286227.85708  20986766.700    85937307.30548
  24004137.480   126142584.29408  24004138.160    98292918.43945
  23630605.860   124179687.17508  23630606.480    96763403.43747
  23134508.900   121572658.78208  23134507.740    94731927.54547
  22149627.280   116397064.66709  22149623.860    90698994.47048
 15 02 17 00 19 30.0000000  0  7G16G18G21G25G27G29G31
  22464069.200   118049471.59609  22464065.520    91986592.61046
  23129650.740   121547188.83108  23129648.100    94712117.44946
  20990404.220   110305323.87008  20990400.580    85952187.32348
  24022055.000   126236741.10308  24022055.740    98366287.32145
  23617318.460   124109860.47608  23617318.960    96708993.06147
  23147978.200   121643440.23708  23147976.880    94787081.91446
  22164324.760   116474300.13609  22164321.240    90759177.92048
 15 02 17 00 20  0.0000000  0  7G16G18G21G25G27G29G31
  22448472.960   117967512.87009  22448469.340    91922728.67847
  23115978.760   121475342.17508  23115976.140    94656133.07446
  20994113.960   110324818.89608  20994110.360    85967378.24448
  24040008.800   126331088.68808  24040009.740    98439804.87545
  23604048.900   124040127.90808  23604049.420    96654656.03447
  23161454.740   121714257.31809  23161452.900    94842264.10647
  22179083.680   116551858.91509  22179080.160    90819613.30848
 15 02 17 00 20 30.0000000  0  7G16G18G21G25G27G29G31
  22432908.020   117885718.71609  22432904.480    91858992.99047
  23102341.200   121403676.07708  23102338.620    94600289.38846
  20997900.040   110344715.04108  20997896.520    85982881.74048
  24057999.340   126425629.30908  24058000.120    98513472.84245
  23590797.720   123970492.91008  23590798.200    96600395.02747
  23174938.360   121785113.24208  23174937.240    94897476.41047
  22193904.260   116629741.80409  22193900.800    90880301.23248
 15 02 17 00 21  0.0000000  0  7G16G18G21G25G27G29G31
  22417374.300   117804088.80009  22417370.880    91795385.27348
  23088738.040   121332190.80009  23088735.440    94544586.60946
  21001761.740   110365008.47708  21001758.260    85998694.80348
  24076025.880   126520359.09008  24076026.580    98587288.23446
  23577564.360   123900952.64708  23577564.620    96546207.86746
  23188428.780   121856004.84208  23188427.460    94952716.60847
  22208785.500   116707943.41109  22208782.160    90941237.51948
 15 02 17 00 21 30.0000000  0  7G16G18G21G25G27G29G31
  22401872.120   117722624.42109  22401868.740    91731906.55948
  23075169.600   121260888.31908  23075166.920    94489026.25346
  21005698.760   110385697.61708  21005695.220    86014816.20948
  24094088.020   126615276.47308  24094088.840    98661249.78245
  23564349.060   123831506.78608  23564349.320    96492094.24446
  23201925.940   121926931.45408  23201923.460    95007984.08347
  22223726.780   116786460.39909  22223723.580    91002419.54048
 15 02 17 00 22  0.0000000  0  7G16G18G21G25G27G29G31
  22386401.340   117641325.33608  22386398.040    91668556.67147
  23061635.920   121189768.86508  23061633.240    94433608.52246
  21009710.320   110406778.40208  21009706.720    86031242.80148
  24112185.180   126710377.58908  24112186.160    98735354.51645
  23551151.520   123762152.65408  23551151.780    96438052.07547
  23215428.960   121997890.42208  23215426.380    95063276.75246
  22238727.160   116865287.43709  22238724.000    91063843.17748
 15 02 17 00 22 30.0000000  0  7G16G18G21G25G27G29G31
  22370963.220   117560197.79909  22370959.900    91605340.43946
  23048138.480   121118839.75508  23048135.860    94378339.11546
  21013796.960   110428254.02208  21013793.340    86047977.04548
  24130318.040   126805665.71708  24130319.080    98809604.96345
  23537972.180   123692894.56608  23537972.620    96384084.79547
  23228938.760   122068885.99808  23228936.500    95118597.97247
  22253786.940   116944426.33509  22253783.680    91125509.82448
 15 02 17 00 23  0.0000000  0  7G16G18G21G25G27G29G31
  22355557.680   117479241.29509  22355554.260    91542257.41647
  23034677.220   121048100.63708  23034674.600    94323217.75646
  21017958.020   110450120.14808  21017954.320    86065015.60248
  24148485.800   126901136.83708  24148486.840    98883997.99245
  23524810.600   123623729.73108  23524811.000    96330190.20047
  23242454.900   122139915.31509  23242453.540    95173945.40447
  22268904.860   117023871.38309  22268901.540    91187415.03048
 15 02 17 00 23 30.0000000  0  7G16G18G21G25G27G29G31
  22340185.580   117398460.56909  22340182.040    91479311.40647
  23021253.180   120977556.92008  23021250.600    94268248.66246
  21022193.740   110472378.37608  21022189.980    86082359.69048
  24166688.640   126996792.30908  24166689.480    98958534.70746
  23511667.040   123554660.70308  23511667.620    96276370.25847
  23255978.220   122210980.54408  23255976.680    95229320.93246
  22284080.980   117103622.65809  22284077.680    91249558.86648
 15 02 17 00 24  0.0000000  0  7G16G18G21G25G27G29G31
  22324846.640   117317853.37509  22324843.040    91416500.63547
  23007865.960   120907206.42608  23007863.440    94213430.13446
  21026502.820   110495022.64208  21026499.080    86100004.54648
  24184925.320   127092626.29608  24184925.960    99033210.49345
  23498541.020   123485682.79208  23498541.240    96222621.23546
  23269507.300   122282076.98608  23269505.480    95284720.73446
  22299313.820   117183672.51009  22299310.720    91311935.33348
 15 02 17 00 24 30.0000000  0  7G16G18G21G25G27G29G31
  22309541.620   117237424.51309  22309538.060    91353828.79047
  22994516.780   120837055.52809  22994514.080    94158767.13846
  21030885.660   110518055.17408  21030882.040    86117951.99348
  24203196.200   127188641.16008  24203196.980    99108027.21445
  23485433.000   123416799.52708  23485433.100    96168946.03946
  23283043.120   122353207.92409  23283041.580    95340147.38246
  22314603.560   117264021.76109  22314600.780    91374545.10048
 15 02 17 00 25  0.0000000  0  7G16G18G21G25G27G29G31
  22294270.780   117157176.24808  22294267.460    91291297.68947
  22981206.080   120767106.71009  22981203.020    94104261.58645
  21035342.040   110541474.08908  21035338.500    86136200.49548
  24221501.220   127284835.37208  24221502.140    99182983.69645
  23472342.700   123348010.64508  23472342.580    96115344.36246
  23296585.820   122424372.98309  23296583.960    95395600.69146
  22329949.800   117344667.57709  22329947.280    91437385.96348
 15 02 17 00 25 30.0000000  0  8G16G18G21G22G25G27G29G31
  22279034.980   117077112.30409  22279031.780    91228910.25647
  22967934.640   120697364.28308  22967931.360    94049916.86446
  21039872.100   110565279.84408  21039868.600    86154750.42648
  24545001.720   128984854.31508  24544999.200   100507677.52644
  24239840.560   127381209.42007  24239841.640    99258080.33045
  23459270.620   123279317.78808  23459270.740    96061817.51047
  23310134.920   122495573.80608  23310133.220    95451081.81847
  22345352.380   117425608.71809  22345349.900    91500456.94948
 15 02 17 00 26  0.0000000  0  8G16G18G21G22G25G27G29G31
  22263834.640   116997233.72109  22263831.320    91166667.20047
  22954702.640   120627829.63508  22954699.440    93995734.04446
  21044475.460   110589470.34108  21044471.920    86173600.16448
  24527318.120   128891927.04808  24527315.720   100435266.90244
  24258213.780   127477760.67508  24258214.580    99333315.05045
  23446216.780   123210719.61108  23446217.360    96008364.42247
  23323690.340   122566808.65208  23323688.700    95506589.50547
  22360810.440   117506841.11709  22360807.880    91563754.90448
 15 02 17 00 26 30.0000000  0  8G16G18G21G22G25G27G29G31
  22248667.420   116917528.78509  22248664.020    91104559.48647
  22941507.900   120558491.30008  22941504.960    93941704.20346
  21049149.040   110614029.73608  21049145.420    86192737.35748
  24509616.420   128798904.84608  24509614.220   100362782.30745
  24276617.660   127574474.18507  24276618.540    99408676.19045
  23433178.540   123142202.30708  23433179.060    95954974.34946
  23337249.680   122638063.80108  23337248.680    95562112.92247
  22376320.740   117588348.13009  22376318.200    91627266.83247
 15 02 17 00 27  0.0000000  0  8G16G18G21G22G25G27G29G31
  22233538.060   116838022.58409  22233534.360    91042606.61447
  22928355.340   120489375.03208  22928352.560    93887847.39246
  21053896.920   110638979.71408  21053893.160    86212178.91248
  24491901.500   128705813.20908  24491899.480   100290243.60445
  24295056.480   127671371.58707  24295057.680    99484180.58945
  23420159.860   123073788.72408  23420159.740    95901665.10346
  23350817.400   122709361.74109  23350815.700    95617669.76346
  22391887.060   117670149.88809  22391884.640    91691008.42948
 15 02 17 00 27 30.0000000  0  8G16G18G21G22G25G27G29G31
  22218445.300   116758710.21809  22218441.600    90980804.79147
  22915244.420   120420476.92709  22915241.640    93834160.58546
  21058717.520   110664312.00408  21058713.620    86231918.34548
  24474172.380   128612647.52108  24474170.560   100217647.18745
  24313528.700   127768444.58607  24313530.120    99559821.83645
  23407159.460   123005471.86008  23407159.100    95848431.21546
  23364391.300   122780695.79208  23364389.580    95673254.70347
  22407507.600   117752236.63009  22407505.340    91754972.09148
 15 02 17 00 28  0.0000000  0  8G16G18G21G22G25G27G29G31
  22203388.720   116679587.03209  22203385.100    90919150.38747
  22902174.140   120351791.87608  22902171.300    93780639.79146
  21063609.220   110690018.03008  21063605.380    86251949.01848
  24456428.320   128519402.96708  24456426.420   100144989.32145
  24332032.820   127865684.67408  24332034.360    99635593.26545
  23394176.160   122937244.46508  23394176.080    95795267.07947
  23377971.140   122852058.39309  23377969.660    95728861.85947
  22423180.540   117834598.23009  22423178.220    91819149.91248
 15 02 17 00 28 30.0000000  0  8G16G18G21G22G25G27G29G31
  22188368.180   116600653.44909  22188364.480    90857643.72047
  22889144.700   120283321.59408  22889141.720    93727286.34546
  21068571.500   110716095.01308  21068567.720    86272268.75848
  24438669.580   128426081.17608  24438667.640   100072271.23045
  24350568.500   127963089.61808  24350569.920    99711493.18945
  23381209.820   122869105.55508  23381209.840    95742171.87647
  23391556.760   122923447.99008  23391554.520    95784490.14746
  22438905.120   117917230.86209  22438902.620    91883538.95348
 15 02 17 00 29  0.0000000  0  8G16G18G21G22G25G27G29G31
  22173385.960   116521921.25209  22173382.200    90796293.96447
  22876158.420   120215078.39709  22876155.480    93674109.84946
  21073605.980   110742551.38208  21073602.200    86292884.11048
  24420898.400   128332693.94808  24420896.500    99999502.19745
  24369137.280   128060667.65508  24369138.280    99787527.98445
  23368262.280   122801064.59108  23368262.000    95689152.95346
  23405148.840   122994874.58208  23405146.420    95840147.20346
  22454682.580   118000141.38009  22454679.920    91948144.50748
 15 02 17 00 29 30.0000000  0  8G16G18G21G22G25G27G29G31
  22158441.700   116443389.38209  22158437.700    90735100.31147
  22863215.200   120147061.28809  22863212.320    93621109.52446
  21078711.780   110769382.57608  21078707.980    86313791.53448
  24403114.700   128239240.54708  24403112.780    99926681.54345
  24387737.920   128158413.98407  24387738.760    99863693.90945
  23355332.460   122733118.02008  23355331.980    95636207.60646
  23418747.260   123066334.44809  23418745.200    95895830.14047
  22470511.680   118083323.47109  22470509.020    92012961.69148
 15 02 17 00 30  0.0000000  0  8G16G18G21G22G25G27G29G31
  22143535.880   116365059.68309  22143532.220    90674064.22548
  22850315.500   120079272.71609  22850312.640    93568287.28946
  21083888.460   110796586.43608  21083884.620    86334989.36048
  24385318.680   128145722.81608  24385316.760    99853810.79945
  24406370.140   128256326.86608  24406370.820    99939989.58845
  23342420.220   122665265.33308  23342419.520    95583335.43146
  23432351.800   123137827.03008  23432350.140    95951538.65247
  22486391.800   118166773.65709  22486389.140    92077987.77048
 15 02 17 00 30 30.0000000  0  8G16G18G21G22G25G27G29G31
  22128668.880   116286933.51209  22128665.400    90613186.69447
  22837459.560   120011714.48409  22837456.800    93515644.54146
  21089135.720   110824161.03909  21089131.840    86356476.03748
  24367510.860   128052142.75208  24367508.920    99780891.46645
  24425033.660   128354404.47808  24425034.400   100016413.67145
  23329526.020   122597506.16508  23329525.220    95530536.11046
  23445962.060   123209351.48909  23445961.040    96007272.01946
  22502322.280   118250488.72709  22502319.640    92143220.24647
 15 02 17 00 31  0.0000000  0  8G16G18G21G22G25G27G29G31
  22113841.060   116209013.72809  22113837.740    90552470.04847
  22824647.940   119944389.88908  22824645.360    93463183.84746
  21094453.360   110852105.35009  21094449.460    86378250.83448
  24349691.820   127958503.53508  24349689.860    99707926.01845
  24443728.440   128452646.10808  24443729.100   100092965.50844
  23316649.680   122529840.99108  23316649.360    95477810.03347
  23459578.820   123280908.59508  23459577.980    96063030.73347
  22518302.680   118334466.36109  22518300.040    92208657.32748
 15 02 17 00 31 30.0000000  0  8G16G18G21G22G25G27G29G31
  22099051.840   116131295.27709  22099048.260    90491910.13647
  22811879.820   119877293.81909  22811877.340    93410901.21746
  21099839.540   110880410.44008  21099835.760    86400306.75748
  24331860.620   127864800.32308  24331858.660    99634910.72245
  24462452.780   128551043.07907  24462453.760   100169638.43145
  23303789.860   122462262.48308  23303789.820    95425151.49247
  23473200.700   123352490.50508  23473199.920    96118808.78547
  22534331.160   118418696.46909  22534328.580    92274291.14248
 15 02 17 00 32  0.0000000  0  8G16G18G21G22G25G27G29G31
  22084303.220   116053791.41709  22084299.760    90431517.57647
  22799158.100   119810440.80609  22799155.480    93358807.97246
  21105296.200   110909086.13108  21105292.560    86422651.46348
  24314019.840   127771046.47808  24314017.640    99561855.94446
  24481208.560   128649605.16807  24481209.800   100246440.00445
  23290948.620   122394781.60008  23290948.800    95372569.06247
  23486829.440   123424108.50908  23486828.520    96174615.00146
  22550409.180   118503187.12109  22550406.640    92340127.97947
 15 02 17 00 32 30.0000000  0  8G16G18G21G22G25G27G29G31
  22069594.900   115976498.96809  22069591.460    90371289.70847
  22786482.100   119743827.95808  22786479.480    93306901.87846
  21110822.180   110938125.46208  21110818.540    86445279.50148
  24296168.860   127677239.78308  24296166.620    99488760.03345
  24499994.520   128748325.74407  24499995.540   100323365.09445
  23278124.820   122327393.12708  23278125.200    95320058.64047
  23500463.860   123495757.14408  23500462.480    96230445.11946
  22566535.260   118587930.31909  22566532.720    92406161.59447
 15 02 17 00 33  0.0000000  0  8G16G18G21G22G25G27G29G31
  22054927.000   115899419.43009  22054923.880    90311227.74848
  22773852.020   119677456.83909  22773849.500    93255184.14546
  21116417.060   110967526.39508  21116413.320    86468189.32748
  24278308.140   127583381.95108  24278305.820    99415624.23445
  24518810.220   128847202.84907  24518811.260   100400412.12745
  23265318.820   122260096.44909  23265318.980    95267619.68247
  23514103.700   123567435.38709  23514102.020    96286298.25846
  22582708.660   118672922.33809  22582706.140    92472389.10847
 15 02 17 00 33 30.0000000  0  8G16G18G21G22G25G27G29G31
  22040299.800   115822553.57109  22040296.780    90251332.28247
  22761268.020   119611327.89808  22761265.560    93203655.11746
  21122080.240   110997286.21808  21122076.440    86491378.77948
  24260437.820   127489473.73208  24260435.400    99342449.18545
  24537655.140   128946233.52507  24537656.420   100477578.81844
  23252530.020   122192889.92708  23252530.080    95215251.02547
  23527749.420   123639141.93009  23527747.400    96342173.43446
  22598928.620   118758158.81409  22598926.220    92538807.10848
 15 02 17 00 34  0.0000000  0  8G16G18G21G22G25G27G29G31
  22025715.020   115745910.11909  22025712.040    90191610.15147
  22748732.060   119545451.40908  22748729.520    93152322.83546
  21127812.540   111027409.58108  21127808.740    86514851.55648
  24242559.680   127395524.06308  24242557.060    99269241.81945
  24556530.320   129045422.71408  24556531.640   100554869.03145
  23239759.160   122125779.84208  23239759.700    95162957.49547
  23541401.640   123710883.35108  23541399.040    96398075.86046
  22615195.820   118843643.26409  22615193.500    92605418.33148
 15 02 17 00 34 30.0000000  0  8G16G18G21G22G25G27G29G31
  22011172.380   115669487.88109  22011169.240    90132060.33447
  22736243.920   119479826.22709  22736241.280    93101186.33146
  21133613.120   111057891.99508  21133609.320    86538604.07548
  24224673.620   127301532.43008  24224670.820    99196001.72045
  24575434.760   129144766.10908  24575436.120   100632279.39545
  23227006.220   122058763.11808  23227007.020    95110736.74547
  23555059.220   123782656.04008  23555056.880    96454002.54446
  22631509.180   118929369.89009  22631506.880    92672218.25748
 15 02 17 00 35  0.0000000  0  8G16G18G21G22G25G27G29G31
  21996671.620   115593285.38909  21996668.440    90072681.75747
  22723803.420   119414451.21609  22723800.760    93050244.80946
  21139481.060   111088728.09908  21139477.180    86562632.19748
  24206779.280   127207497.74808  24206776.520    99122728.09845
  24594367.520   129244258.45207  24594369.340   100709805.83345
  23214270.560   121991836.07708  23214271.220    95058585.82447
  23568722.500   123854456.17509  23568720.480    96509950.69246
  22647867.360   119015331.98909  22647864.940    92739201.69047
 15 02 17 00 35 30.0000000  0  8G16G18G21G22G25G27G29G31
  21982213.920   115517309.68409  21982210.680    90013479.93348
  22711411.980   119349333.52009  22711409.360    92999503.76846
  21145416.860   111119920.74408  21145413.020    86586938.18348
  24188878.120   127113427.42408  24188875.360    99049426.68445
  24613329.400   129343903.38107  24613330.740   100787451.22044
  23201552.940   121925003.57109  23201552.880    95006508.57247
  23582391.580   123926288.50608  23582389.000    96565923.92046
  22664270.620   119101531.38709  22664268.000    92806370.02547
 15 02 17 00 36  0.0000000  0  8G16G18G21G22G25G27G29G31
  21967800.060   115441563.65209  21967796.780    89954457.04348
  22699070.280   119284476.75509  22699067.620    92948966.03546
  21151420.420   111151469.37909  21151416.620    86611521.51648
  24170970.600   127019324.36108  24170967.980    98976099.81045
  24632320.100   129443700.06807  24632321.660   100865214.75545
  23188853.180   121858266.04008  23188852.900    94954505.34947
  23596066.700   123998153.74308  23596064.400    96621922.77146
  22680718.440   119187965.91309  22680715.860    92873721.56347
 15 02 17 00 36 30.0000000  0  8G16G18G21G22G25G27G29G31
  21953428.800   115366041.62509  21953425.320    89895608.71047
  22686777.200   119219875.44209  22686774.320    92898627.36446
  21157489.960   111183364.98209  21157486.160    86636375.24348
  24153055.920   126925183.22208  24153053.540    98902743.25345
  24651338.060   129543639.03407  24651339.040   100943089.29144
  23176170.020   121791615.62908  23176169.660    94902570.03047
  23609747.020   124070043.78408  23609745.060    96677940.99446
  22697208.900   119274624.61709  22697206.420    92941247.79947
 15 02 17 00 37  0.0000000  0  8G16G18G21G22G25G27G29G31
  21939102.120   115290754.47909  21939098.780    89836943.44047
  22674534.700   119155540.36909  22674531.620    92848496.16546
  21163626.700   111215613.96009  21163622.860    86661504.30748
  24135136.200   126831015.37008  24135133.940    98829365.87745
  24670384.560   129643727.56208  24670385.520   101021080.25745
  23163505.140   121725060.88309  23163504.880    94850709.20347
  23623433.580   124141967.11608  23623431.580    96733985.09345
  22713743.220   119361513.24909  22713740.840    93008953.19447
 15 02 17 00 37 30.0000000  0  8G16G18G21G22G25G27G29G31
  21924819.180   115215697.12009  21924815.740    89778457.19147
  22662341.880   119091466.99309  22662338.920    92798568.88346
  21169829.000   111248207.64509  21169825.140    86686901.99048
  24117210.660   126736816.24508  24117208.280    98755964.10145
  24689457.800   129743957.12908  24689458.180   101099181.15144
  23150857.060   121658594.62408  23150856.760    94798917.36247
  23637125.300   124213916.58208  23637122.780    96790049.60745
  22730319.520   119448621.67409  22730317.080    93076829.85247
 15 02 17 00 38  0.0000000  0  8G16G18G21G22G25G27G29G31
  21910582.100   115140880.37609  21910578.300    89720158.40347
  22650200.880   119027666.40109  22650198.140    92748854.16146
  21176098.340   111281153.11809  21176094.420    86712573.77248
  24099281.280   126642596.73308  24099278.820    98682546.44046
  24708559.360   129844334.71208  24708559.780   101177397.38445
  23138227.160   121592225.35008  23138226.960    94747201.10447
  23650823.300   124285900.48308  23650821.100    96846140.95546
  22746938.780   119535955.53409  22746936.200    93144882.20247
 15 02 17 00 38 30.0000000  0  8G16G18G21G22G25G27G29G31
  21896390.260   115066302.32109  21896386.600    89662045.66547
  22638111.620   118964137.21809  22638108.960    92699350.92846
  21182433.560   111314444.93709  21182429.600    86738515.47048
  24081347.660   126548355.52008  24081345.220    98609111.91146
  24727687.780   129944854.95408  24727688.100   101255724.75645
  23125615.260   121525949.07109  23125615.120    94695557.27347
  23664527.020   124357915.08709  23664525.280    96902256.14146
  22763599.660   119623507.84309  22763596.860    93213104.75047
 15 02 17 00 39  0.0000000  0  8G16G18G21G22G25G27G29G31
  21882243.620   114991961.38609  21882240.140    89604117.69747
  22626073.840   118900878.21809  22626071.140    92650058.21746
  21188833.660   111348077.62609  21188829.680    86764722.74448
  24063409.620   126454091.13508  24063406.980    98535659.29145
  24746842.220   130045512.69107  24746842.980   101334159.25145
  23113020.340   121459761.96709  23113020.080    94643982.96647
  23678236.520   124429956.30808  23678234.140    96958392.17646
  22780300.800   119711272.13009  22780297.920    93281492.47547
 15 02 17 00 39 30.0000000  0  8G16G18G21G22G25G27G29G31
  21868143.420   114917864.57409  21868140.320    89546379.96847
  22614088.820   118837896.62309  22614086.060    92600981.67846
  21195299.200   111382054.22108  21195295.220    86791198.03348
  24045468.640   126359811.26408  24045465.900    98462194.60446
  24766023.440   130146311.06908  24766024.300   101412703.38544
  23100443.160   121393668.69808  23100442.700    94592481.80547
  23691951.640   124502028.97208  23691949.140    97014552.69146
  22797042.480   119799249.93409  22797039.640    93350046.57847
 15 02 17 00 40  0.0000000  0  8G16G18G21G22G25G27G29G31
  21854090.620   114844015.96609  21854087.340    89488835.57348
  22602157.420   118775196.51909  22602154.560    92552124.48346
  21201830.160   111416374.81508  21201826.200    86817941.36848
  24027525.460   126265519.70508  24027522.680    98388720.82646
  24785231.420   130247250.36807  24785232.860   101491357.27145
  23087884.040   121327670.92308  23087883.360    94541055.00247
  23705672.780   124574134.41208  23705670.680    97070738.67746
  22813824.480   119887439.77409  22813821.720    93418765.88947
 15 02 17 00 40 30.0000000  0  8G16G18G21G22G25G27G29G31
  21840084.180   114770410.85709  21840080.900    89431480.95348
  22590278.820   118712773.39309  22590275.880    92503483.08646
  21208425.020   111451031.11509  21208421.180    86844946.25448
  24009579.400   126171212.70508  24009576.460    98315234.96446
  24804464.760   130348322.41507  24804465.700   101570114.66745
  23075341.960   121261762.02608  23075341.360    94489697.42947
  23719398.980   124646265.86209  23719396.380    97126944.99746
  22830645.000   119975832.42909  22830642.400    93487643.25147
 15 02 17 00 41  0.0000000  0  7G16G18G21G22G27G29G31
  21826124.500   114697051.83109  21826121.020    89374318.08848
  22578453.360   118650630.27309  22578450.480    92455059.89646
  21215083.540   111486021.77608  21215079.760    86872211.70448
  23991630.980   126076893.25508  23991628.060    98241739.44745
  23062816.880   121195942.38108  23062816.540    94438409.44747
  23733130.360   124718424.20508  23733127.740    97183172.26746
  22847503.620   120064425.15109  22847501.060    93556676.49047
 15 02 17 00 41 30.0000000  0  7G16G18G21G22G27G29G31
  21812213.980   114623950.76909  21812210.280    89317356.21447
  22566683.180   118588778.51109  22566680.480    92406863.74146
  21221807.260   111521354.99808  21221803.520    86899744.11848
  23973682.500   125982573.38008  23973679.440    98168243.60445
  23050310.240   121130221.28408  23050310.240    94387198.29647
  23746868.600   124790618.38108  23746866.520    97239427.45946
  22864401.580   120153224.34909  22864398.900    93625870.61747
 15 02 17 00 42  0.0000000  0  7G16G18G21G22G27G29G31
  21798351.740   114551103.95109  21798347.840    89260592.48248
  22554967.900   118527215.34509  22554965.360    92358892.47546
  21228594.720   111557023.14409  21228590.960    86927537.41948
  23955733.200   125888249.68408  23955730.020    98094744.75745
  23037821.520   121064592.90408  23037821.020    94336059.30547
  23760612.120   124862842.55808  23760610.200    97295705.95346
  22881337.220   120242221.47309  22881334.440    93695218.98847
 15 02 17 00 42 30.0000000  0  7G16G18G21G22G27G29G31
  21784537.920   114478511.99009  21784533.960    89204027.34648
  22543307.920   118465941.86809  22543305.380    92311146.92346
  21235445.160   111593022.49108  21235441.380    86955588.89548
  23937783.220   125793922.87708  23937780.180    98021243.50345
  23025350.240   120999055.65409  23025349.480    94284991.34347
  23774360.920   124935094.77708  23774358.980    97352006.39745
  22898309.580   120331411.43209  22898306.640    93764717.61947
 15 02 17 00 43  0.0000000  0  7G16G18G21G22G27G29G31
  21770772.500   114406174.43009  21770768.660    89147660.42648
  22531702.920   118404957.18909  22531700.380    92263626.40646
  21242357.860   111629348.89108  21242354.020    86983895.20348
  23919832.740   125699593.38508  23919829.580    97947740.13246
  23012895.920   120933606.83609  23012895.300    94233992.32547
  23788115.100   125007373.19408  23788112.800    97408327.26246
  22915317.720   120420789.32009  22915314.620    93834362.69447
 15 02 17 00 43 30.0000000  0  7G16G18G21G22G27G29G31
  21757056.660   114334097.95509  21757053.020    89091496.97947
  22520154.320   118344268.88909  22520151.740    92216336.84446
  21249333.480   111666005.79508  21249329.540    87012459.01448
  23901883.120   125605267.88908  23901879.860    97874239.90145
  23000459.260   120868250.95508  23000458.920    94183065.74347
  23801875.000   125079681.54408  23801872.800    97464671.40846
  22932361.760   120510356.13909  22932358.560    93904154.98847
 15 02 17 00 44  0.0000000  0  7G16G18G21G22G27G29G31
  21743391.200   114262286.38009  21743387.760    89035539.94648
  22508662.720   118283880.16809  22508660.240    92169280.72746
  21256371.760   111702992.50108  21256367.840    87041279.81648
  23883935.080   125510950.75508  23883931.740    97800746.18146
  22988040.520   120802989.49008  22988039.860    94132212.64447
  23815640.860   125152021.49308  23815639.100    97521040.14446
  22949441.460   120600110.38209  22949438.280    93974093.30747
 15 02 17 00 44 30.0000000  0  7G16G18G21G22G27G29G31
  21729777.020   114190743.47809  21729773.760    88979792.23448
  22497228.900   118223794.87509  22497226.400    92122461.03746
  21263472.760   111740308.97208  21263468.900    87070357.58048
  23865989.380   125416645.93808  23865986.040    97727262.05646
  22975639.640   120737823.77308  22975638.820    94081434.19947
  23829412.880   125224394.35108  23829411.340    97577434.54846
  22966556.560   120690051.03109  22966553.600    94044176.89147
 15 02 17 00 45  0.0000000  0  7G16G18G21G22G27G29G31
  21716213.260   114119465.27309  21716209.760    88924250.78248
  22485852.180   118164009.61409  22485849.560    92075875.14147
  21270635.060   111777947.26009  21270631.280    87099686.13248
  23848045.260   125322350.05708  23848042.020    97653784.91445
  22963255.700   120672747.78108  22963255.160    94030725.70847
  23843190.060   125296793.96008  23843187.980    97633849.81445
  22983705.380   120780168.75409  22983702.600    94114398.42847
 15 02 17 00 45 30.0000000  0  7G16G18G21G22G27G29G31
  21702700.560   114048456.10709  21702697.160    88868918.97648
  22474533.460   118104529.17109  22474530.720    92029526.75246
  21277858.760   111815908.09908  21277854.980    87129266.01948
  23830103.740   125228067.71308  23830100.480    97580318.28745
  22950889.640   120607763.81109  22950889.280    93980088.86847
  23856972.680   125369222.69208  23856970.480    97690287.79745
  23000887.800   120870462.75509  23000885.100    94184757.33747
 15 02 17 00 46  0.0000000  0  7G16G18G21G22G27G29G31
  21689239.720   113977719.08009  21689236.360    88813799.21248
  22463273.200   118045356.41809  22463270.500    91983418.13246
  21285143.700   111854190.47309  21285139.940    87159096.41748
  23812165.560   125133802.65508  23812162.180    97506865.13546
  22938541.280   120542872.54608  22938541.180    93929524.31047
  23870760.920   125441681.17308  23870759.060    97746748.91346
  23018103.380   120960930.79209  23018100.640    94255251.87647
 15 02 17 00 46 30.0000000  0  7G16G18G21G22G27G29G31
  21675831.200   113907256.54909  21675827.680    88758893.31848
  22452071.900   117986493.88509  22452069.260    91937551.25647
  21292489.580   111892792.66608  21292485.700    87189176.10148
  23794231.160   125039557.30408  23794227.480    97433427.31246
  22926210.420   120478074.01008  22926210.460    93879031.99147
  23884554.980   125514169.45308  23884553.540    97803233.23546
  23035351.500   121051569.85109  23035348.680    94325879.68247
 15 02 17 00 47  0.0000000  0  7G16G18G21G22G27G29G31
  21662474.800   113837068.62909  21662471.520    88704201.46948
  22440929.760   117927941.52609  22440926.960    91891926.05547
  21299895.660   111931711.23808  21299891.600    87219502.21048
  23776300.680   124945332.46408  23776297.000    97360005.50546
  22913896.700   120413366.31408  22913896.680    93828610.45347
  23898354.520   125586685.60108  23898353.300    97859739.32646
  23052631.220   121142375.16909  23052628.460    94396637.02147
 15 02 17 00 47 30.0000000  0  7G16G18G21G22G27G29G31
  21649171.360   113767159.28409  21649168.240    88649726.73148
  22429847.460   117869703.41509  22429844.540    91846545.72046
  21307361.760   111970945.70308  21307357.740    87250074.52348
  23758374.800   124851131.96408  23758371.160    97286602.65846
  22901600.600   120348750.89008  22901601.000    93778260.82848
  23912159.760   125659230.94508  23912158.060    97916268.15646
  23069942.240   121233345.26209  23069939.580    94467522.74447
 15 02 17 00 48  0.0000000  0  7G16G18G21G22G27G29G31
  21635922.360   113697535.10409  21635919.120    88595474.05548
  22418826.240   117811786.42909  22418823.320    91801415.61746
  21314888.420   112010498.93308  21314884.560    87280895.23448
  23740454.840   124756962.55608  23740451.300    97213224.03846
  22889322.860   120284232.14708  22889323.580    93727986.54547
  23925970.940   125731810.20508  23925969.300    97972823.38846
  23087284.920   121324481.54509  23087282.240    94538537.98047
 15 02 17 00 48 30.0000000  0  7G16G18G21G22G27G29G31
  21622726.400   113628189.09609  21622722.700    88541438.17048
  22407864.800   117754183.63909  22407861.940    91756530.35746
  21322473.720   112050360.15608  21322469.960    87311955.93348
  23722539.720   124662818.52208  23722536.180    97139865.19246
  22877062.120   120219801.04508  22877062.500    93677780.55547
  23939787.000   125804414.06408  23939785.760    98029397.76746
  23104656.920   121415771.90509  23104654.260    94609673.29147
 15 02 17 00 49  0.0000000  0  7G16G18G21G22G27G29G31
  21609584.880   113559130.24209  21609581.420    88487626.14448
  22396964.960   117696904.23809  22396962.080    91711897.07246
  21330118.560   112090534.21108  21330114.920    87343260.42948
  23704631.200   124568709.12208  23704627.800    97066533.33246
  22864819.360   120155464.33708  22864819.220    93627648.10447
  23953609.000   125877048.63908  23953607.540    98085996.15146
  23122058.940   121507220.02709  23122056.340    94680931.53347
 15 02 17 00 49 30.0000000  0  7G16G18G21G22G27G29G31
  21596498.140   113490358.43109  21596494.640    88434037.69548
  22386126.500   117639947.75409  22386123.720    91667515.41346
  21337822.180   112131016.94508  21337818.460    87374805.40348
  23686729.260   124474633.95208  23686725.740    96993228.12446
  22852594.080   120091219.30009  22852593.820    93577587.03947
  23967436.400   125949712.00308  23967435.020    98142616.95746
  23139489.880   121598820.25909  23139487.460    94752308.26647
 15 02 17 00 50  0.0000000  0  7G16G18G21G22G27G29G31
  21583466.720   113421877.91409  21583463.200    88380676.26048
  22375350.160   117583318.39109  22375347.480    91623388.66347
  21345584.520   112171808.86008  21345580.880    87406591.28548
  23668834.800   124380598.40308  23668831.300    96919953.80446
  22840386.560   120027068.45508  22840386.340    93527599.40247
  23981269.700   126022406.75908  23981268.760    98199262.20246
  23156949.700   121690572.04809  23156947.520    94823803.12347
 15 02 17 00 50 30.0000000  0  7G16G18G21G22G27G29G31
  21570491.880   113353694.67009  21570488.420    88327546.46748
  22364637.340   117527022.72609  22364634.720    91579521.93747
  21353406.120   112212911.83809  21353402.460    87438619.56548
  23650948.920   124286608.32908  23650945.480    96846714.90346
  22828197.540   119963015.26909  22828197.460    93477687.88247
  23995109.200   126095136.16608  23995108.780    98255934.39846
  23174438.560   121782475.94209  23174436.440    94895416.50247
 15 02 17 00 51  0.0000000  0  7G16G18G21G22G27G29G31
  21557571.980   113285800.38909  21557568.500    88274641.82348
  22353986.640   117471052.79309  22353983.960    91535909.01147
  21361284.680   112254313.89708  21361281.060    87470880.94548
  23633070.300   124192656.24508  23633066.900    96773505.60446
  22816025.300   119899049.57708  22816024.740    93427844.49747
  24008953.720   126167889.72208  24008952.900    98312625.47345
  23191953.860   121874518.71909  23191951.640    94967138.07747
 15 02 17 00 51 30.0000000  0  7G16G18G21G22G27G29G31
  21544708.020   113218199.68109  21544704.420    88221965.92848
  22343398.520   117415411.79209  22343395.840    91492552.39447
  21369220.220   112296015.21609  21369216.600    87503375.44648
  23615199.880   124098746.72508  23615196.360    96700329.45746
  22803869.980   119835173.12309  22803869.660    93378070.68248
  24022803.440   126240669.13408  24022801.920    98369336.76845
  23209495.300   121966699.37709  23209492.960    95038967.09547
 15 02 17 00 52  0.0000000  0  7G16G18G21G22G27G29G31
  21531900.720   113150897.40409  21531897.200    88169522.60948
  22332874.060   117360105.57609  22332871.380    91449456.66246
  21377212.860   112338016.35508  21377209.140    87536103.63948
  23597338.640   124004885.22008  23597334.980    96627190.72546
  22791732.400   119771388.98409  22791732.240    93328368.78148
  24036658.840   126313477.65808  24036657.020    98426070.64446
  23227062.800   122059017.45108  23227060.440    95110903.20847
 15 02 17 00 52 30.0000000  0  7G16G18G21G22G27G29G31
  21519151.540   113083900.28409  21519148.080    88117317.05348
  22322414.660   117305140.79009  22322411.880    91406626.96747
  21385263.160   112380321.02709  21385259.400    87569068.28848
  23579487.860   123911078.85408  23579484.080    96554094.95546
  22779613.260   119707701.52309  22779613.000    93278742.22048
  24050520.420   126386319.74608  24050518.820    98482830.69646
  23244656.800   122151474.56408  23244654.400    95182947.64647
 15 02 17 00 53  0.0000000  0  7G16G18G21G22G27G29G31
  21506461.140   113017211.07809  21506457.640    88065351.45948
  22312020.840   117250519.99809  22312017.820    91364065.33047
  21393370.880   112422927.55908  21393367.160    87602268.24548
  23561648.080   123817330.98408  23561644.360    96481044.77346
  22767512.380   119644111.26309  22767511.920    93229191.43647
  24064388.180   126459196.14208  24064386.900    98539617.46346
  23262276.880   122244068.62009  23262274.480    95255098.80747
 15 02 17 00 53 30.0000000  0  7G16G18G21G22G27G29G31
  21493828.120   112950823.98409  21493824.400    88013621.26348
  22301691.260   117196237.10009  22301688.000    91321766.98047
  21401534.240   112465826.24809  21401530.420    87635695.72748
  23543818.280   123723636.13408  23543814.740    96408035.91446
  22755428.620   119580610.43208  22755428.340    93179710.27348
  24078261.120   126532098.46908  24078259.840    98596424.45546
  23279920.920   122336788.56809  23279918.540    95327348.06647
 15 02 17 00 54  0.0000000  0  7G16G18G21G22G27G29G31
  21481253.760   112884745.01909  21481250.140    87962131.14448
  22291427.080   117142298.58109  22291423.780    91279736.99547
  21409753.580   112509019.13208  21409749.740    87669352.55448
  23525999.880   123630000.58308  23525996.320    96335073.24346
  22743362.420   119517202.79508  22743362.480    93130301.79447
  24092139.780   126605030.69708  24092137.900    98653254.72945
  23297588.960   122429634.82109  23297586.620    95399695.74947
 15 02 17 00 54 30.0000000  0  7G16G18G21G22G27G29G31
  21468738.440   112818976.61009  21468734.740    87910883.05648
  22281228.900   117088706.81209  22281225.640    91237977.20247
  21418028.600   112552504.31609  21418024.680    87703237.09948
  23508193.380   123536427.09608  23508189.640    96262158.91846
  22731313.940   119453888.40208  22731313.700    93080965.93647
