     2.11           OBSERVATION DATA    G                   RINEX VERSION / TYPE
SPIDER V4,0,0,3554                      2015 03 19 00:34    PGM / RUN BY / DATE 
CNGR                                                        MARKER NAME         
CNGR                                                        MARKER NUMBER       
                                                            OBSERVER / AGENCY   
496521              LEICA GRX1200+GNSS  8.10/4.007          REC # / TYPE / VERS 
10321004            LEIAR25         NONE                    ANT # / TYPE        
  5218738.7445   688113.1521  3590185.5476                  APPROX POSITION XYZ 
        0.0720        0.0000        0.0000                  ANTENNA: DELTA H/E/N
     1     1                                                WAVELENGTH FACT L1/2
     4    C1    L1    P2    L2                              # / TYPES OF OBSERV 
    30.000                                                  INTERVAL            
  2015    02    17    00    00    0.0000000     GPS         TIME OF FIRST OBS   
  2015    02    17    23    59   30.0000000     GPS         TIME OF LAST OBS    
    16                                                      LEAP SECONDS        
    30                                                      # OF SATELLITES     
   G 1   815   815   815   815                              PRN / # OF OBS      
   G 2   927   927   927   927                              PRN / # OF OBS      
   G 3   860   860   860   860                              PRN / # OF OBS      
   G 4   844   844   844   844                              PRN / # OF OBS      
   G 5   625   625   625   625                              PRN / # OF OBS      
   G 6   795   795   795   795                              PRN / # OF OBS      
   G 7   677   676   676   676                              PRN / # OF OBS      
   G 9   818   818   818   818                              PRN / # OF OBS      
   G10   732   732   732   732                              PRN / # OF OBS      
   G11   779   778   777   777                              PRN / # OF OBS      
   G12   808   808   808   808                              PRN / # OF OBS      
   G13   776   776   776   776                              PRN / # OF OBS      
   G14   944   942   942   942                              PRN / # OF OBS      
   G15   660   660   660   660                              PRN / # OF OBS      
   G16   668   668   668   668                              PRN / # OF OBS      
   G17   936   936   936   936                              PRN / # OF OBS      
   G18   897   895   896   895                              PRN / # OF OBS      
   G19   756   756   756   756                              PRN / # OF OBS      
   G20   774   774   774   774                              PRN / # OF OBS      
   G21   738   737   737   737                              PRN / # OF OBS      
   G22   662   662   662   662                              PRN / # OF OBS      
   G23   761   761   761   761                              PRN / # OF OBS      
   G24   828   828   827   827                              PRN / # OF OBS      
   G25   841   841   841   841                              PRN / # OF OBS      
   G27   810   810   810   810                              PRN / # OF OBS      
   G28   835   835   834   834                              PRN / # OF OBS      
   G29   741   741   740   740                              PRN / # OF OBS      
   G30   724   724   724   724                              PRN / # OF OBS      
   G31   863   863   863   863                              PRN / # OF OBS      
   G32   778   778   778   778                              PRN / # OF OBS      
BIT 2 OF LLI FLAGS DATA COLLECTED UNDER A/S CONDITION       COMMENT             
SNR is mapped to RINEX snr flag value [2-9]                 COMMENT             
Lx:     = 25dBHz -> 1; 26-27dBHz -> 2; 28-31dBHz -> 3       COMMENT             
       32-35dBHz -> 4; 36-38dBHz -> 5; 39-41dBHz -> 6       COMMENT             
       42-44dBHz -> 7; 45-48dBHz -> 8; >=49dBHz -> 9        COMMENT             
                                                            END OF HEADER       
 15 02 17 00 00  0.0000000  0  7G16G18G21G25G27G29G31
  23252835.160   122194477.54408  23252832.240    95216474.05746
  23533569.560   123669784.11308  23533568.000    96366077.05745
  20878066.260   109715080.67008  20878062.820    85492300.04648
  23185490.820   121840719.81208  23185491.400    94940883.14347
  24312354.760   127762292.76606  24312356.160    99555024.60644
  22544497.580   118472485.91108  22544495.160    92316309.26448
  21677168.420   113914310.01009  21677165.000    88764391.90748
 15 02 17 00 00 30.0000000  0  7G16G18G21G25G27G29G31
  23235992.680   122105970.38108  23235989.840    95147507.46246
  23518914.180   123592770.25208  23518912.720    96306066.32845
  20878798.880   109718931.12108  20878795.560    85495300.41248
  23201678.100   121925783.38409  23201678.440    95007166.42147
  24298515.760   127689569.10207  24298517.500    99498356.88244
  22557101.700   118538721.34208  22557099.580    92367921.26848
  21688791.660   113975390.31709  21688788.180    88811986.93548
 15 02 17 00 01  0.0000000  0  7G16G18G21G25G27G29G31
  23219165.560   122017544.14708  23219162.720    95078603.91446
  23504275.560   123515844.64608  23504274.060    96246124.32645
  20879614.040   109723215.18308  20879610.760    85498638.64948
  23217912.540   122011095.05108  23217912.900    95073643.01647
  24284693.180   127616931.33807  24284695.100    99441756.10444
  22569716.220   118605011.14709  22569714.140    92419575.65248
  21700495.600   114036894.83709  21700492.120    88859912.51248
 15 02 17 00 01 30.0000000  0  7G16G18G21G25G27G29G31
  23202354.000   121929199.82208  23202351.380    95009764.21846
  23489654.180   123439009.63208  23489652.540    96186252.96345
  20880511.440   109727931.08608  20880508.160    85502313.39548
  23234193.820   122096653.13008  23234194.000    95140311.62646
  24270886.780   127544378.60707  24270888.440    99385221.59745
  22582340.980   118671354.15709  22582338.780    92471271.48948
  21712279.640   114098820.47409  21712276.200    88908166.23348
 15 02 17 00 02  0.0000000  0  7G16G18G21G25G27G29G31
  23185557.700   121840934.86408  23185555.040    94940986.32046
  23475049.880   123362263.96708  23475048.200    96126451.20146
  20881490.000   109733073.38608  20881486.680    85506320.37948
  23250520.920   122182452.36708  23250520.820    95207168.15446
  24257095.760   127471906.46807  24257097.200    99328749.91744
  22594974.940   118737745.52909  22594972.800    92523004.98747
  21724142.500   114161160.33709  21724139.140    88956742.72148
 15 02 17 00 02 30.0000000  0  7G16G18G21G25G27G29G31
  23168777.600   121752754.63908  23168774.880    94872274.48346
  23460463.820   123285613.60408  23460462.180    96066723.70746
  20882550.440   109738645.92209  20882547.120    85510662.62248
  23266894.460   122268495.52208  23266894.380    95274214.74846
  24243320.720   127399518.56807  24243322.320    99272343.87845
  22607618.900   118804188.88109  22607616.640    92574779.00547
  21736084.460   114223915.86809  21736081.200    89005643.10648
 15 02 17 00 03  0.0000000  0  7G16G18G21G25G27G29G31
  23152013.800   121664659.84108  23152010.900    94803629.20146
  23445896.320   123209059.93508  23445894.460    96007071.55645
  20883692.140   109744645.33108  20883688.780    85515337.49848
  23283313.960   122354780.40908  23283313.940    95341449.69646
  24229561.460   127327213.42307  24229563.120    99216002.27645
  22620272.320   118870682.20809  22620269.980    92626591.96148
  21748104.880   114287083.72309  21748101.720    89054864.79548
 15 02 17 00 03 30.0000000  0  7G16G18G21G25G27G29G31
  23135266.920   121576653.75208  23135263.840    94735053.03946
  23431347.940   123132607.29008  23431346.080    95947498.14145
  20884915.280   109751072.78608  20884911.900    85520345.91148
  23299779.540   122441307.43708  23299779.720    95408873.33447
  24215818.280   127254992.47207  24215819.720    99159726.28644
  22632935.400   118937226.73609  22632933.140    92678444.82148
  21760203.540   114350662.84909  21760200.500    89104406.94748
 15 02 17 00 04  0.0000000  0  7G16G18G21G25G27G29G31
  23118537.340   121488738.66109  23118534.100    94666547.79046
  23416819.300   123056258.79008  23416817.500    95888005.86445
  20886219.740   109757927.88008  20886216.340    85525687.55148
  23316290.960   122528076.07408  23316291.380    95476485.22246
  24202091.160   127182855.96507  24202092.440    99103516.11945
  22645608.140   119003822.52109  22645605.780    92730337.61347
  21772380.000   114414650.91709  21772377.040    89154267.75648
 15 02 17 00 04 30.0000000  0  7G16G18G21G25G27G29G31
  23101825.160   121400915.19008  23101821.780    94598113.92246
  23402310.660   122980016.14508  23402309.040    95828596.07445
  20887605.160   109765208.66608  20887601.800    85531360.89848
  23332848.000   122615084.44008  23332848.560    95544283.92646
  24188379.760   127110802.96207  24188380.980    99047370.96945
  22658290.200   119070468.08909  22658288.260    92782269.20747
  21784633.740   114479044.96309  21784630.800    89204444.92348
 15 02 17 00 05  0.0000000  0  7G16G18G21G25G27G29G31
  23085130.440   121313183.38909  23085126.980    94529751.49346
  23387822.280   122903879.95908  23387820.700    95769269.21946
  20889071.000   109772911.96208  20889067.640    85537363.46748
  23349450.140   122702329.65808  23349450.800    95612267.17046
  24174683.980   127038831.44907  24174685.220    98991289.35145
  22670981.260   119137161.30808  22670979.260    92834237.93448
  21796963.860   114543840.43309  21796960.960    89254934.87548
 15 02 17 00 05 30.0000000  0  7G16G18G21G25G27G29G31
  23068453.800   121225547.00508  23068450.200    94461463.40146
  23373355.060   122827855.20008  23373353.560    95710029.21146
  20890617.560   109781039.06308  20890614.100    85543696.27748
  23366097.680   122789812.80608  23366098.240    95680435.83446
  24161004.180   126966943.40007  24161005.440    98935272.75445
  22683681.720   119203904.09208  22683679.760    92886245.26148
  21809370.320   114609036.99909  21809367.480    89305737.36948
 15 02 17 00 06  0.0000000  0  7G16G18G21G25G27G29G31
  23051795.600   121138008.01908  23051792.280    94393251.23746
  23358909.580   122751944.15608  23358907.920    95650877.80946
  20892244.540   109789588.77008  20892241.020    85550358.39648
  23382790.280   122877532.48808  23382790.740    95748788.79646
  24147340.100   126895138.21407  24147341.280    98879320.74545
  22696391.740   119270695.46909  22696389.960    92938290.47848
  21821852.600   114674631.84209  21821849.780    89356850.21348
 15 02 17 00 06 30.0000000  0  7G16G18G21G25G27G29G31
  23035155.940   121050566.42108  23035152.660    94325114.92946
  23344486.080   122676148.05708  23344484.080    95591815.95146
  20893951.360   109798558.08308  20893947.760    85557347.47948
  23399527.360   122965486.24008  23399527.680    95817324.15246
  24133691.480   126823414.58107  24133692.760    98823432.26845
  22709110.780   119337533.99409  22709109.160    92990372.40347
  21834409.960   114740621.21709  21834407.180    89408270.48948
 15 02 17 00 07  0.0000000  0  7G16G18G21G25G27G29G31
  23018535.400   120963225.39308  23018532.360    94257057.01346
  23330085.320   122600471.06908  23330083.080    95532846.92045
  20895738.080   109807947.56508  20895734.520    85564663.96548
  23416309.060   123053674.27708  23416309.240    95886042.08346
  24120058.600   126751773.46808  24120059.700    98767608.06545
  22721839.020   119404420.09909  22721837.080    93042491.43547
  21847042.180   114807003.91309  21847039.380    89459997.24048
 15 02 17 00 07 30.0000000  0  7G16G18G21G25G27G29G31
  23001934.160   120875985.65008  23001931.080    94189078.01846
  23315707.360   122524914.04808  23315704.880    95473971.37145
  20897604.400   109817755.20308  20897600.840    85572306.28748
  23433134.900   123142094.25008  23433134.940    95954940.74146
  24106441.180   126680213.50908  24106442.060    98711847.13845
  22734576.000   119471352.30109  22734573.820    93094646.39247
  21859748.460   114873775.86509  21859745.660    89512027.30648
 15 02 17 00 08  0.0000000  0  7G16G18G21G25G27G29G31
  22985352.880   120788850.73308  22985349.920    94121180.70646
  23301353.040   122449481.83708  23301350.560    95415193.08045
  20899550.360   109827981.46008  20899546.840    85580274.81348
  23450004.940   123230746.90108  23450005.040    96024020.71446
  24092839.520   126608736.35108  24092840.260    98656150.70045
  22747321.960   119538332.07109  22747320.120    93146838.37347
  21872528.660   114940936.40609  21872525.920    89564360.17948
 15 02 17 00 08 30.0000000  0  7G16G18G21G25G27G29G31
  22968792.220   120701824.05608  22968789.220    94053367.73146
  23287023.260   122374178.50308  23287020.760    95356515.21545
  20901576.040   109838626.57708  20901572.560    85588569.71848
  23466919.140   123319632.49208  23466919.320    96093282.17746
  24079253.760   126537343.23307  24079254.580    98600519.74445
  22760077.020   119605360.45809  22760075.120    93199068.30048
  21885382.580   115008484.37909  21885379.880    89616994.94148
 15 02 17 00 09  0.0000000  0  7G16G18G21G25G27G29G31
  22952252.020   120614904.70508  22952248.900    93985638.37546
  23272717.920   122299004.16408  23272715.500    95297937.84146
  20903680.760   109849686.96608  20903677.280    85597188.19448
  23483877.000   123408747.56508  23483877.300    96162722.45646
  24065683.540   126466031.59508  24065684.500    98544952.28145
  22772840.700   119672434.57209  22772838.860    93251333.81948
  21898309.280   115076414.72209  21898306.620    89669927.63948
 15 02 17 00 09 30.0000000  0  7G16G18G21G25G27G29G31
  22935733.000   120528096.32208  22935729.740    93917995.49246
  23258437.900   122223963.34308  23258435.740    95239464.53546
  20905864.660   109861163.20708  20905861.140    85606130.72648
  23500878.640   123498092.65008  23500879.360    96232341.96746
  24052129.140   126394802.97608  24052130.200    98489449.51945
  22785613.320   119739556.09708  22785611.760    93303636.26747
  21911308.640   115144726.61009  21911305.980    89723157.66148
 15 02 17 00 10  0.0000000  0  7G16G18G21G25G27G29G31
  22919234.900   120441398.17908  22919231.500    93850438.52046
  23244183.360   122149055.89408  23244181.340    95181095.14246
  20908126.980   109873051.70009  20908123.460    85615394.48948
  23517923.480   123587663.92608  23517924.380    96302137.73546
  24038590.060   126323654.53608  24038591.040    98434009.22745
  22798394.320   119806721.15509  22798392.820    93355972.65547
  21924379.680   115213414.90809  21924377.040    89776680.98748
 15 02 17 00 10 30.0000000  0  7G16G18G21G25G27G29G31
  22902758.340   120354813.16708  22902754.880    93782969.68646
  23229954.860   122074285.19508  23229952.860    95122832.29246
  20910467.680   109885351.94108  20910464.120    85624979.09448
  23535011.320   123677460.94408  23535012.200    96372109.40946
  24025066.360   126252586.76108  24025067.120    98378631.79546
  22811183.940   119873930.94909  22811182.480    93408343.89847
  21937521.940   115282477.49909  21937519.340    89830495.96048
 15 02 17 00 11  0.0000000  0  7G16G18G21G25G27G29G31
  22886303.480   120268341.92408  22886300.040    93715589.50046
  23215752.820   121999652.87708  23215750.800    95064677.27946
  20912886.300   109898061.58508  20912882.740    85634882.71348
  23552141.720   123767481.62008  23552142.580    96442255.34946
  24011557.740   126181598.60208  24011558.520    98323316.38545
  22823981.680   119941183.73108  22823980.240    93460748.62947
  21950734.760   115351911.06609  21950732.240    89884600.00848
 15 02 17 00 11 30.0000000  0  7G16G18G21G25G27G29G31
  22869871.480   120181991.08109  22869868.080    93648303.14346
  23201578.580   121925166.21208  23201576.440    95006635.75946
  20915383.540   109911184.48408  20915380.000    85645108.35948
  23569315.360   123857729.75008  23569316.200    96512578.53646
  23998065.140   126110694.78108  23998065.920    98268066.69745
  22836788.740   120008484.82308  22836786.860    93513191.04247
  21964018.520   115421717.56709  21964016.100    89938994.66448
 15 02 17 00 12  0.0000000  0  7G16G18G21G25G27G29G31
  22853461.920   120095758.11109  22853458.680    93581108.64446
  23187431.700   121850823.38508  23187429.620    94948706.32146
  20917958.360   109924715.11708  20917954.840    85655651.71848
  23586531.280   123948199.67308  23586532.180    96583074.55446
  23984587.740   126039870.71008  23984588.480    98212879.15746
  22849604.080   120075828.77309  22849601.860    93565666.83547
  21977371.860   115491890.02909  21977369.580    89993674.47548
 15 02 17 00 12 30.0000000  0  7G16G18G21G25G27G29G31
  22837075.520   120009647.05609  22837072.300    93514009.12747
  23173313.100   121776629.91208  23173311.100    94890893.27446
  20920610.840   109938653.98608  20920607.360    85666513.18048
  23603789.540   124038892.44108  23603790.600    96653744.21146
  23971125.960   125969128.41308  23971126.680    98157755.33446
  22862427.780   120143217.59009  22862425.720    93618177.52447
  21990794.740   115562427.93109  21990792.580    90048639.05448
 15 02 17 00 13  0.0000000  0  7G16G18G21G25G27G29G31
  22820712.940   119923661.21709  22820709.820    93447007.18746
  23159223.460   121702588.87709  23159221.740    94833199.00046
  20923341.020   109953001.18908  20923337.560    85677692.82748
  23621090.140   124129807.77608  23621091.120    96724587.28446
  23957679.820   125898468.65208  23957680.520    98102695.82346
  22875260.060   120210651.59809  22875257.760    93670723.47747
  22004286.860   115633329.58409  22004284.780    90103887.07148
 15 02 17 00 13 30.0000000  0  7G16G18G21G25G27G29G31
  22804373.720   119837798.43409  22804370.740    93380101.15446
  23145162.740   121628699.33708  23145161.060    94775622.77846
  20926148.040   109967752.21808  20926144.540    85689187.14148
  23638432.200   124220941.02408  23638433.340    96795600.17846
  23944248.720   125827887.75008  23944249.260    98047697.76346
  22888100.280   120278127.46208  22888098.260    93723302.07347
  22017847.040   115704588.81909  22017844.980    90159413.72548
 15 02 17 00 14  0.0000000  0  7G16G18G21G25G27G29G31
  22788059.040   119752064.48008  22788056.080    93313295.47646
  23131132.080   121554967.77609  23131130.240    94718169.65046
  20929032.400   109982909.40609  20929028.780    85700997.93348
  23655816.200   124312294.51608  23655817.420    96866784.67846
  23930833.240   125757389.11908  23930833.840    97992763.80346
  22900948.960   120345648.23508  22900947.180    93775915.63647
  22031475.460   115776206.57109  22031473.400    90215219.74548
 15 02 17 00 14 30.0000000  0  7G16G18G21G25G27G29G31
  22771768.980   119666459.94108  22771766.160    93246590.66546
  23117131.760   121481395.46908  23117129.720    94660840.60746
  20931993.480   109998469.60108  20931989.720    85713122.76048
  23673241.640   124403865.57508  23673242.940    96938138.72346
  23917433.160   125686971.11008  23917433.820    97937892.66946
  22913805.720   120413212.12608  22913804.340    93828562.79747
  22045171.300   115848178.57509  22045169.220    90271301.80148
 15 02 17 00 15  0.0000000  0  7G16G18G21G25G27G29G31
  22755503.620   119580985.07109  22755500.760    93179986.87447
  23103161.760   121407982.96509  23103159.460    94603636.10345
  20935030.680   110014429.97909  20935026.840    85725559.41648
  23690707.880   124495651.49308  23690709.420    97009660.16446
  23904048.100   125616632.10108  23904048.800    97883083.10247
  22926670.580   120480817.34108  22926669.560    93881242.19147
  22058933.760   115920500.66709  22058931.620    90327656.64548
 15 02 17 00 15 30.0000000  0  7G16G18G21G25G27G29G31
  22739263.560   119495642.80909  22739260.680    93113486.42946
  23089222.980   121334733.86108  23089220.600    94546558.90246
  20938144.000   110030790.62009  20938140.160    85738307.97848
  23708215.140   124587651.98208  23708216.560    97081348.84546
  23890678.200   125546372.80708  23890678.960    97828335.64446
  22939543.460   120548464.54509  22939542.360    93933954.26647
  22072762.500   115993170.88909  22072760.280    90384282.77448
 15 02 17 00 16  0.0000000  0  7G16G18G21G25G27G29G31
  22723049.600   119410437.62409  22723046.640    93047092.79747
  23075316.260   121261653.88809  23075313.860    94489613.50946
  20941333.680   110047552.68308  20941329.860    85751369.32648
  23725763.480   124679868.48508  23725764.720    97153205.81146
  23877323.900   125476195.79408  23877324.620    97773652.31047
  22952424.720   120616156.17608  22952423.860    93986700.93548
  22086657.500   116066189.34909  22086655.140    90441180.24548
 15 02 17 00 16 30.0000000  0  7G16G18G21G25G27G29G31
  22706861.360   119325367.73609  22706858.240    92980804.58347
  23061441.500   121188741.72408  23061439.320    94432798.87746
  20944598.820   110064711.14609  20944595.000    85764739.56348
  23743351.980   124772295.86408  23743353.240    97225227.11746
  23863984.440   125406096.98508  23863985.120    97719029.88846
  22965313.740   120683887.94709  22965312.600    94039478.92347
  22100617.520   116139549.56809  22100615.040    90498344.02748
 15 02 17 00 17  0.0000000  0  7G16G18G21G25G27G29G31
  22690699.900   119240438.66209  22690696.740    92914626.09547
  23047599.780   121116003.07608  23047597.640    94376119.43346
  20947939.760   110082267.88108  20947935.940    85778420.13348
  23760980.960   124864936.22808  23760982.060    97297414.37646
  23850660.520   125336079.48808  23850661.180    97664470.84146
  22978210.960   120751662.96409  22978209.980    94092290.58147
  22114642.580   116213251.79509  22114640.020    90555774.31448
 15 02 17 00 17 30.0000000  0  7G16G18G21G25G27G29G31
  22674565.040   119155649.61509  22674561.860    92848556.72146
  23033791.120   121043438.33808  23033789.100    94319575.51446
  20951355.700   110100218.93208  20951351.920    85792407.97048
  23778649.860   124957785.88308  23778650.660    97369764.74946
  23837351.620   125266140.84708  23837352.340    97609973.23946
  22991115.920   120819478.65608  22991114.520    94145133.98847
  22128731.780   116287291.17309  22128729.160    90613467.30448
 15 02 17 00 18  0.0000000  0  7G16G18G21G25G27G29G31
  22658457.260   119071003.13109  22658454.120    92782598.43747
  23020016.080   120971050.46609  23020014.140    94263169.43246
  20954846.520   110118563.67008  20954842.800    85806702.57548
  23796358.400   125050843.94908  23796359.360    97442277.47846
  23824057.680   125196281.20408  23824058.440    97555537.18447
  23004028.680   120887335.15308  23004027.380    94198009.13547
  22142884.580   116361665.02709  22142882.000    90671420.92948
 15 02 17 00 18 30.0000000  0  7G16G18G21G25G27G29G31
  22642377.740   118986504.94809  22642374.700    92716755.72647
  23006275.960   120898845.85608  23006274.080    94206906.12846
  20958412.740   110137304.63408  20958409.080    85821305.93248
  23814106.940   125144113.06108  23814107.980    97514954.68046
  23810779.420   125126504.26208  23810780.280    97501165.60146
  23016949.940   120955235.97609  23016948.320    94250918.85547
  22157101.280   116436374.63409  22157098.760    90729636.18248
 15 02 17 00 19  0.0000000  0  7G16G18G21G25G27G29G31
  22626325.740   118902151.04209  22626322.740    92651025.43547
  22992570.040   120826821.16508  22992568.220    94150783.02445
  20962052.900   110156434.18008  20962049.320    85836212.07548
  23831894.260   125237585.75908  23831895.060    97587790.52846
  23797515.700   125056803.80508  23797516.660    97446853.60547
  23029878.360   121023174.60609  23029876.400    94303858.00447
  22171380.220   116511411.23109  22171377.780    90788106.23348
 15 02 17 00 19 30.0000000  0  7G16G18G21G25G27G29G31
  22610302.280   118817947.38109  22610299.200    92585412.20746
  22978899.660   120754982.80408  22978897.660    94094805.10246
  20965767.540   110175955.00808  20965763.980    85851423.10648
  23849720.740   125331264.75408  23849721.820    97660787.09446
  23784267.320   124987183.61108  23784268.340    97392604.15246
  23042814.780   121091155.07209  23042812.720    94356829.75547
  22185721.600   116586775.59409  22185719.180    90846831.67648
 15 02 17 00 20  0.0000000  0  7G16G18G21G25G27G29G31
  22594307.680   118733895.39609  22594304.560    92519917.17047
  22965265.180   120683332.97609  22965263.200    94038974.10346
  20969556.280   110195865.13408  20969552.680    85866937.49048
  23867586.120   125425148.18608  23867587.380    97733942.98446
  23771034.180   124917642.95608  23771035.160    97338416.66647
  23055758.860   121159176.61108  23055756.700    94409833.51347
  22200124.800   116662464.55809  22200122.400    90905810.06348
 15 02 17 00 20 30.0000000  0  7G16G18G21G25G27G29G31
  22578342.300   118649997.10409  22578339.180    92454541.89847
  22951667.040   120611874.15509  22951664.880    93983291.92646
  20973418.840   110216163.29408  20973415.260    85882754.23648
  23885490.060   125519234.96608  23885491.480    97807257.32646
  23757816.220   124848181.82908  23757817.040    97284291.15047
  23068710.840   121227239.02608  23068708.320    94462869.17547
  22214589.320   116738475.56409  22214586.900    90965039.39048
 15 02 17 00 21  0.0000000  0  7G16G18G21G25G27G29G31
  22562406.620   118566254.82409  22562403.340    92389288.19046
  22938105.820   120540609.28109  22938103.700    93927760.88446
  20977355.040   110236848.20209  20977351.440    85898872.35448
  23903432.380   125613523.66308  23903433.960    97880729.00546
  23744613.360   124778800.07208  23744614.040    97230227.48746
  23081670.560   121295342.01309  23081668.120    94515936.41347
  22229114.620   116814805.79009  22229112.140    91024517.47348
 15 02 17 00 21 30.0000000  0  7G16G18G21G25G27G29G31
  22546500.740   118482669.24509  22546497.300    92324156.58646
  22924581.800   120469539.56209  22924579.320    93872381.89846
  20981364.440   110257917.50409  20981360.780    85915289.98848
  23921412.920   125708012.03108  23921414.560    97954356.27246
  23731425.340   124709496.52208  23731425.940    97176224.77547
  23094637.600   121363484.27109  23094635.360    94569034.23347
  22243699.900   116891451.21009  22243697.340    91084241.15148
 15 02 17 00 22  0.0000000  0  7G16G18G21G25G27G29G31
  22530625.200   118399243.24408  22530621.820    92259149.32947
  22911095.480   120398668.30109  22911092.900    93817157.56846
  20985446.820   110279370.22808  20985443.100    85932006.39648
  23939431.320   125802699.20108  23939432.920    98028138.45246
  23718252.200   124640271.53008  23718252.820    97122283.27347
  23107611.960   121431666.18308  23107609.980    94622162.94947
  22258344.680   116968409.53309  22258342.060    91144208.65148
 15 02 17 00 22 30.0000000  0  8G16G18G21G22G25G27G29G31
  22514780.480   118315979.20908  22514777.220    92194268.28147
  22897647.540   120327998.86509  22897644.800    93762090.50846
  20989602.020   110301205.56208  20989598.280    85949020.94248
  24551071.340   129016755.38608  24551069.560   100532523.70745
  23957487.500   125897584.47408  23957488.940    98102074.97746
  23705094.080   124571125.51808  23705094.760    97068403.32247
  23120594.220   121499888.19608  23120592.380    94675322.95347
  22273048.540   117045678.67109  22273045.900    91204418.34448
 15 02 17 00 23  0.0000000  0  8G16G18G21G22G25G27G29G31
  22498964.500   118232865.99208  22498961.300    92129504.74747
  22884235.960   120257520.37908  22884233.080    93707172.21946
  20993827.160   110323408.56808  20993823.380    85966321.98648
  24533278.000   128923247.84207  24533275.780   100459660.93945
  23975578.640   125992653.22308  23975579.980    98176154.49346
  23691948.480   124502045.07408  23691949.120    97014574.47447
  23133581.360   121568136.99508  23133579.400    94728503.82547
  22287808.420   117123242.30909  22287805.760    91264857.51748
 15 02 17 00 23 30.0000000  0  8G16G18G21G22G25G27G29G31
  22483183.300   118149935.20509  22483180.260    92064883.38447
  22870866.780   120187264.96109  22870864.060    93652427.77246
  20998127.680   110346007.55908  20998123.840    85983931.59748
  24515470.860   128829671.06608  24515469.000   100386744.27345
  23993710.080   126087933.53808  23993711.260    98250398.85345
  23678820.840   124433059.48808  23678821.480    96960819.53147
  23146579.300   121636441.56708  23146577.300    94781728.13147
  22302629.400   117201127.25009  22302626.760    91325547.07448
 15 02 17 00 24  0.0000000  0  8G16G18G21G22G25G27G29G31
  22467433.920   118067171.07409  22467430.900    92000391.86547
  22857536.960   120117216.82008  22857534.540    93597844.82646
  21002499.800   110368982.83908  21002495.880    86001834.40348
  24497647.340   128736009.34708  24497645.840   100313761.33745
  24011878.080   126183405.92108  24011878.880    98324792.88845
  23665707.760   124364150.42108  23665708.480    96907124.19347
  23159584.420   121704783.64309  23159582.840    94834981.66347
  22317507.440   117279312.28509  22317504.900    91386470.43748
 15 02 17 00 24 30.0000000  0  8G16G18G21G22G25G27G29G31
  22451716.660   117984575.77409  22451713.580    91936031.90547
  22844247.180   120047379.67108  22844245.020    93543426.28346
  21006943.420   110392333.95508  21006939.440    86020030.07948
  24479808.340   128642266.03308  24479807.140   100240714.84745
  24030082.520   126279069.95308  24030083.160    98399336.25245
  23652609.460   124295318.76508  23652610.320    96853489.18847
  23172596.680   121773164.01409  23172594.820    94888265.02647
  22332442.240   117357795.54409  22332439.820    91447626.19248
 15 02 17 00 25  0.0000000  0  8G16G18G21G22G25G27G29G31
  22436031.680   117902150.06909  22436028.460    91871804.10247
  22830997.700   119977754.42409  22830995.560    93489172.88946
  21011457.860   110416057.39408  21011453.880    86038515.88548
  24461953.800   128548441.66808  24461952.820   100167605.21245
  24048322.740   126374922.61508  24048323.420    98474026.60346
  23639525.560   124226562.65408  23639526.520    96799913.04847
  23185616.120   121841580.81108  23185614.580    94941576.77547
  22347432.960   117436572.61909  22347430.640    91509010.89948
 15 02 17 00 25 30.0000000  0  8G16G18G21G22G25G27G29G31
  22420380.320   117819901.19209  22420377.060    91807714.07647
  22817790.060   119908348.81708  22817788.200    93435090.62146
  21016043.780   110440157.07408  21016039.900    86057294.85648
  24444085.460   128454544.17108  24444084.560   100094438.54645
  24066599.520   126470967.71808  24066600.300    98548866.92145
  23626457.020   124157887.10708  23626458.000    96746399.69147
  23198643.520   121910039.09008  23198641.720    94994920.89747
  22362480.060   117515645.71809  22362477.820    91570626.26748
 15 02 17 00 26  0.0000000  0  8G16G18G21G22G25G27G29G31
  22404762.500   117737828.67309  22404759.160    91743761.46847
  22804624.180   119839162.75108  22804622.540    93381179.42646
  21020700.600   110464629.35908  21020696.840    86076364.17148
  24426203.040   128360573.09108  24426202.140   100021214.55345
  24084912.020   126567201.15508  24084912.880    98623853.98146
  23613403.240   124089289.30608  23613404.180    96692946.91247
  23211678.300   121978535.87609  23211676.000    95048294.99847
  22377582.480   117595009.31109  22377580.240    91632467.98848
 15 02 17 00 26 30.0000000  0  8G16G18G21G22G25G27G29G31
  22389178.860   117655935.99209  22389175.500    91679949.00047
  22791500.900   119770199.84109  22791499.040    93327442.11646
  21025428.180   110489473.41108  21025424.480    86095723.17548
  24408307.440   128266532.04508  24408306.640    99947936.06045
  24103260.340   126663622.87308  24103261.400    98698987.73945
  23600364.400   124020770.45708  23600365.340    96639555.65047
  23224720.520   122047072.49809  23224718.240    95101700.09047
  22392739.920   117674661.77309  22392737.640    91694534.80948
 15 02 17 00 27  0.0000000  0  8G16G18G21G22G25G27G29G31
  22373629.440   117574223.13909  22373626.000    91616276.65547
  22778420.180   119701460.68509  22778418.320    93273879.16846
  21030225.880   110514685.84208  21030222.200    86115369.22748
  24390398.600   128172421.53108  24390397.820    99874603.37945
  24121643.800   126760229.50408  24121644.940    98774265.58345
  23587340.200   123952328.39408  23587341.140    96586224.22847
  23237769.740   122115646.48409  23237766.940    95155134.37847
  22407951.380   117754598.11409  22407949.060    91756822.84048
 15 02 17 00 27 30.0000000  0  8G16G18G21G22G25G27G29G31
  22358114.660   117492692.54309  22358111.340    91552746.33347
  22765382.840   119632948.54109  22765380.860    93220493.09646
  21035093.440   110540265.41308  21035089.800    86135301.35848
  24372477.020   128078244.09008  24372476.320    99801218.54544
  24140062.320   126857019.77608  24140063.280    98849686.54545
  23574330.700   123883963.13608  23574331.640    96532952.64547
  23250825.960   122184258.28708  23250823.680    95208598.05147
  22423216.380   117834815.75509  22423214.020    91819330.05648
 15 02 17 00 28  0.0000000  0  8G16G18G21G22G25G27G29G31
  22342634.900   117411345.84709  22342631.580    91489359.31547
  22752389.020   119564664.74909  22752386.860    93167284.96946
  21040030.500   110566210.05608  21040026.920    86155517.97148
  24354543.080   127984001.36408  24354542.240    99727782.83145
  24158515.480   126953991.57408  24158516.320    98925248.94545
  23561335.700   123815673.83508  23561336.640    96479740.25447
  23263889.260   122252906.86208  23263886.500    95262090.47047
  22438534.180   117915310.99309  22438531.820    91882053.58548
 15 02 17 00 28 30.0000000  0  8G16G18G21G22G25G27G29G31
  22327191.260   117330188.81609  22327188.000    91426120.07747
  22739439.840   119496616.11809  22739437.660    93114260.09046
  21045037.560   110592522.04509  21045034.000    86176020.81848
  24336598.100   127889700.13608  24336596.980    99654301.50045
  24177003.840   127051147.75508  24177004.520    99000955.02346
  23548355.980   123747464.68008  23548356.860    96426590.31447
  23276960.240   122321596.06109  23276957.600    95315614.48747
  22453905.040   117996085.14209  22453902.660    91944994.44448
 15 02 17 00 29  0.0000000  0  8G16G18G21G22G25G27G29G31
  22311783.580   117249220.36009  22311780.260    91363027.77547
  22726535.340   119428802.11009  22726533.040    93061418.02546
  21050113.740   110619196.94909  21050110.160    86196806.45148
  24318641.800   127795339.39208  24318640.500    99580773.78345
  24195526.460   127148483.67608  24195527.120    99076801.15345
  23535390.860   123679332.24408  23535391.720    96373500.15447
  23290038.500   122390322.88109  23290035.580    95369167.80246
  22469327.800   118077132.16109  22469325.400    92008147.92948
 15 02 17 00 29 30.0000000  0  8G16G18G21G22G25G27G29G31
  22296411.840   117168440.85109  22296408.500    91300082.72747
  22713675.500   119361223.05109  22713672.940    93008759.03847
  21055258.400   110646231.51309  21055254.760    86217872.35448
  24300674.260   127700919.66908  24300672.960    99507200.08145
  24214082.600   127245995.86008  24214083.200    99152784.63646
  23522439.880   123611274.31908  23522440.660    96320468.05147
  23303123.580   122459085.17209  23303120.320    95422748.78847
  22484801.540   118158447.13509  22484799.160    92071510.21948
 15 02 17 00 30  0.0000000  0  8G16G18G21G22G25G27G29G31
  22281077.620   117087858.36309  22281074.220    91237291.18147
  22700862.000   119293887.53309  22700859.460    92956289.83646
  21060472.240   110673629.71809  21060468.420    86239221.61248
  24282697.220   127606449.15508  24282695.720    99433586.78645
  24232672.980   127343688.51708  24232673.780    99228908.74746
  23509504.100   123543296.56008  23509504.800    96267498.41847
  23316216.580   122527888.56408  23316213.500    95476361.78146
  22500326.780   118240032.67509  22500324.320    92135083.33448
 15 02 17 00 30 30.0000000  0  8G16G18G21G22G25G27G29G31
  22265780.380   117007470.62209  22265777.000    91174651.40147
  22688094.420   119226793.72009  22688091.800    92904008.97446
  21065754.100   110701385.94809  21065750.120    86260849.85048
  24264710.140   127511926.23608  24264708.460    99359932.70445
  24251296.540   127441556.36808  24251297.560    99305169.36045
  23496582.820   123475394.87808  23496583.320    96214588.07847
  23329316.620   122596728.67709  23329313.340    95530003.43647
  22515902.240   118321881.96009  22515899.720    92198861.96348
 15 02 17 00 31  0.0000000  0  8G16G18G21G22G25G27G29G31
  22250520.800   116927280.99009  22250517.440    91112165.97247
  22675373.580   119159945.29409  22675370.900    92851919.28946
  21071103.940   110729499.59709  21071099.860    86282756.58948
  24246713.720   127417354.48408  24246712.180    99286240.56546
  24269953.400   127539598.84808  24269954.440    99381566.08146
  23483676.220   123407570.12908  23483676.520    96161737.66347
  23342423.840   122665606.66309  23342420.920    95583674.56147
  22531527.520   118403993.03409  22531524.940    92262844.57848
 15 02 17 00 31 30.0000000  0  8G16G18G21G22G25G27G29G31
  22235299.260   116847291.45509  22235295.920    91049836.47847
  22662699.740   119093344.21509  22662697.180    92800022.38746
  21076521.420   110757968.78109  21076517.340    86304940.37148
  24228708.420   127322736.14908  24228706.940    99212512.17046
  24288643.200   127637814.48108  24288644.360    99458097.68146
  23470784.280   123339822.13808  23470784.440    96108947.07447
  23355538.020   122734522.02109  23355535.660    95637374.80347
  22547202.080   118486362.98309  22547199.400    92327028.91648
 15 02 17 00 32  0.0000000  0  8G16G18G21G22G25G27G29G31
  22220117.060   116767509.17509  22220113.840    90987668.48847
  22650074.580   119026998.62809  22650071.900    92748324.53746
  21082007.160   110786796.96509  21082003.180    86327403.89748
  24210695.600   127228078.35408  24210694.180    99138753.01146
  24307366.540   127736206.57008  24307368.000    99534766.78245
  23457907.760   123272155.50608  23457907.940    96056219.89047
  23368659.920   122803479.74208  23368658.060    95691108.06547
  22562926.240   118568993.43409  22562923.500    92391416.25048
 15 02 17 00 32 30.0000000  0  8G16G18G21G22G25G27G29G31
  22204973.160   116687928.32409  22204970.020    90925657.44947
  22637496.940   118960903.15409  22637494.440    92696821.60146
  21087559.360   110815974.58208  21087555.580    86350139.70348
  24192674.320   127133376.26408  24192672.640    99064959.35545
  24326121.780   127834765.89008  24326123.280    99611566.21946
  23445045.140   123204562.40508  23445045.460    96003549.98247
  23381788.580   122872471.72608  23381786.860    95744868.09047
  22578698.000   118651873.85109  22578695.180    92455998.35247
 15 02 17 00 33  0.0000000  0  8G16G18G21G22G25G27G29G31
  22189868.720   116608554.96509  22189865.580    90863808.09147
  22624968.080   118895063.70509  22624965.600    92645518.15546
  21093178.500   110845504.04509  21093174.940    86373149.67648
  24174645.840   127038636.09308  24174643.820    98991136.00945
  24344909.360   127933494.84008  24344910.760    99688497.81845
  23432197.200   123137046.59408  23432197.680    95950940.31547
  23394924.360   122941501.64309  23394923.020    95798657.58747
  22594517.440   118735004.97009  22594514.520    92520775.80947
 15 02 17 00 33 30.0000000  0  8G16G18G21G22G25G27G29G31
  22174803.800   116529388.94309  22174800.580    90802120.30347
  22612487.820   118829479.78009  22612485.400    92594413.81447
  21098863.960   110875381.65509  21098860.420    86396430.93248
  24156610.040   126943857.68708  24156607.720    98917282.87045
  24363728.640   128032389.52308  24363729.800    99765558.58345
  23419363.480   123069605.50808  23419364.060    95898388.88247
  23408066.980   123010567.28908  23408065.820    95852474.94746
  22610383.560   118818381.46009  22610380.560    92585744.47047
 15 02 17 00 34  0.0000000  0  8G16G18G21G22G25G27G29G31
  22159778.980   116450433.62309  22159775.800    90740596.69447
  22600057.080   118764156.26009  22600054.880    92543512.40546
  21104615.600   110905606.68809  21104612.000    86419982.91048
  24138567.680   126849044.50308  24138565.100    98843402.60845
  24382579.420   128131449.39808  24382580.220    99842748.04545
  23406544.180   123002240.01808  23406544.820    95845896.35447
  23421216.840   123079669.84209  23421215.780    95906321.09347
  22626295.940   118902001.40509  22626292.940    92650902.84047
 15 02 17 00 34 30.0000000  0  8G16G18G21G22G25G27G29G31
  22144795.660   116371696.10209  22144792.480    90679242.79047
  22587677.220   118699100.12209  22587675.080    92492819.33546
  21110434.080   110936182.77809  21110430.380    86443808.43648
  24120520.000   126754204.25908  24120517.300    98769501.27245
  24401462.420   128230678.20508  24401462.880    99920069.15045
  23393740.300   122934955.27508  23393740.820    95793466.74547
  23434374.500   123148814.04309  23434373.180    95960199.65546
  22642255.040   118985867.21309  22642252.100    92716252.78747
 15 02 17 00 35  0.0000000  0  8G16G18G21G22G25G27G29G31
  22129852.540   116293169.46609  22129849.260    90618053.21447
  22575347.140   118634304.81409  22575345.120    92442329.50147
  21116317.260   110967099.06608  21116313.520    86467899.06348
  24102465.980   126659330.52408  24102463.040    98695573.83646
  24420375.540   128330065.39508  24420375.740    99997513.67746
  23380950.000   122867742.03108  23380950.340    95741092.85047
  23447538.460   123217990.65208  23447537.380    96014103.47147
  22658258.600   119069966.66909  22658255.720    92781784.80047
 15 02 17 00 35 30.0000000  0  8G16G18G21G22G25G27G29G31
  22114951.300   116214863.17309  22114948.000    90557035.33447
  22563068.480   118569779.72409  22563066.320    92392050.22247
  21122266.160   110998360.75709  21122262.460    86492258.81848
  24084407.360   126564432.88308  24084404.360    98621627.72946
  24439319.780   128429616.70308  24439319.680   100075086.07645
  23368174.620   122800607.49208  23368174.920    95688780.27647
  23460710.060   123287206.69208  23460708.580    96068038.06246
  22674307.360   119154303.98709  22674304.620    92847502.15848
 15 02 17 00 36  0.0000000  0  8G16G18G21G22G25G27G29G31
  22100092.100   116136777.88109  22100088.820    90496189.66647
  22550841.520   118505526.20809  22550839.240    92341982.57246
  21128280.220   111029965.00009  21128276.600    86516885.50748
  24066344.460   126469512.26508  24066341.480    98547663.74246
  24458294.440   128529328.98308  24458294.420   100152783.89145
  23355413.900   122733549.90208  23355414.240    95636527.65847
  23473888.780   123356460.91009  23473887.160    96122002.35747
  22690400.520   119238874.71009  22690397.940    92913401.39247
 15 02 17 00 36 30.0000000  0  8G16G18G21G22G25G27G29G31
  22085275.960   116058918.77909  22085272.700    90435520.25247
  22538667.160   118441549.56209  22538664.680    92292130.65846
  21134359.820   111061913.53209  21134356.220    86541780.46548
  24048278.220   126374573.94108  24048275.040    98473685.96045
  24477299.820   128629203.58608  24477300.260   100230608.19746
  23342668.440   122666572.08208  23342668.780    95584337.19347
  23487075.040   123425756.04908  23487073.700    96175998.51647
  22706538.080   119323678.68109  22706535.680    92979482.36547
 15 02 17 00 37  0.0000000  0  8G16G18G21G22G25G27G29G31
  22070501.900   115981280.86209  22070498.740    90375023.19447
  22526544.520   118377844.63709  22526541.880    92242490.45847
  21140503.140   111094196.81508  21140499.500    86566936.26448
  24030207.600   126279613.41108  24030204.660    98399690.86545
  24496334.260   128729231.68807  24496334.880   100308552.16146
  23329936.700   122599666.61808  23329937.120    95532203.10447
  23500267.880   123495084.43708  23500266.200    96230020.63746
  22722718.160   119408705.65709  22722715.900    93045737.11547
 15 02 17 00 37 30.0000000  0  8G16G18G21G22G25G27G29G31
  22055771.880   115903874.11809  22055768.740    90314706.27447
  22514475.520   118314421.87709  22514472.860    92193070.15447
  21146711.360   111126821.23408  21146707.720    86592357.89548
  24012134.780   126184641.14608  24012132.000    98325686.67545
  24515398.900   128829419.89307  24515399.860   100386620.79645
  23317220.200   122532841.47108  23317220.680    95480131.61547
  23513468.420   123564454.39708  23513466.800    96284075.14946
  22738941.660   119493960.57209  22738939.440    93112169.47948
 15 02 17 00 38  0.0000000  0  8G16G18G21G22G25G27G29G31
  22041085.640   115826696.87009  22041082.460    90254568.16047
  22502459.960   118251279.75109  22502457.240    92143868.51447
  21152983.420   111159781.23108  21152979.820    86618041.01048
  23994059.420   126089655.64508  23994056.700    98251672.18245
  24534493.000   128929762.45508  24534494.480   100464809.73545
  23304518.160   122466092.45208  23304518.700    95428119.44646
  23526675.840   123633861.59908  23526674.800    96338158.59346
  22755207.240   119579436.45709  22755205.060    93178774.01447
 15 02 17 00 38 30.0000000  0  8G16G18G21G22G25G27G29G31
  22026443.080   115749748.81509  22026439.700    90194608.65348
  22490497.800   118188418.41309  22490495.240    92094885.67547
  21159318.560   111193072.95808  21159315.060    86643982.62248
  23975981.500   125994656.98208  23975978.900    98177647.45345
  24553615.740   129030255.53607  24553617.560   100543116.00545
  23291830.200   122399417.10908  23291830.720    95376164.68647
  23539890.060   123703303.78708  23539889.440    96392269.41447
  22771513.900   119665127.87909  22771511.660    93245546.49947
 15 02 17 00 39  0.0000000  0  8G16G18G21G22G25G27G29G31
  22011845.180   115673035.25009  22011841.660    90134831.85248
  22478590.120   118125843.46309  22478587.740    92046125.99947
  21165717.160   111226697.70009  21165713.680    86670183.72148
  23957902.200   125899650.62008  23957899.700    98103616.72045
  24572767.520   129130900.71107  24572769.760   100621540.70845
  23279156.880   122332818.50508  23279157.280    95324269.72747
  23553111.780   123772783.98508  23553111.320    96446409.80747
  22787861.660   119751035.18409  22787859.360    93312487.22147
 15 02 17 00 39 30.0000000  0  8G16G18G21G22G25G27G29G31
  21997292.140   115596557.65209  21997288.480    90075238.92448
  22466737.180   118063556.48909  22466735.000    91997590.71547
  21172178.720   111260652.93309  21172175.200    86696642.34448
  23939821.860   125804638.57808  23939819.280    98029581.53945
  24591947.960   129231695.57007  24591950.340   100700082.06745
  23266498.040   122266295.72008  23266498.320    95272433.82547
  23566340.440   123842301.48608  23566339.980    96500579.26147
  22804249.740   119837154.36309  22804247.360    93379593.04147
 15 02 17 00 40  0.0000000  0  8G16G18G21G22G25G27G29G31
  21982784.280   115520317.90509  21982780.600    90015831.33748
  22454939.460   118001559.39709  22454937.360    91949281.31247
  21178702.760   111294936.52109  21178699.160    86723356.82948
  23921740.780   125709622.60708  23921738.180    97955543.32946
  24611156.740   129332637.97007  24611158.900   100778738.40145
  23253853.460   122199848.07508  23253853.780    95220656.48747
  23579576.100   123911855.32508  23579575.560    96554777.02747
  22820677.360   119923481.70309  22820674.920    93446861.04647
 15 02 17 00 40 30.0000000  0  8G16G18G21G22G25G27G29G31
  21968321.880   115444317.55109  21968318.220    89956610.29148
  22443197.220   117939853.67209  22443195.240    91901198.95247
  21185288.760   111329546.23208  21185285.140    86750325.43948
  23903659.440   125614604.98908  23903656.840    97881503.83845
  24630393.400   129433725.95508  24630395.080   100857508.19845
  23241223.020   122133475.12908  23241223.440    95168937.34547
  23592818.760   123981445.05608  23592817.960    96609002.81647
  22837143.960   120010014.08909  22837141.520    93514288.83247
 15 02 17 00 41  0.0000000  0  8G16G18G21G22G25G27G29G31
  21953905.880   115368561.82909  21953902.400    89897579.87047
  22431511.560   117878445.02209  22431509.640    91853348.07047
  21191937.040   111364483.39709  21191933.400    86777549.20648
  23885578.840   125519591.37808  23885576.280    97807467.46946
  24649658.120   129534961.16008  24649659.720   100936392.65945
  23228607.340   122067179.93308  23228607.800    95117278.78746
  23606068.900   124051074.34108  23606068.360    96663259.33747
  22853649.540   120096751.37909  22853647.120    93581876.28847
 15 02 17 00 41 30.0000000  0  8G16G18G21G22G25G27G29G31
  21939535.840   115293047.66309  21939532.560    89838737.66748
  22419881.760   117817329.76409  22419879.820    91805725.80947
  21198646.320   111399741.19109  21198642.640    86805022.81148
  23867498.440   125424578.78408  23867495.820    97733431.88846
  24668949.520   129636336.23408  24668950.800   101015386.12845
  23216005.480   122000956.71708  23216005.840    95065676.32847
  23619325.400   124120737.05708  23619324.780    96717541.96647
  22870192.420   120183684.98909  22870190.040    93649616.71348
 15 02 17 00 42  0.0000000  0  8G16G18G21G22G25G27G29G31
  21925213.220   115217782.51509  21925210.060    89780089.50048
  22408309.360   117756516.14709  22408307.400    91758338.58847
  21205417.280   111435322.95209  21205413.520    86832748.85948
  23849419.680   125329574.93708  23849417.020    97659403.11746
  24688268.280   129737854.83507  24688269.320   101094491.43345
  23203418.440   121934810.70008  23203418.600    95014134.01047
  23632589.440   124190438.45709  23632588.740    96771854.69147
  22886773.140   120270817.37409  22886770.780    93717512.02047
 15 02 17 00 42 30.0000000  0  8G16G18G21G22G25G27G29G31
  21910938.480   115142768.64709  21910935.360    89721637.14948
  22396794.920   117696006.88609  22396793.020    91711188.53347
  21212249.540   111471226.72109  21212245.700    86860725.82148
  23831343.120   125234582.24408  23831340.440    97585383.04746
  24707614.080   129839515.61408  24707614.760   101173707.50845
  23190846.080   121868741.96108  23190846.120    94962651.92347
  23645860.580   124260178.48808  23645859.860    96826197.56746
  22903391.080   120358145.12009  22903388.720    93785559.56547
 15 02 17 00 43  0.0000000  0  8G16G18G21G22G25G27G29G31
  21896711.840   115068007.15709  21896708.680    89663381.45548
  22385338.560   117635802.56409  22385336.520    91664276.09947
  21219142.620   111507449.86409  21219138.780    86888951.65148
  23813269.080   125139602.50708  23813266.200    97511373.06346
  24726986.400   129941315.78508  24726986.680   101253032.24945
  23178288.100   121802749.28008  23178288.120    94911229.11147
  23659139.080   124329956.73809  23659138.300    96880570.20547
  22920045.600   120445664.81309  22920043.180    93853756.69247
 15 02 17 00 43 30.0000000  0  8G16G18G21G22G25G27G29G31
  21882533.780   114993500.92509  21882530.600    89605324.64548
  22373940.840   117575906.78409  22373938.900    91617604.08947
  21226096.340   111543991.72309  21226092.520    86917425.82948
  23795198.120   125044638.65308  23795194.940    97437375.43146
  24746385.020   130043254.35008  24746385.020   101332464.78945
  23165744.520   121736833.24008  23165744.740    94859865.99347
  23672424.960   124399773.16808  23672423.760    96934972.60446
  22936736.100   120533373.57309  22936733.640    93922101.13347
 15 02 17 00 44  0.0000000  0  8G16G18G21G22G25G27G29G31
  21868404.420   114919250.75309  21868401.220    89547467.37248
  22362601.820   117516319.69209  22362599.900    91571172.59947
  21233110.020   111580848.63909  21233106.200    86946145.50048
  23777130.320   124949691.87308  23777127.060    97363391.12646
  24765809.300   130145328.20908  24765808.720   101412002.76344
  23153215.200   121670992.21208  23153215.680    94808561.34747
  23685717.600   124469626.39708  23685716.140    96989403.65747
  22953461.740   120621266.79809  22953459.200    93990589.31547
 15 02 17 00 44 30.0000000  0  8G16G18G21G22G25G27G29G31
  21854324.200   114845258.87609  21854321.060    89489811.36648
  22351321.900   117457043.58309  22351319.900    91524983.44647
  21240183.320   111618019.13409  21240179.560    86975109.52448
  23759066.300   124854764.75209  23759062.700    97289422.10646
  24785258.960   130247535.64308  24785258.360   101491644.81345
  23140700.200   121605226.11608  23140700.800    94757315.08347
  23699017.440   124539516.36408  23699015.580    97043863.36747
  22970221.980   120709341.98009  22970219.380    94059219.30547
 15 02 17 00 45  0.0000000  0  8G16G18G21G22G25G27G29G31
  21840293.960   114771529.86709  21840290.940    89432360.20048
  22340102.160   117398083.39609  22340099.980    91479040.46047
  21247316.340   111655503.55709  21247312.620    87004318.17148
  23741006.820   124759862.25608  23741003.180    97215472.26746
  24804734.060   130349877.47008  24804733.420   101571391.56345
  23128200.020   121539537.29708  23128200.580    94706129.03447
  23712324.420   124609445.30308  23712322.620    97098353.40046
  22987016.600   120797598.13109  22987014.080    94127990.31347
 15 02 17 00 45 30.0000000  0  7G16G18G21G22G27G29G31
  21826315.200   114698071.65409  21826312.360    89375120.04348
  22328944.080   117339447.40609  22328941.800    91433350.10047
  21254509.860   111693306.10709  21254506.160    87033774.70848
  23722953.480   124664992.47508  23722949.840    97141547.94346
  23115715.680   121473931.46408  23115716.140    94655007.66547
  23725639.940   124679419.25308  23725637.620    97152878.54446
  23003846.120   120886037.88709  23003843.700    94196904.36947
 15 02 17 00 46  0.0000000  0  7G16G18G21G22G27G29G31
  21812385.740   114624872.30009  21812383.000    89318081.59548
  22317845.380   117281123.48609  22317842.900    91387902.91247
  21261760.900   111731410.84409  21261757.340    87063466.70748
  23704904.120   124570144.22408  23704900.600    97067640.37746
  23103244.360   121408394.34508  23103244.740    94603939.82347
  23738961.220   124749423.74808  23738959.060    97207427.49746
  23020707.300   120974644.05709  23020704.960    94265948.08947
 15 02 17 00 46 30.0000000  0  7G16G18G21G22G27G29G31
  21798508.140   114551945.20109  21798505.480    89261255.29948
  22306808.680   117223125.04909  22306805.960    91342709.33747
  21269071.240   111769827.01109  21269067.760    87093401.38948
  23686861.320   124475330.82208  23686858.000    96993759.97246
  23090788.240   121342936.98008  23090788.520    94552934.12547
  23752290.340   124819470.02908  23752288.520    97262008.99246
  23037601.620   121063424.61709  23037599.460    94335127.70247
 15 02 17 00 47  0.0000000  0  7G16G18G21G22G27G29G31
  21784681.860   114479287.26509  21784679.120    89204638.72948
  22295833.220   117165448.65209  22295830.380    91297766.71247
  21276439.520   111808547.67609  21276436.060    87123573.33548
  23668824.680   124380549.82308  23668821.740    96919904.80146
  23078346.320   121277554.01208  23078346.580    94501986.39747
  23765626.340   124889552.83408  23765624.960    97316618.95246
  23054527.620   121152371.42909  23054525.600    94404436.86147
 15 02 17 00 47 30.0000000  0  7G16G18G21G22G27G29G31
  21770906.940   114406899.03809  21770904.140    89148232.31948
  22284919.120   117108094.91109  22284916.120    91253075.49647
  21283865.060   111847569.04709  21283861.540    87153979.60048
  23650794.300   124285801.57008  23650791.600    96846075.12046
  23065918.220   121212243.52008  23065918.460    94451095.14147
  23778969.220   124959670.01908  23778967.740    97371255.72546
  23071484.320   121241479.48909  23071482.420    94473871.67247
 15 02 17 00 48  0.0000000  0  7G16G18G21G22G27G29G31
  21757185.740   114334792.92109  21757182.860    89092045.74848
  22274068.740   117051076.50409  22274065.840    91208645.60847
  21291349.460   111886899.84009  21291345.860    87184626.97948
  23632772.580   124191098.77108  23632770.060    96772280.88546
  23053505.800   121147015.69708  23053505.980    94400268.31547
  23792320.340   125029832.34608  23792319.240    97425927.61746
  23088473.120   121330756.13909  23088471.320    94543437.84547
 15 02 17 00 48 30.0000000  0  7G16G18G21G22G27G29G31
  21743516.040   114262957.64709  21743513.120    89036070.21848
  22263280.120   116994382.07309  22263277.200    91164468.14547
  21298889.860   111926524.85109  21298886.160    87215503.61048
  23614757.660   124096431.22508  23614755.160    96698514.10346
  23041106.500   121081857.15108  23041106.700    94349495.45947
  23805677.820   125100026.05908  23805676.660    97480624.01946
  23105490.880   121420184.80609  23105489.120    94613122.47547
 15 02 17 00 49  0.0000000  0  7G16G18G21G22G27G29G31
  21729900.140   114191405.00509  21729897.140    88980314.91548
  22252555.500   116938023.44409  22252552.520    91120552.34347
  21306487.680   111966451.59109  21306483.900    87246615.34748
  23596751.860   124001810.89008  23596749.280    96624784.11246
  23028722.140   121016777.27608  23028722.380    94298783.90747
  23819043.000   125170260.18108  23819041.520    97535351.86746
  23122538.820   121509771.88609  23122537.020    94682930.53247
 15 02 17 00 49 30.0000000  0  7G16G18G21G22G27G29G31
  21716337.580   114120132.77009  21716334.520    88924778.12048
  22241894.380   116881998.03209  22241891.340    91076896.20047
  21314141.740   112006673.76409  21314137.860    87277957.31048
  23578754.740   123907235.37608  23578752.120    96551089.03246
  23016351.860   120951771.28608  23016352.120    94248129.93847
  23832415.180   125240530.67308  23832413.380    97590108.12446
  23139615.460   121599509.60909  23139613.560    94752855.99047
 15 02 17 00 50  0.0000000  0  7G16G18G21G22G27G29G31
  21702829.680   114049148.28909  21702826.600    88869465.54448
  22231298.060   116826313.00109  22231294.900    91033505.27747
  21321852.680   112047194.94309  21321848.760    87309532.24748
  23560767.820   123812712.96608  23560764.880    96477435.33447
  23003996.740   120886844.65008  23003996.880    94197537.79347
  23845795.220   125310843.14208  23845793.720    97644897.01846
  23156721.200   121689400.38309  23156719.240    94822900.67847
 15 02 17 00 50 30.0000000  0  7G16G18G21G22G27G29G31
  21689375.680   113978447.19209  21689372.560    88814373.79848
  22220765.780   116770964.46109  22220762.480    90990376.56747
  21329618.840   112088006.60009  21329614.920    87341333.53848
  23542790.200   123718239.20308  23542787.080    96403819.54946
  22991655.460   120821990.52909  22991655.460    94147002.16147
  23859181.880   125381190.55008  23859180.800    97699713.14246
  23173854.140   121779434.38309  23173852.120    94893056.99647
 15 02 17 00 51  0.0000000  0  7G16G18G21G22G27G29G31
  21675977.300   113908038.57709  21675974.140    88759509.94448
  22210299.220   116715961.74909  22210295.780    90947517.33047
  21337441.320   112129114.15109  21337437.440    87373365.40048
  23524823.680   123623823.92708  23524820.400    96330249.31747
  22979329.340   120757216.00008  22979329.280    94096528.52947
  23872576.560   125451579.91008  23872575.380    97754561.99546
  23191015.100   121869615.75209  23191013.080    94963328.15447
 15 02 17 00 51 30.0000000  0  7G16G18G21G22G27G29G31
  21662633.620   113837917.57709  21662630.440    88704870.21948
  22199897.180   116661298.53709  22199893.740    90904922.63547
