     2.11           OBSERVATION DATA    G                   RINEX VERSION / TYPE
SPIDER V4,0,0,3554                      2015 03 31 00:58    PGM / RUN BY / DATE 
EADB                                                        MARKER NAME         
EADB                                                        MARKER NUMBER       
                                                            OBSERVER / AGENCY   
462408              LEICA GRX1200PRO    3.00/2.127          REC # / TYPE / VERS 
103310              LEIAT504                                ANT # / TYPE        
  5238464.6656   142765.3090  3625629.6523                  APPROX POSITION XYZ 
        0.0770        0.0000        0.0000                  ANTENNA: DELTA H/E/N
     1     1                                                WAVELENGTH FACT L1/2
     4    C1    L1    P2    L2                              # / TYPES OF OBSERV 
    30.000                                                  INTERVAL            
  2015    02    17    00    00    0.0000000     GPS         TIME OF FIRST OBS   
  2015    02    17    23    59   30.0000000     GPS         TIME OF LAST OBS    
    16                                                      LEAP SECONDS        
    30                                                      # OF SATELLITES     
   G 1   835   835   835   835                              PRN / # OF OBS      
   G 2   926   926   926   926                              PRN / # OF OBS      
   G 3   841   841   841   841                              PRN / # OF OBS      
   G 4   850   850   850   850                              PRN / # OF OBS      
   G 5   674   674   674   674                              PRN / # OF OBS      
   G 6   724   724   724   724                              PRN / # OF OBS      
   G 7   663   663   663   663                              PRN / # OF OBS      
   G 9   788   788   788   788                              PRN / # OF OBS      
   G10   785   785   785   785                              PRN / # OF OBS      
   G11   800   800   800   800                              PRN / # OF OBS      
   G12   818   818   817   817                              PRN / # OF OBS      
   G13   823   823   823   823                              PRN / # OF OBS      
   G14   931   931   931   931                              PRN / # OF OBS      
   G15   732   732   732   732                              PRN / # OF OBS      
   G16   691   691   691   691                              PRN / # OF OBS      
   G17   928   928   928   928                              PRN / # OF OBS      
   G18   938   938   938   938                              PRN / # OF OBS      
   G19   779   779   779   779                              PRN / # OF OBS      
   G20   820   820   820   820                              PRN / # OF OBS      
   G21   708   708   708   708                              PRN / # OF OBS      
   G22   779   779   779   779                              PRN / # OF OBS      
   G23   732   732   732   732                              PRN / # OF OBS      
   G24   843   843   843   843                              PRN / # OF OBS      
   G25   859   859   859   859                              PRN / # OF OBS      
   G27   832   832   832   832                              PRN / # OF OBS      
   G28   909   909   909   909                              PRN / # OF OBS      
   G29   743   743   742   742                              PRN / # OF OBS      
   G30   695   695   695   695                              PRN / # OF OBS      
   G31   783   783   783   783                              PRN / # OF OBS      
   G32   745   745   745   745                              PRN / # OF OBS      
BIT 2 OF LLI FLAGS DATA COLLECTED UNDER A/S CONDITION       COMMENT             
SNR is mapped to RINEX snr flag value [2-9]                 COMMENT             
Lx:     = 25dBHz -> 1; 26-27dBHz -> 2; 28-31dBHz -> 3       COMMENT             
       32-35dBHz -> 4; 36-38dBHz -> 5; 39-41dBHz -> 6       COMMENT             
       42-44dBHz -> 7; 45-48dBHz -> 8; >=49dBHz -> 9        COMMENT             
                                                            END OF HEADER       
 15 02 17 00 00  0.0000000  0  7G16G18G21G25G27G29G31
  22877539.443   120222287.98608  22877538.237    93679691.64146
  23859246.160   125381220.66907  23859246.735    97699664.17344
  20978128.583   110240816.79709  20978126.878    85901932.67749
  23631014.599   124181808.00107  23631017.630    96765050.70346
  23787322.898   125003238.22107  23787325.721    97405135.11146
  22927258.878   120483550.44408  22927258.650    93883281.60647
  21466943.237   112809538.70609  21466942.373    87903528.10248
 15 02 17 00 00 30.0000000  0  7G16G18G21G25G27G29G31
  22861827.620   120139721.76808  22861826.434    93615354.34146
  23845300.379   125307933.31507  23845300.812    97642557.29545
  20979256.833   110246745.60509  20979255.132    85906552.53249
  23647141.200   124266555.58007  23647144.688    96831087.71946
  23773715.826   124931733.41407  23773718.694    97349417.14346
  22941287.884   120557273.58808  22941287.879    93940728.17247
  21478910.128   112872424.64309  21478909.254    87952530.10448
 15 02 17 00 01  0.0000000  0  7G16G18G21G25G27G29G31
  22846132.553   120057243.82208  22846131.238    93551085.82346
  23831365.490   125234704.07106  23831365.532    97585495.65345
  20980470.919   110253125.57909  20980469.081    85911523.95049
  23663308.298   124351514.84907  23663311.627    96897289.72345
  23760133.280   124860356.53307  23760135.923    97293798.84145
  22955322.598   120631026.09908  22955322.301    93998197.63247
  21490959.116   112935742.44009  21490958.092    88001868.61448
 15 02 17 00 01 30.0000000  0  7G16G18G21G25G27G29G31
  22830454.956   119974857.80808  22830453.714    93486888.95346
  23817441.998   125161537.90907  23817442.568    97528483.19444
  20981771.048   110259957.83209  20981769.232    85916847.79049
  23679516.470   124436687.05407  23679519.372    96963657.66646
  23746575.278   124789109.46807  23746577.921    97238281.68646
  22969363.188   120704809.33508  22969362.779    94055691.04047
  21503090.163   112999491.86409  21503089.318    88051543.45648
 15 02 17 00 02  0.0000000  0  7G16G18G21G25G27G29G31
  22814794.807   119892562.07408  22814793.552    93422762.42746
  23803530.605   125088434.76206  23803530.839    97471519.76744
  20983156.573   110267238.09809  20983154.600    85922520.73249
  23695764.093   124522068.32407  23695766.726    97030188.52246
  23733041.566   124717989.01907  23733044.309    97182863.21046
  22983408.855   120778619.41208  22983408.226    94113205.36247
  21515302.483   113063667.26109  21515301.559    88101550.22848
 15 02 17 00 02 30.0000000  0  7G16G18G21G25G27G29G31
  22799152.061   119810359.54708  22799150.937    93358708.53146
  23789632.257   125015398.32507  23789632.494    97414608.36944
  20984627.537   110274968.06209  20984625.718    85928544.08949
  23712051.408   124607659.40307  23712054.300    97096882.81946
  23719532.128   124646996.63007  23719534.767    97127544.51946
  22997459.772   120852457.53708  22997459.268    94170741.52947
  21527595.526   113128267.94909  21527594.600    88151888.39648
 15 02 17 00 03  0.0000000  0  7G16G18G21G25G27G29G31
  22783527.613   119728252.26808  22783526.308    93294728.85046
  23775747.246   124942431.34907  23775747.705    97357751.10344
  20986183.514   110283145.87009  20986181.821    85934916.41349
  23728378.511   124693459.72007  23728382.116    97163740.15446
  23706047.127   124576132.44307  23706049.668    97072325.73146
  23011515.820   120926322.97708  23011515.463    94228298.98547
  21539969.391   113193292.17109  21539968.322    88202556.59148
 15 02 17 00 03 30.0000000  0  7G16G18G21G25G27G29G31
  22767920.871   119646238.44408  22767919.486    93230821.99346
  23761875.361   124869533.38207  23761875.683    97300947.58845
  20987824.171   110291767.92809  20987822.431    85941634.90749
  23744745.167   124779465.04607  23744748.341    97230757.26445
  23692585.654   124505392.95307  23692588.408    97017204.09046
  23025576.390   121000211.92808  23025576.268    94285874.75546
  21552422.545   113258734.12509  21552421.640    88253550.28748
 15 02 17 00 04  0.0000000  0  7G16G18G21G25G27G29G31
  22752333.313   119564325.05108  22752331.997    93166993.39246
  23748017.699   124796712.31807  23748018.367    97244204.03745
  20989550.234   110300838.76009  20989548.731    85948703.09849
  23761151.266   124865679.86307  23761154.382    97297937.60445
  23679149.122   124434783.28207  23679151.791    96962183.60745
  23039642.529   121074129.07808  23039642.335    94343472.50947
  21564955.700   113324596.42709  21564954.834    88304871.52648
 15 02 17 00 04 30.0000000  0  7G16G18G21G25G27G29G31
  22736764.625   119482511.45008  22736763.353    93103242.55746
  23734174.817   124723968.79207  23734175.318    97187520.88044
  20991361.212   110310355.38909  20991359.557    85956118.66149
  23777596.845   124952101.49607  23777599.656    97365279.12845
  23665736.881   124364301.60407  23665739.392    96907262.86146
  23053713.283   121148071.76708  23053713.140    94401090.16747
  21577568.182   113390875.15409  21577567.354    88356517.25248
 15 02 17 00 05  0.0000000  0  7G16G18G21G25G27G29G31
  22721214.934   119400797.80408  22721213.763    93039569.61546
  23720347.149   124651303.68607  23720347.089    97130898.78144
  20993256.512   110320315.00809  20993254.895    85963879.41049
  23794081.115   125038727.48207  23794083.775    97432779.87045
  23652348.734   124293946.04507  23652351.111    96852440.39946
  23067788.572   121222037.90808  23067788.392    94458726.09847
  21590259.115   113457566.17209  21590258.164    88408484.24348
 15 02 17 00 05 30.0000000  0  7G16G18G21G25G27G29G31
  22705685.041   119319187.85108  22705683.872    92975977.46446
  23706535.359   124578722.02207  23706535.354    97074341.72344
  20995236.309   110330719.06909  20995234.709    85971986.47849
  23810604.610   125125559.28507  23810607.584    97500440.98346
  23638984.815   124223718.86107  23638987.089    96797717.93346
  23081868.743   121296029.39508  23081868.404    94516381.76847
  21603028.444   113524669.36009  21603027.452    88460772.40848
 15 02 17 00 06  0.0000000  0  7G16G18G21G25G27G29G31
  22690174.782   119237680.48708  22690173.531    92912465.24346
  23692739.260   124506223.25407  23692739.524    97017849.25945
  20997299.868   110341563.61309  20997298.252    85980436.77849
  23827166.498   125212592.81407  23827169.914    97568259.26946
  23625644.883   124153616.58007  23625647.118    96743092.82346
  23095952.823   121370042.23508  23095952.956    94574054.05947
  21615875.188   113592179.17109  21615874.285    88513377.41748
 15 02 17 00 06 30.0000000  0  7G16G18G21G25G27G29G31
  22674685.075   119156281.14908  22674683.750    92849037.20846
  23678959.971   124433814.13107  23678960.624    96961426.68645
  20999447.894   110352851.22009  20999446.328    85989232.32349
  23843767.614   125299831.35907  23843770.992    97636237.31045
  23612329.345   124083643.51607  23612331.827    96688568.40046
  23110041.795   121444080.28108  23110041.971    94631746.00347
  21628799.590   113660097.51909  21628798.700    88566300.76548
 15 02 17 00 07  0.0000000  0  7G16G18G21G25G27G29G31
  22659215.725   119074989.32608  22659214.252    92785692.95146
  23665197.807   124361495.37807  23665198.706    96905074.49745
  21001679.680   110364579.11709  21001677.922    85998370.95349
  23860406.926   125387271.94207  23860409.889    97704372.81445
  23599037.962   124013797.23307  23599040.435    96634142.78046
  23124135.064   121518140.41308  23124135.131    94689455.16646
  21641800.852   113728419.83209  21641799.963    88619538.89148
 15 02 17 00 07 30.0000000  0  7G16G18G21G25G27G29G31
  22643767.272   118993807.15808  22643766.071    92722434.13646
  23651453.637   124289269.40107  23651454.294    96848794.58545
  21003995.026   110376746.90809  21003993.500    86007852.35649
  23877084.544   125474914.01106  23877087.513    97772665.30145
  23585770.793   123944077.91407  23585773.395    96579816.06346
  23138232.489   121592222.53408  23138232.337    94747181.46347
  21654878.639   113797143.62909  21654877.688    88673089.80148
 15 02 17 00 08  0.0000000  0  7G16G18G21G25G27G29G31
  22628339.761   118912735.63408  22628338.575    92659261.52646
  23637727.378   124217138.64307  23637727.925    96792588.86444
  21006393.871   110389352.73409  21006392.333    86017675.08549
  23893800.431   125562756.08707  23893803.033    97841113.65746
  23572527.610   123874484.89207  23572530.153    96525587.76446
  23152333.733   121666325.57308  23152333.622    94804924.05647
  21668032.384   113866266.05409  21668031.489    88726951.29248
 15 02 17 00 08 30.0000000  0  7G16G18G21G25G27G29G31
  22612933.739   118831776.96908  22612932.489    92596176.86746
  23624020.111   124145106.15607  23624020.813    96736459.72044
  21008875.898   110402395.87409  21008874.226    86027838.58349
  23910554.208   125650797.65707  23910557.150    97909717.43545
  23559308.587   123805018.42807  23559311.264    96471458.09346
  23166439.007   121740449.41308  23166438.523    94862682.85947
  21681261.617   113935785.20809  21681260.782    88781122.00548
 15 02 17 00 09  0.0000000  0  7G16G18G21G25G27G29G31
  22597549.604   118750932.48208  22597548.427    92533181.17346
  23610331.577   124073174.45607  23610332.731    96680409.12645
  21011441.084   110415875.20409  21011439.145    86038341.96649
  23927345.735   125739037.82007  23927348.777    97978475.96345
  23546113.636   123735678.36907  23546116.037    96417426.90546
  23180548.178   121814593.35408  23180547.798    94920457.32846
  21694565.688   114005698.41709  21694564.718    88835599.77248
 15 02 17 00 09 30.0000000  0  7G16G18G21G25G27G29G31
  22582187.767   118670205.39508  22582186.349    92470276.96846
  23596663.150   124001347.73207  23596664.560    96624440.34545
  21014089.227   110429791.10109  21014087.338    86049185.53149
  23944175.268   125827477.11307  23944178.248    98047389.64846
  23532942.984   123666466.06007  23532945.434    96363495.27046
  23194661.441   121888758.65008  23194661.107    94978248.43746
  21707944.448   114076004.68209  21707943.563    88890383.81348
 15 02 17 00 10  0.0000000  0  7G16G18G21G25G27G29G31
  22566847.812   118589593.57508  22566846.501    92407462.57646
  23583014.955   123929624.70007  23583016.239    96568552.34645
  21016819.377   110444138.76309  21016817.579    86060365.53549
  23961041.806   125916110.71307  23961044.594    98116454.76545
  23519795.746   123597377.38807  23519798.151    96309659.96846
  23208777.956   121962940.02608  23208777.566    95036052.07046
  21721396.869   114146697.75709  21721396.333    88945469.24948
 15 02 17 00 10 30.0000000  0  7G16G18G21G25G27G29G31
  22551530.455   118509100.91008  22551529.429    92344741.03846
  23569387.381   123858009.94107  23569388.038    96512748.67044
  21019631.939   110458918.99909  21019630.150    86071882.60749
  23977945.469   126004939.58806  23977948.140    98185672.05245
  23506672.479   123528414.15907  23506675.049    96255922.43346
  23222897.664   122037139.72108  23222897.147    95093869.98846
  21734922.906   114217776.83809  21734922.184    89000855.47448
 15 02 17 00 11  0.0000000  0  7G16G18G21G25G27G29G31
  22536237.215   118428734.42508  22536235.947    92282117.81846
  23555781.561   123786511.46707  23555781.868    96457035.61744
  21022527.655   110474135.99509  21022525.995    86083740.01549
  23994887.211   126093968.35907  23994889.884    98255045.09845
  23493574.027   123459581.79707  23493576.449    96202286.85846
  23237021.697   122111362.38708  23237021.212    95151705.79947
  21748523.082   114289245.21409  21748522.264    89056545.03048
 15 02 17 00 11 30.0000000  0  7G16G18G21G25G27G29G31
  22520966.928   118348488.70908  22520965.767    92219588.70246
  23542196.940   123715124.77307  23542197.493    96401409.71445
  21025505.003   110489781.78609  21025503.154    86095931.54649
  24011865.329   126183189.18706  24011868.182    98324567.76945
  23480499.443   123390873.23607  23480501.589    96148747.74046
  23251148.830   122185601.28708  23251148.488    95209554.25547
  21762195.386   114361093.09809  21762194.374    89112530.31648
 15 02 17 00 12  0.0000000  0  7G16G18G21G25G27G29G31
  22505720.493   118268367.81208  22505719.248    92157156.85147
  23528634.947   123643854.80007  23528635.127    96345874.72045
  21028564.155   110505857.67709  21028562.403    86108458.22049
  24028880.134   126272603.43707  24028883.470    98394241.15245
  23467448.475   123322290.62207  23467450.714    96095306.77845
  23265279.269   122259857.59008  23265279.121    95267416.27646
  21775939.700   114433320.45409  21775938.886    89168811.32348
 15 02 17 00 12 30.0000000  0  7G16G18G21G25G27G29G31
  22490498.187   118188373.61908  22490496.885    92094823.72247
  23515095.824   123572705.10307  23515096.075    96290433.47245
  21031704.973   110522362.28409  21031702.967    86121318.96149
  24045931.877   126362210.32807  24045934.993    98464064.66545
  23454421.660   123253834.00107  23454423.674    96041963.97646
  23279413.174   122334131.10508  23279412.763    95325291.70647
  21789755.793   114505924.82709  21789755.178    89225386.10748
 15 02 17 00 13  0.0000000  0  7G16G18G21G25G27G29G31
  22475300.199   118108507.27508  22475298.883    92032590.22646
  23501579.384   123501676.66907  23501579.544    96235086.69444
  21034926.792   110539293.65409  21034925.077    86134512.24449
  24063019.862   126452007.79507  24063022.686    98534036.69345
  23441418.523   123185502.23907  23441420.668    95988718.46646
  23293550.014   122408420.01108  23293549.756    95383179.14146
  21803643.054   114578902.68809  21803642.236    89282251.94248
 15 02 17 00 13 30.0000000  0  7G16G18G21G25G27G29G31
  22460126.977   118028771.29708  22460125.550    91970458.31046
  23488087.018   123430773.52307  23488086.976    96179837.53745
  21038230.081   110556652.24309  21038228.262    86148038.42049
  24080144.214   126541996.30906  24080146.741    98604157.58545
  23428439.319   123117296.46907  23428441.672    95935571.17846
  23307689.711   122482725.71608  23307689.578    95441079.66246
  21817601.206   114652252.71009  21817600.416    89339407.76448
 15 02 17 00 14  0.0000000  0  7G16G18G21G25G27G29G31
  22444978.872   117949167.78308  22444977.461    91908429.60646
  23474618.830   123359998.56207  23474619.134    96124688.29045
  21041614.237   110574436.91309  21041612.520    86161896.61349
  24097304.314   126632174.89806  24097307.374    98674426.57245
  23415484.018   123049216.65507  23415486.632    95882522.01546
  23321832.740   122557047.58508  23321832.771    95498992.76846
  21831629.670   114725972.31709  21831628.862    89396851.46848
 15 02 17 00 14 30.0000000  0  7G16G18G21G25G27G29G31
  22429856.957   117869701.61508  22429855.448    91846507.92747
  23461176.112   123289357.60507  23461176.147    96069643.41145
  21045080.041   110592649.05709  21045078.139    86176087.89849
  24114501.280   126722545.62906  24114504.689    98744845.26245
  23402553.251   122981265.60807  23402555.874    95829573.19046
  23335979.500   122631388.09308  23335979.542    95556920.39947
  21845728.426   114800061.59209  21845727.842    89454583.02648
 15 02 17 00 15  0.0000000  0  7G16G18G21G25G27G29G31
  22414759.597   117790364.57608  22414758.069    91784686.87046
  23447757.720   123218842.88508  23447757.695    96014696.93745
  21048624.806   110611277.54409  21048623.093    86190603.61349
  24131732.997   126813097.62807  24131736.348    98815405.21345
  23389645.188   122913433.40107  23389647.589    95776716.95646
  23350127.776   122705737.09408  23350127.656    95614854.65546
  21859895.394   114874508.94609  21859894.719    89512593.79948
 15 02 17 00 15 30.0000000  0  7G16G18G21G25G27G29G31
  22399688.234   117711164.47008  22399686.884    91722972.51447
  23434365.220   123148463.03807  23434365.061    95959855.52545
  21052249.903   110630327.59209  21052248.121    86205447.80749
  24148999.945   126903835.96206  24149002.989    98886110.37845
  23376760.829   122845725.88907  23376763.276    95723957.90946
  23364278.613   122780100.02808  23364278.435    95672799.75946
  21874131.125   114949316.97109  21874130.324    89570885.50448
 15 02 17 00 16  0.0000000  0  7G16G18G21G25G27G29G31
  22384645.107   117632112.73808  22384643.705    91661373.77146
  23420999.923   123078230.90007  23421000.426    95905129.26745
  21055956.783   110649807.47109  21055954.974    86220626.94049
  24166303.924   126994769.35906  24166307.034    98956967.51745
  23363902.088   122778152.71907  23363904.583    95671303.55346
  23378433.744   122854486.36808  23378433.555    95730763.11146
  21888436.987   115024493.49909  21888436.217    89629464.49448
 15 02 17 00 16 30.0000000  0  7G16G18G21G25G27G29G31
  22369627.422   117553194.36308  22369626.027    91599878.95147
  23407660.683   123008132.12707  23407660.813    95850506.90645
  21059742.110   110669699.18609  21059740.274    86236126.98249
  24183641.583   127085879.87107  24183644.814    99027962.67245
  23351065.611   122710696.76707  23351068.050    95618740.53446
  23392589.959   122928878.62208  23392589.956    95788731.07946
  21902809.013   115100018.75609  21902808.620    89688315.17848
 15 02 17 00 17  0.0000000  0  7G16G18G21G25G27G29G31
  22354637.604   117474422.62308  22354636.413    91538498.39547
  23394349.378   122938180.40207  23394349.293    95795999.08344
  21063607.552   110690012.59309  21063605.864    86251955.61649
  24201015.248   127177177.75507  24201018.323    99099103.85045
  23338253.658   122643369.12207  23338256.066    95566277.47646
  23406749.541   123003287.66708  23406749.761    95846712.11646
  21917249.132   115175900.78109  21917248.505    89747443.68648
 15 02 17 00 17 30.0000000  0  7G16G18G21G25G27G29G31
  22339675.064   117395793.19308  22339673.657    91477228.72347
  23381065.306   122868372.72407  23381064.972    95741603.54145
  21067551.940   110710740.36909  21067550.299    86268107.13649
  24218423.027   127268656.25006  24218426.395    99170385.74345
  23325464.842   122576163.87707  23325467.230    95513909.80246
  23420911.274   123077707.38808  23420911.438    95904701.46947
  21931755.670   115252131.77708  21931755.073    89806844.15748
 15 02 17 00 18  0.0000000  0  7G16G18G21G25G27G29G31
  22324740.825   117317313.20308  22324739.323    91416075.49747
  23367810.152   122798716.82707  23367810.057    95687326.25445
  21071575.900   110731886.67109  21071574.124    86284584.77649
  24235865.862   127360319.40506  24235869.185    99241811.49344
  23312700.509   122509086.04407  23312702.747    95461641.40746
  23435075.915   123152142.54908  23435076.134    95962702.84746
  21946329.253   115328714.25409  21946328.460    89866518.68048
 15 02 17 00 18 30.0000000  0  7G16G18G21G25G27G29G31
  22309834.331   117238979.61408  22309832.948    91355036.35147
  23354583.421   122729210.48207  23354583.489    95633165.51545
  21075678.440   110753445.47709  21075676.622    86301383.85249
  24253342.656   127452161.38906  24253345.939    99313376.62844
  23299959.188   122442130.57307  23299961.529    95409468.34446
  23449242.349   123226587.91208  23449242.768    96020712.18946
  21960967.829   115405640.67608  21960967.407    89926461.21848
 15 02 17 00 19  0.0000000  0  7G16G18G21G25G27G29G31
  22294956.567   117160796.34308  22294955.215    91294114.33447
  23341386.139   122659858.57707  23341386.556    95579125.12245
  21079859.534   110775417.30209  21079857.730    86318504.76049
  24270854.120   127544183.31606  24270857.038    99385081.99545
  23287241.617   122375299.56807  23287243.969    95357392.28146
  23463411.007   123301044.93008  23463411.103    96078730.61846
  21975671.977   115482910.49609  21975671.426    89986671.37548
 15 02 17 00 19 30.0000000  0  7G16G18G21G25G27G29G31
  22280107.977   117082766.13108  22280106.548    91233311.58847
  23328218.956   122590664.34307  23328219.158    95525207.58045
  21084119.096   110797801.79809  21084117.457    86335947.22549
  24288399.672   127636384.81407  24288402.709    99456927.27045
  23274547.930   122308593.60507  23274550.141    95305413.64646
  23477582.145   123375514.38907  23477582.009    96136758.73746
  21990440.917   115560521.48809  21990440.375    90047147.37548
 15 02 17 00 20  0.0000000  0  7G16G18G21G25G27G29G31
  22265288.067   117004887.75808  22265286.933    91172627.14947
  23315081.528   122521627.57007  23315081.495    95471412.73545
  21088456.481   110820594.56809  21088454.603    86353707.83149
  24305978.665   127728761.92106  24305981.555    99528909.39645
  23261877.332   122242009.50807  23261879.414    95253529.97946
  23491754.853   123449992.94308  23491754.706    96194793.93546
  22005273.709   115638468.27509  22005273.387    90107885.11248
 15 02 17 00 20 30.0000000  0  7G16G18G21G25G27G29G31
  22250498.623   116927168.67408  22250497.287    91112066.83347
  23301975.717   122452756.34707  23301975.084    95417746.85845
  21092872.247   110843799.91709  21092870.413    86371789.92649
  24323591.507   127821319.31306  24323594.556    99601031.93945
  23249230.956   122175552.88707  23249233.235    95201745.64846
  23505930.514   123524485.88607  23505930.535    96252840.36646
  22020170.887   115716753.84609  22020170.635    90168886.85248
 15 02 17 00 21  0.0000000  0  7G16G18G21G25G27G29G31
  22235738.870   116849605.12008  22235737.397    91051627.70847
  23288900.857   122384047.71407  23288900.456    95364207.69145
  21097365.274   110867410.68609  21097363.393    86390187.92949
  24341237.459   127914049.97606  24341241.062    99673289.49545
  23236607.743   122109217.70407  23236610.026    95150055.93746
  23520107.789   123598986.77808  23520107.641    96310892.96446
  22035130.958   115795369.49108  22035130.662    90230145.75847
 15 02 17 00 21 30.0000000  0  7G16G18G21G25G27G29G31
  22221009.442   116772201.42208  22221008.081    90991313.15147
  23275857.877   122315506.76608  23275857.908    95310799.20145
  21101935.740   110891428.42409  21101934.045    86408903.04849
  24358917.214   128006955.52706  24358920.050    99745683.43243
  23224008.199   122043006.52607  23224010.454    95098462.85546
  23534286.859   123673497.98307  23534286.773    96368953.60746
  22050153.868   115874315.06808  22050153.474    90291661.72448
 15 02 17 00 22  0.0000000  0  7G16G18G21G25G27G29G31
  22206310.574   116694958.03708  22206309.110    90931123.51047
  23262847.267   122247134.52007  23262847.295    95257522.16746
  21106582.903   110915849.86809  21106581.124    86427932.74649
  24376629.659   128100033.24407  24376632.032    99818211.50844
  23211431.822   121976917.44107  23211433.984    95046964.90846
  23548467.414   123748017.49307  23548467.208    96427020.71245
  22065238.372   115953585.86208  22065238.291    90353430.93348
 15 02 17 00 22 30.0000000  0  7G16G18G21G25G27G29G31
  22191643.466   116617882.48708  22191642.168    90871064.64647
  23249870.084   122178939.71507  23249870.027    95204383.39246
  21111307.910   110940679.57409  21111306.100    86447280.57749
  24394375.398   128193287.91806  24394377.895    99890877.44244
  23198879.738   121910956.29107  23198881.984    94995566.65946
  23562650.641   123822551.07307  23562650.428    96485098.78646
  22080385.985   116033185.16908  22080385.831    90415455.91948
 15 02 17 00 23  0.0000000  0  7G16G18G21G25G27G29G31
  22177007.590   116540970.53308  22177006.288    90811133.26047
  23236926.087   122110918.51708  23236925.872    95151379.89645
  21116109.017   110965909.65609  21116107.256    86466940.38349
  24412153.544   128286712.26706  24412156.310    99963675.54845
  23186350.842   121845116.62507  23186353.169    94944263.06846
  23576835.298   123897092.13308  23576835.021    96543182.69846
  22095594.387   116113104.10808  22095594.183    90477729.95647
 15 02 17 00 23 30.0000000  0  7G16G18G21G25G27G29G31
  22162403.489   116464225.71408  22162402.205    90751332.10647
  23224016.057   122043075.16608  23224015.491    95098514.95245
  21120986.384   110991540.58009  21120984.613    86486912.53349
  24429963.803   128380306.62706  24429967.142   100036606.11645
  23173845.258   121779399.86707  23173847.583    94893055.25546
  23591021.716   123971641.73408  23591021.681    96601273.25846
  22110863.481   116193342.30108  22110863.377    90540253.03447
 15 02 17 00 24  0.0000000  0  7G16G18G21G25G27G29G31
  22147831.689   116387650.58008  22147830.398    90691663.17847
  23211140.248   121975412.45608  23211139.791    95045790.80145
  21125939.898   111017571.12609  21125938.154    86507196.08249
  24447806.824   128474070.20707  24447809.426   100109668.63144
  23161363.281   121713806.16507  23161365.427    94841943.31946
  23605209.666   124046199.91307  23605209.616    96659370.51446
  22126192.666   116273896.65008  22126192.604    90603022.49848
 15 02 17 00 24 30.0000000  0  7G16G18G21G25G27G29G31
  22133291.884   116311243.32408  22133290.652    90632125.06847
  23198298.901   121907930.25208  23198298.272    94993207.30045
  21130968.583   111043997.07509  21130966.694    86527787.73649
  24465681.018   128567999.10406  24465683.266   100182859.95345
  23148903.968   121648332.53707  23148905.993    94790924.95546
  23619398.702   124120763.54907  23619398.772    96717471.98646
  22141580.806   116354761.65108  22141581.271    90666034.08148
 15 02 17 00 25  0.0000000  0  7G16G18G21G25G27G29G31
  22118786.557   116235017.00408  22118785.021    90572727.93747
  23185494.180   121840641.98908  23185493.881    94940774.93045
  21136074.157   111070827.39409  21136072.374    86548694.48649
  24483587.766   128662102.98506  24483590.508   100256187.58744
  23136469.455   121582989.57307  23136471.681    94740008.40146
  23633590.587   124195343.12807  23633590.843    96775585.89446
  22157029.745   116435945.44008  22157030.004    90729294.15447
 15 02 17 00 25 30.0000000  0  7G16G18G21G25G27G29G31
  22104313.812   116158962.15108  22104312.373    90513464.42247
  23172724.901   121773538.85208  23172724.571    94888486.80446
  21141254.324   111098049.44809  21141252.536    86569906.47749
  24501526.047   128756369.28506  24501528.883   100329641.76245
  23124057.808   121517765.77307  23124059.928    94689184.69446
  23647783.379   124269926.97207  23647783.882    96833703.14146
  22172536.485   116517433.53208  22172536.579    90792791.32948
 15 02 17 00 26  0.0000000  0  8G16G18G21G22G25G27G29G31
  22089874.723   116083084.72708  22089873.534    90454339.16747
  23159992.198   121706627.42008  23159991.681    94836348.05745
  21146509.646   111125666.22709  21146507.920    86591426.05049
  24550132.850   129011815.32016  24550132.549   100528693.37154
  24519496.055   128850800.72406  24519499.142   100403224.66045
  23111669.488   121452664.92907  23111671.639    94638456.81546
  23661977.957   124344518.57507  23661977.854    96891826.45746
  22188101.309   116599227.23208  22188101.340    90856526.64348
 15 02 17 00 26 30.0000000  0  8G16G18G21G22G25G27G29G31
  22075467.762   116007375.32508  22075466.365    90395344.84147
  23147294.115   121639898.60808  23147293.285    94784351.59245
  21151837.457   111153664.18509  21151835.572    86613242.64749
  24533096.666   128922293.29205  24533097.011   100458936.15844
  24537494.821   128945384.81506  24537497.909   100476926.47445
  23099302.411   121387675.40507  23099304.608    94587815.67246
  23676171.832   124419106.39407  23676171.196    96949946.82246
  22203721.541   116681312.14108  22203721.635    90920488.82948
 15 02 17 00 27  0.0000000  0  8G16G18G21G22G25G27G29G31
  22061097.399   115931858.68109  22061096.011    90336500.70947
  23134635.560   121573377.98108  23134635.006    94732517.36945
  21157241.794   111182064.85809  21157240.155    86635373.04249
  24516045.798   128832693.49806  24516046.071   100389118.47145
  24555526.491   129040143.41006  24555530.086   100550764.25744
  23086960.958   121322820.07008  23086962.966    94537279.08346
  23690368.935   124493712.79807  23690368.565    97008081.67645
  22219401.004   116763708.39608  22219401.306    90984693.61647
 15 02 17 00 27 30.0000000  0  8G16G18G21G22G25G27G29G31
  22046761.602   115856523.93409  22046760.363    90277798.31347
  23122014.825   121507055.66908  23122014.375    94680837.68346
  21162720.126   111210853.93809  21162718.459    86657806.09249
  24498978.584   128743005.05906  24498978.286   100319231.49644
  24573589.091   129135062.26506  24573592.285   100624726.97344
  23074642.226   121258085.66708  23074644.275    94486836.73046
  23704567.041   124568325.03407  23704567.315    97066221.02546
  22235136.771   116846400.19408  22235137.195    91049128.60848
 15 02 17 00 28  0.0000000  0  8G16G18G21G22G25G27G29G31
  22032461.176   115781374.91109  22032459.891    90219240.64547
  23109432.467   121440935.36708  23109432.208    94629315.40545
  21168272.507   111240031.61609  21168270.581    86680541.95049
  24481895.036   128653232.00006  24481894.073   100249278.53044
  24591682.080   129230141.81306  24591685.372   100698814.85745
  23062346.928   121193473.75108  23062348.992    94436489.82046
  23718766.559   124642944.19307  23718766.725    97124365.79646
  22250928.610   116929386.49208  22250929.193    91113793.13547
 15 02 17 00 28 30.0000000  0  8G16G18G21G22G25G27G29G31
  22018195.981   115706410.64609  22018194.539    90160826.94647
  23096888.658   121375017.36408  23096888.276    94577950.75845
  21173897.940   111269593.68109  21173896.232    86703577.33049
  24464795.597   128563374.37305  24464794.881   100179259.63744
  24609805.528   129325378.61006  24609808.827   100773025.28545
  23050074.449   121128981.90708  23050076.812    94386236.48046
  23732966.953   124717567.42607  23732967.047    97182513.74146
  22266775.476   117012662.27208  22266776.053    91178683.34647
 15 02 17 00 29  0.0000000  0  8G16G18G21G22G25G27G29G31
  22003966.965   115631636.41509  22003965.631    90102561.31947
  23084384.610   121309307.76908  23084384.077    94526748.49745
  21179597.018   111299542.22609  21179595.122    86726913.86449
  24447681.366   128473437.79606  24447681.081   100109179.29745
  24627958.993   129420774.83906  24627962.223   100847359.90645
  23037825.535   121064613.21207  23037827.808    94336079.10646
  23747168.793   124792198.16207  23747168.749    97240667.52646
  22282677.424   117096227.91608  22282677.933    91243799.41747
 15 02 17 00 29 30.0000000  0  8G16G18G21G22G25G27G29G31
  21989774.117   115557052.96409  21989772.882    90044444.35547
  23071920.416   121243807.42708  23071919.714    94475709.29545
  21185369.002   111329874.52109  21185367.266    86750549.42349
  24430552.780   128383423.40907  24430552.763   100039038.20146
  24646141.785   129516327.71205  24646145.565   100921816.62244
  23025599.802   121000366.02208  23025601.737    94286016.38947
  23761371.802   124866834.63308  23761371.637    97298825.79046
  22298634.054   117180079.00908  22298634.322    91309137.85047
 15 02 17 00 30  0.0000000  0  8G16G18G21G22G25G27G29G31
  21975618.375   115482663.31509  21975616.914    89986478.40747
  23059496.699   121178520.10308  23059496.068    94424836.07246
  21191213.866   111360589.70509  21191212.179    86774483.33449
  24413409.478   128293334.59106  24413409.724    99968839.13345
  24664354.698   129612036.93506  24664358.678   100996395.11944
  23013397.192   120936241.02908  23013398.976    94236048.90747
  23775575.864   124941477.54607  23775575.766    97356989.07645
  22314644.232   117264213.56408  22314644.875    91374697.20247
 15 02 17 00 30 30.0000000  0  8G16G18G21G22G25G27G29G31
  21961499.880   115408470.68909  21961498.307    89928665.98047
  23047114.097   121113449.65308  23047113.672    94374131.85746
  21197131.623   111391687.79009  21197129.910    86798715.60949
  24396251.858   128203174.90605  24396252.671    99898584.74345
  24682597.535   129707902.87706  24682600.583   101071095.85644
  23001217.984   120872239.76607  23001220.066    94186177.83647
  23789781.135   125016127.99507  23789781.231    97415158.23346
  22330708.357   117348630.45408  22330708.695    91440476.60948
 15 02 17 00 31  0.0000000  0  8G16G18G21G22G25G27G29G31
  21947419.070   115334475.37609  21947417.601    89871007.30847
  23034772.898   121048596.87308  23034772.931    94323597.27446
  21203121.694   111423165.26809  21203119.869    86823243.51749
  24379081.254   128112945.49406  24379082.430    99828276.10045
  24700869.754   129803922.59806  24700872.880   101145916.29744
  22989062.155   120808360.17207  22989064.258    94136401.58247
  23803987.868   125090784.13507  23803987.679    97473331.82946
  22346825.103   117433324.87208  22346825.808    91506472.24248
 15 02 17 00 31 30.0000000  0  8G16G18G21G22G25G27G29G31
  21933375.758   115260677.02309  21933374.320    89813502.11047
  23022473.229   120983961.64408  23022473.027    94273232.19046
  21209183.139   111455018.06109  21209181.194    86848063.88249
  24361898.154   128022646.22207  24361898.892    99757913.01245
  24719169.871   129900092.48705  24719173.856   101220853.76544
  22976928.805   120744599.82907  22976931.094    94086718.24547
  23818194.980   125165443.07307  23818195.350    97531507.58446
  22362993.646   117518291.60808  22362994.272    91572679.99547
 15 02 17 00 32  0.0000000  0  8G16G18G21G22G25G27G29G31
  21919370.737   115187080.42009  21919369.394    89756154.12447
  23010216.079   120919549.94808  23010215.471    94223041.26545
  21215316.125   111487247.46309  21215314.292    86873177.70449
  24344702.713   127932282.19806  24344703.069    99687499.58645
  24737499.090   129996413.93406  24737503.047   101295909.33144
  22964818.919   120680961.16807  22964820.949    94037129.72647
  23832403.161   125240107.59807  23832403.687    97589687.72246
  22379214.379   117603530.35308  22379214.653    91639099.74447
 15 02 17 00 32 30.0000000  0  8G16G18G21G22G25G27G29G31
  21905404.298   115113686.16509  21905402.783    89698963.80847
  22998001.568   120855362.98008  22998000.805    94173025.46945
  21221520.303   111519850.48509  21221518.471    86898582.65649
  24327494.993   127841854.92506  24327495.105    99617036.88245
  24755857.169   130092884.54306  24755861.115   101371081.08344
  22952731.567   120617442.83107  22952733.730    93987634.96047
  23846612.229   125314776.10007  23846612.650    97647870.92746
  22395485.636   117689037.32008  22395486.378    91705728.45547
 15 02 17 00 33  0.0000000  0  8G16G18G21G22G25G27G29G31
  21891476.693   115040496.82409  21891475.431    89641933.16448
  22985830.582   120791403.41808  22985829.686    94123186.86746
  21227795.430   111552826.18709  21227793.723    86924278.01449
  24310276.238   127751367.37907  24310275.796    99546527.09444
  24774243.553   130189503.54706  24774246.630   101446368.66144
  22940667.410   120554045.28507  22940669.738    93938234.33447
  23860821.592   125389448.68107  23860822.175    97706057.33645
  22411807.848   117774810.00208  22411808.371    91772564.31847
 15 02 17 00 33 30.0000000  0  8G16G18G21G22G25G27G29G31
  21877588.495   114967513.44609  21877587.183    89585063.01647
  22973702.965   120727672.14508  22973702.603    94073526.17546
  21234140.977   111586172.19809  21234139.029    86950261.92149
  24293046.065   127660820.89907  24293045.370    99475971.47344
  24792657.189   130286268.82705  24792661.096   101521770.07045
  22928626.068   120490767.26207  22928628.150    93888926.82347
  23875031.929   125464124.41307  23875032.321    97764246.22845
  22428179.648   117860844.45008  22428180.402    91839604.14247
 15 02 17 00 34  0.0000000  0  8G16G18G21G22G25G27G29G31
  21863740.555   114894742.78209  21863739.284    89528358.62047
  22961620.318   120664177.65408  22961619.805    94024049.98045
  21240557.483   111619891.38309  21240555.623    86976536.61049
  24275805.847   127570222.41306  24275805.317    99405375.43145
  24811099.439   130383183.56806  24811103.319   101597287.86044
  22916608.185   120427613.17508  22916610.154    93839715.89047
  23889243.659   125538807.96507  23889244.308    97822441.16046
  22444601.603   117947142.37508  22444602.391    91906849.28747
 15 02 17 00 34 30.0000000  0  7G16G18G21G22G27G29G31
  21849932.509   114822180.26009  21849931.090    89471816.40847
  22949581.949   120600915.50608  22949581.441    93974754.82946
  21247043.457   111653975.87409  21247041.626    87003095.95949
  24258554.353   127479568.07306  24258554.282    99334735.95145
  22904612.588   120364576.60508  22904614.697    93790596.53247
  23903455.758   125613492.36107  23903456.391    97880636.76346
  22461071.856   118033694.76508  22461072.414    91974292.74747
 15 02 17 00 35  0.0000000  0  7G16G18G21G22G27G29G31
  21836165.133   114749832.83209  21836163.683    89415441.80047
  22937589.187   120537893.18108  22937588.523    93925646.55545
  21253599.585   111688428.78109  21253597.964    87029942.38049
  24241293.850   127388865.42207  24241294.169    99264058.73945
  22892640.548   120301662.26608  22892642.521    93741572.40747
  23917669.071   125688182.32507  23917669.198    97938836.73846
  22477591.022   118120503.38308  22477591.519    92041935.81447
 15 02 17 00 35 30.0000000  0  7G16G18G21G22G27G29G31
  21822439.187   114677702.87809  21822437.813    89359236.65747
  22925642.411   120475113.20008  22925641.748    93876727.10045
  21260225.593   111723248.40709  21260223.874    87057074.55949
  24224024.798   127298117.22407  24224024.953    99193345.90445
  22880691.535   120238870.46708  22880693.558    93692643.77947
  23931883.029   125762877.95807  23931883.676    97997041.08646
  22494158.455   118207565.70208  22494159.120    92109776.55847
 15 02 17 00 36  0.0000000  0  7G16G18G21G22G27G29G31
  21808754.639   114605789.99609  21808753.211    89303200.65748
  22913741.867   120412576.10208  22913741.080    93827996.91946
  21266920.708   111758431.00409  21266918.931    87084489.57449
  24206746.879   127207323.33705  24206747.277    99122597.52146
  22868765.416   120176198.44808  22868767.433    93643808.47647
  23946097.807   125837576.84007  23946098.182    98055247.95546
  22510773.195   118294876.47308  22510773.841    92177810.90647
 15 02 17 00 36 30.0000000  0  7G16G18G21G22G27G29G31
  21795112.115   114534097.27009  21795110.663    89247336.20348
  22901888.360   120350285.28408  22901887.712    93779458.63946
  21273684.712   111793976.30009  21273683.098    87112187.21049
  24189460.226   127116486.92306  24189461.966    99051816.12746
  22856862.408   120113647.06008  22856864.283    93595067.16347
  23960313.391   125912279.70607  23960313.286    98113457.99246
  22527434.693   118382433.57908  22527435.722    92246037.17947
 15 02 17 00 37  0.0000000  0  7G16G18G21G22G27G29G31
  21781511.078   114462623.18009  21781509.661    89191642.12148
  22890081.357   120288239.25208  22890081.187    93731111.11246
  21280516.654   111829878.39809  21280514.873    87140162.87348
  24172167.099   127025607.54907  24172168.034    98981001.17745
  22844981.371   120051212.50708  22844983.150    93546416.90847
  23974528.798   125986982.51807  23974528.883    98171667.92345
  22544142.131   118470230.60308  22544142.586    92314450.46347
 15 02 17 00 37 30.0000000  0  7G16G18G21G22G27G29G31
  21767952.968   114391375.29809  21767951.500    89136124.31348
  22878322.327   120226446.32208  22878322.253    93682960.80646
  21287417.245   111866141.43909  21287415.524    87168419.79149
  24154867.252   126934693.21007  24154866.812    98910158.94144
  22833123.748   119988900.43608  22833125.664    93497862.07947
  23988745.595   126061691.10607  23988745.448    98229882.41146
  22560895.612   118558270.26808  22560895.719    92383052.83547
 15 02 17 00 38  0.0000000  0  7G16G18G21G22G27G29G31
  21754437.894   114320353.07509  21754436.377    89080782.33148
  22866611.688   120164906.30908  22866611.605    93635007.56546
  21294385.829   111902761.15409  21294384.070    87196954.63649
  24137559.755   126843743.48406  24137558.607    98839289.10844
  22821288.783   119926707.89808  22821290.696    93449400.39547
  24002962.563   126136402.36907  24002962.693    98288098.93546
  22577694.023   118646547.01208  22577694.276    92451839.93447
 15 02 17 00 38 30.0000000  0  7G16G18G21G22G27G29G31
  21740965.879   114249557.06509  21740964.286    89025616.62048
  22854949.251   120103620.38408  22854949.113    93587252.32746
  21301421.560   111939734.64209  21301419.982    87225765.14349
  24120245.991   126752759.75707  24120244.992    98768392.87345
  22809476.471   119864633.40408  22809478.144    93401030.68647
  24017180.072   126211115.01007  24017179.872    98346316.56445
  22594536.630   118735056.38908  22594537.360    92520808.29747
 15 02 17 00 39  0.0000000  0  7G16G18G21G22G27G29G31
  21727537.994   114178993.67609  21727536.690    88970632.17448
  22843336.707   120042595.58308  22843336.201    93539700.55246
  21308525.233   111977064.47409  21308523.545    87254853.32949
  24102927.225   126661748.71407  24102926.620    98697475.31645
  22797687.253   119802681.24208  22797689.141    93352756.31547
  24031398.289   126285833.24307  24031398.776    98404538.50446
  22611424.024   118823800.18008  22611424.793    92589959.32147
 15 02 17 00 39 30.0000000  0  7G16G18G21G22G27G29G31
  21714154.416   114108662.40609  21714152.984    88915828.60348
  22831773.896   119981831.72808  22831773.289    93492352.10946
  21315695.938   112014746.25209  21315694.019    87284215.75049
  24085603.108   126570710.51907  24085602.703    98626536.61745
  22785920.836   119740848.61508  22785922.883    93304575.08047
  24045617.027   126360554.34306  24045617.495    98462762.71846
  22628354.925   118912772.63508  22628355.240    92659288.57947
 15 02 17 00 40  0.0000000  0  7G16G18G21G22G27G29G31
  21700815.390   114038565.78909  21700813.930    88861207.87448
  22820261.094   119921331.48008  22820260.528    93445209.08946
  21322933.230   112052778.63509  21322931.419    87313851.38049
  24068273.863   126479647.72306  24068273.792    98555578.74744
  22774177.149   119679135.59308  22774179.255    93256487.04647
  24059836.875   126435278.05207  24059837.038    98520988.96545
  22645328.724   119001970.76808  22645329.003    92728793.67847
 15 02 17 00 40 30.0000000  0  7G16G18G21G22G27G29G31
  21687521.116   113968703.72009  21687519.569    88806769.90848
  22808798.269   119861094.99208  22808797.760    93398271.59846
  21330236.523   112091157.88909  21330234.756    87343757.29649
  24050940.753   126388561.14807  24050939.937    98484602.26044
  22762456.044   119617540.17308  22762457.799    93208490.64247
  24074056.427   126510002.42707  24074056.289    98579215.76345
  22662344.541   119091390.14308  22662345.183    92798471.11847
 15 02 17 00 41  0.0000000  0  7G16G18G21G22G27G29G31
  21674272.476   113899081.70909  21674271.173    88752519.00648
  22797387.228   119801128.41008  22797386.749    93351544.41546
  21337606.171   112129885.71209  21337604.310    87373934.82549
  24033604.150   126297456.80607  24033603.463    98413611.98545
  22750757.811   119556065.82808  22750759.607    93160588.59547
  24088276.970   126584731.29306  24088276.873    98637445.98946
  22679402.761   119181031.06908  22679403.235    92868321.21247
 15 02 17 00 41 30.0000000  0  7G16G18G21G22G27G29G31
  21661069.115   113829697.70409  21661067.694    88698453.56048
  22786026.752   119741429.36308  22786026.422    93305025.71246
  21345041.133   112168956.48109  21345039.292    87404379.58349
  24016264.311   126206333.02607  24016263.721    98342606.57746
  22739081.819   119494707.85508  22739083.651    93112777.22747
  24102497.059   126659459.83307  24102497.235    98695675.99546
  22696501.534   119270886.26208  22696501.950    92938338.27947
 15 02 17 00 42  0.0000000  0  7G16G18G21G22G27G29G31
  21647912.214   113760557.47209  21647910.787    88644578.06948
  22774718.547   119682004.59308  22774718.049    93258720.72246
  21352541.513   112208371.93309  21352539.697    87435092.92548
  23998921.349   126115195.86606  23998920.868    98271590.74245
  22727428.536   119433469.87908  22727430.445    93065059.35847
  24116718.221   126734191.48006  24116718.271    98753908.44845
  22713641.143   119360956.63908  22713641.881    93008522.95947
 15 02 17 00 42 30.0000000  0  7G16G18G21G22G27G29G31
  21634802.321   113691664.14909  21634800.606    88590894.97648
  22763463.310   119622857.92708  22763462.548    93212632.41945
  21360107.543   112248131.12409  21360105.812    87466074.11948
  23981576.285   126024048.75207  23981575.950    98200567.17144
  22715798.187   119372352.95208  22715800.176    93017435.81947
  24130940.304   126808927.19007  24130940.525    98812144.01345
  22730821.431   119451239.91208  22730822.108    93078873.55547
 15 02 17 00 43  0.0000000  0  7G16G18G21G22G27G29G31
  21621739.207   113623017.20909  21621737.539    88537403.86948
  22752260.889   119563988.58908  22752260.160    93166760.23446
  21367737.861   112288229.93709  21367736.142    87497319.95048
  23964230.180   125932892.29307  23964229.054    98129536.19044
  22704190.579   119311354.40208  22704192.517    92969904.52147
  24145162.173   126883665.08107  24145162.428    98870381.29646
  22748041.506   119541731.39408  22748041.980    93149386.43047
 15 02 17 00 43 30.0000000  0  7G16G18G21G22G27G29G31
  21608723.279   113554618.48109  21608721.858    88484106.17448
  22741111.694   119505399.32608  22741111.015    93121106.28446
  21375432.709   112328666.76209  21375431.220    87528829.16448
  23946882.261   125841728.29907  23946881.261    98058499.41045
  22692605.298   119250473.77908  22692607.398    92922465.11247
  24159384.384   126958403.93306  24159384.828    98928619.36846
  22765300.524   119632427.17408  22765301.008    93220058.44947
 15 02 17 00 44  0.0000000  0  7G16G18G21G22G27G29G31
  21595755.727   113486473.00509  21595754.041    88431005.81848
  22730016.535   119447094.71908  22730016.062    93075674.15146
  21383192.076   112369442.29109  21383190.538    87560602.30648
  23929533.481   125750562.34706  23929533.246    97987461.18846
  22681042.988   119189713.77408  22681044.996    92875119.69547
  24173607.102   127033146.81706  24173607.851    98986860.52045
  22782598.130   119723327.24108  22782598.787    93290889.65346
 15 02 17 00 44 30.0000000  0  7G16G18G21G22G27G29G31
  21582836.328   113418581.63409  21582834.807    88378103.46648
  22718975.825   119389075.95808  22718975.534    93030464.75246
  21391015.280   112410553.78509  21391013.810    87592637.23648
  23912184.764   125659395.87807  23912184.657    97916422.55145
  22669503.614   119129073.01608  22669505.489    92827867.18847
  24187831.003   127107892.32907  24187831.469    99045103.76146
  22799933.858   119814427.91908  22799934.431    93361877.24846
 15 02 17 00 45  0.0000000  0  7G16G18G21G22G27G29G31
  21569965.639   113350945.54909  21569964.191    88325400.03748
  22707989.923   119331344.84108  22707989.682    92985479.49446
  21398902.062   112451998.32609  21398900.336    87624931.68048
  23894836.938   125568230.68908  23894835.984    97845384.79444
  22657986.457   119068550.53908  22657988.149    92780706.85547
  24202054.858   127182639.28707  24202055.211    99103348.14145
  22817307.174   119905724.93408  22817307.438    93433017.80546
 15 02 17 00 45 30.0000000  0  7G16G18G21G22G27G29G31
  21557142.479   113283559.67309  21557140.982    88272891.57648
  22697057.768   119273896.85508  22697057.431    92940714.85046
  21406850.514   112493767.25509  21406848.631    87657478.89748
  23877488.137   125477061.99906  23877487.383    97774344.32945
  22646490.746   119008139.20508  22646492.462    92733633.12947
  24216278.063   127257380.85907  24216278.433    99161588.32445
  22834715.946   119997208.33808  22834716.394    93504303.60447
 15 02 17 00 46  0.0000000  0  7G16G18G21G22G27G29G31
  21544370.870   113216444.69709  21544369.490    88220594.20448
  22686183.694   119216752.74208  22686183.020    92896186.98446
  21414863.851   112535877.34309  21414861.885    87690291.95948
  23860141.961   125385911.22707  23860142.359    97703318.00946
  22635019.337   118947857.38608  22635021.186    92686660.32847
  24230503.257   127332135.35107  24230503.925    99219838.52545
  22852162.883   120088893.64208  22852163.531    93575746.71046
 15 02 17 00 46 30.0000000  0  7G16G18G21G22G27G29G31
  21531648.185   113149586.84809  21531646.815    88168497.19348
  22675364.733   119159898.93608  22675364.183    92851885.34346
  21422938.619   112578310.78509  21422936.708    87723356.97748
  23842797.861   125294765.02408  23842797.823    97632295.09846
  22623569.642   118887689.01808  22623571.331    92639775.93047
  24244728.172   127406886.68907  24244728.519    99278086.35845
  22869644.895   120180761.85808  22869645.587    93647332.34146
 15 02 17 00 47  0.0000000  0  7G16G18G21G22G27G29G31
  21518976.170   113082994.42609  21518974.746    88116607.00148
  22664602.657   119103343.68808  22664602.057    92807816.33046
  21431075.962   112621072.15609  21431073.972    87756677.52948
  23825455.897   125203632.23107  23825455.349    97561282.66045
  22612142.615   118827640.27508  22612144.479    92592984.75447
  24258953.225   127481641.34607  24258953.882    99336336.65444
  22887162.439   120272816.55108  22887162.775    93719063.32946
 15 02 17 00 47 30.0000000  0  7G16G18G21G22G27G29G31
  21506354.730   113016668.81209  21506353.205    88064924.71648
  22653897.659   119047088.63808  22653897.190    92763981.25346
  21439274.942   112664158.61709  21439273.061    87790251.39348
  23808116.293   125112514.24707  23808115.491    97490281.77645
  22600738.322   118767710.09308  22600739.977    92546285.94447
  24273178.879   127556397.97606  24273178.974    99394588.58946
  22904714.306   120365053.66908  22904714.760    93790936.42847
 15 02 17 00 48  0.0000000  0  7G16G18G21G22G27G29G31
  21493784.288   112950610.75909  21493782.786    88013450.92048
  22643250.147   118991135.05408  22643249.653    92720381.08546
  21447535.357   112707567.32709  21447533.472    87824076.36648
  23790780.082   125021412.37308  23790779.158    97419293.39146
  22589356.310   118707897.11908  22589358.041    92499678.47447
  24287404.967   127631155.57007  24287405.185    99452841.23545
  22922300.557   120457469.04408  22922301.013    93862948.41246
 15 02 17 00 48 30.0000000  0  7G16G18G21G22G27G29G31
  21481265.181   112884822.93509  21481263.851    87962187.69348
  22632660.347   118935485.77908  22632659.870    92677018.03746
  21455856.869   112751297.10409  21455854.919    87858151.52148
  23773447.923   124930330.48507  23773446.998    97348320.65746
  22577996.533   118648201.96408  22577998.297    92453162.81447
  24301630.951   127705914.65407  24301631.024    99511095.07245
  22939919.989   120550060.47008  22939920.655    93935097.62246
 15 02 17 00 49  0.0000000  0  7G16G18G21G22G27G29G31
  21468798.290   112819308.07509  21468796.867    87911137.16548
  22622129.016   118880143.76108  22622128.541    92633894.41346
  21464239.073   112795346.53909  21464237.211    87892475.75848
  23756119.490   124839271.51507  23756118.784    97277365.82945
  22566659.617   118588625.03608  22566661.340    92406739.27947
  24315857.886   127780675.01407  24315858.128    99569349.87345
  22957572.520   120642825.33508  22957572.974    94007381.97946
 15 02 17 00 49 30.0000000  0  7G16G18G21G22G27G29G31
  21456383.935   112754070.98209  21456382.717    87860303.07748
  22611657.234   118825113.79808  22611656.463    92591013.94146
  21472682.412   112839716.49109  21472680.562    87927049.74648
  23738796.848   124748240.44807  23738795.349    97206432.57345
  22555345.275   118529168.64208  22555347.063    92360409.67347
  24330084.846   127855440.00707  24330085.421    99627608.25845
  22975257.822   120735763.06608  22975258.308    94079800.96346
 15 02 17 00 50  0.0000000  0  7G16G18G21G22G27G29G31
  21444021.924   112689107.29709  21444020.556    87809682.03148
  22601244.005   118770391.47308  22601243.423    92548373.19146
  21481185.142   112884398.86109  21481183.496    87961867.18148
  23721478.962   124657233.93607  23721477.287    97135518.50345
  22544052.954   118469826.62808  22544054.678    92314169.18247
  24344311.907   127930203.31107  24344312.450    99685865.37945
  22992974.279   120828864.61608  22992975.004    94152347.62346
 15 02 17 00 50 30.0000000  0  7G16G18G21G22G27G29G31
  21431713.210   112624424.22909  21431711.604    87759279.65048
  22590890.625   118715984.75308  22590890.059    92505978.36546
  21489747.968   112929396.84309  21489746.243    87996930.54548
  23704166.701   124566259.20207  23704165.698    97064629.31745
  22532783.155   118410603.74608  22532784.825    92268021.52047
  24358539.321   128004969.72107  24358539.006    99744124.93245
  23010722.741   120922131.91108  23010723.587    94225023.41547
 15 02 17 00 51  0.0000000  0  7G16G18G21G22G27G29G31
  21419457.890   112560022.65009  21419456.379    87709096.61248
  22580597.820   118661895.03708  22580597.087    92463830.55346
  21498370.372   112974707.72609  21498368.588    88032237.72948
  23686861.323   124475318.20608  23686859.865    96993766.32145
  22521535.760   118351498.97608  22521537.381    92221965.89947
  24372767.633   128079738.00407  24372767.199    99802385.94446
  23028501.854   121015561.12607  23028502.869    94297825.32346
 15 02 17 00 51 30.0000000  0  7G16G18G21G22G27G29G31
  21407256.998   112495906.87409  21407255.576    87659136.27048
  22570365.711   118608125.35208  22570365.222    92421932.11946
  21507052.298   113020331.34009  21507050.550    88067788.60148
  23669563.135   124384415.27007  23669560.875    96922932.91345
  22510311.224   118292513.86108  22510312.904    92176003.50747
  24386996.197   128154509.70507  24386996.040    99860649.60844
  23046311.258   121109151.04808  23046311.858    94370752.46646
 15 02 17 00 52  0.0000000  0  7G16G18G21G22G27G29G31
  21395110.141   112432074.77009  21395108.534    87609396.97848
  22560194.313   118554674.66908  22560193.888    92380282.26946
  21515792.462   113066261.24209  21515790.834    88103578.13548
  23652271.036   124293548.83307  23652270.226    96852128.09646
  22499108.818   118233644.35108  22499110.434    92130131.20347
  24401224.596   128229280.91707  24401225.357    99918912.81245
  23064150.211   121202894.44408  23064150.472    94443799.29646
 15 02 17 00 52 30.0000000  0  7G16G18G21G22G27G29G31
  21383018.684   112368533.98509  21383017.173    87559884.68848
  22550085.137   118501550.77808  22550084.597    92338887.03546
  21524591.826   113112502.27309  21524590.211    88139610.11048
  23634988.398   124202727.29907  23634987.675    96781358.21846
  22487929.157   118174895.80408  22487930.959    92084353.15447
  24415453.938   128304057.36507  24415454.499    99977180.17746
  23082018.674   121296793.87908  23082019.089    94516967.67347
 15 02 17 00 53  0.0000000  0  7G16G18G21G22G27G29G31
  21370982.220   112305281.40609  21370980.555    87510596.96948
  22540037.682   118448750.38708  22540036.939    92297743.89946
  21533448.889   113159046.76809  21533447.211    88175878.54748
  23617713.637   124111948.03607  23617712.619    96710621.22145
  22476771.525   118116262.89308  22476773.390    92038665.21147
  24429683.451   128378833.83107  24429683.778   100035447.50645
  23099915.013   121390841.61807  23099916.288    94590251.55247
 15 02 17 00 53 30.0000000  0  7G16G18G21G22G27G29G31
  21359001.275   112242321.15009  21358999.832    87461537.03648
