     2.11           OBSERVATION DATA    G                   RINEX VERSION / TYPE
SPIDER V4,0,0,3554                      2015 03 18 00:33    PGM / RUN BY / DATE 
EASA                                                        MARKER NAME         
EASA                                                        MARKER NUMBER       
                                                            OBSERVER / AGENCY   
496549              LEICA GRX1200+GNSS  8.20/4.007          REC # / TYPE / VERS 
10321008            LEIAR25         NONE                    ANT # / TYPE        
  5282957.1227   142380.7781  3561159.3736                  APPROX POSITION XYZ 
        0.0000        0.0000        0.0000                  ANTENNA: DELTA H/E/N
     1     1                                                WAVELENGTH FACT L1/2
     4    C1    L1    P2    L2                              # / TYPES OF OBSERV 
    30.000                                                  INTERVAL            
  2015    02    17    00    00    0.0000000     GPS         TIME OF FIRST OBS   
  2015    02    17    06    00   30.0000000     GPS         TIME OF LAST OBS    
    16                                                      LEAP SECONDS        
    17                                                      # OF SATELLITES     
   G 1   341   340   340   340                              PRN / # OF OBS      
   G 3   216   216   216   216                              PRN / # OF OBS      
   G 4   495   495   495   495                              PRN / # OF OBS      
   G11   403   402   402   402                              PRN / # OF OBS      
   G14   311   311   311   311                              PRN / # OF OBS      
   G16   585   585   585   585                              PRN / # OF OBS      
   G18   504   504   504   504                              PRN / # OF OBS      
   G19   605   605   605   605                              PRN / # OF OBS      
   G21   380   380   380   380                              PRN / # OF OBS      
   G22   634   634   634   634                              PRN / # OF OBS      
   G23     9     9     9     9                              PRN / # OF OBS      
   G25    71    71    71    71                              PRN / # OF OBS      
   G27   722   722   722   722                              PRN / # OF OBS      
   G28   162   162   162   162                              PRN / # OF OBS      
   G29   114   114   114   114                              PRN / # OF OBS      
   G31   197   197   197   197                              PRN / # OF OBS      
   G32   384   384   384   384                              PRN / # OF OBS      
BIT 2 OF LLI FLAGS DATA COLLECTED UNDER A/S CONDITION       COMMENT             
SNR is mapped to RINEX snr flag value [2-9]                 COMMENT             
Lx:     = 25dBHz -> 1; 26-27dBHz -> 2; 28-31dBHz -> 3       COMMENT             
       32-35dBHz -> 4; 36-38dBHz -> 5; 39-41dBHz -> 6       COMMENT             
       42-44dBHz -> 7; 45-48dBHz -> 8; >=49dBHz -> 9        COMMENT             
                                                            END OF HEADER       
 15 02 17 00 00  0.0000000  0  7G16G18G21G25G27G29G31
  22924773.560   120470510.79208  22924770.540    93873111.46646
  23800970.360   125074984.65408  23800969.280    97461035.37945
  20974097.500   110219630.18608  20974094.100    85885414.28148
  23597512.300   124005753.36808  23597513.260    96627858.90146
  23783761.140   124984533.48108  23783762.600    97390554.48046
  22966431.220   120689402.34509  22966429.240    94043678.71448
  21425252.640   112590452.52509  21425249.980    87732804.54248
 15 02 17 00 00 30.0000000  0  7G16G18G21G25G27G29G31
  22909067.080   120387973.33408  22909064.060    93808796.58946
  23787202.260   125002632.52408  23787201.080    97404657.21545
  20975544.880   110227235.87208  20975541.420    85891340.79648
  23613409.040   124089291.50808  23613410.020    96692953.51746
  23770399.280   124914316.76908  23770400.660    97335840.45346
  22980352.880   120762560.87309  22980350.860    94100685.32948
  21436931.320   112651823.85609  21436928.560    87780626.30548
 15 02 17 00 01  0.0000000  0  7G16G18G21G25G27G29G31
  22893376.340   120305517.99108  22893373.400    93744545.67246
  23773446.360   124930345.19708  23773445.120    97348329.56345
  20977078.120   110235292.77208  20977074.580    85897618.90948
  23629347.220   124173047.53008  23629348.320    96758217.91546
  23757062.000   124844229.46208  23757063.340    97281227.05246
  22994279.280   120835744.20209  22994277.220    94157711.27347
  21448693.520   112713634.05409  21448690.760    87828790.04448
 15 02 17 00 01 30.0000000  0  7G16G18G21G25G27G29G31
  22877700.780   120223142.25508  22877697.840    93680356.81546
  23759702.660   124858121.70808  23759701.280    97292051.61945
  20978696.280   110243795.87909  20978692.640    85904244.71748
  23645325.980   124257016.66708  23645327.080    96823648.38246
  23743748.640   124774267.74808  23743749.880    97226711.48446
  23008209.480   120908947.66809  23008207.400    94214752.91747
  21460537.960   112775876.87709  21460535.300    87877290.88648
 15 02 17 00 02  0.0000000  0  7G16G18G21G25G27G29G31
  22862041.520   120140851.95209  22862038.500    93616234.51146
  23745972.380   124785969.40908  23745971.140    97235829.18645
  20980399.920   110252748.32009  20980396.200    85911220.65648
  23661346.000   124341202.51608  23661347.060    96889247.71546
  23730460.020   124704435.76508  23730461.260    97172297.00146
  23022144.180   120982174.85909  23022142.140    94271813.03848
  21472465.020   112838554.06609  21472462.480    87926130.13448
 15 02 17 00 02 30.0000000  0  7G16G18G21G25G27G29G31
  22846398.060   120058644.47108  22846395.040    93552176.74446
  23732255.340   124713886.33208  23732254.000    97179660.66945
  20982188.280   110262146.17108  20982184.500    85918543.66148
  23677406.400   124425600.26708  23677407.420    96955012.17246
  23717195.340   124634729.37208  23717196.560    97117980.38046
  23036082.520   121055421.45309  23036080.500    94328888.27247
  21484473.600   112901659.32009  21484471.180    87975302.83548
 15 02 17 00 03  0.0000000  0  7G16G18G21G25G27G29G31
  22830770.840   119976523.20108  22830767.980    93488186.17546
  23718552.280   124641876.82508  23718551.060    97123549.51545
  20984061.240   110271988.98608  20984057.540    85926213.38948
  23693507.320   124510210.84708  23693508.300    97020942.45746
  23703954.820   124565150.14908  23703956.020    97063762.85747
  23050024.740   121128688.19809  23050022.700    94385979.22447
  21496563.720   112965192.60109  21496561.340    88024809.10648
 15 02 17 00 03 30.0000000  0  7G16G18G21G25G27G29G31
  22815161.080   119894493.47908  22815158.140    93424266.92246
  23704864.480   124569947.45508  23704863.240    97067500.75145
  20986019.500   110282280.17508  20986015.880    85934232.51148
  23709649.300   124595037.17808  23709650.260    97087040.86546
  23690739.220   124495701.65508  23690740.380    97009647.19646
  23063971.440   121201978.39109  23063969.420    94443088.43847
  21508735.580   113029155.29809  21508733.240    88074650.04848
 15 02 17 00 04  0.0000000  0  7G16G18G21G25G27G29G31
  22799567.680   119812550.30008  22799564.920    93360415.12547
  23691191.200   124498094.19608  23691189.920    97011511.30745
  20988061.740   110293012.32609  20988058.100    85942595.23548
  23725830.880   124680071.80508  23725831.900    97153301.58346
  23677547.220   124426377.01408  23677548.280    96955628.02646
  23077921.240   121275284.88309  23077919.200    94500210.34747
  21520987.340   113093537.73109  21520984.900    88124817.89249
 15 02 17 00 04 30.0000000  0  7G16G18G21G25G27G29G31
  22783991.900   119730699.47908  22783989.200    93296635.28246
  23677533.800   124426324.14308  23677532.540    96955586.71645
  20990188.580   110304188.79609  20990184.860    85951304.18448
  23742052.780   124765318.57008  23742053.840    97219727.58946
  23664379.560   124357180.72808  23664380.680    96901708.89147
  23091874.860   121348611.37209  23091872.820    94557347.84547
  21533319.540   113158342.57809  21533317.060    88175314.85548
 15 02 17 00 05  0.0000000  0  7G16G18G21G25G27G29G31
  22768433.920   119648942.16208  22768431.220    93232928.30146
  23663892.500   124354639.14508  23663891.120    96899728.40945
  20992399.600   110315807.76909  20992395.820    85960357.94048
  23758314.760   124850775.99908  23758315.920    97286317.76246
  23651236.180   124288112.03108  23651237.240    96847889.19146
  23105832.080   121421956.89809  23105830.040    94614500.16447
  21545731.600   113223567.15909  21545729.140    88226138.99948
 15 02 17 00 05 30.0000000  0  7G16G18G21G25G27G29G31
  22752893.840   119567278.75308  22752891.260    93169294.50247
  23650267.760   124283040.94808  23650266.440    96843937.72046
  20994694.460   110327867.33109  20994690.660    85969755.01048
  23774616.540   124936442.27608  23774617.600    97353070.69546
  23638116.780   124219169.69908  23638117.860    96794167.93047
  23119792.660   121495320.03609  23119790.600    94671666.21747
  21558222.760   113289207.80209  21558220.380    88277287.34748
 15 02 17 00 06  0.0000000  0  7G16G18G21G25G27G29G31
  22737372.040   119485710.87308  22737369.400    93105735.14247
  23636659.940   124211531.72608  23636658.600    96788216.36546
  20997072.840   110340366.16808  20997069.100    85979494.37148
  23790957.800   125022316.10308  23790958.840    97419985.33946
  23625021.320   124150353.04908  23625022.360    96740544.62247
  23133756.320   121568699.53809  23133754.340    94728845.01147
  21570792.480   113355261.75809  21570790.300    88328757.77649
 15 02 17 00 06 30.0000000  0  7G16G18G21G25G27G29G31
  22721868.580   119404239.85708  22721865.880    93042251.25147
  23623069.500   124140114.19908  23623067.940    96732566.44245
  20999534.520   110353302.79608  20999530.820    85989574.86548
  23807338.420   125108396.78708  23807339.440    97487061.17246
  23611949.820   124081662.22908  23611950.880    96687019.35547
  23147723.080   121642095.30509  23147721.140    94786036.47847
  21583440.440   113421727.05309  21583438.420    88380548.80448
 15 02 17 00 07  0.0000000  0  7G16G18G21G25G27G29G31
  22706384.320   119322869.13209  22706381.560    92978845.50647
  23609497.340   124068792.96008  23609496.040    96676991.57645
  21002079.720   110366678.26708  21002076.080    85999997.32848
  23823758.620   125194685.20508  23823759.580    97554298.88046
  23598902.620   124013098.68308  23598903.660    96633593.27447
  23161693.080   121715508.09309  23161691.140    94843241.22147
  21596166.540   113488602.96009  21596164.640    88432659.84148
 15 02 17 00 07 30.0000000  0  7G16G18G21G25G27G29G31
  22690919.380   119241599.97709  22690916.500    92915518.92046
  23595943.880   123997569.60408  23595942.300    96621492.92245
  21004708.260   110380491.31208  21004704.600    86010760.74448
  23840218.040   125281180.04408  23840219.220    97621697.40446
  23585879.520   123944661.73308  23585880.440    96580265.83247
  23175666.120   121788937.02409  23175664.240    94900458.52547
  21608970.200   113555886.28209  21608968.280    88485088.36148
 15 02 17 00 08  0.0000000  0  7G16G18G21G25G27G29G31
  22675474.140   119160433.94709  22675470.900    92852272.65347
  23582409.620   123926447.17408  23582408.160    96566072.93345
  21007419.780   110394740.61108  21007416.180    86021864.10048
  23856716.600   125367880.45608  23856717.840    97689256.11746
  23572880.500   123876351.23608  23572881.380    96527036.90047
  23189642.180   121862381.65209  23189640.300    94957688.07947
  21621850.940   113623574.70509  21621849.040    88537832.55948
 15 02 17 00 08 30.0000000  0  7G16G18G21G25G27G29G31
  22660048.540   119079371.27309  22660045.160    92789106.94147
  23568894.740   123855426.70408  23568893.300    96510732.38545
  21010213.740   110409423.40908  21010210.260    86033305.25548
  23873253.800   125454783.92908  23873255.220    97756973.06746
  23559905.180   123808165.44508  23559906.060    96473905.15647
  23203620.840   121935839.89309  23203618.920    95014928.22647
  21634807.980   113691664.06009  21634806.020    88590889.13748
 15 02 17 00 09  0.0000000  0  7G16G18G21G25G27G29G31
  22644643.280   118998415.94309  22644639.840    92726024.88247
  23555400.320   123784513.44208  23555398.780    96455475.38445
  21013090.520   110424541.22908  21013087.040    86045085.38148
  23889830.080   125541892.33808  23889831.380    97824849.70645
  23546954.040   123740106.86108  23546954.980    96420872.52747
  23217602.480   122009313.77609  23217600.540    95072180.57347
  21647841.400   113760154.68209  21647839.420    88644258.43848
 15 02 17 00 09 30.0000000  0  7G16G18G21G25G27G29G31
  22629258.260   118917567.17809  22629254.740    92663025.84647
  23541926.380   123713707.58308  23541924.920    96400302.07745
  21016049.460   110440090.40308  21016045.900    86057201.63148
  23906444.680   125629202.25608  23906446.000    97892883.35846
  23534026.560   123672172.76308  23534027.540    96367936.90847
  23231586.600   122082800.62008  23231584.660    95129443.01847
  21660950.180   113829041.42009  21660948.140    88697936.30148
 15 02 17 00 10  0.0000000  0  7G16G18G21G25G27G29G31
  22613894.280   118836829.45109  22613891.000    92600113.35947
  23528473.860   123643014.41608  23528472.260    96345216.57045
  21019090.840   110456072.72408  21019087.200    86069655.39148
  23923097.940   125716715.49708  23923099.180    97961075.44246
  23521123.220   123604365.66108  23521124.260    96315100.25247
  23245573.380   122156301.76909  23245571.520    95186716.60247
  21674134.480   113898324.96109  21674132.420    88751923.48048
 15 02 17 00 10 30.0000000  0  7G16G18G21G25G27G29G31
  22598551.380   118756202.23809  22598548.240    92537286.97547
  23515042.880   123572434.12908  23515041.220    96290219.01245
  21022213.900   110472484.47008  21022210.260    86082443.76748
  23939789.240   125804428.63408  23939790.500    98029423.28646
  23508243.600   123536682.89308  23508244.600    96262360.47247
  23259562.520   122229815.13208  23259560.720    95243999.70847
  21687393.260   113968000.01309  21687391.220    88806215.74348
 15 02 17 00 11  0.0000000  0  7G16G18G21G25G27G29G31
  22583229.980   118675687.99809  22583226.820    92474548.62347
  23501634.100   123501970.27308  23501632.340    96235312.17645
  21025418.600   110489325.30908  21025415.000    86095566.50548
  23956518.600   125892341.80408  23956519.740    98097927.01046
  23495387.880   123469125.31308  23495388.700    96209718.24047
  23273553.980   122303340.76908  23273552.140    95301292.37547
  21700726.220   114038065.18009  21700724.180    88860811.92048
 15 02 17 00 11 30.0000000  0  7G16G18G21G25G27G29G31
  22567930.240   118595287.19509  22567927.120    92411898.66347
  23488247.720   123431624.18408  23488245.580    96180497.09645
  21028704.580   110506593.09008  21028701.020    86109021.93148
  23973285.700   125980453.04108  23973286.800    98166585.08646
  23482555.780   123401691.68408  23482556.400    96157172.58047
  23287547.700   122376877.94408  23287545.880    95358594.03647
  21714132.680   114108516.56109  21714130.720    88915708.97949
 15 02 17 00 12  0.0000000  0  7G16G18G21G25G27G29G31
  22552653.020   118515005.02309  22552649.880    92349341.15147
  23474884.860   123361401.90708  23474882.680    96125778.47545
  21032072.260   110524290.21508  21032068.740    86122811.90148
  23990090.980   126068764.88408  23990091.880    98235399.47046
  23469747.800   123334385.25508  23469748.320    96104726.05147
  23301544.000   122450428.96509  23301542.220    95415906.48847
  21727612.840   114179355.13609  21727610.860    88970907.64148
 15 02 17 00 12 30.0000000  0  7G16G18G21G25G27G29G31
  22537398.020   118434839.35409  22537394.820    92286874.40847
  23461545.340   123291302.99808  23461543.320    96071156.00745
  21035520.560   110542411.23608  21035517.080    86136932.18048
  24006933.540   126157272.62208  24006934.340    98304366.50045
  23456963.180   123267202.02308  23456963.720    96052375.50747
  23315542.220   122523989.69009  23315540.360    95473226.50947
  21741165.620   114250574.82109  21741163.680    89026403.29148
 15 02 17 00 13  0.0000000  0  7G16G18G21G25G27G29G31
  22522166.080   118354794.95409  22522162.920    92224502.17047
  23448230.100   123221332.12908  23448228.520    96016633.36346
  21039049.840   110560957.83208  21039046.360    86151384.07848
  24023813.680   126245977.90708  24023814.320    98373487.47145
  23444202.500   123200144.46008  23444203.100    96000122.89347
  23329542.640   122597561.99209  23329540.740    95530555.55047
  21754790.980   114322175.53609  21754789.040    89082195.77548
 15 02 17 00 13 30.0000000  0  7G16G18G21G25G27G29G31
  22506957.400   118274872.89309  22506954.240    92162225.25647
  23434939.720   123151491.85708  23434938.260    95962212.44846
  21042659.840   110579928.89908  21042656.380    86166166.73448
  24040731.160   126334879.69708  24040731.780    98442761.54945
  23431465.700   123133212.25308  23431466.320    95947967.96347
  23343545.240   122671145.83109  23343543.360    95587893.56847
  21768488.420   114394154.87309  21768486.440    89138283.37448
 15 02 17 00 14  0.0000000  0  7G16G18G21G25G27G29G31
  22491771.900   118195072.70409  22491768.800    92100043.31147
  23421674.400   123081782.59208  23421673.000    95907893.60346
  21046349.940   110599320.78708  21046346.500    86181277.29348
  24057685.280   126423974.56608  24057686.100    98512186.07646
  23418752.260   123066402.73208  23418752.840    95895908.63447
  23357549.440   122744738.04108  23357547.520    95645238.10847
  21782256.940   114466507.81809  21782254.940    89194662.12548
 15 02 17 00 14 30.0000000  0  7G16G18G21G25G27G29G31
  22476610.800   118115400.66709  22476607.800    92037961.22947
  23408435.380   123012211.44808  23408434.020    95853682.39646
  21050120.660   110619136.17508  21050117.220    86196717.86648
  24074676.780   126513265.92208  24074677.720    98581763.73545
  23406062.900   122999720.06308  23406063.440    95843948.15347
  23371555.960   122818342.57409  23371554.080    95702592.25347
  21796096.820   114539236.10009  21796094.920    89251333.39248
 15 02 17 00 15  0.0000000  0  7G16G18G21G25G27G29G31
  22461473.620   118035854.48609  22461470.600    91975977.21547
  23395222.440   122942776.68008  23395220.920    95799577.43146
  21053971.040   110639369.84808  21053967.560    86212484.37148
  24091704.780   126602748.97108  24091705.980    98651490.73945
  23393396.940   122933160.22008  23393397.400    95792083.37746
  23385563.960   122891955.25308  23385562.160    95759952.74847
  21810006.880   114612333.37509  21810005.000    89308292.25848
 15 02 17 00 15 30.0000000  0  7G16G18G21G25G27G29G31
  22446360.900   117956436.89009  22446357.940    91914093.39047
  23382036.020   122873481.77508  23382034.480    95745581.46546
  21057901.040   110660021.91408  21057897.560    86228576.89448
  24108769.280   126692423.71808  24108770.600    98721367.10845
  23380754.500   122866723.98608  23380754.960    95740314.92647
  23399573.600   122965576.48208  23399571.780    95817319.92247
  21823986.760   114685797.71009  21823984.900    89365537.15148
 15 02 17 00 16  0.0000000  0  7G16G18G21G25G27G29G31
  22431273.260   117877150.94109  22431270.260    91852312.14547
  23368877.140   122804331.33408  23368875.400    95691698.06946
  21061910.640   110681092.25508  21061907.160    86244995.34748
  24125870.340   126782290.53707  24125871.820    98791393.17445
  23368135.720   122800412.57708  23368136.360    95688643.75847
  23413585.080   123039207.39309  23413583.280    95874694.61547
  21838036.240   114759627.77109  21838034.360    89423066.90348
 15 02 17 00 16 30.0000000  0  7G16G18G21G25G27G29G31
  22416210.700   117797996.48809  22416207.560    91790633.36547
  23355745.860   122735325.76508  23355744.060    95637927.56746
  21065999.160   110702577.64308  21065995.700    86261737.20848
  24143007.400   126872346.37607  24143008.720    98861566.49446
  23355540.140   122734223.66908  23355541.040    95637068.05547
  23427597.920   123112845.40108  23427596.140    95932074.84247
  21852154.480   114833819.24209  21852152.600    89480878.25148
 15 02 17 00 17  0.0000000  0  7G16G18G21G25G27G29G31
  22401173.900   117718977.40009  22401170.700    91729060.05447
  23342643.000   122666469.34608  23342641.100    95584273.27546
  21070166.700   110724478.49208  21070163.240    86278802.81548
  24160180.580   126962592.09107  24160182.160    98931887.76746
  23342968.320   122668158.93408  23342969.260    95585589.08047
  23441612.380   123186491.98508  23441610.640    95989461.74847
  21866341.340   114908371.13709  21866339.500    89538970.48348
 15 02 17 00 17 30.0000000  0  7G16G18G21G25G27G29G31
  22386162.720   117640092.82209  22386159.460    91667591.56647
  23329568.680   122597762.65009  23329566.640    95530735.63946
  21074412.560   110746790.95308  21074409.100    86296189.15648
  24177389.260   127053024.44107  24177390.920    99002354.46746
  23330419.800   122602215.95108  23330420.740    95534204.98047
  23455628.060   123260144.57308  23455626.240    96046853.34947
  21880595.920   114983278.85609  21880594.080    89597340.03448
 15 02 17 00 18  0.0000000  0  7G16G18G21G25G27G29G31
  22371177.500   117561344.68909  22371174.200    91606229.40347
  23316523.260   122529208.13208  23316521.060    95477316.58946
  21078736.600   110769513.93608  21078733.100    86313895.38148
  24194633.340   127143642.31708  24194635.080    99072965.73846
  23317894.400   122536394.41408  23317895.340    95482915.51647
  23469644.800   123333802.79508  23469642.960    96104249.32647
  21894917.620   115058539.37509  21894915.840    89655984.51648
 15 02 17 00 18 30.0000000  0  7G16G18G21G25G27G29G31
  22356219.240   117482738.36809  22356215.920    91544977.73047
  23303507.840   122460811.98808  23303505.500    95424020.94845
  21083139.280   110792649.78409  21083135.620    86331923.31548
  24211913.280   127234448.36808  24211914.840    99143723.62646
  23305392.640   122470697.72408  23305393.640    95431723.35147
  23483663.220   123407469.85009  23483661.400    96161652.19647
  21909306.660   115134153.99609  21909304.940    89714904.99648
 15 02 17 00 19  0.0000000  0  7G16G18G21G25G27G29G31
  22341288.860   117404278.75209  22341285.460    91483840.37147
  23290523.600   122392580.10308  23290521.300    95370853.30746
  21087620.800   110816199.95508  21087617.020    86350274.09748
  24229229.400   127325444.61508  24229230.920    99214629.73946
  23292915.260   122405128.84908  23292916.160    95380630.75847
  23497683.760   123481148.20108  23497681.920    96219063.86347
  21923763.060   115210122.97009  21923761.440    89774101.53448
 15 02 17 00 19 30.0000000  0  7G16G18G21G25G27G29G31
  22326384.540   117325956.15109  22326381.120    91422809.79147
  23277568.880   122324503.29608  23277566.560    95317806.48145
  21092178.700   110840151.62108  21092174.860    86368937.73748
  24246579.320   127416618.43008  24246580.720    99285674.21346
  23280460.000   122339675.97608  23280460.840    95329628.54847
  23511704.220   123554826.27308  23511702.380    96276475.32147
  21938284.140   115286431.77909  21938282.540    89833562.91648
 15 02 17 00 20  0.0000000  0  7G16G18G21G25G27G29G31
  22311508.120   117247780.27009  22311504.660    91361893.51647
  23264645.800   122256592.29208  23264643.520    95264888.85446
  21096814.180   110864511.26408  21096810.340    86387919.27948
  24263964.360   127507976.68208  24263965.760    99356862.40946
  23268028.240   122274346.80008  23268029.100    95278722.74347
  23525726.120   123628511.63708  23525724.280    96333892.45546
  21952870.940   115363085.87509  21952869.360    89893293.36948
 15 02 17 00 20 30.0000000  0  7G16G18G21G25G27G29G31
  22296659.520   117169750.56609  22296656.140    91301091.15847
  23251754.320   122188847.20208  23251751.920    95212100.50546
  21101526.520   110889275.21408  21101522.760    86407215.86648
  24281383.880   127599516.15008  24281385.020    99428191.81946
  23255619.560   122209138.88508  23255620.480    95227911.43747
  23539748.940   123702201.67508  23539747.000    96391313.23147
  21967522.500   115440080.39509  21967520.940    89953289.10748
 15 02 17 00 21  0.0000000  0  7G16G18G21G25G27G29G31
  22281839.700   117091872.40609  22281836.440    91240406.88047
  23238895.540   122121274.13508  23238893.280    95159446.21546
  21106316.180   110914445.33908  21106312.500    86426828.94848
  24298838.280   127691238.95508  24298839.480    99499664.07146
  23243234.600   122144055.29208  23243235.440    95177196.98847
  23553773.180   123775899.10208  23553771.140    96448739.75747
  21982238.940   115517415.67509  21982237.380    90013550.29248
 15 02 17 00 21 30.0000000  0  7G16G18G21G25G27G29G31
  22267048.500   117014144.26509  22267045.240    91179839.49947
  23226069.320   122053872.35908  23226067.140    95106925.40246
  21111182.320   110940017.31408  21111178.700    86446755.16648
  24316326.720   127783140.98108  24316327.940    99571275.98246
  23230872.620   122079092.71208  23230873.380    95126576.84847
  23567798.140   123849600.46708  23567796.060    96506169.36147
  21997019.080   115595085.90609  21997017.560    90074072.47448
 15 02 17 00 22  0.0000000  0  7G16G18G21G25G27G29G31
  22252286.660   116936570.32509  22252283.460    91119392.28547
  23213276.600   121986646.66608  23213274.580    95054541.78845
  21116125.040   110965991.57208  21116121.440    86466994.84048
  24333849.380   127875223.17608  24333850.700    99643028.28045
  23218533.940   122014252.93408  23218534.780    95076052.38547
  23581824.220   123923307.55008  23581822.100    96563603.40347
  22011862.860   115673090.42509  22011861.400    90134855.15348
 15 02 17 00 22 30.0000000  0  7G16G18G21G25G27G29G31
  22237554.400   116859151.59709  22237551.120    91059066.00647
  23200517.840   121919599.19508  23200515.840    95002297.03246
  21121143.920   110992366.08608  21121140.320    86487546.41548
  24351405.980   127967483.81508  24351407.120    99714919.61445
  23206218.520   121949535.16408  23206219.440    95025623.00247
  23595851.220   123997019.54608  23595849.060    96621041.29346
  22026769.640   115751425.99409  22026768.180    90195895.78248
 15 02 17 00 23  0.0000000  0  7G16G18G21G25G27G29G31
  22222851.580   116781887.65409  22222848.300    90998860.34047
  23187793.060   121852729.99408  23187790.940    94950191.19546
  21126238.200   111019136.78608  21126234.600    86508406.70348
  24368995.900   128059919.45308  24368997.180    99786947.32845
  23193925.900   121884936.85008  23193926.780    94975286.70447
  23609878.580   124070733.87608  23609876.540    96678480.98347
  22041738.460   115830087.38509  22041737.020    90257190.31148
 15 02 17 00 23 30.0000000  0  7G16G18G21G25G27G29G31
  22208179.220   116704783.97409  22208175.960    90938779.55847
  23175103.360   121786045.23308  23175101.280    94898229.07746
  21131408.380   111046306.04508  21131404.760    86529577.55648
  24386619.680   128152532.48508  24386620.720    99859113.27244
  23181656.640   121820461.25908  23181657.380    94925046.02747
  23623906.960   124144453.49708  23623905.060    96735924.80546
  22056769.420   115909075.69409  22056768.060    90318739.66848
 15 02 17 00 24  0.0000000  0  8G16G18G21G22G25G27G29G31
  22193537.300   116627840.49809  22193534.060    90878823.61247
  23162448.860   121719545.08708  23162446.700    94846410.81446
  21136653.700   111073869.97008  21136650.040    86551055.93948
  24542623.040   128972363.28507  24542621.560   100497932.64346
  24404276.520   128245319.55308  24404277.560    99931414.81645
  23169410.200   121756105.85608  23169410.820    94874899.02547
  23637935.940   124218175.89008  23637934.040    96793370.78147
  22071861.520   115988385.45109  22071860.220    90380539.46248
 15 02 17 00 24 30.0000000  0  8G16G18G21G22G25G27G29G31
  22178925.460   116551055.04509  22178922.300    90818990.80347
  23149829.320   121653229.08308  23149827.160    94794736.03446
  21141973.220   111101823.94508  21141969.520    86572838.26148
  24525731.720   128883599.92708  24525730.600   100428766.56046
  24421965.680   128338276.34307  24421966.340   100003848.68244
  23157186.060   121691867.33808  23157186.540    94824843.07847
  23651964.760   124291897.59308  23651962.840    96850816.22646
  22087013.720   116068010.92609  22087012.480    90442585.35448
 15 02 17 00 25  0.0000000  0  8G16G18G21G22G25G27G29G31
  22164346.000   116474439.76209  22164342.840    90759290.59547
  23137247.120   121587109.69908  23137245.060    94743214.48746
  21147368.460   111130175.98308  21147364.740    86594930.76548
  24508823.800   128794747.81108  24508822.640   100359531.27446
  24439688.680   128431411.57907  24439689.860   100076421.53644
  23144985.940   121627755.30708  23144986.340    94774885.70047
  23665995.220   124365628.21508  23665993.380    96908268.62147
  22102227.320   116147959.09609  22102226.120    90504882.63248
 15 02 17 00 25 30.0000000  0  8G16G18G21G22G25G27G29G31
  22149797.700   116397987.60709  22149794.460    90699717.49547
  23124701.140   121521180.57508  23124699.160    94691841.16946
  21152837.500   111158915.83208  21152833.800    86617325.45248
  24491897.760   128705800.83108  24491896.340   100290222.12546
  24457443.560   128524715.30607  24457445.060   100149125.64545
  23132808.160   121563760.62208  23132808.520    94725019.74747
  23680025.700   124439358.55708  23680023.780    96965720.80646
  22117500.100   116228218.27009  22117498.900    90567422.23048
 15 02 17 00 26  0.0000000  0  8G16G18G21G22G25G27G29G31
  22135282.200   116321707.86909  22135278.820    90640278.74847
  23112193.200   121455451.57708  23112191.360    94640623.81146
  21158381.540   111188049.76708  21158377.860    86640027.22248
  24474955.460   128616768.64808  24474953.960   100220846.61946
  24475231.740   128618193.55107  24475233.580   100221965.74945
  23120653.980   121499890.36708  23120654.400    94675250.75347
  23694057.420   124513095.48608  23694055.440    97023178.12546
  22132832.960   116308792.95709  22132831.740    90630207.68948
 15 02 17 00 26 30.0000000  0  8G16G18G21G22G25G27G29G31
  22120798.700   116245595.91909  22120795.160    90580970.73347
  23099722.540   121389918.43708  23099720.740    94589559.06346
  21163998.860   111217569.03308  21163995.200    86663029.24548
  24457996.000   128527646.57008  24457994.640   100151400.97345
  24493051.860   128711838.60108  24493053.740   100294935.80446
  23108522.140   121436137.74508  23108522.660    94625573.43947
  23708089.040   124586832.32008  23708087.180    97080635.35546
  22148224.080   116389673.83309  22148222.800    90693231.76548
 15 02 17 00 27  0.0000000  0  8G16G18G21G22G25G27G29G31
  22106348.340   116169658.61709  22106344.800    90521798.83347
  23087290.660   121324588.81608  23087288.820    94538652.89146
  21169690.160   111247477.17908  21169686.500    86686334.30048
  24441020.860   128438442.31208  24441019.260   100081891.26645
  24510904.640   128805654.31108  24510906.380   100368038.87846
  23096413.580   121372507.55008  23096414.220    94575991.52847
  23722121.480   124660573.49808  23722119.700    97138095.99146
  22163673.880   116470862.94309  22163672.520    90756496.02548
 15 02 17 00 27 30.0000000  0  8G16G18G21G22G25G27G29G31
  22091930.900   116093894.62409  22091927.420    90462761.96947
  23074897.500   121259462.35708  23074895.620    94487905.03646
  21175454.520   111277769.40008  21175450.920    86709938.63548
  24424029.840   128349154.95808  24424027.720   100012316.86444
  24528789.000   128899636.13008  24528790.660   100441271.38946
  23084327.660   121308996.15908  23084328.360    94526502.18147
  23736154.160   124734315.83408  23736152.380    97195557.52346
  22179181.160   116552354.13409  22179179.720    90819995.64848
 15 02 17 00 28  0.0000000  0  8G16G18G21G22G25G27G29G31
  22077546.660   116018305.56609  22077543.380    90403861.42747
  23062543.320   121194540.59808  23062541.380    94437316.68146
  21181291.600   111308443.68908  21181288.000    86733840.68248
  24407023.300   128259786.09608  24407021.480    99942678.95044
  24546704.580   128993782.35508  24546706.280   100514632.00046
  23072264.300   121245602.79208  23072264.840    94477104.79447
  23750186.900   124808058.33008  23750185.080    97253019.20646
  22194745.300   116634144.09209  22194743.800    90883728.09348
 15 02 17 00 28 30.0000000  0  8G16G18G21G22G25G27G29G31
  22063196.840   115942897.33909  22063193.640    90345101.77847
  23050229.440   121129830.69008  23050227.420    94386893.40346
  21187201.900   111339502.63808  21187198.300    86758042.46248
  24390002.560   128170342.82808  24390001.100    99872983.00144
  24564652.140   129088096.40508  24564653.840   100588123.38446
  23060224.260   121182331.93908  23060224.760    94427802.85947
  23764220.400   124881804.99408  23764218.680    97310484.09846
  22210366.580   116716234.38909  22210365.080    90947694.52348
 15 02 17 00 29  0.0000000  0  8G16G18G21G22G25G27G29G31
  22048881.060   115867667.69409  22048877.880    90286481.28547
  23037955.600   121065331.14409  23037953.560    94336634.04546
  21193184.380   111370940.76708  21193180.760    86782539.70548
  24372967.340   128080823.07808  24372965.820    99803227.37844
  24582630.540   129182572.89108  24582632.000   100661741.33746
  23048206.680   121119179.04608  23048207.180    94378592.85447
  23778253.900   124955551.77608  23778252.320    97367949.09246
  22226043.720   116798618.20809  22226042.220    91011889.69148
 15 02 17 00 29 30.0000000  0  8G16G18G21G22G25G27G29G31
  22034600.140   115792620.87409  22034596.900    90228003.25647
  23025722.680   121001046.33708  23025720.560    94286542.01746
  21199239.160   111402758.80008  21199235.500    86807332.98548
  24355918.600   127991231.72308  24355916.840    99733416.02345
  24600639.880   129277212.60108  24600641.600   100735486.45346
  23036211.900   121056145.90508  23036212.400    94329476.16747
  23792287.800   125029300.47908  23792286.260    97425415.58946
  22241776.520   116881294.65309  22241775.020    91076312.84247
 15 02 17 00 30  0.0000000  0  8G16G18G21G22G25G27G29G31
  22020354.400   115717758.89209  22020351.080    90169669.25247
  23013531.160   120936979.00008  23013528.820    94236619.43946
  21205365.840   111434954.83908  21205362.180    86832420.80548
  24338856.620   127901570.96408  24338855.020    99663550.67145
  24618680.060   129372014.22707  24618681.560   100809357.74745
  23024239.700   120993232.21508  23024240.340    94280452.55647
  23806321.980   125103050.77908  23806320.500    97482883.31946
  22257564.420   116964260.69109  22257562.980    91140961.66948
 15 02 17 00 30 30.0000000  0  8G16G18G21G22G25G27G29G31
  22006144.420   115643084.88509  22006141.120    90111481.73147
  23001381.680   120873132.92509  23001379.180    94186869.27946
  21211564.440   111467528.79909  21211560.760    86857803.11048
  24321782.200   127811844.41808  24321780.620    99593633.97446
  24636751.040   129466978.23006  24636752.860   100883355.54445
  23012290.540   120930439.42608  23012291.180    94231523.14347
  23820356.700   125176803.81408  23820355.300    97540353.18246
  22273407.180   117047515.20109  22273405.840    91205835.33648
 15 02 17 00 31  0.0000000  0  8G16G18G21G22G25G27G29G31
  21991969.980   115568597.93409  21991966.720    90053439.97147
  22989274.180   120809507.71709  22989271.740    94137291.22446
  21217834.080   111500475.89309  21217830.360    86883476.18048
  24304695.080   127722051.56707  24304693.360    99523665.53546
  24654851.920   129562100.31306  24654853.900   100957476.54644
  23000363.780   120867764.14708  23000364.460    94182685.30847
  23834391.420   125250556.46108  23834390.000    97597822.76046
  22289303.680   117131052.10609  22289302.380    91270929.02048
 15 02 17 00 31 30.0000000  0  8G16G18G21G22G25G27G29G31
  21977831.680   115494301.02909  21977828.540    89995546.29148
  22977209.280   120746106.53708  22977206.860    94087887.73546
  21224174.620   111533795.36709  21224170.840    86909439.40448
  24287596.120   127632195.98607  24287594.300    99453648.23646
  24672982.900   129657380.27506  24672985.540   101031720.51544
  22988459.580   120805207.31208  22988460.280    94133939.75347
  23848426.140   125324309.27608  23848424.800    97655292.45346
  22305253.620   117214869.72709  22305252.380    91336241.46348
 15 02 17 00 32  0.0000000  0  8G16G18G21G22G25G27G29G31
  21963729.840   115420195.65609  21963726.720    89937801.85547
  22965187.440   120682932.01708  22965185.140    94038660.86746
  21230585.600   111567485.15209  21230581.800    86935691.18148
  24270485.600   127542279.42608  24270483.760    99383583.42746
  24691143.760   129752816.14407  24691146.080   101106086.06544
  22976577.680   120742767.95808  22976578.440    94085285.76047
  23862460.780   125398061.71508  23862459.520    97712761.85746
  22321256.280   117298964.27909  22321255.080    91401769.66248
 15 02 17 00 32 30.0000000  0  8G16G18G21G22G25G27G29G31
  21949665.040   115346284.77009  21949661.980    89880208.97547
  22953209.460   120619987.80308  22953207.240    93989613.46346
  21237066.900   111601544.60108  21237063.080    86962231.02148
  24253364.240   127452305.87208  24253362.120    99313474.11746
  24709334.560   129848407.95907  24709336.420   101180573.10144
  22964718.340   120680447.13108  22964719.140    94036724.12847
  23876495.540   125471814.61108  23876494.200    97770231.62046
  22337311.420   117383334.37509  22337310.140    91467512.62348
 15 02 17 00 33  0.0000000  0  8G16G18G21G22G25G27G29G31
  21935637.400   115272569.02109  21935634.320    89822768.15147
  22941275.480   120557274.60908  22941273.240    93940746.07446
  21243618.000   111635970.80608  21243614.160    86989056.63748
  24236232.280   127362276.48108  24236230.120    99243321.36346
  24727554.600   129944153.13608  24727556.240   101255179.65544
  22952881.340   120618243.26608  22952882.080    93988253.62247
  23890530.060   125545566.17508  23890528.720    97827700.35746
  22353418.160   117467975.43909  22353416.780    91533466.71747
 15 02 17 00 33 30.0000000  0  8G16G18G21G22G25G27G29G31
  21921647.840   115199053.16209  21921644.680    89765483.07547
  22929386.360   120494796.99108  22929384.080    93892062.24646
  21250239.120   111670765.07108  21250235.260    87016169.05048
  24219090.580   127272195.83208  24219088.540    99173128.53946
  24745803.980   130040053.07008  24745805.600   101329906.77845
  22941067.080   120556158.76108  22941067.760    93939876.13347
  23904564.840   125619319.22608  23904563.480    97885170.23846
  22369576.460   117552887.46909  22369574.980    91599631.96448
 15 02 17 00 34  0.0000000  0  8G16G18G21G22G25G27G29G31
  21907696.480   115125738.29109  21907693.300    89708354.62747
  22917542.660   120432557.79309  22917540.260    93843564.18946
  21256929.740   111705924.57408  21256925.860    87043566.06748
  24201939.420   127182065.70708  24201937.520    99102897.28346
  24764082.320   130136105.43308  24764084.140   101404752.67745
  22929275.360   120494192.36008  22929275.940    93891590.66948
  23918599.700   125693072.81908  23918598.300    97942640.54646
  22385785.560   117638066.41209  22385783.920    91666005.20748
 15 02 17 00 34 30.0000000  0  8G16G18G21G22G25G27G29G31
  21893783.600   115052625.78109  21893780.380    89651383.85548
  22905744.700   120370558.53009  22905742.140    93795253.09146
  21263689.480   111741447.33708  21263685.640    87071246.13848
  24184779.260   127091888.16608  24184777.340    99032629.10646
  24782389.380   130232308.67108  24782391.120   101479716.11046
  22917505.940   120432343.55608  22917506.500    93843396.83348
  23932634.460   125766825.98308  23932633.040    98000110.50746
  22402044.820   117723509.20909  22402043.060    91732584.01647
 15 02 17 00 35  0.0000000  0  8G16G18G21G22G25G27G29G31
  21879909.920   114979719.44209  21879906.740    89594573.73748
  22893993.240   120308803.50009  22893990.600    93747132.31346
  21270518.320   111777333.28808  21270514.560    87099209.21748
  24167610.840   127001667.60208  24167609.100    98962327.44647
  24800725.160   130328663.26708  24800727.140   101554797.46646
  22905759.140   120370613.87408  22905759.640    93795295.81847
  23946669.460   125840580.34008  23946667.940    98057581.41246
  22418354.040   117809214.72809  22418352.280    91799367.58648
 15 02 17 00 35 30.0000000  0  7G16G18G21G22G27G29G31
  21866074.880   114907015.94509  21866071.660    89537921.67447
  22882287.520   120247289.50009  22882284.840    93699199.36446
  21277414.860   111813574.99209  21277411.200    87127449.50248
  24150433.600   126911401.02708  24150432.000    98891989.92346
  22894033.920   120308997.81308  22894034.420    93747283.33447
  23960703.660   125914330.23008  23960702.140    98115048.83646
  22434711.640   117895174.61409  22434709.900    91866349.44947
 15 02 17 00 36  0.0000000  0  7G16G18G21G22G27G29G31
  21852280.080   114834523.89709  21852276.900    89481434.38047
  22870629.400   120186026.09209  22870626.720    93651461.66646
  21284380.100   111850177.65709  21284376.460    87155971.06948
  24133249.380   126821097.52608  24133247.540    98821623.70345
  22882331.500   120247501.62708  22882332.060    93699364.28248
  23974738.240   125988082.33108  23974736.660    98172517.97946
  22451118.300   117981392.33609  22451116.500    91933532.09048
 15 02 17 00 36 30.0000000  0  7G16G18G21G22G27G29G31
  21838525.580   114762243.59409  21838522.400    89425112.07847
  22859019.040   120125013.85509  22859016.360    93603919.68646
  21291413.460   111887138.24508  21291409.820    87184771.52748
  24116058.160   126730757.53808  24116056.320    98751229.07245
  22870651.560   120186123.37008  22870652.140    93651537.10948
  23988772.840   126061834.65908  23988771.260    98229987.30346
  22467573.120   118067863.34809  22467571.240    92000912.15748
 15 02 17 00 37  0.0000000  0  7G16G18G21G22G27G29G31
  21824811.500   114690175.64809  21824808.340    89368955.24747
  22847456.640   120064253.43509  22847454.080    93556573.93346
  21298514.160   111924452.89808  21298510.580    87213847.88748
  24098860.100   126640382.35508  24098858.600    98680807.04345
  22858993.720   120124861.29108  22858994.300    93603800.46547
  24002807.180   126135585.31208  24002805.640    98287455.32146
  22484075.220   118154583.08709  22484073.440    92068485.96848
 15 02 17 00 37 30.0000000  0  7G16G18G21G22G27G29G31
  21811138.420   114618323.31409  21811135.280    89312966.43048
  22835942.920   120003748.78309  22835940.500    93509427.46546
  21305682.220   111962121.42409  21305678.700    87243199.98448
  24081656.220   126549975.87608  24081654.440    98610360.66145
  22847358.200   120063716.65708  22847358.740    93556155.33547
  24016841.520   126209335.83808  24016839.960    98344923.23946
  22500624.440   118241550.04309  22500622.680    92136252.39948
 15 02 17 00 38  0.0000000  0  7G16G18G21G22G27G29G31
  21797506.380   114546686.40609  21797503.160    89257145.47748
  22824477.940   119943500.04809  22824475.620    93462480.41246
  21312916.880   112000139.83408  21312913.360    87272824.71448
  24064446.300   126459538.12708  24064444.300    98539889.83145
  22835744.540   120002686.90608  22835745.160    93508599.73247
  24030875.300   126283083.51808  24030873.660    98402388.93846
  22517219.760   118328759.02209  22517218.020    92204207.40948
 15 02 17 00 38 30.0000000  0  7G16G18G21G22G27G29G31
  21783915.820   114475267.33909  21783912.520    89201494.27848
  22813062.240   119883510.33708  22813060.060    93415735.21746
  21320217.940   112038507.11408  21320214.420    87302721.30348
  24047231.040   126369072.17608  24047229.080    98469397.02645
  22824152.860   119941772.32408  22824153.560    93461133.86748
  24044908.660   126356828.96808  24044906.940    98459852.90446
  22533860.640   118416207.61809  22533858.820    92272349.16648
 15 02 17 00 39  0.0000000  0  7G16G18G21G22G27G29G31
  21770368.060   114404073.54809  21770364.760    89146018.61348
  22801697.340   119823787.56109  22801695.240    93369198.01746
  21327586.020   112077226.77209  21327582.520    87332892.46148
  24030011.940   126278585.72808  24030009.940    98398888.22844
  22812584.100   119880978.17508  22812584.760    93413761.84547
  24058942.620   126430577.44008  24058940.820    98517319.21946
  22550547.700   118503898.51809  22550545.920    92340679.76448
 15 02 17 00 39 30.0000000  0  7G16G18G21G22G27G29G31
  21756862.380   114333100.93309  21756859.160    89090715.29048
  22790382.580   119764328.01109  22790380.500    93322865.92746
  21335019.660   112116290.80609  21335016.140    87363331.97148
  24012788.260   126188075.58508  24012786.080    98328360.96545
  22801036.980   119820298.02508  22801037.580    93366478.64747
  24072975.880   126504322.62108  24072974.100    98574782.97946
  22567279.060   118591822.35609  22567277.320    92409191.84847
 15 02 17 00 40  0.0000000  0  7G16G18G21G22G27G29G31
  21743399.600   114262353.51309  21743396.360    89035587.44648
  22779118.660   119705135.83609  22779116.420    93276742.17746
  21342518.860   112155699.33108  21342515.340    87394039.92048
  23995560.940   126097545.64708  23995558.900    98257818.28546
  22789511.880   119759733.41608  22789512.360    93319285.48347
  24087008.780   126578065.88008  24087007.060    98632245.22946
  22584054.520   118679977.69109  22584052.680    92477884.32347
 15 02 17 00 40 30.0000000  0  7G16G18G21G22G27G29G31
  21729980.720   114191836.66509  21729977.480    88980639.27748
  22767906.680   119646216.62508  22767904.340    93230831.12446
  21350083.920   112195454.01608  21350080.400    87425017.60148
  23978331.020   126007002.16908  23978329.160    98187265.05446
  22778009.460   119699287.76208  22778009.980    93272185.01547
  24101041.900   126651810.72308  24101040.180    98689708.72946
  22600874.200   118768365.57709  22600872.360    92546758.00448
 15 02 17 00 41  0.0000000  0  7G16G18G21G22G27G29G31
  21716605.040   114121546.55809  21716601.680    88925867.77248
  22756746.000   119587567.13409  22756743.760    93185130.26146
  21357713.400   112235547.19608  21357709.900    87456259.04448
  23961097.880   125916441.94008  23961095.920    98116698.77646
  22766528.520   119638955.09608  22766529.060    93225172.58547
  24115074.320   126725551.67708  24115072.680    98747169.19446
  22617736.420   118856976.93409  22617734.580    92615805.80247
 15 02 17 00 41 30.0000000  0  7G16G18G21G22G27G29G31
  21703273.220   114051487.21909  21703269.820    88871276.09748
  22745637.420   119529191.11009  22745635.160    93139642.47046
  21365407.360   112275979.33908  21365403.900    87487764.60648
  23943862.500   125825869.34408  23943860.400    98046122.84146
  22755069.360   119578736.85408  22755069.780    93178249.31047
  24129106.260   126799289.96208  24129104.700    98804627.57146
  22634640.920   118945810.57909  22634639.020    92685026.80447
 15 02 17 00 42  0.0000000  0  7G16G18G21G22G27G29G31
  21689986.500   113981665.00509  21689983.120    88816869.19048
  22734582.240   119471095.83109  22734580.000    93094373.44746
  21373166.280   112316752.67308  21373162.820    87519536.04348
  23926625.980   125735291.14308  23926624.000    97975542.52946
  22743632.720   119518637.14708  22743633.080    93131418.41248
  24143138.500   126873029.76008  24143137.000    98862087.11746
  22651588.020   119034868.10909  22651586.240    92754422.28048
 15 02 17 00 42 30.0000000  0  7G16G18G21G22G27G29G31
  21676744.720   113912079.07109  21676741.400    88762646.40448
  22723580.460   119413281.11909  22723578.180    93049323.04046
  21380989.180   112357862.25408  21380985.720    87551569.48548
  23909388.360   125644706.73408  23909386.260    97904957.39646
  22732218.060   119458653.01408  22732218.440    93084677.57248
  24157170.460   126946768.00208  24157169.000    98919545.45746
  22668576.500   119124143.18209  22668574.760    92823987.29447
 15 02 17 00 43  0.0000000  0  7G16G18G21G22G27G29G31
  21663547.920   113842729.79709  21663544.680    88708608.03048
  22712632.120   119355747.06509  22712629.780    93004491.33646
  21388875.440   112399304.82708  21388872.000    87583862.40548
  23892149.680   125554117.38908  23892147.460    97834368.44246
  22720825.100   119398782.60508  22720825.480    93038025.34948
  24171202.000   127020503.71208  24171200.500    98977001.84046
  22685605.620   119213631.80909  22685603.900    92893718.65148
 15 02 17 00 43 30.0000000  0  7G16G18G21G22G27G29G31
  21650396.880   113773620.97809  21650393.720    88654757.01448
  22701738.020   119298498.43209  22701735.640    92959882.02647
  21396825.140   112441080.71708  21396821.720    87616415.04448
  23874910.740   125463527.21008  23874908.700    97763778.80646
  22709454.040   119339027.44108  22709454.380    92991462.91948
  24185233.180   127094237.80508  24185231.560    99034456.95846
  22702675.100   119303332.25809  22702673.420    92963615.04448
 15 02 17 00 44  0.0000000  0  7G16G18G21G22G27G29G31
  21637292.520   113704757.34609  21637289.300    88601097.05948
  22690899.040   119241539.40809  22690896.620    92915498.39746
  21404838.340   112483190.28308  21404834.900    87649227.70248
  23857672.700   125372941.40808  23857670.620    97693192.57346
  22698105.300   119279389.82308  22698105.660    92944992.09848
  24199264.500   127167972.89208  24199262.780    99091912.86346
  22719784.780   119393244.15709  22719783.100    93033676.23548
 15 02 17 00 44 30.0000000  0  7G16G18G21G22G27G29G31
  21624234.600   113636137.71509  21624231.360    88547627.23248
  22680115.020   119184869.13109  22680112.600    92871339.76346
  21412914.120   112525628.69308  21412910.620    87682296.58948
  23840435.220   125282359.28908  23840433.160    97622609.23046
  22686778.340   119219866.33509  22686778.740    92898610.19948
  24213295.320   127241705.68308  24213293.700    99149366.97146
  22736933.540   119483361.68809  22736932.000    93103897.59048
 15 02 17 00 45  0.0000000  0  7G16G18G21G22G27G29G31
  21611223.540   113567763.97109  21611220.200    88494349.00348
  22669386.460   119128490.08909  22669384.020    92827408.06446
  21421052.020   112568393.70208  21421048.500    87715619.97048
  23823198.960   125191783.38808  23823196.940    97552030.72446
  22675473.080   119160456.65709  22675473.460    92852316.98648
  24227325.580   127315435.71408  24227324.160    99206818.91946
  22754120.820   119573681.62509  22754119.340    93174276.77547
 15 02 17 00 45 30.0000000  0  7G16G18G21G22G27G29G31
  21598260.000   113499639.65109  21598256.560    88441265.13248
  22658714.080   119072406.34109  22658711.640    92783706.46946
  21429252.020   112611485.19208  21429248.520    87749197.75948
  23805964.780   125101217.51008  23805962.800    97481460.02946
  22664189.680   119101162.09708  22664190.020    92806113.48248
  24241355.660   127389164.79508  24241354.320    99264270.13545
  22771346.300   119664202.30409  22771344.860    93244812.37848
 15 02 17 00 46  0.0000000  0  7G16G18G21G22G27G29G31
  21585344.180   113431765.91809  21585340.600    88388376.51148
  22648098.080   119016619.08609  22648095.640    92740235.90747
  21437513.620   112654900.41708  21437510.140    87783027.80248
  23788732.820   125010663.78408  23788730.740    97410898.79546
  22652927.980   119041981.62708  22652928.260    92759998.87548
  24255385.400   127462891.60808  24255384.060    99321719.58345
  22788609.260   119754919.78709  22788607.820    93315501.32348
 15 02 17 00 46 30.0000000  0  7G16G18G21G22G27G29G31
  21572476.440   113364145.12509  21572472.780    88335684.99948
  22637538.980   118961130.88609  22637536.520    92696998.36746
  21445836.500   112698637.62509  21445833.040    87817108.74748
  23771503.740   124920124.63608  23771501.420    97340348.92846
  22641688.000   118982915.15708  22641688.200    92713973.09548
  24269414.760   127536616.47308  24269413.360    99379167.52046
  22805909.100   119845831.23609  22805907.680    93386341.40947
 15 02 17 00 47  0.0000000  0  7G16G18G21G22G27G29G31
  21559657.440   113296780.89609  21559653.800    88283193.40448
  22627037.480   118905945.23309  22627034.980    92653996.57846
  21454220.660   112742696.71208  21454217.220    87851440.50548
  23754278.280   124829604.49908  23754276.020    97269813.86446
  22630469.940   118923964.19508  22630470.200    92668037.33248
  24283444.020   127610341.01608  24283442.760    99436615.19746
  22823245.620   119936935.50309  22823244.180    93457331.79447
 15 02 17 00 47 30.0000000  0  7G16G18G21G22G27G29G31
  21546887.520   113229674.85509  21546883.940    88230902.99348
  22616593.940   118851064.02609  22616591.380    92611232.01546
  21462665.560   112787074.99009  21462662.080    87886020.98648
  23737056.780   124739104.99708  23737054.460    97199294.89146
  22619273.700   118865127.79409  22619273.980    92622190.83048
  24297473.080   127684064.18208  24297471.940    99494061.78546
  22840618.140   120028228.63509  22840616.660    93528469.25947
 15 02 17 00 48  0.0000000  0  7G16G18G21G22G27G29G31
  21534166.640   113162826.76609  21534163.180    88178813.58048
  22606208.400   118796487.52909  22606205.760    92568704.89247
  21471170.480   112831768.64309  21471167.000    87920847.21448
  23719839.380   124648626.32409  23719836.640    97128792.13346
  22608098.880   118806403.64509  22608099.020    92576431.78648
  24311501.560   127757784.18708  24311500.600    99551505.92646
  22858025.660   120119705.74409  22858024.180    93599750.12147
 15 02 17 00 48 30.0000000  0  7G16G18G21G22G27G29G31
  21521495.500   113096240.13309  21521492.140    88126927.89248
  22595881.460   118742219.33809  22595878.920    92526418.01847
  21479735.320   112876777.25809  21479731.800    87955918.86548
  23702626.780   124558173.26708  23702623.900    97058309.32546
  22596945.660   118747793.09409  22596945.700    92530761.26648
  24325529.740   127831502.19208  24325528.720    99608948.49946
  22875467.880   120211365.18709  22875466.420    93671173.05147
 15 02 17 00 49  0.0000000  0  7G16G18G21G22G27G29G31
  21508874.920   113029919.27809  21508871.740    88075249.31948
  22585614.060   118688264.01009  22585611.600    92484374.93047
  21488360.100   112922100.98509  21488356.640    87991236.05148
  23685419.800   124467750.43108  23685416.980    96987850.09246
  22585814.440   118689298.12209  22585814.460    92485180.81348
  24339557.840   127905219.79008  24339556.720    99666390.76945
  22892944.640   120303206.02309  22892943.160    93742737.32047
 15 02 17 00 49 30.0000000  0  7G16G18G21G22G27G29G31
  21496305.060   112963864.61709  21496301.960    88023778.16248
  22575406.240   118634621.86409  22575403.780    92442575.88747
  21497044.180   112967736.23309  21497040.760    88026795.98748
  23668218.600   124377358.19808  23668215.780    96917414.71046
  22574704.800   118630916.57009  22574704.760    92439688.73648
  24353585.600   127978935.77008  24353584.380    99723831.78846
  22910454.980   120395223.28909  22910453.420    93814439.02348
 15 02 17 00 50  0.0000000  0  7G16G18G21G22G27G29G31
  21483786.620   112898079.80209  21483783.540    87972517.28448
  22565258.760   118581296.52309  22565256.260    92401023.69646
  21505787.540   113013682.91309  21505784.160    88062598.59548
  23651024.080   124287001.37408  23651021.220    96847006.90446
  22563617.040   118572650.25509  22563616.980    92394286.45847
  24367613.400   128052652.05708  24367612.160    99781273.04546
  22927998.700   120487416.05509  22927997.200    93886277.52547
 15 02 17 00 50 30.0000000  0  7G16G18G21G22G27G29G31
  21471319.480   112832564.27909  21471316.340    87921466.22548
  22555171.620   118528288.16009  22555169.080    92359718.49147
  21514589.300   113059936.39309  21514585.900    88098640.26948
  23633836.200   124196679.45308  23633833.600    96776626.32647
  22552550.680   118514496.14109  22552550.520    92348971.59248
  24381640.620   128126365.50408  24381639.440    99838712.07346
  22945574.660   120579778.41609  22945573.220    93958248.16147
 15 02 17 00 51  0.0000000  0  7G16G18G21G22G27G29G31
  21458904.340   112767321.75609  21458901.100    87870627.90548
  22545145.620   118475600.92509  22545143.000    92318663.52747
  21523449.480   113106496.77109  21523446.080    88134921.09448
  23616655.900   124106397.09008  23616653.480    96706276.56746
  22541505.940   118456455.95608  22541505.780    92303745.52147
  24395667.660   128200077.87808  24395666.400    99896150.27546
  22963182.720   120672309.27509  22963181.360    94030350.09548
 15 02 17 00 51 30.0000000  0  7G16G18G21G22G27G29G31
  21446542.140   112702357.66409  21446538.780    87820006.54248
  22535181.520   118423238.96909  22535178.940    92277862.01947
  21532368.220   113153364.93009  21532364.780    88171441.73548
  23599484.240   124016159.85708  23599481.740    96635961.95146
  22530483.300   118398532.31208  22530483.220    92258610.25948
  24409695.000   128273791.82908  24409693.760    99953589.69746
  22980822.820   120765008.58709  22980821.600    94102583.28047
 15 02 17 00 52  0.0000000  0  7G16G18G21G22G27G29G31
  21434231.800   112637665.96309  21434228.320    87769597.42848
  22525278.320   118371197.33009  22525275.780    92237310.12447
  21541343.520   113200530.51309  21541340.080    88208194.13748
  23582320.120   123925962.26208  23582317.600    96565678.24847
  22519481.440   118340717.22609  22519481.320    92213559.57948
  24423721.080   128347499.56908  24423719.780   100011024.28746
  22998492.840   120857865.00309  22998491.580    94174938.85547
 15 02 17 00 52 30.0000000  0  7G16G18G21G22G27G29G31
  21421975.100   112573256.25209  21421971.520    87719408.05148
  22515437.880   118319485.66909  22515435.300    92197015.34947
  21550376.700   113248000.26509  21550373.220    88245183.56348
  23565165.500   123835814.61708  23565162.960    96495433.46547
  22508501.580   118283017.96409  22508501.520    92168599.15448
  24437747.400   128421208.82508  24437745.920   100068460.07345
  23016193.640   120950883.39809  23016192.420    94247420.71347
 15 02 17 00 53  0.0000000  0  7G16G18G21G22G27G29G31
  21409771.980   112509128.41509  21409768.380    87669438.32048
  22505660.220   118268103.71609  22505657.600    92156977.48647
  21559466.840   113295769.47309  21559463.360    88282406.32448
  23548020.500   123745717.32108  23548017.840    96425227.89246
  22497543.320   118225432.10309  22497543.240    92123727.09448
  24451773.600   128494917.34508  24451772.060   100125895.30045
  23033924.340   121044058.79009  23033923.180    94320024.93747
 15 02 17 00 53 30.0000000  0  7G16G18G21G22G27G29G31
  21397622.360   112445281.68909  21397618.740    87619687.63148
  22495945.020   118217050.55509  22495942.540    92117195.82746
  21568613.100   113343833.52809  21568609.620    88319858.83248
  23530885.080   123655670.14608  23530882.280    96355061.38346
  22486606.180   118167956.78909  22486606.040    92078941.15648
  24465799.080   128568621.97408  24465797.800   100183327.44745
  23051683.740   121137385.02409  23051682.620    94392746.59647
 15 02 17 00 54  0.0000000  0  7G16G18G21G22G27G29G31
  21385527.460   112381722.82109  21385523.920    87570161.24648
  22486293.840   118166333.55109  22486291.340    92077676.10646
  21577815.980   113392195.22009  21577812.500    88357543.27148
